timestamp,TimeUS,Lat,Lng,Alt,RelHomeAlt,RelOriginAlt
1682451313.28044820,10596286,42.707440999999996,-84.4780243,0.3499999940395355,0.3588663935661316,nan
1682451313.38048720,10696325,42.707440999999996,-84.4780243,0.3999999761581421,0.40972933173179626,nan
1682451313.48030925,10796147,42.707440899999995,-84.4780242,0.10999999940395355,0.11020306497812271,nan
1682451313.58030224,10896140,42.7074408,-84.4780242,0.1599999964237213,0.16106601059436798,nan
1682451313.68025112,10996089,42.707440999999996,-84.4780241,0.19999998807907104,0.20062609016895294,nan
1682451313.78025818,11096096,42.707440999999996,-84.4780241,0.09999999403953552,0.10737734287977219,nan
1682451313.88028312,11196121,42.7074411,-84.47802399999999,0.029999999329447746,0.03390863537788391,nan
1682451313.98035502,11296193,42.7074412,-84.47802399999999,0.009999999776482582,0.019780036062002182,nan
1682451314.08048511,11396323,42.7074412,-84.4780239,-0.029999999329447746,-0.039560072124004364,nan
1682451314.18073225,11496570,42.7074412,-84.4780239,0.029999999329447746,0.03390863537788391,nan
1682451314.28074503,11596583,42.7074413,-84.4780239,0.04999999701976776,0.05086295306682587,nan
1682451314.38064623,11696484,42.7074413,-84.4780239,-0.04999999701976776,-0.05086295306682587,nan
1682451314.48062825,11796466,42.7074414,-84.4780238,-0.11999999731779099,-0.12433166056871414,nan
1682451314.58057213,11896410,42.7074414,-84.4780238,0.0,0.0028257195372134447,nan
1682451314.68047905,11996317,42.7074414,-84.4780238,0.029999999329447746,0.031082915142178535,nan
1682451314.78046107,12096299,42.7074414,-84.4780238,0.3499999940395355,0.3560406565666199,nan
1682451314.88054824,12196386,42.707441599999996,-84.4780238,0.17999999225139618,0.1864974945783615,nan
1682451314.98059607,12296434,42.707441599999996,-84.4780238,0.0,0.008477158844470978,nan
1682451315.08075523,12396593,42.707441599999996,-84.4780238,0.28999999165534973,0.29952627420425415,nan
1682451315.18067503,12496513,42.707441599999996,-84.4780238,261.07000732421875,0.19780036807060242,nan
1682451315.28066325,12596501,42.7074417,-84.4780237,261.05999755859375,0.031082915142178535,nan
1682451315.38066220,12696500,42.7074417,-84.4780237,261.05999755859375,-0.06216583028435707,nan
1682451315.48071718,12796555,42.7074417,-84.4780237,261.07000732421875,-0.011302878148853779,nan
1682451315.58064508,12896483,42.7074417,-84.4780237,261.07000732421875,0.12715737521648407,nan
1682451315.68051910,12996357,42.7074419,-84.4780237,261.07000732421875,0.11585450172424316,nan
1682451315.78059721,13096435,42.7074419,-84.4780237,261.07000732421875,0.0,nan
1682451315.88067102,13196509,42.7074421,-84.4780236,261.1000061035156,0.011302878148853779,nan
1682451315.98098707,13296825,42.7074421,-84.4780236,261.1000061035156,0.09607446193695068,nan
1682451316.08088112,13396719,42.7074425,-84.47802349999999,261.1399841308594,0.16106601059436798,nan
1682451316.18085504,13496693,42.7074425,-84.47802349999999,261.1399841308594,-0.022605756297707558,nan
1682451316.28067708,13596515,42.7074427,-84.4780236,261.16998291015625,0.2712690830230713,nan
1682451316.38067102,13696509,42.7074427,-84.4780236,261.16998291015625,0.04803723096847534,nan
1682451316.48055410,13796392,42.7074429,-84.4780236,261.19000244140625,0.11868022382259369,nan
1682451316.58050609,13896344,42.7074429,-84.4780236,261.19000244140625,0.14411169290542603,nan
1682451316.68058825,13996426,42.7074432,-84.4780237,261.2200012207031,0.2401861548423767,nan
1682451316.78065324,14096491,42.7074432,-84.4780237,261.2200012207031,-0.02825719490647316,nan
1682451316.88095522,14196793,42.7074433,-84.4780237,261.2699890136719,-0.05086295306682587,nan
1682451316.98083925,14296677,42.7074433,-84.4780237,261.2699890136719,0.005651439074426889,-0.04809029400348663
1682451317.08089519,14396733,42.7074433,-84.4780238,261.29998779296875,0.022605756297707558,-0.04598533362150192
1682451317.18069410,14496532,42.7074433,-84.4780238,261.29998779296875,0.2288832813501358,-0.04606002941727638
1682451317.28068519,14596523,42.7074435,-84.4780237,261.30999755859375,0.1525888592004776,-0.046187881380319595
1682451317.38056922,14696407,42.7074435,-84.4780237,261.30999755859375,0.13563454151153564,-0.041755761951208115
1682451317.48056412,14796402,42.7074438,-84.4780237,261.32000732421875,0.12715737521648407,-0.03319208323955536
1682451317.58071017,14896548,42.7074438,-84.4780237,261.32000732421875,-0.15824028849601746,-0.02277970500290394
1682451317.68067002,14996508,42.7074439,-84.4780237,261.3399963378906,0.12715737521648407,-0.011335163377225399
1682451317.78075314,15096591,42.7074439,-84.4780237,261.3399963378906,0.059340111911296844,-0.00545073626562953
1682451317.88070703,15196545,42.7074441,-84.4780237,261.3599853515625,0.20345181226730347,-0.00046082574408501387
1682451317.98085022,15296688,42.7074441,-84.4780237,261.3599853515625,0.21192896366119385,0.005549012683331966
1682451318.08073521,15396573,42.7074443,-84.4780238,261.3899841308594,0.16106601059436798,0.014717317186295986
1682451318.18069315,15496531,42.7074443,-84.4780238,261.3899841308594,-0.022605756297707558,0.027920279651880264
1682451318.28056312,15596401,42.7074445,-84.4780238,261.3999938964844,-0.1638917326927185,0.042863599956035614
1682451318.38060904,15696447,42.7074445,-84.4780238,261.3999938964844,0.11868022382259369,0.05448254570364952
1682451318.48059106,15796429,42.707444699999996,-84.4780239,261.42999267578125,0.045211512595415115,0.05854138359427452
1682451318.58065915,15896497,42.707444699999996,-84.4780239,261.42999267578125,0.11302877962589264,0.06168818473815918
1682451318.68077421,15996612,42.7074449,-84.47802399999999,261.4499816894531,0.01412859745323658,0.06573230773210526
1682451318.78085709,16096695,42.7074449,-84.47802399999999,261.4499816894531,0.031082915142178535,0.07105099409818649
1682451318.88086009,16196698,42.7074451,-84.47802399999999,261.4700012207031,0.039560072124004364,0.07589232176542282
1682451318.98069119,16296529,42.7074451,-84.47802399999999,261.4700012207031,0.10737734287977219,0.07963577657938004
1682451319.08073807,16396576,42.707445299999996,-84.4780241,261.47998046875,0.29670053720474243,0.082990862429142
1682451319.18063521,16496473,42.707445299999996,-84.4780241,261.47998046875,-0.08477158844470978,0.08763531595468521
1682451319.28057003,16596408,42.7074454,-84.4780241,261.5099792480469,-0.045211512595415115,0.0981963723897934
1682451319.38060522,16696443,42.7074454,-84.4780241,261.5099792480469,0.03673435375094414,0.10651826113462448
1682451319.48066902,16796507,42.7074455,-84.4780242,261.5099792480469,0.07064298540353775,0.10952015221118927
1682451319.58076215,16896600,42.7074455,-84.4780242,261.5099792480469,0.039560072124004364,0.11101960390806198
1682451319.68098307,16996821,42.7074456,-84.4780242,261.5400085449219,0.15541458129882812,0.11307188868522644
1682451319.78086805,17096706,42.7074456,-84.4780242,261.5400085449219,0.0,0.11514585465192795
1682451319.88068509,17196523,42.7074457,-84.4780243,261.57000732421875,0.14693741500377655,0.119557224214077
1682451319.98068523,17296523,42.7074457,-84.4780243,261.57000732421875,0.01412859745323658,0.123337522149086
1682451320.08069921,17396537,42.707445799999995,-84.4780243,261.5799865722656,0.183671772480011,0.12818601727485657
1682451320.18057013,17496408,42.707445799999995,-84.4780243,261.5799865722656,-0.06781727075576782,0.13231384754180908
1682451320.28060007,17596438,42.707445899999996,-84.4780243,261.5899963378906,0.12150593847036362,0.13821282982826233
1682451320.38066411,17696502,42.707445899999996,-84.4780243,261.5899963378906,0.18084605038166046,0.14127640426158905
1682451320.48076606,17796604,42.707446,-84.4780244,261.6000061035156,0.2288832813501358,0.14369051158428192
1682451320.58073306,17896571,42.707446,-84.4780244,261.6000061035156,-0.05651438981294632,0.14942234754562378
1682451320.68071318,17996551,42.707446,-84.47802449999999,261.6199951171875,0.1412859708070755,0.1592242568731308
1682451320.78069615,18096534,42.707446,-84.47802449999999,261.6199951171875,0.07346870750188828,0.16538800299167633
1682451320.88087511,18196713,42.707446,-84.47802449999999,261.6300048828125,0.02825719490647316,0.1699782907962799
1682451320.98057914,18296417,42.707446,-84.47802449999999,261.6300048828125,0.019780036062002182,0.17415444552898407
1682451321.08061719,18396455,42.7074461,-84.4780246,261.6499938964844,0.09607446193695068,0.17579519748687744
1682451321.18062210,18496460,42.7074461,-84.4780246,261.6499938964844,0.09890018403530121,0.17471732199192047
1682451321.28067613,18596514,42.7074462,-84.47802469999999,261.67999267578125,0.005651439074426889,0.1733083575963974
1682451321.38094711,18696785,42.7074462,-84.47802469999999,261.67999267578125,0.025431476533412933,0.1728638857603073
1682451321.48082423,18796662,42.7074463,-84.47802469999999,261.69000244140625,0.008477158844470978,0.1707117110490799
1682451321.58086610,18896704,42.7074463,-84.47802469999999,261.69000244140625,0.04238579422235489,0.16659121215343475
1682451321.68084502,18996683,42.707446399999995,-84.47802469999999,261.72998046875,0.03390863537788391,0.1605258733034134
1682451321.78094625,19096784,42.707446399999995,-84.47802469999999,261.72998046875,0.17236889898777008,0.15423810482025146
1682451321.88082910,19196667,42.707446399999995,-84.47802469999999,261.72998046875,0.22040612995624542,0.14794489741325378
1682451321.98080826,19296646,42.707446399999995,-84.47802469999999,261.72998046875,0.09042302519083023,0.14567795395851135
1682451322.08094120,19396779,42.707446499999996,-84.4780248,261.75,0.059340111911296844,0.148683100938797
1682451322.18120718,19497045,42.707446499999996,-84.4780248,261.75,0.29952627420425415,0.15197570621967316
1682451322.28099322,19596831,42.707446499999996,-84.4780248,261.7599792480469,0.08477158844470978,0.1537124514579773
1682451322.38069725,19696535,42.707446499999996,-84.4780248,261.7599792480469,0.06216583028435707,0.1606864631175995
1682451322.48086810,19796706,42.7074466,-84.4780249,261.7799987792969,0.05651438981294632,0.16700658202171326
1682451322.58086205,19896700,42.7074466,-84.4780249,261.7799987792969,0.23736044764518738,0.1704820692539215
1682451322.68088102,19996719,42.7074467,-84.4780249,261.7900085449219,0.04803723096847534,0.17134802043437958
1682451322.78087616,20096714,42.7074467,-84.4780249,261.7900085449219,0.07912014424800873,0.17519237101078033
1682451322.88082504,20196663,42.7074468,-84.4780249,261.79998779296875,0.12715737521648407,0.1772364377975464
1682451322.98092914,20296767,42.7074468,-84.4780249,261.79998779296875,-0.016954317688941956,0.1772904098033905
1682451323.08128119,20397119,42.7074469,-84.4780249,261.79998779296875,0.13846026360988617,0.17746606469154358
1682451323.18098807,20496826,42.7074469,-84.4780249,261.79998779296875,0.022605756297707558,0.17533476650714874
1682451323.28070903,20596547,42.707446999999995,-84.478025,261.82000732421875,-0.07346870750188828,0.17238649725914001
1682451323.38067722,20696515,42.707446999999995,-84.478025,261.82000732421875,0.022605756297707558,0.16853469610214233
1682451323.48068523,20796523,42.707446999999995,-84.4780251,261.8299865722656,0.10172590613365173,0.16063740849494934
1682451323.58067513,20896513,42.707446999999995,-84.4780251,261.8299865722656,0.2740947902202606,0.15101806819438934
1682451323.68062305,20996461,42.707447099999996,-84.478025,261.8599853515625,0.327783465385437,0.14315664768218994
1682451323.78057003,21096408,42.707447099999996,-84.478025,261.8599853515625,0.18084605038166046,0.14127016067504883
1682451323.88070226,21196540,42.7074472,-84.4780251,261.8699951171875,0.11020306497812271,0.1466551423072815
1682451323.98069310,21296531,42.7074472,-84.4780251,261.8699951171875,0.24301187694072723,0.15446583926677704
1682451324.08083725,21396675,42.7074473,-84.478025,261.8999938964844,0.12715737521648407,0.1607871651649475
1682451324.18069816,21496536,42.7074473,-84.478025,261.8999938964844,-0.016954317688941956,0.1678917109966278
1682451324.28085613,21596694,42.7074475,-84.478025,261.94000244140625,0.09324874728918076,0.17435935139656067
1682451324.38069916,21696537,42.7074475,-84.478025,261.94000244140625,0.02825719490647316,0.176005020737648
1682451324.48067021,21796508,42.707447599999995,-84.478025,261.92999267578125,0.08477158844470978,0.17484600841999054
1682451324.58057213,21896410,42.707447599999995,-84.478025,261.92999267578125,0.1525888592004776,0.17149779200553894
1682451324.68056822,21996406,42.707447599999995,-84.478025,261.9499816894531,-0.011302878148853779,0.1671406775712967
1682451324.78061104,22096449,42.707447599999995,-84.478025,261.9499816894531,0.17802032828330994,0.1641116440296173
1682451324.88067913,22196517,42.7074478,-84.4780251,261.9700012207031,0.04238579422235489,0.15940681099891663
1682451324.98078012,22296618,42.7074478,-84.4780251,261.9700012207031,0.08194586634635925,0.1557103395462036
1682451325.08078218,22396620,42.7074479,-84.4780251,261.97998046875,-0.09042302519083023,0.1520175337791443
1682451325.18067002,22496508,42.7074479,-84.4780251,261.97998046875,0.11868022382259369,0.14787930250167847
1682451325.28068519,22596523,42.707448,-84.4780251,261.989990234375,-0.009567638859152794,-0.009567638859152794
1682451325.38067508,22696513,42.707448,-84.4780251,261.989990234375,-0.016776761040091515,-0.016776761040091515
1682451325.48057318,22796411,42.7074481,-84.4780251,262.0,-0.026310494169592857,-0.026310494169592857
1682451325.58085108,22896689,42.7074481,-84.4780251,262.0,-0.041755467653274536,-0.041755467653274536
1682451325.68092513,22996763,42.7074484,-84.478025,262.05999755859375,-0.05402325838804245,-0.05402325838804245
1682451325.78070521,23096543,42.7074484,-84.478025,262.05999755859375,-0.06331456452608109,-0.06331456452608109
1682451325.88079619,23196634,42.7074484,-84.478025,262.0299987792969,-0.0726521760225296,-0.0726521760225296
1682451325.98075724,23296595,42.7074484,-84.478025,262.0299987792969,-0.08367924392223358,-0.08367924392223358
1682451326.08085608,23396694,42.7074484,-84.4780251,262.0400085449219,-0.09410080313682556,-0.09410080313682556
1682451326.18084502,23496683,42.7074484,-84.4780251,262.0400085449219,-0.09961601346731186,-0.09961601346731186
1682451326.28082919,23596667,42.7074484,-84.4780251,262.0299987792969,-0.10479015856981277,-0.10479015856981277
1682451326.38084722,23696685,42.7074484,-84.4780251,262.0299987792969,-0.1126207783818245,-0.1126207783818245
1682451326.48083925,23796677,42.7074484,-84.4780251,262.0400085449219,-0.12174982577562332,-0.12174982577562332
1682451326.58095908,23896797,42.7074484,-84.4780251,262.0400085449219,-0.13123278319835663,-0.13123278319835663
1682451326.68069911,23996537,42.7074484,-84.4780251,262.0400085449219,-0.13864345848560333,-0.13864345848560333
1682451326.78078222,24096620,42.7074484,-84.4780251,262.0400085449219,-0.14656996726989746,-0.14656996726989746
1682451326.88066912,24196507,42.7074484,-84.4780251,262.0199890136719,-0.15110722184181213,-0.15110722184181213
1682451326.98069024,24296528,42.7074484,-84.4780251,262.0199890136719,-0.15196505188941956,-0.15196505188941956
1682451327.08072209,24396560,42.7074484,-84.4780251,262.0,-0.15197685360908508,-0.15197685360908508
1682451327.18068624,24496524,42.7074484,-84.4780251,262.0,-0.14708255231380463,-0.14708255231380463
1682451327.28057408,24596412,42.707448299999996,-84.47802519999999,261.989990234375,-0.1386491060256958,-0.1386491060256958
1682451327.38061619,24696454,42.707448299999996,-84.47802519999999,261.989990234375,-0.1332184225320816,-0.1332184225320816
1682451327.48061109,24796449,42.707448199999995,-84.47802519999999,261.9599914550781,-0.12957094609737396,-0.12957094609737396
1682451327.58069205,24896530,42.707448199999995,-84.47802519999999,261.9599914550781,-0.1248135194182396,-0.1248135194182396
1682451327.68100405,24996842,42.707448199999995,-84.47802519999999,261.9599914550781,-0.12181335687637329,-0.12181335687637329
1682451327.78066015,25096498,42.707448199999995,-84.47802519999999,261.9599914550781,-0.11908908188343048,-0.11908908188343048
1682451327.88068008,25196518,42.707448199999995,-84.47802519999999,261.9700012207031,-0.11308574676513672,-0.11308574676513672
1682451327.98067617,25296514,42.707448199999995,-84.47802519999999,261.9700012207031,-0.11018335819244385,-0.11018335819244385
1682451328.08082819,25396666,42.707448299999996,-84.4780253,261.9700012207031,-0.11164138466119766,-0.11164138466119766
1682451328.18062615,25496464,42.707448299999996,-84.4780253,261.9700012207031,-0.11307182908058167,-0.11307182908058167
1682451328.28056622,25596404,42.707448299999996,-84.4780253,261.989990234375,-0.1137089803814888,-0.1137089803814888
1682451328.38063216,25696470,42.707448299999996,-84.4780253,261.989990234375,-0.11374671757221222,-0.11374671757221222
1682451328.48067808,25796516,42.707448299999996,-84.4780253,261.989990234375,-0.11361725628376007,-0.11361725628376007
1682451328.58099413,25896832,42.707448299999996,-84.4780253,261.989990234375,-0.11522481590509415,-0.11522481590509415
1682451328.68070817,25996546,42.707448299999996,-84.4780253,261.97998046875,-0.1197403073310852,-0.1197403073310852
1682451328.78067803,26096516,42.707448299999996,-84.4780253,261.97998046875,-0.12654609978199005,-0.12654609978199005
1682451328.88069320,26196531,42.7074484,-84.4780253,261.989990234375,-0.13081946969032288,-0.13081946969032288
1682451328.98068118,26296519,42.7074484,-84.4780253,261.989990234375,-0.13328933715820312,-0.13328933715820312
1682451329.08067822,26396516,42.707448299999996,-84.47802539999999,261.989990234375,-0.13372930884361267,-0.13372930884361267
1682451329.18058109,26496419,42.707448299999996,-84.47802539999999,261.989990234375,-0.13256321847438812,-0.13256321847438812
1682451329.28060508,26596443,42.707448299999996,-84.47802539999999,261.97998046875,-0.13093793392181396,-0.13093793392181396
1682451329.38067913,26696517,42.707448299999996,-84.47802539999999,261.97998046875,-0.12633806467056274,-0.12633806467056274
1682451329.48102903,26796867,42.707448299999996,-84.47802539999999,262.0099792480469,-0.11920511722564697,-0.11920511722564697
1682451329.58084917,26896687,42.707448299999996,-84.47802539999999,262.0099792480469,-0.11659932136535645,-0.11659932136535645
1682451329.68087125,26996709,42.7074484,-84.47802539999999,261.989990234375,-0.11439181864261627,-0.11439181864261627
1682451329.78086424,27096702,42.7074484,-84.47802539999999,261.989990234375,-0.1134757250547409,-0.1134757250547409
1682451329.88086605,27196704,42.707448299999996,-84.47802539999999,261.97998046875,-0.11375613510608673,-0.11375613510608673
1682451329.98062515,27296463,42.707448299999996,-84.47802539999999,261.97998046875,-0.11323712766170502,-0.11323712766170502
1682451330.08062005,27396458,42.707448299999996,-84.47802539999999,261.9700012207031,-0.1117880791425705,-0.1117880791425705
1682451330.18071914,27496557,42.707448299999996,-84.47802539999999,261.9700012207031,-0.1130559965968132,-0.1130559965968132
1682451330.28066611,27596504,42.7074485,-84.47802539999999,261.989990234375,-0.11636997759342194,-0.11636997759342194
1682451330.38077903,27696617,42.7074485,-84.47802539999999,261.989990234375,-0.11649705469608307,-0.11649705469608307
1682451330.48069525,27796533,42.7074487,-84.47802539999999,261.989990234375,-0.11689693480730057,-0.11689693480730057
1682451330.58072209,27896560,42.7074487,-84.47802539999999,261.989990234375,-0.11691725254058838,-0.11691725254058838
1682451330.68069816,27996536,42.707448899999996,-84.47802539999999,262.0,-0.11500873416662216,-0.11500873416662216
1682451330.78067803,28096516,42.707448899999996,-84.47802539999999,262.0,-0.11306333541870117,-0.11306333541870117
1682451330.88057303,28196411,42.707449,-84.47802539999999,261.989990234375,-0.11172252893447876,-0.11172252893447876
1682451330.98090315,28296741,42.707449,-84.47802539999999,261.989990234375,-0.10927977412939072,-0.10927977412939072
1682451331.08095813,28396796,42.7074492,-84.4780255,262.0,-0.10737527906894684,-0.10737527906894684
1682451331.18068409,28496522,42.7074492,-84.4780255,262.0,-0.104078508913517,-0.104078508913517
1682451331.28076315,28596601,42.7074492,-84.47802539999999,262.0,-0.10079081356525421,-0.10079081356525421
1682451331.38068819,28696526,42.7074492,-84.47802539999999,262.0,-0.1036691814661026,-0.1036691814661026
1682451331.48069119,28796529,42.7074493,-84.4780255,262.0099792480469,-0.10703850537538528,-0.10703850537538528
1682451331.58071208,28896550,42.7074493,-84.4780255,262.0099792480469,-0.11120154708623886,-0.11120154708623886
1682451331.68068123,28996519,42.7074493,-84.4780255,262.0299987792969,-0.11449412256479263,-0.11449412256479263
1682451331.78057408,29096412,42.7074493,-84.4780255,262.0299987792969,-0.11540074646472931,-0.11540074646472931
1682451331.88084602,29196684,42.707449499999996,-84.4780256,262.0400085449219,-0.11911262571811676,-0.11911262571811676
1682451331.98061705,29296455,42.707449499999996,-84.4780256,262.0400085449219,-0.12355446070432663,-0.12355446070432663
1682451332.08071423,29396552,42.7074496,-84.4780256,262.04998779296875,-0.1283210813999176,-0.1283210813999176
1682451332.18078518,29496623,42.7074496,-84.4780256,262.04998779296875,-0.13354814052581787,-0.13354814052581787
1682451332.28086209,29596700,42.7074496,-84.4780256,262.04998779296875,-0.1378839910030365,-0.1378839910030365
1682451332.38083124,29696669,42.7074496,-84.4780256,262.04998779296875,-0.1371452808380127,-0.1371452808380127
1682451332.48083520,29796673,42.7074497,-84.4780256,262.05999755859375,-0.13780945539474487,-0.13780945539474487
1682451332.58083916,29896677,42.7074497,-84.4780256,262.05999755859375,-0.13698245584964752,-0.13698245584964752
1682451332.68086720,29996705,42.7074498,-84.4780256,262.07000732421875,-0.13481824100017548,-0.13481824100017548
1682451332.78107119,30096909,42.7074498,-84.4780256,262.07000732421875,-0.13222867250442505,-0.13222867250442505
1682451332.88082004,30196658,42.7074499,-84.47802569999999,262.0799865722656,-0.12799689173698425,-0.12799689173698425
1682451332.98087621,30296714,42.7074499,-84.47802569999999,262.0799865722656,-0.12628071010112762,-0.12628071010112762
1682451333.08100510,30396843,42.70745,-84.47802569999999,262.1000061035156,-0.12536829710006714,-0.12536829710006714
1682451333.18084407,30496682,42.70745,-84.47802569999999,262.1000061035156,-0.12680569291114807,-0.12680569291114807
1682451333.28083825,30596676,42.7074502,-84.4780258,262.1000061035156,-0.12868785858154297,-0.12868785858154297
1682451333.38067722,30696515,42.7074502,-84.4780258,262.1000061035156,-0.1300131380558014,-0.1300131380558014
1682451333.48066306,30796501,42.7074503,-84.47802589999999,262.1199951171875,-0.13128796219825745,-0.13128796219825745
1682451333.58056307,30896401,42.7074503,-84.47802589999999,262.1199951171875,-0.1337713748216629,-0.1337713748216629
1682451333.68057323,30996411,42.7074504,-84.478026,262.1300048828125,-0.1337188184261322,-0.1337188184261322
1682451333.78061104,31096449,42.7074504,-84.478026,262.1300048828125,-0.13440309464931488,-0.13440309464931488
1682451333.88067818,31196516,42.7074505,-84.478026,262.1499938964844,-0.13585259020328522,-0.13585259020328522
1682451333.98076606,31296604,42.7074505,-84.478026,262.1499938964844,-0.14243711531162262,-0.14243711531162262
1682451334.08071923,31396557,42.707450699999995,-84.4780261,262.19000244140625,-0.14924369752407074,-0.14924369752407074
1682451334.18069220,31496530,42.707450699999995,-84.4780261,262.19000244140625,-0.15684232115745544,-0.15684232115745544
1682451334.28068423,31596522,42.7074508,-84.4780261,262.1999816894531,-0.16524741053581238,-0.16524741053581238
1682451334.38098502,31696823,42.7074508,-84.4780261,262.1999816894531,-0.17018789052963257,-0.17018789052963257
1682451334.48057413,31796412,42.707451,-84.4780262,262.239990234375,-0.17499123513698578,-0.17499123513698578
1682451334.58056712,31896405,42.707451,-84.4780262,262.239990234375,-0.18096037209033966,-0.18096037209033966
1682451334.68059325,31996431,42.7074511,-84.4780263,262.2699890136719,-0.18589262664318085,-0.18589262664318085
1682451334.78065610,32096494,42.7074511,-84.4780263,262.2699890136719,-0.19033336639404297,-0.19033336639404297
1682451334.88075113,32196589,42.707451299999995,-84.47802639999999,262.2799987792969,-0.19261913001537323,-0.19261913001537323
1682451334.98066807,32296506,42.707451299999995,-84.47802639999999,262.2799987792969,-0.1955643594264984,-0.1955643594264984
1682451335.08070326,32396541,42.7074515,-84.4780265,262.3299865722656,-0.1990203857421875,-0.1990203857421875
1682451335.18068314,32496521,42.7074515,-84.4780265,262.3299865722656,-0.20108795166015625,-0.20108795166015625
1682451335.28085017,32596688,42.7074517,-84.4780265,262.3299865722656,-0.2033507376909256,-0.2033507376909256
1682451335.38086915,32696707,42.7074517,-84.4780265,262.3299865722656,-0.2048773169517517,-0.2048773169517517
1682451335.48084712,32796685,42.7074518,-84.4780265,262.3800048828125,-0.20784270763397217,-0.20784270763397217
1682451335.58092523,32896763,42.7074518,-84.4780265,262.3800048828125,-0.21084316074848175,-0.21084316074848175
1682451335.68088317,32996721,42.707451899999995,-84.47802659999999,262.3800048828125,-0.21347203850746155,-0.21347203850746155
1682451335.78097105,33096809,42.707451899999995,-84.47802659999999,262.3800048828125,-0.2134387344121933,-0.2134387344121933
1682451335.88087320,33196711,42.707451999999996,-84.47802659999999,262.3999938964844,-0.21267962455749512,-0.21267962455749512
1682451335.98085523,33296693,42.707451999999996,-84.47802659999999,262.3999938964844,-0.2129131257534027,-0.2129131257534027
1682451336.08094120,33396779,42.707451999999996,-84.4780267,262.41998291015625,-0.21599599719047546,-0.21599599719047546
1682451336.18113208,33496970,42.707451999999996,-84.4780267,262.41998291015625,-0.21712766587734222,-0.21712766587734222
1682451336.28088522,33596723,42.707451899999995,-84.4780268,262.44000244140625,-0.21613948047161102,-0.21613948047161102
1682451336.38084221,33696680,42.707451899999995,-84.4780268,262.44000244140625,-0.21174368262290955,-0.21174368262290955
1682451336.48098207,33796820,42.707451899999995,-84.4780269,262.4499816894531,-0.20710645616054535,-0.20710645616054535
1682451336.58086205,33896700,42.707451899999995,-84.4780269,262.4499816894531,-0.2015693336725235,-0.2015693336725235
1682451336.68097305,33996811,42.707451899999995,-84.478027,262.4700012207031,-0.1975257843732834,-0.1975257843732834
1682451336.78084421,34096682,42.707451899999995,-84.478027,262.4700012207031,-0.19605065882205963,-0.19605065882205963
1682451336.88082218,34196660,42.707451899999995,-84.47802709999999,262.489990234375,-0.19412504136562347,-0.19412504136562347
1682451336.98084903,34296687,42.707451899999995,-84.47802709999999,262.489990234375,-0.19285498559474945,-0.19285498559474945
1682451337.08117509,34397013,42.707451899999995,-84.4780272,262.5199890136719,-0.19134443998336792,-0.19134443998336792
1682451337.18087411,34496712,42.707451899999995,-84.4780272,262.5199890136719,-0.1883743554353714,-0.1883743554353714
1682451337.28093314,34596771,42.707451899999995,-84.4780273,262.5299987792969,-0.1820978820323944,-0.1820978820323944
1682451337.38087511,34696713,42.707451899999995,-84.4780273,262.5299987792969,-0.17594864964485168,-0.17594864964485168
1682451337.48067307,34796511,42.707451999999996,-84.4780274,262.55999755859375,-0.17120906710624695,-0.17120906710624695
1682451337.58076215,34896600,42.707451999999996,-84.4780274,262.55999755859375,-0.16651588678359985,-0.16651588678359985
1682451337.68068624,34996524,42.7074521,-84.4780275,262.55999755859375,-0.16070473194122314,-0.16070473194122314
1682451337.78065920,35096497,42.7074521,-84.4780275,262.55999755859375,-0.15637148916721344,-0.15637148916721344
1682451337.88067007,35196508,42.7074521,-84.47802759999999,262.57000732421875,-0.15141931176185608,-0.15141931176185608
1682451337.98067117,35296509,42.7074521,-84.47802759999999,262.57000732421875,-0.14744088053703308,-0.14744088053703308
1682451338.08065915,35396497,42.7074521,-84.4780277,262.5899963378906,-0.14390239119529724,-0.14390239119529724
1682451338.18083620,35496674,42.7074521,-84.4780277,262.5899963378906,-0.14115706086158752,-0.14115706086158752
1682451338.28082705,35596665,42.707451999999996,-84.4780279,262.6000061035156,-0.14005756378173828,-0.14005756378173828
1682451338.38067007,35696508,42.707451999999996,-84.4780279,262.6000061035156,-0.14012165367603302,-0.14012165367603302
1682451338.48075914,35796597,42.707451999999996,-84.478028,262.6099853515625,-0.1423049122095108,-0.1423049122095108
1682451338.58072519,35896563,42.707451999999996,-84.478028,262.6099853515625,-0.14342910051345825,-0.14342910051345825
1682451338.68066621,35996504,42.707451999999996,-84.4780281,262.6099853515625,-0.14449550211429596,-0.14449550211429596
1682451338.78067517,36096513,42.707451999999996,-84.4780281,262.6099853515625,-0.1465388536453247,-0.1465388536453247
1682451338.88067317,36196511,42.707451999999996,-84.4780282,262.6199951171875,-0.1478869915008545,-0.1478869915008545
1682451338.98056817,36296406,42.707451999999996,-84.4780282,262.6199951171875,-0.14832746982574463,-0.14832746982574463
1682451339.08098722,36396825,42.707451999999996,-84.4780282,262.6300048828125,-0.14671646058559418,-0.14671646058559418
1682451339.18088913,36496727,42.707451999999996,-84.4780282,262.6300048828125,-0.14466731250286102,-0.14466731250286102
1682451339.28068519,36596523,42.707451899999995,-84.47802829999999,262.6399841308594,-0.1430409699678421,-0.1430409699678421
1682451339.38074803,36696586,42.707451899999995,-84.47802829999999,262.6399841308594,-0.14194558560848236,-0.14194558560848236
1682451339.48067212,36796510,42.7074518,-84.4780284,262.6499938964844,-0.1412891149520874,-0.1412891149520874
1682451339.58083916,36896677,42.7074518,-84.4780284,262.6499938964844,-0.13698109984397888,-0.13698109984397888
1682451339.68083310,36996671,42.7074518,-84.4780285,262.67999267578125,-0.13332359492778778,-0.13332359492778778
1682451339.78083420,37096672,42.7074518,-84.4780285,262.67999267578125,-0.13242794573307037,-0.13242794573307037
1682451339.88081217,37196650,42.7074518,-84.4780285,262.6999816894531,-0.1313415914773941,-0.1313415914773941
1682451339.98083806,37296676,42.7074518,-84.4780285,262.6999816894531,-0.12911397218704224,-0.12911397218704224
1682451340.08095407,37396792,42.7074517,-84.4780286,262.7099914550781,-0.126982644200325,-0.126982644200325
1682451340.18066907,37496507,42.7074517,-84.4780286,262.7099914550781,-0.1268243044614792,-0.1268243044614792
1682451340.28078103,37596619,42.7074517,-84.4780287,262.72998046875,-0.1264732927083969,-0.1264732927083969
1682451340.38069510,37696533,42.7074517,-84.4780287,262.72998046875,-0.12561367452144623,-0.12561367452144623
1682451340.48070502,37796543,42.7074516,-84.47802879999999,262.72998046875,-0.12217898666858673,-0.12217898666858673
1682451340.58067918,37896517,42.7074516,-84.47802879999999,262.72998046875,-0.11846774816513062,-0.11846774816513062
1682451340.68078017,37996618,42.7074516,-84.47802879999999,262.75,-0.11472634226083755,-0.11472634226083755
1682451340.78056216,38096400,42.7074516,-84.47802879999999,262.75,-0.11198949813842773,-0.11198949813842773
1682451340.88050723,38196345,42.7074516,-84.4780289,262.7699890136719,-0.1092488020658493,-0.1092488020658493
1682451340.98058319,38296421,42.7074516,-84.4780289,262.7699890136719,-0.10640715062618256,-0.10640715062618256
1682451341.08084106,38396679,42.7074515,-84.47802899999999,262.7799987792969,-0.10412060469388962,-0.10412060469388962
1682451341.18096805,38496806,42.7074515,-84.47802899999999,262.7799987792969,-0.10476744920015335,-0.10476744920015335
1682451341.28068209,38596520,42.7074515,-84.4780291,262.79998779296875,-0.10611137747764587,-0.10611137747764587
1682451341.38067412,38696512,42.7074515,-84.4780291,262.79998779296875,-0.10890582203865051,-0.10890582203865051
1682451341.48067904,38796517,42.7074516,-84.4780291,262.82000732421875,-0.11306183785200119,-0.11306183785200119
1682451341.58068204,38896520,42.7074516,-84.4780291,262.82000732421875,-0.11724793165922165,-0.11724793165922165
1682451341.68056703,38996405,42.7074516,-84.4780292,262.8299865722656,-0.12125042080879211,-0.12125042080879211
1682451341.78051519,39096353,42.7074516,-84.4780292,262.8299865722656,-0.12281849980354309,-0.12281849980354309
1682451341.88060808,39196446,42.7074515,-84.4780293,262.8399963378906,-0.1236698180437088,-0.1236698180437088
1682451341.98066711,39296505,42.7074515,-84.4780293,262.8399963378906,-0.12619878351688385,-0.12619878351688385
1682451342.08084416,39396682,42.7074515,-84.4780294,262.8599853515625,-0.12916764616966248,-0.12916764616966248
1682451342.18071914,39496557,42.7074515,-84.4780294,262.8599853515625,-0.13258859515190125,-0.13258859515190125
1682451342.28070402,39596542,42.7074515,-84.47802949999999,262.8800048828125,-0.1345783770084381,-0.1345783770084381
1682451342.38068819,39696526,42.7074515,-84.47802949999999,262.8800048828125,-0.13540001213550568,-0.13540001213550568
1682451342.48068309,39796521,42.7074516,-84.4780296,262.8999938964844,-0.13597077131271362,-0.13597077131271362
1682451342.58065009,39896488,42.7074516,-84.4780296,262.8999938964844,-0.13584761321544647,-0.13584761321544647
1682451342.68054914,39996387,42.7074516,-84.4780297,262.9100036621094,-0.13531896471977234,-0.13531896471977234
1682451342.78064203,40096480,42.7074516,-84.4780297,262.9100036621094,-0.13501261174678802,-0.13501261174678802
1682451342.88065314,40196491,42.7074516,-84.4780298,262.92999267578125,-0.13580653071403503,-0.13580653071403503
1682451342.98101020,40296848,42.7074516,-84.4780298,262.92999267578125,-0.13589569926261902,-0.13589569926261902
1682451343.08094907,40396787,42.7074516,-84.4780299,262.9599914550781,-0.1340365707874298,-0.1340365707874298
1682451343.18087125,40496709,42.7074516,-84.4780299,262.9599914550781,-0.13207045197486877,-0.13207045197486877
1682451343.28086805,40596706,42.7074516,-84.47802999999999,262.97998046875,-0.13029934465885162,-0.13029934465885162
1682451343.38085818,40696696,42.7074516,-84.47802999999999,262.97998046875,-0.12940610945224762,-0.12940610945224762
1682451343.48087215,40796710,42.7074517,-84.4780301,263.0,-0.12970668077468872,-0.12970668077468872
1682451343.58084702,40896685,42.7074517,-84.4780301,263.0,-0.13025493919849396,-0.13025493919849396
1682451343.68094516,40996783,42.7074517,-84.47803019999999,263.0099792480469,-0.13146859407424927,-0.13146859407424927
1682451343.78088021,41096718,42.7074517,-84.47803019999999,263.0099792480469,-0.1341635286808014,-0.1341635286808014
1682451343.88097906,41196817,42.7074517,-84.47803019999999,263.0199890136719,-0.1354103684425354,-0.1354103684425354
1682451343.98089314,41296731,42.7074517,-84.47803019999999,263.0199890136719,-0.13646076619625092,-0.13646076619625092
1682451344.08096623,41396804,42.7074517,-84.4780304,263.0400085449219,-0.13896490633487701,-0.13896490633487701
1682451344.18077326,41496611,42.7074517,-84.4780304,263.0400085449219,-0.14298789203166962,-0.14298789203166962
1682451344.28067708,41596515,42.7074517,-84.4780305,263.0400085449219,-0.14596004784107208,-0.14596004784107208
1682451344.38055706,41696395,42.7074517,-84.4780305,263.0400085449219,-0.14780017733573914,-0.14780017733573914
1682451344.48059011,41796428,42.7074517,-84.4780306,263.07000732421875,-0.14908777177333832,-0.14908777177333832
1682451344.58058619,41896424,42.7074517,-84.4780306,263.07000732421875,-0.14834098517894745,-0.14834098517894745
1682451344.68068814,41996526,42.7074517,-84.4780306,263.0899963378906,-0.14659108221530914,-0.14659108221530914
1682451344.78077912,42096617,42.7074517,-84.4780306,263.0899963378906,-0.14420993626117706,-0.14420993626117706
1682451344.88074517,42196583,42.7074517,-84.47803069999999,263.1099853515625,-0.1443118304014206,-0.1443118304014206
1682451344.98068714,42296525,42.7074517,-84.47803069999999,263.1099853515625,-0.14499732851982117,-0.14499732851982117
1682451345.08073020,42396568,42.7074516,-84.4780308,263.1399841308594,-0.14604471623897552,-0.14604471623897552
1682451345.18067908,42496517,42.7074516,-84.4780308,263.1399841308594,-0.1485605090856552,-0.1485605090856552
1682451345.28055906,42596397,42.7074516,-84.4780308,263.1499938964844,-0.14907605946063995,-0.14907605946063995
1682451345.38083816,42696676,42.7074516,-84.4780308,263.1499938964844,-0.14717257022857666,-0.14717257022857666
1682451345.48062706,42796465,42.7074516,-84.4780309,263.1600036621094,-0.14287877082824707,-0.14287877082824707
1682451345.58072615,42896564,42.7074516,-84.4780309,263.1600036621094,-0.13936260342597961,-0.13936260342597961
1682451345.68079710,42996635,42.7074517,-84.478031,263.17999267578125,-0.13569118082523346,-0.13569118082523346
1682451345.78069925,43096537,42.7074517,-84.478031,263.17999267578125,-0.13038085401058197,-0.13038085401058197
1682451345.88068604,43196524,42.7074517,-84.478031,263.19000244140625,-0.12494903802871704,-0.12494903802871704
1682451345.98068810,43296526,42.7074517,-84.478031,263.19000244140625,-0.1186298057436943,-0.1186298057436943
1682451346.08074307,43396581,42.7074517,-84.4780311,263.1999816894531,-0.11344427615404129,-0.11344427615404129
1682451346.18061709,43496455,42.7074517,-84.4780311,263.1999816894531,-0.10894079506397247,-0.10894079506397247
1682451346.28083706,43596675,42.7074517,-84.4780311,263.2200012207031,-0.10619299858808517,-0.10619299858808517
1682451346.38058710,43696425,42.7074517,-84.4780311,263.2200012207031,-0.10409662872552872,-0.10409662872552872
1682451346.48068023,43796518,42.7074516,-84.47803119999999,263.239990234375,-0.10125216096639633,-0.10125216096639633
1682451346.58076310,43896601,42.7074516,-84.47803119999999,263.239990234375,-0.09915289282798767,-0.09915289282798767
1682451346.68068719,43996525,42.7074516,-84.4780313,263.2599792480469,-0.09956081956624985,-0.09956081956624985
1682451346.78067708,44096515,42.7074516,-84.4780313,263.2599792480469,-0.10025439411401749,-0.10025439411401749
1682451346.88066316,44196501,42.7074516,-84.4780313,263.2799987792969,-0.09835400432348251,-0.09835400432348251
1682451346.98074508,44296583,42.7074516,-84.4780313,263.2799987792969,-0.09572562575340271,-0.09572562575340271
1682451347.08068609,44396524,42.7074516,-84.47803139999999,263.30999755859375,-0.09605976194143295,-0.09605976194143295
1682451347.18084311,44496681,42.7074516,-84.47803139999999,263.30999755859375,-0.09889310598373413,-0.09889310598373413
1682451347.28092813,44596766,42.7074515,-84.47803139999999,263.3500061035156,-0.10151802748441696,-0.10151802748441696
1682451347.38089824,44696736,42.7074515,-84.47803139999999,263.3500061035156,-0.10579142719507217,-0.10579142719507217
1682451347.48101115,44796849,42.7074515,-84.4780315,263.3599853515625,-0.11116079241037369,-0.11116079241037369
1682451347.58071423,44896552,42.7074515,-84.4780315,263.3599853515625,-0.11731546372175217,-0.11731546372175217
1682451347.68083906,44996677,42.7074515,-84.4780315,263.3899841308594,-0.12158267945051193,-0.12158267945051193
1682451347.78080511,45096643,42.7074515,-84.4780315,263.3899841308594,-0.1220327690243721,-0.1220327690243721
1682451347.88082814,45196666,42.7074515,-84.4780316,263.41998291015625,-0.12058894336223602,-0.12058894336223602
1682451347.98082018,45296658,42.7074515,-84.4780316,263.41998291015625,-0.1190929189324379,-0.1190929189324379
1682451348.08118010,45397018,42.7074515,-84.4780316,263.44000244140625,-0.11925311386585236,-0.11925311386585236
1682451348.18090820,45496746,42.7074515,-84.4780316,263.44000244140625,-0.11965949088335037,-0.11965949088335037
1682451348.28088021,45596718,42.7074516,-84.4780317,263.4499816894531,-0.11881577968597412,-0.11881577968597412
1682451348.38098311,45696821,42.7074516,-84.4780317,263.4499816894531,-0.1163649633526802,-0.1163649633526802
1682451348.48066902,45796507,42.7074516,-84.4780317,263.4499816894531,-0.11442019045352936,-0.11442019045352936
1682451348.58067608,45896514,42.7074516,-84.4780317,263.4499816894531,-0.1143202856183052,-0.1143202856183052
1682451348.68069315,45996531,42.7074516,-84.4780317,263.47998046875,-0.11523187905550003,-0.11523187905550003
1682451348.78066111,46096499,42.7074516,-84.4780317,263.47998046875,-0.11566106230020523,-0.11566106230020523
1682451348.88055921,46196397,42.7074516,-84.4780318,263.47998046875,-0.11535278707742691,-0.11535278707742691
1682451348.98054814,46296386,42.7074516,-84.4780318,263.47998046875,-0.11613678932189941,-0.11613678932189941
1682451349.08088112,46396719,42.7074516,-84.4780318,263.489990234375,-0.11981420964002609,-0.11981420964002609
1682451349.18067908,46496517,42.7074516,-84.4780318,263.489990234375,-0.12274458259344101,-0.12274458259344101
1682451349.28097105,46596809,42.7074517,-84.47803189999999,263.5099792480469,-0.12484724819660187,-0.12484724819660187
1682451349.38067603,46696514,42.7074517,-84.47803189999999,263.5099792480469,-0.12415342777967453,-0.12415342777967453
1682451349.48068213,46796520,42.7074517,-84.47803189999999,263.5299987792969,-0.1216965764760971,-0.1216965764760971
1682451349.58068013,46896518,42.7074517,-84.47803189999999,263.5299987792969,-0.11764011532068253,-0.11764011532068253
1682451349.68068409,46996522,42.7074517,-84.478032,263.54998779296875,-0.11253296583890915,-0.11253296583890915
1682451349.78055811,47096396,42.7074517,-84.478032,263.54998779296875,-0.11086377501487732,-0.11086377501487732
1682451349.88053703,47196375,42.7074516,-84.478032,263.55999755859375,-0.11112184077501297,-0.11112184077501297
1682451349.98062205,47296460,42.7074516,-84.478032,263.55999755859375,-0.11146991699934006,-0.11146991699934006
1682451350.08103418,47396872,42.7074516,-84.478032,263.5799865722656,-0.11081564426422119,-0.11081564426422119
1682451350.18098712,47496825,42.7074516,-84.478032,263.5799865722656,-0.11284393072128296,-0.11284393072128296
1682451350.28068614,47596524,42.7074517,-84.4780321,263.5899963378906,-0.11752244830131531,-0.11752244830131531
1682451350.38081503,47696653,42.7074517,-84.4780321,263.5899963378906,-0.11924730986356735,-0.11924730986356735
1682451350.48083425,47796672,42.7074517,-84.4780321,263.5899963378906,-0.11862246692180634,-0.11862246692180634
1682451350.58088708,47896725,42.7074517,-84.4780321,263.5899963378906,-0.11839435994625092,-0.11839435994625092
1682451350.68085718,47996695,42.7074517,-84.4780321,263.6199951171875,-0.11862849444150925,-0.11862849444150925
1682451350.78078818,48096626,42.7074517,-84.4780321,263.6199951171875,-0.11934652179479599,-0.11934652179479599
1682451350.88087320,48196711,42.7074518,-84.4780321,263.6300048828125,-0.12006869167089462,-0.12006869167089462
1682451350.98087907,48296717,42.7074518,-84.4780321,263.6300048828125,-0.11837039142847061,-0.11837039142847061
1682451351.08102822,48396866,42.7074518,-84.4780322,263.6499938964844,-0.11731129139661789,-0.11731129139661789
1682451351.18094516,48496783,42.7074518,-84.4780322,263.6499938964844,-0.11662754416465759,-0.11662754416465759
1682451351.28084326,48596681,42.7074518,-84.4780322,263.66998291015625,-0.11676144599914551,-0.11676144599914551
1682451351.38067317,48696511,42.7074518,-84.4780322,263.66998291015625,-0.11806443333625793,-0.11806443333625793
1682451351.48066807,48796506,42.7074518,-84.4780323,263.67999267578125,-0.11994713544845581,-0.11994713544845581
1682451351.58064914,48896487,42.7074518,-84.4780323,263.67999267578125,-0.12192173302173615,-0.12192173302173615
1682451351.68057203,48996410,42.7074518,-84.4780323,263.6999816894531,-0.12299976497888565,-0.12299976497888565
1682451351.78061509,49096453,42.7074518,-84.4780323,263.6999816894531,-0.12313079088926315,-0.12313079088926315
1682451351.88067722,49196515,42.7074518,-84.47803239999999,263.7200012207031,-0.12203992903232574,-0.12203992903232574
1682451351.98077917,49296617,42.7074518,-84.47803239999999,263.7200012207031,-0.12166565656661987,-0.12166565656661987
1682451352.08073020,49396568,42.7074518,-84.47803239999999,263.72998046875,-0.12139463424682617,-0.12139463424682617
1682451352.18068504,49496523,42.7074518,-84.47803239999999,263.72998046875,-0.1201598048210144,-0.1201598048210144
1682451352.28069520,49596533,42.7074518,-84.47803239999999,263.75,-0.12120931595563889,-0.12120931595563889
1682451352.38066006,49696498,42.7074518,-84.47803239999999,263.75,-0.1214640885591507,-0.1214640885591507
1682451352.48056817,49796406,42.707450699999995,-84.478033,261.8599853515625,-0.12002811580896378,-0.12002811580896378
1682451352.58052015,49896358,42.707450699999995,-84.478033,261.8699951171875,-0.11643970757722855,-0.11643970757722855
1682451352.68060017,49996438,42.707450699999995,-84.478033,261.8699951171875,-0.11067403107881546,-0.11067403107881546
1682451352.78066421,50096502,42.707450699999995,-84.478033,261.8800048828125,-0.10884547978639603,-0.10884547978639603
1682451352.88074613,50196584,42.7074508,-84.47803309999999,261.8800048828125,-0.10877951234579086,-0.10877951234579086
1682451352.98068118,50296519,42.7074508,-84.47803309999999,261.8800048828125,-0.10828562080860138,-0.10828562080860138
1682451353.08071518,50396553,42.7074508,-84.47803309999999,261.8800048828125,-0.10826493799686432,-0.10826493799686432
1682451353.18070507,50496543,42.7074508,-84.47803309999999,261.8800048828125,0.0023195426911115646,-0.10768045485019684
1682451353.28096819,50596806,42.7074508,-84.47803309999999,261.8800048828125,0.0022319909185171127,-0.10776800662279129
1682451353.38084316,50696681,42.7074508,-84.47803309999999,261.8800048828125,0.002040660008788109,-0.1079593375325203
1682451353.48082805,50796666,42.7074508,-84.4780332,261.8800048828125,0.0015224795788526535,-0.10847751796245575
1682451353.58093214,50896770,42.7074508,-84.4780332,261.8800048828125,0.00044974498450756073,-0.10955025255680084
1682451353.68093610,50996774,42.7074508,-84.4780332,261.8699951171875,-0.0011698473244905472,-0.11116984486579895
1682451353.78098226,51096820,42.7074508,-84.4780332,261.8699951171875,-0.00222964771091938,-0.11222964525222778
1682451353.88085413,51196692,42.7074508,-84.4780332,261.8699951171875,-0.0051995087414979935,-0.1151995062828064
1682451353.98106718,51296905,42.7074508,-84.4780332,261.8699951171875,-0.008800866082310677,-0.11880086362361908
1682451354.08098912,51396827,42.7074508,-84.4780332,261.8599853515625,-0.011538656428456306,-0.12153865396976471
1682451354.18095803,51496796,42.7074508,-84.47803329999999,261.8599853515625,-0.013352813199162483,-0.12335281074047089
1682451354.28063416,51596472,42.7074508,-84.47803329999999,261.8599853515625,-0.01839269883930683,-0.12839269638061523
1682451354.38059425,51696432,42.7074508,-84.47803329999999,261.8500061035156,-0.024245040491223335,-0.13424503803253174
1682451354.48062110,51796459,42.7074508,-84.47803329999999,261.8500061035156,-0.028163792565464973,-0.13816379010677338
1682451354.58070111,51896539,42.7074508,-84.47803329999999,261.8399963378906,-0.0312273520976305,-0.1412273496389389
1682451354.68079925,51996637,42.7074508,-84.47803329999999,261.8399963378906,-0.03401648998260498,-0.14401648938655853
1682451354.78069425,52096532,42.7074508,-84.47803329999999,261.8399963378906,-0.033613815903663635,-0.1436138153076172
1682451354.88068223,52196520,42.7074508,-84.47803329999999,261.8399963378906,-0.031962037086486816,-0.14196203649044037
1682451354.98071814,52296556,42.7074508,-84.4780334,261.8399963378906,-0.030415432527661324,-0.14041543006896973
1682451355.08076310,52396601,42.7074508,-84.4780334,261.8399963378906,-0.030435191467404366,-0.14043518900871277
1682451355.18067503,52496513,42.7074508,-84.4780334,261.8500061035156,-0.030008452013134956,-0.14000844955444336
1682451355.28059316,52596431,42.7074508,-84.4780334,261.8399963378906,-0.03337642550468445,-0.143376424908638
1682451355.38074017,52696578,42.7074509,-84.4780334,261.8399963378906,-0.03738665580749512,-0.14738665521144867
1682451355.48069525,52796533,42.7074509,-84.4780334,261.8399963378906,-0.039579540491104126,-0.14957953989505768
1682451355.58080721,52896645,42.7074509,-84.4780335,261.8299865722656,-0.04185783863067627,-0.15185783803462982
1682451355.68094420,52996782,42.7074509,-84.4780335,261.8299865722656,-0.04460445046424866,-0.1546044498682022
1682451355.78091025,53096748,42.7074509,-84.4780335,261.8299865722656,-0.04747031629085541,-0.15747031569480896
1682451355.88088822,53196726,42.7074509,-84.4780335,261.82000732421875,-0.050117671489715576,-0.16011767089366913
1682451355.98093915,53296777,42.7074508,-84.4780335,261.82000732421875,-0.051235467195510864,-0.16123546659946442
1682451356.08101726,53396855,42.7074508,-84.4780335,261.82000732421875,-0.05183802545070648,-0.16183802485466003
1682451356.18097305,53496811,42.7074508,-84.4780335,261.82000732421875,-0.05129413306713104,-0.1612941324710846
1682451356.28095722,53596795,42.7074508,-84.4780335,261.82000732421875,-0.050682783126831055,-0.1606827825307846
1682451356.38094807,53696786,42.7074508,-84.47803359999999,261.82000732421875,-0.05050894618034363,-0.16050894558429718
1682451356.48115015,53796988,42.7074508,-84.47803359999999,261.82000732421875,-0.050450682640075684,-0.16045068204402924
1682451356.58070421,53896542,42.7074508,-84.47803359999999,261.82000732421875,-0.050897762179374695,-0.16089776158332825
1682451356.68070722,53996545,42.7074508,-84.47803359999999,261.82000732421875,-0.05126240849494934,-0.1612624078989029
1682451356.78069806,54096536,42.7074508,-84.47803359999999,261.82000732421875,-0.05067870020866394,-0.1606786996126175
1682451356.88068604,54196524,42.7074508,-84.47803359999999,261.82000732421875,-0.05025099217891693,-0.16025099158287048
1682451356.98064709,54296485,42.7074508,-84.47803359999999,261.8299865722656,-0.04945804178714752,-0.15945804119110107
1682451357.08067703,54396515,42.7074508,-84.47803359999999,261.8299865722656,-0.04907877743244171,-0.15907877683639526
1682451357.18064308,54496481,42.7074508,-84.4780337,261.8299865722656,-0.048628658056259155,-0.1586286574602127
1682451357.28070021,54596538,42.7074508,-84.4780337,261.8299865722656,-0.04961308836936951,-0.15961308777332306
1682451357.38106322,54696901,42.7074508,-84.4780337,261.82000732421875,-0.05128861963748932,-0.16128861904144287
1682451357.48106813,54796906,42.7074508,-84.47803359999999,261.82000732421875,-0.05443039536476135,-0.1644303947687149
1682451357.58094406,54896782,42.7074508,-84.47803359999999,261.82000732421875,-0.05829349160194397,-0.16829349100589752
1682451357.68072605,54996564,42.7074508,-84.4780337,261.80999755859375,-0.061604321002960205,-0.17160432040691376
1682451357.78068614,55096524,42.7074508,-84.4780337,261.80999755859375,-0.06331975758075714,-0.1733197569847107
1682451357.88063812,55196476,42.7074508,-84.4780337,261.80999755859375,-0.06290434300899506,-0.1729043424129486
1682451357.98061609,55296454,42.7074508,-84.4780337,261.80999755859375,-0.0630611926317215,-0.17306119203567505
1682451358.08069420,55396532,42.7074508,-84.4780337,261.80999755859375,-0.062492772936820984,-0.17249277234077454
1682451358.18069315,55496531,42.7074508,-84.4780337,261.80999755859375,-0.062166064977645874,-0.17216606438159943
1682451358.28079605,55596634,42.7074508,-84.47803379999999,261.80999755859375,-0.06090451776981354,-0.1709045171737671
1682451358.38070107,55696539,42.7074508,-84.47803379999999,261.80999755859375,-0.06139466166496277,-0.17139466106891632
1682451358.48070502,55796543,42.7074508,-84.47803379999999,261.80999755859375,-0.06209397315979004,-0.1720939725637436
1682451358.58070111,55896539,42.707450699999995,-84.47803379999999,261.80999755859375,-0.06193733215332031,-0.17193733155727386
1682451358.68070912,55996547,42.707450699999995,-84.47803379999999,261.80999755859375,-0.06304880976676941,-0.17304880917072296
1682451358.78063321,56096471,42.707450699999995,-84.47803379999999,261.80999755859375,-0.06573276221752167,-0.17573276162147522
1682451358.88092113,56196759,42.707450699999995,-84.4780339,261.80999755859375,-0.06678089499473572,-0.17678089439868927
1682451358.98063517,56296473,42.707450699999995,-84.4780339,261.80999755859375,-0.06780900061130524,-0.1778090000152588
1682451359.08100724,56396845,42.7074506,-84.4780339,261.80999755859375,-0.06928293406963348,-0.17928293347358704
1682451359.18098426,56496822,42.7074506,-84.4780339,261.79998779296875,-0.07004798948764801,-0.18004798889160156
1682451359.28086305,56596701,42.7074506,-84.4780339,261.80999755859375,-0.069197878241539,-0.17919787764549255
1682451359.38083005,56696668,42.7074506,-84.4780339,261.80999755859375,-0.06899815797805786,-0.1789981573820114
1682451359.48085618,56796694,42.7074506,-84.4780339,261.80999755859375,-0.06954604387283325,-0.1795460432767868
1682451359.58098006,56896818,42.7074506,-84.4780339,261.79998779296875,-0.07219718396663666,-0.1821971833705902
1682451359.68088508,56996723,42.7074505,-84.4780339,261.79998779296875,-0.07355058193206787,-0.18355058133602142
1682451359.78115106,57096989,42.7074505,-84.4780339,261.79998779296875,-0.07374192774295807,-0.18374192714691162
1682451359.88061118,57196449,42.7074505,-84.4780339,261.79998779296875,-0.07591351866722107,-0.18591351807117462
1682451359.98069024,57296528,42.7074505,-84.4780339,261.79998779296875,-0.07844717800617218,-0.18844717741012573
1682451360.08086324,57396701,42.7074505,-84.478034,261.7900085449219,-0.08064596354961395,-0.1906459629535675
1682451360.18071508,57496553,42.7074505,-84.478034,261.7900085449219,-0.08222547173500061,-0.19222547113895416
1682451360.28070807,57596546,42.7074505,-84.478034,261.7900085449219,-0.0818992555141449,-0.19189925491809845
1682451360.38070416,57696542,42.7074505,-84.478034,261.7900085449219,-0.08060324192047119,-0.19060324132442474
1682451360.48072410,57796562,42.7074505,-84.478034,261.79998779296875,-0.07855942845344543,-0.188559427857399
1682451360.58064818,57896486,42.7074506,-84.478034,261.79998779296875,-0.07709263265132904,-0.1870926320552826
1682451360.68096113,57996799,42.7074506,-84.478034,261.79998779296875,-0.07818076014518738,-0.18818075954914093
1682451360.78094625,58096784,42.7074506,-84.478034,261.79998779296875,-0.07975105941295624,-0.1897510588169098
1682451360.88094425,58196782,42.7074506,-84.478034,261.7900085449219,-0.0804227739572525,-0.19042277336120605
1682451360.98101115,58296849,42.7074505,-84.4780341,261.7900085449219,-0.08209095895290375,-0.1920909583568573
1682451361.08100605,58396844,42.7074505,-84.4780341,261.7900085449219,-0.08476699888706207,-0.19476699829101562
1682451361.18094516,58496783,42.7074505,-84.4780341,261.7900085449219,-0.08830633759498596,-0.19830633699893951
1682451361.28092217,58596760,42.7074505,-84.4780341,261.7900085449219,-0.0895586758852005,-0.19955867528915405
1682451361.38094807,58696786,42.7074505,-84.4780341,261.7799987792969,-0.09012366831302643,-0.20012366771697998
1682451361.48095322,58796791,42.7074506,-84.4780341,261.7799987792969,-0.09262417256832123,-0.20262417197227478
1682451361.58098125,58896819,42.7074506,-84.4780341,261.7799987792969,-0.09580442309379578,-0.20580442249774933
1682451361.68115520,58996993,42.7074506,-84.4780341,261.7799987792969,-0.09842513501644135,-0.2084251344203949
1682451361.78095102,59096789,42.7074506,-84.4780341,261.7699890136719,-0.10036814212799072,-0.21036814153194427
1682451361.88105512,59196893,42.7074506,-84.4780341,261.7799987792969,-0.09937198460102081,-0.20937198400497437
1682451361.98093915,59296777,42.7074506,-84.4780342,261.7799987792969,-0.09874501824378967,-0.20874501764774323
1682451362.08100510,59396843,42.7074506,-84.4780342,261.7799987792969,-0.09872011840343475,-0.2087201178073883
1682451362.18094206,59496780,42.7074506,-84.4780342,261.7799987792969,-0.09952981770038605,-0.2095298171043396
1682451362.28119802,59597036,42.7074506,-84.4780342,261.7699890136719,-0.10167501866817474,-0.2116750180721283
1682451362.38095021,59696788,42.7074506,-84.4780342,261.7699890136719,-0.10376128554344177,-0.21376128494739532
1682451362.48094416,59796782,42.7074506,-84.4780342,261.7699890136719,-0.10815614461898804,-0.2181561440229416
1682451362.58097410,59896812,42.7074506,-84.47803429999999,261.7599792480469,-0.11183735728263855,-0.2218373566865921
1682451362.68101525,59996853,42.7074506,-84.47803429999999,261.7599792480469,-0.11329624056816101,-0.22329623997211456
1682451362.78100204,60096840,42.7074506,-84.47803429999999,261.7599792480469,-0.1137629896402359,-0.22376298904418945
1682451362.88089204,60196730,42.7074506,-84.47803429999999,261.7599792480469,-0.11423665285110474,-0.2242366522550583
1682451362.98093915,60296777,42.7074506,-84.47803429999999,261.7599792480469,-0.11505526304244995,-0.2250552624464035
1682451363.08100009,60396838,42.7074506,-84.47803429999999,261.7599792480469,-0.11749529838562012,-0.22749529778957367
1682451363.18120313,60497041,42.7074505,-84.4780344,261.75,-0.12109728157520294,-0.2310972809791565
1682451363.28064322,60596481,42.7074505,-84.4780344,261.75,-0.12583419680595398,-0.23583419620990753
1682451363.38059425,60696432,42.7074505,-84.4780344,261.739990234375,-0.13020998239517212,-0.24020998179912567
1682451363.48062706,60796465,42.7074505,-84.4780344,261.739990234375,-0.1336323320865631,-0.24363233149051666
1682451363.58070111,60896539,42.7074506,-84.4780344,261.739990234375,-0.1366465836763382,-0.24664658308029175
1682451363.68079615,60996634,42.7074506,-84.4780344,261.72998046875,-0.14281286299228668,-0.25281286239624023
1682451363.78075504,61096593,42.7074506,-84.4780344,261.72998046875,-0.14768581092357635,-0.2576858103275299
1682451363.88069916,61196537,42.7074506,-84.47803449999999,261.72998046875,-0.14977236092090607,-0.2597723603248596
1682451363.98072624,61296564,42.7074506,-84.47803449999999,261.7200012207031,-0.15071077644824982,-0.26071077585220337
1682451364.08100319,61396841,42.7074506,-84.47803449999999,261.7200012207031,-0.15127666294574738,-0.2612766623497009
1682451364.18095613,61496794,42.7074506,-84.4780346,261.7200012207031,-0.15063174068927765,-0.2606317400932312
1682451364.28096104,61596799,42.7074506,-84.4780346,261.7200012207031,-0.15064413845539093,-0.2606441378593445
1682451364.38093305,61696771,42.7074506,-84.4780346,261.7200012207031,-0.15153320133686066,-0.2615332007408142
1682451364.48086715,61796705,42.7074506,-84.4780347,261.7200012207031,-0.15136964619159698,-0.26136964559555054
1682451364.58143210,61897270,42.7074506,-84.4780347,261.7200012207031,-0.1504976898431778,-0.26049768924713135
1682451364.68085718,61996695,42.7074506,-84.4780347,261.7200012207031,-0.1517646759748459,-0.26176467537879944
1682451364.78083825,62096676,42.7074506,-84.4780348,261.7200012207031,-0.1528894156217575,-0.26288941502571106
1682451364.88084316,62196681,42.707450699999995,-84.4780348,261.7200012207031,-0.1523730605840683,-0.26237305998802185
1682451364.98086810,62296706,42.707450699999995,-84.4780348,261.7200012207031,-0.1512679010629654,-0.26126790046691895
1682451365.08095908,62396797,42.707450699999995,-84.4780349,261.72998046875,-0.14916925132274628,-0.25916925072669983
1682451365.18084502,62496683,42.707450699999995,-84.4780349,261.72998046875,-0.14415030181407928,-0.25415030121803284
1682451365.28088808,62596726,42.707450699999995,-84.47803499999999,261.739990234375,-0.1376958191394806,-0.24769581854343414
1682451365.38086319,62696701,42.707450699999995,-84.47803499999999,261.739990234375,-0.13130034506320953,-0.24130034446716309
1682451365.48096824,62796806,42.707450699999995,-84.47803499999999,261.75,-0.12652266025543213,-0.23652265965938568
1682451365.58123803,62897076,42.707450699999995,-84.47803499999999,261.75,-0.12193398177623749,-0.23193398118019104
1682451365.68095303,62996791,42.707450699999995,-84.4780351,261.7599792480469,0.0018428470939397812,-0.2281571477651596
1682451365.78070712,63096545,42.707450699999995,-84.4780351,261.7599792480469,0.004433264955878258,-0.22556672990322113
1682451365.88078403,63196622,42.707450699999995,-84.4780351,261.7599792480469,0.0053468551486730576,-0.22465313971042633
1682451365.98064709,63296485,42.707450699999995,-84.4780352,261.7599792480469,0.0054324921220541,-0.2245675027370453
