timestamp,TimeUS,C,Q1,Q2,Q3,Q4
1682451314.17995620,11495794,2,1.0,0.0,0.0,0.0
1682451314.27989507,11595733,2,1.0,0.0,0.0,0.0
1682451314.37991118,11695749,2,1.0,0.0,0.0,0.0
1682451314.47989321,11795731,2,1.0,0.0,0.0,0.0
1682451314.57989407,11895732,2,1.0,0.0,0.0,0.0
1682451314.67988825,11995726,2,1.0,0.0,0.0,0.0
1682451314.77989507,12095733,2,1.0,0.0,0.0,0.0
1682451314.87994123,12195779,2,1.0,0.0,0.0,0.0
1682451314.97995615,12295794,2,1.0,0.0,0.0,0.0
1682451315.07995105,12395789,2,1.0,0.0,0.0,0.0
1682451315.17988110,12495719,2,0.9999954700469971,-0.002962197409942746,0.0005702652269974351,-7.577888754894957e-05
1682451315.27989411,12595732,2,0.9999955892562866,-0.002918880432844162,0.0005516655510291457,-0.00012508098734542727
1682451315.37989426,12695732,2,0.9999955892562866,-0.0029285261407494545,0.0004976298077963293,-0.00012431184586603194
1682451315.47988009,12795718,2,0.9999959468841553,-0.002798554254695773,0.0004402712802402675,-0.00015848393377382308
1682451315.57988310,12895721,2,0.999995768070221,-0.002867620438337326,0.00047064240789040923,-0.00025398892466910183
1682451315.67990923,12995747,2,0.9999960064888,-0.0027730786241590977,0.0003997519379481673,-0.00031281684641726315
1682451315.77993512,13095773,2,0.999995768070221,-0.00284968176856637,0.00039096252294257283,-0.0003927483921870589
1682451315.87995219,13195790,2,0.9999960660934448,-0.002747057704254985,0.00033376444480381906,-0.00041158735984936357
1682451315.97994304,13295781,2,0.9999958276748657,-0.0028253670316189528,0.00033340079244226217,-0.0004493040032684803
1682451316.07989311,13395731,2,0.9999960660934448,-0.0027329453732818365,0.00038499542279168963,-0.0005051520420238376
1682451316.17989111,13495729,2,0.9999960064888,-0.002744379686191678,0.00035687294439412653,-0.0005770461866632104
1682451316.27988505,13595723,2,0.9999961256980896,-0.0026973302010446787,0.0004272717342246324,-0.0005599148571491241
1682451316.37988424,13695722,2,0.9999960064888,-0.0027171201072633266,0.0005285011138767004,-0.000590489013120532
1682451316.47988009,13795718,2,0.999995768070221,-0.0027603586204349995,0.0006071304669603705,-0.0006679472862742841
1682451316.57989407,13895732,2,0.9999960064888,-0.002646092092618346,0.0007051581633277237,-0.0006651579169556499
1682451316.67993402,13995772,2,0.9999959468841553,-0.0026230558287352324,0.0008476821822114289,-0.0007165184943005443
1682451316.77996922,14095807,2,0.9999961853027344,-0.002506258664652705,0.0009107590303756297,-0.0007489362033084035
1682451316.87993908,14195777,2,0.9999958276748657,-0.002590028103441,0.0010278994450345635,-0.0007909621926955879
1682451316.97989511,14295733,2,0.20562320947647095,0.0011376518523320556,0.002774569671601057,-0.9786266684532166
1682451317.07989311,14395731,2,0.20569546520709991,0.0009870906360447407,0.0028365582693368196,-0.9786114692687988
1682451317.17988014,14495718,2,0.20605389773845673,0.0008443791302852333,0.002720629097893834,-0.9785364866256714
1682451317.27988815,14595726,2,0.20668087899684906,0.0008074769866652787,0.0026646750047802925,-0.9784044623374939
1682451317.37988925,14695727,2,0.20804589986801147,0.0006427646148949862,0.002612324897199869,-0.9781153798103333
1682451317.47993112,14795769,2,0.20950570702552795,0.0006911768577992916,0.0025391203816980124,-0.9778038859367371
1682451317.57994103,14895779,2,0.21045680344104767,0.0007291001966223121,0.00260619493201375,-0.9775994420051575
1682451317.67995811,14995796,2,0.21112649142742157,0.0007432575221173465,0.0024564850609749556,-0.9774553775787354
1682451317.77994514,15095783,2,0.21149075031280518,0.0007753896643407643,0.0025302814319729805,-0.977376401424408
1682451317.87988710,15195725,2,0.21161651611328125,0.0007144160917960107,0.002437446266412735,-0.9773494601249695
1682451317.97990823,15295746,2,0.21152590215206146,0.0008171687950380147,0.0024486968759447336,-0.9773690104484558
1682451318.07988024,15395718,2,0.21135669946670532,0.000764180498663336,0.0024248845875263214,-0.9774056673049927
1682451318.17988324,15495721,2,0.21120919287204742,0.0010000403271988034,0.0024578061420470476,-0.9774372577667236
1682451318.27988315,15595721,2,0.21098719537258148,0.0008598542190156877,0.0024560722522437572,-0.9774853587150574
1682451318.37992120,15695759,2,0.211273193359375,0.0008032111218199134,0.00240505812689662,-0.9774237871170044
1682451318.47993517,15795773,2,0.2113599330186844,0.0008798048365861177,0.002492396393790841,-0.9774047136306763
1682451318.57995605,15895794,2,0.2115100771188736,0.000802398775704205,0.0024233676958829165,-0.9773724675178528
1682451318.67994523,15995783,2,0.21201151609420776,0.0009256566991098225,0.002504191594198346,-0.9772635102272034
1682451318.77988005,16095718,2,0.21224935352802277,0.0008865947020240128,0.0025529032573103905,-0.9772118330001831
1682451318.87988019,16195718,2,0.2125813066959381,0.0011546867899596691,0.002600299660116434,-0.9771392345428467
1682451318.97988510,16295723,2,0.21298417448997498,0.0011809811694547534,0.0026683001779019833,-0.977051317691803
1682451319.07988310,16395721,2,0.2131747305393219,0.0014331376878544688,0.0027250279672443867,-0.9770092368125916
1682451319.17988324,16495721,2,0.21338970959186554,0.0014654162805527449,0.002846529707312584,-0.9769619107246399
1682451319.27989316,16595731,2,0.21396325528621674,0.0014981554122641683,0.002878689207136631,-0.9768363237380981
1682451319.37994123,16695779,2,0.21413175761699677,0.0017571744974702597,0.0030321339145302773,-0.9767984747886658
1682451319.47995305,16795791,2,0.21414227783679962,0.0016555991023778915,0.0030315236654132605,-0.9767963886260986
1682451319.57994008,16895778,2,0.2146202176809311,0.0019455612637102604,0.003093710634857416,-0.9766907691955566
1682451319.67988920,16995727,2,0.2145986557006836,0.0018757865764200687,0.0031296361703425646,-0.9766954779624939
1682451319.77988720,17095725,2,0.2146112471818924,0.0019734662491828203,0.0031959654297679663,-0.9766923189163208
1682451319.87988710,17195725,2,0.21496887505054474,0.0019867916125804186,0.0032450559083372355,-0.976613461971283
1682451319.97989106,17295729,2,0.2148526906967163,0.0019590866286307573,0.003256297204643488,-0.9766390919685364
1682451320.07987905,17395717,2,0.2149331122636795,0.002048912225291133,0.0033633087296038866,-0.9766208529472351
1682451320.17988920,17495727,2,0.21507082879543304,0.0019834935665130615,0.0033524895552545786,-0.9765906929969788
1682451320.27993608,17595774,2,0.2148486077785492,0.0019723214209079742,0.0033905028831213713,-0.9766395092010498
1682451320.37995720,17695795,2,0.2147243320941925,0.0019444451900199056,0.0033645867370069027,-0.9766669869422913
1682451320.47994304,17795781,2,0.2147713452577591,0.0019847035873681307,0.0034067623782902956,-0.9766563773155212
1682451320.57988405,17895722,2,0.21457402408123016,0.0020152125507593155,0.0034139533527195454,-0.976699709892273
1682451320.67988515,17995723,2,0.21466025710105896,0.0019408498192206025,0.003432497614994645,-0.9766808152198792
1682451320.77987909,18095717,2,0.2151889055967331,0.002115534618496895,0.003462050808593631,-0.9765639901161194
1682451320.87988019,18195718,2,0.21521444618701935,0.0020807005930691957,0.0034650610759854317,-0.9765584468841553
1682451320.97988820,18295726,2,0.21554285287857056,0.002059111138805747,0.0034782763104885817,-0.9764860272407532
1682451321.07989407,18395732,2,0.21581055223941803,0.002104173880070448,0.0034770008642226458,-0.9764267802238464
1682451321.17993116,18495769,2,0.2154737263917923,0.0020206570625305176,0.0034712934866547585,-0.9765014052391052
1682451321.27996016,18595798,2,0.21563200652599335,0.001985464710742235,0.0034850824158638716,-0.9764664769172668
1682451321.37994409,18695782,2,0.21588818728923798,0.0018494968535378575,0.0034793212544173002,-0.9764101505279541
1682451321.47988009,18795718,2,0.21538187563419342,0.0020359880290925503,0.003896677866578102,-0.9765200018882751
1682451321.57988214,18895720,2,0.2151547521352768,0.0019613979384303093,0.003716967301443219,-0.9765709042549133
1682451321.67988610,18995724,2,0.21614396572113037,0.0018637512112036347,0.003492054995149374,-0.9763534665107727
1682451321.77988124,19095719,2,0.2161601334810257,0.0019356823759153485,0.003537127049639821,-0.9763495922088623
1682451321.87988114,19195719,2,0.21574051678180695,0.0017094671493396163,0.00375387049280107,-0.9764420390129089
1682451321.97990918,19295747,2,0.21654631197452545,0.0019308374030515552,0.003359143855050206,-0.9762646555900574
1682451322.07993507,19395773,2,0.21680162847042084,0.0017632307717576623,0.003455048194155097,-0.976207971572876
1682451322.17997217,19495810,2,0.21634827554225922,0.0018297542119398713,0.003597535192966461,-0.9763079285621643
1682451322.27994609,19595784,2,0.21682631969451904,0.0018571646651253104,0.0035888133570551872,-0.9762018322944641
1682451322.37988710,19695725,2,0.21716231107711792,0.0016028120880946517,0.003615881083533168,-0.9761275053024292
1682451322.47988105,19795719,2,0.21707430481910706,0.0017884626286104321,0.0036161935422569513,-0.9761467576026917
1682451322.57988214,19895720,2,0.217040553689003,0.0017895179335027933,0.0036129720974713564,-0.9761542677879333
1682451322.67988324,19995721,2,0.2179195135831833,0.001541719539090991,0.0032219174318015575,-0.9759601950645447
1682451322.77988005,20095718,2,0.21749021112918854,0.0019377665594220161,0.003535205963999033,-0.9760541915893555
1682451322.87989426,20195732,2,0.21668800711631775,0.001624986412934959,0.0031961596105247736,-0.9762343168258667
1682451322.97994304,20295781,2,0.2174263745546341,0.0018491955706849694,0.0035208819899708033,-0.9760686159133911
1682451323.07995725,20395795,2,0.21683453023433685,0.0016629815800115466,0.0032326062209904194,-0.976201593875885
1682451323.17993903,20495777,2,0.21637681126594543,0.0017333865398541093,0.0034630768932402134,-0.9763022661209106
1682451323.27988315,20595721,2,0.21710878610610962,0.0017810967983677983,0.003264026716351509,-0.9761403203010559
1682451323.37988305,20695721,2,0.21645013988018036,0.0016156260389834642,0.0033274467568844557,-0.9762866497039795
1682451323.47988105,20795719,2,0.21620219945907593,0.0018596729496493936,0.0033024547155946493,-0.9763412475585938
1682451323.57988811,20895726,2,0.21694858372211456,0.0016528789419680834,0.0032241030130535364,-0.9761763215065002
1682451323.67988706,20995725,2,0.216846764087677,0.0019468925893306732,0.0033562432508915663,-0.9761979579925537
1682451323.77988911,21095727,2,0.21655835211277008,0.0015246664406731725,0.002990692388266325,-0.9762638807296753
1682451323.87993813,21195776,2,0.2173958420753479,0.001403979491442442,0.003083012765273452,-0.9760776162147522
1682451323.97995710,21295795,2,0.2175251543521881,0.001802312210202217,0.003124609589576721,-0.9760480523109436
1682451324.07994509,21395783,2,0.21725508570671082,0.0016679607797414064,0.0032545868307352066,-0.9761080145835876
1682451324.17988825,21495726,2,0.21787506341934204,0.0018300488591194153,0.0031257697846740484,-0.9759699702262878
1682451324.27989411,21595732,2,0.21765398979187012,0.0016938814660534263,0.0031272845808416605,-0.9760195016860962
1682451324.37988114,21695719,2,0.21729324758052826,0.001693169353529811,0.0029404230881482363,-0.9761004447937012
1682451324.47988224,21795720,2,0.21776236593723297,0.0017989827319979668,0.002937275217846036,-0.9759957194328308
1682451324.57988715,21895725,2,0.21765466034412384,0.001965144881978631,0.00258786603808403,-0.9760204553604126
1682451324.67989326,21995731,2,0.21760417520999908,0.0021678933408111334,0.0027775682974606752,-0.9760307669639587
1682451324.77994013,22095778,2,0.2179681360721588,0.001967531396076083,0.003082223469391465,-0.9759490489959717
1682451324.87995815,22195796,2,0.2181164026260376,0.0021864166483283043,0.002793795196339488,-0.97591632604599
1682451324.97994304,22295781,2,0.2181515395641327,0.002304642228409648,0.0026258931029587984,-0.975908637046814
1682451325.07988524,22395723,2,0.21836711466312408,0.002385671017691493,0.0023301008623093367,-0.9758610129356384
1682451325.17988014,22495718,2,0.2179981768131256,0.0018315463094040751,0.003542074467986822,-0.975941002368927
1682451325.27988410,22595722,2,0.21777434647083282,0.0019762173760682344,0.002822770271450281,-0.9759930372238159
1682451325.37988520,22695723,2,0.21831218898296356,0.0019752501975744963,0.0036814946215599775,-0.9758700132369995
1682451325.47988105,22795719,2,0.21791861951351166,0.001904609496705234,0.00275760842487216,-0.9759612083435059
1682451325.57989407,22895732,2,0.21770158410072327,0.001894990331493318,0.0037304062861949205,-0.9760063886642456
1682451325.67994523,22995783,2,0.21799296140670776,0.0019433964043855667,0.0029076910577714443,-0.9759441018104553
1682451325.77995515,23095793,2,0.2177692949771881,0.00190008117351681,0.003760332940146327,-0.9759911894798279
1682451325.87995005,23195788,2,0.21747948229312897,0.0020452511962503195,0.0029964353889226913,-0.9760581254959106
1682451325.97989416,23295732,2,0.21780619025230408,0.00185911706648767,0.0035918578505516052,-0.9759836792945862
1682451326.07988024,23395718,2,0.21759837865829468,0.0020640797447413206,0.003187142312526703,-0.9760310053825378
1682451326.17988610,23495724,2,0.21736449003219604,0.0018632905557751656,0.0034563031513243914,-0.9760826230049133
1682451326.27989316,23595731,2,0.2178158015012741,0.002073285635560751,0.0033537857234477997,-0.9759819507598877
1682451326.37988019,23695718,2,0.21773160994052887,0.0019496711902320385,0.003293174086138606,-0.9760012030601501
1682451326.47989511,23795733,2,0.21778303384780884,0.002068393165245652,0.0034610864240676165,-0.9759888648986816
1682451326.57994723,23895785,2,0.21820630133152008,0.0021039023995399475,0.0031744069419801235,-0.9758952260017395
1682451326.67995715,23995795,2,0.21808120608329773,0.0020476842764765024,0.0035361717455089092,-0.9759220480918884
1682451326.77994204,24095780,2,0.21810047328472137,0.002175250556319952,0.0030724017415195704,-0.9759190678596497
1682451326.87987924,24195717,2,0.21857845783233643,0.0019627404399216175,0.003541389014571905,-0.9758110046386719
1682451326.97989011,24295728,2,0.21851694583892822,0.0021900739520788193,0.002985903527587652,-0.9758261442184448
1682451327.07990623,24395744,2,0.21845866739749908,0.0019860181491822004,0.0034250395838171244,-0.9758381843566895
1682451327.17989206,24495730,2,0.2187889665365219,0.0020915146451443434,0.0030323087703436613,-0.9757652282714844
1682451327.27988410,24595722,2,0.21857422590255737,0.0019444329664111137,0.0033143216278403997,-0.9758127331733704
1682451327.37995625,24695794,2,0.21856904029846191,0.0020233308896422386,0.003078060457482934,-0.9758145213127136
1682451327.47994709,24795785,2,0.21871815621852875,0.001975530991330743,0.0032277966383844614,-0.975780725479126
1682451327.57995415,24895792,2,0.21837309002876282,0.001938519300892949,0.00321072805672884,-0.9758581519126892
1682451327.67994213,24995780,2,0.21825745701789856,0.0019910302944481373,0.003261794336140156,-0.9758837223052979
1682451327.77987909,25095717,2,0.21839581429958344,0.001874951645731926,0.0033496832475066185,-0.9758527278900146
1682451327.87988615,25195724,2,0.218178391456604,0.0019980808719992638,0.003239427227526903,-0.9759014844894409
1682451327.97990704,25295745,2,0.21816083788871765,0.0018893990200012922,0.0035396264865994453,-0.9759045839309692
1682451328.07988620,25395724,2,0.21836182475090027,0.001917923684231937,0.0031688674353063107,-0.9758608341217041
1682451328.17988014,25495718,2,0.21810831129550934,0.0018033231608569622,0.003538549179211259,-0.9759165048599243
1682451328.27990723,25595745,2,0.2180558741092682,0.001845505670644343,0.0030803040135651827,-0.9759296774864197
1682451328.37994719,25695785,2,0.21825188398361206,0.0018939172150567174,0.0033972118981182575,-0.975884735584259
1682451328.47995925,25795797,2,0.21820741891860962,0.0018267604755237699,0.0031326748430728912,-0.9758957028388977
1682451328.57994103,25895779,2,0.21852867305278778,0.0019273594953119755,0.0033591019455343485,-0.9758228659629822
1682451328.67988324,25995721,2,0.21895696222782135,0.0018194507574662566,0.003190648043528199,-0.9757276177406311
1682451328.77992225,26095760,2,0.21905168890953064,0.0018350996542721987,0.0032374076545238495,-0.975706160068512
1682451328.87988019,26195718,2,0.21934491395950317,0.0017819908680394292,0.0032265791669487953,-0.9756404161453247
1682451328.97988319,26295721,2,0.2196662575006485,0.0016888231039047241,0.003107774071395397,-0.9755686521530151
1682451329.07988715,26395725,2,0.2197401225566864,0.0016727156471461058,0.003239442827180028,-0.9755516052246094
1682451329.17989016,26495728,2,0.22003287076950073,0.001653934014029801,0.0031122411601245403,-0.9754860997200012
1682451329.27993917,26595777,2,0.22030259668827057,0.0016460021724924445,0.003265928477048874,-0.9754247069358826
1682451329.37996006,26695798,2,0.22024375200271606,0.0016113301971927285,0.0030800998210906982,-0.97543865442276
1682451329.47994018,26795778,2,0.22040589153766632,0.0016117726918309927,0.003257912117987871,-0.9754014611244202
1682451329.57988310,26895721,2,0.22046421468257904,0.001608031103387475,0.0030933173839002848,-0.9753888249397278
1682451329.67988706,26995725,2,0.22026333212852478,0.0016505155945196748,0.0032418142072856426,-0.9754336476325989
1682451329.77988625,27095724,2,0.2203589379787445,0.0016604417469352484,0.0031405456829816103,-0.9754123687744141
1682451329.87988210,27195720,2,0.22046233713626862,0.0016177705256268382,0.0031747224275022745,-0.9753890037536621
1682451329.97988725,27295725,2,0.22044558823108673,0.0016195892821997404,0.003156246617436409,-0.9753928184509277
1682451330.07990623,27395744,2,0.22061122953891754,0.0015923860482871532,0.0031001402530819178,-0.9753556251525879
1682451330.17993617,27495774,2,0.22073443233966827,0.001617148518562317,0.003173993667587638,-0.9753274321556091
1682451330.27995610,27595794,2,0.22063760459423065,0.0016044828807935119,0.003086454002186656,-0.9753496646881104
1682451330.37994409,27695782,2,0.22066359221935272,0.0016001580515876412,0.0032029878348112106,-0.9753434062004089
1682451330.47988415,27795722,2,0.22054748237133026,0.001539599965326488,0.003065552096813917,-0.9753702282905579
1682451330.57988214,27895720,2,0.22033114731311798,0.0015200100606307387,0.0031597891356796026,-0.9754188060760498
1682451330.67988324,27995721,2,0.22033582627773285,0.0015450278297066689,0.0030375670175999403,-0.9754181504249573
1682451330.77988410,28095722,2,0.22025278210639954,0.00149114232044667,0.003116692416369915,-0.9754366874694824
1682451330.87988019,28195718,2,0.22017399966716766,0.0015822796849533916,0.0029917792417109013,-0.9754547476768494
1682451330.97989416,28295732,2,0.22036466002464294,0.0015872735530138016,0.003060482442378998,-0.9754114747047424
1682451331.07994723,28395785,2,0.22043047845363617,0.0016078120097517967,0.002982993144541979,-0.9753968119621277
1682451331.17995405,28495792,2,0.22050334513187408,0.0016112554585561156,0.002980566583573818,-0.9753803610801697
1682451331.27994108,28595779,2,0.22075483202934265,0.0016284713055938482,0.003056658199056983,-0.9753232002258301
1682451331.37989116,28695729,2,0.2207588404417038,0.0016378755681216717,0.002945186337456107,-0.9753226041793823
1682451331.47988009,28795718,2,0.22078517079353333,0.001686274423263967,0.002989521948620677,-0.9753164052963257
1682451331.57988214,28895720,2,0.2209111601114273,0.0016999950166791677,0.0028763890732079744,-0.9752882122993469
1682451331.67988825,28995726,2,0.22083063423633575,0.0016297666588798165,0.002924620872363448,-0.9753064513206482
1682451331.77988005,29095718,2,0.22082830965518951,0.0017169289058074355,0.0028136095497757196,-0.9753071069717407
1682451331.87989116,29195729,2,0.22094319760799408,0.0016836118884384632,0.0028930979315191507,-0.9752809405326843
1682451331.97993612,29295774,2,0.22079047560691833,0.0016701132990419865,0.002805439755320549,-0.9753158092498779
1682451332.07995605,29395794,2,0.22064286470413208,0.0016671997727826238,0.0028202985413372517,-0.9753491878509521
1682451332.17994308,29495781,2,0.22057722508907318,0.001702151377685368,0.002815613755956292,-0.9753639698028564
1682451332.27988410,29595722,2,0.2203281968832016,0.0017138432012870908,0.002789531135931611,-0.9754202961921692
1682451332.37989020,29695728,2,0.22018201649188995,0.0017305210931226611,0.0027919451240450144,-0.97545325756073
1682451332.47988009,29795718,2,0.2200821489095688,0.001768717309460044,0.002764328382909298,-0.9754758477210999
1682451332.57988214,29895720,2,0.21988733112812042,0.0017309228423982859,0.002797796856611967,-0.9755197167396545
1682451332.67988706,29995725,2,0.21972933411598206,0.0017572481883689761,0.002770122606307268,-0.9755553603172302
1682451332.77987719,30095715,2,0.21961331367492676,0.001763788633979857,0.0027933267410844564,-0.9755814075469971
1682451332.87992024,30195758,2,0.21920150518417358,0.0017773554427549243,0.0031138681806623936,-0.9756730198860168
1682451332.97994423,30295782,2,0.21923109889030457,0.0018754421034827828,0.0024621770717203617,-0.9756680727005005
1682451333.07993722,30395775,2,0.21921367943286896,0.0018566747894510627,0.0029833063017576933,-0.975670576095581
1682451333.17986917,30495707,2,0.2189236432313919,0.0019114823080599308,0.002571216318756342,-0.9757367372512817
1682451333.27987123,30595709,2,0.21902018785476685,0.001878294162452221,0.002944246167317033,-0.9757140874862671
1682451333.37987709,30695715,2,0.2190273553133011,0.0019310233183205128,0.002752157161012292,-0.9757129549980164
1682451333.47986913,30795707,2,0.21877244114875793,0.0018800225807353854,0.002902816515415907,-0.9757697582244873
1682451333.57987118,30895709,2,0.2188996523618698,0.0019032391719520092,0.00289339036680758,-0.9757412075996399
1682451333.67988706,30995725,2,0.2188994437456131,0.001923635951243341,0.002750447951257229,-0.9757416248321533
1682451333.77991915,31095757,2,0.21868987381458282,0.001913171960040927,0.0030266556423157454,-0.9757878184318542
1682451333.87994218,31195780,2,0.21879665553569794,0.001983645372092724,0.0026694671250879765,-0.975764811038971
1682451333.97993803,31295776,2,0.218736931681633,0.001922069233842194,0.0030256493482738733,-0.975777268409729
1682451334.07986903,31395707,2,0.2185095250606537,0.0019839478190988302,0.0026730364188551903,-0.9758291244506836
1682451334.17986917,31495707,2,0.2186225801706314,0.001890280982479453,0.0030489300843328238,-0.9758028984069824
1682451334.27987218,31595710,2,0.21861688792705536,0.0019793487153947353,0.002726024016737938,-0.9758049249649048
1682451334.37986922,31695707,2,0.2184121012687683,0.0019145659171044827,0.0030664042569696903,-0.9758499264717102
1682451334.47986913,31795707,2,0.21849964559078217,0.001977442530915141,0.0028107482939958572,-0.9758309721946716
1682451334.57988214,31895720,2,0.21843695640563965,0.001994866644963622,0.002988216234371066,-0.9758444428443909
1682451334.67992210,31995760,2,0.21835875511169434,0.0019663963466882706,0.002889476716518402,-0.9758623242378235
1682451334.77994704,32095785,2,0.21853579580783844,0.0019135222537443042,0.0029166473541408777,-0.9758226871490479
1682451334.87992811,32195766,2,0.21854455769062042,0.0018931872909888625,0.003011969616636634,-0.9758204817771912
1682451334.97987318,32295711,2,0.2184934914112091,0.0019791922532022,0.00291633908636868,-0.9758320450782776
1682451335.07988024,32395718,2,0.21878765523433685,0.0019478771137073636,0.003151879645884037,-0.9757654666900635
1682451335.17986917,32495707,2,0.21875056624412537,0.001954936422407627,0.0029776322189718485,-0.9757742881774902
1682451335.27987623,32595714,2,0.21871279180049896,0.0019425757927820086,0.003279919270426035,-0.9757818579673767
1682451335.37987304,32695711,2,0.21900425851345062,0.002019668696448207,0.0030531880911439657,-0.9757170081138611
1682451335.47987819,32795716,2,0.2189704328775406,0.0019646831788122654,0.003344886004924774,-0.9757238030433655
1682451335.57992125,32895759,2,0.21891553699970245,0.002043681452050805,0.003106731455773115,-0.9757367372512817
1682451335.67994618,32995784,2,0.2191576063632965,0.0020191099029034376,0.0032914080657064915,-0.9756818413734436
1682451335.77992821,33095766,2,0.219094380736351,0.0020892671309411526,0.003196245990693569,-0.9756962060928345
1682451335.87993312,33195771,2,0.21902848780155182,0.002062898827716708,0.003289703279733658,-0.9757107496261597
1682451335.97987509,33295713,2,0.2190907597541809,0.002053640317171812,0.003329864703118801,-0.9756966233253479
1682451336.07986903,33395707,2,0.2189142405986786,0.0020782884676009417,0.003259270451962948,-0.9757364392280579
1682451336.17986822,33495706,2,0.21883119642734528,0.002094133524224162,0.0034228640142828226,-0.9757544994354248
1682451336.27987719,33595715,2,0.21893669664859772,0.0021665615495294333,0.003355856519192457,-0.9757308959960938
1682451336.37988424,33695722,2,0.21884049475193024,0.002113888505846262,0.00361496489495039,-0.9757516384124756
1682451336.47992420,33795762,2,0.2188628613948822,0.002192848129197955,0.003462925786152482,-0.9757470488548279
1682451336.57994223,33895780,2,0.21903181076049805,0.00212479243054986,0.0036943943705409765,-0.9757084250450134
1682451336.67993116,33995769,2,0.21888814866542816,0.0020859125070273876,0.003552470589056611,-0.9757412672042847
1682451336.77988124,34095719,2,0.21884630620479584,0.0020267281215637922,0.0037172145675867796,-0.9757501482963562
1682451336.87987804,34195716,2,0.21892580389976501,0.0020513932686299086,0.0036440768744796515,-0.9757325649261475
1682451336.97988224,34295720,2,0.21880435943603516,0.0020051191095262766,0.003749479539692402,-0.9757595062255859
1682451337.07988214,34395720,2,0.21886037290096283,0.001990900607779622,0.0037773973308503628,-0.9757468700408936
1682451337.17986822,34495706,2,0.21887819468975067,0.002003982663154602,0.0037539757322520018,-0.9757429361343384
1682451337.27988815,34595726,2,0.2187219113111496,0.002006582450121641,0.003776327008381486,-0.9757778644561768
1682451337.37992620,34695764,2,0.21872954070568085,0.0020580810960382223,0.003658742643892765,-0.9757764935493469
1682451337.47994208,34795780,2,0.21865291893482208,0.00202944315969944,0.0037738289684057236,-0.9757933020591736
1682451337.57993007,34895768,2,0.2183462232351303,0.002004950540140271,0.003570972243323922,-0.9758628010749817
1682451337.67988706,34995725,2,0.2182733416557312,0.002006332855671644,0.0037057881709188223,-0.9758785963058472
1682451337.77988625,35095724,2,0.21813872456550598,0.001959518063813448,0.0035710399970412254,-0.9759092926979065
1682451337.87987804,35195716,2,0.21790824830532074,0.0018944120965898037,0.003679308108985424,-0.9759604930877686
1682451337.97988415,35295722,2,0.21794289350509644,0.0019191779429093003,0.0035717347636818886,-0.9759531021118164
1682451338.07986903,35395707,2,0.2179916799068451,0.0019167711725458503,0.0036880429834127426,-0.9759417772293091
1682451338.17988205,35495720,2,0.21790358424186707,0.0019272706704214215,0.0036508438643068075,-0.9759615659713745
1682451338.27992725,35595765,2,0.21797026693820953,0.0018918821588158607,0.0036265430971980095,-0.975946843624115
1682451338.37994504,35695783,2,0.21794599294662476,0.0019043413922190666,0.0036825842689722776,-0.9759520292282104
1682451338.47993207,35795770,2,0.2178645133972168,0.0018651970895007253,0.0036102195736020803,-0.9759705662727356
1682451338.57987404,35895712,2,0.2179630547761917,0.001827853498980403,0.0037259836681187153,-0.9759482145309448
1682451338.67987919,35995717,2,0.21801456809043884,0.001832781359553337,0.0035857995972037315,-0.9759371876716614
1682451338.77987814,36095716,2,0.2179573029279709,0.0017740016337484121,0.003708620322868228,-0.9759496450424194
1682451338.87986803,36195706,2,0.21803869307041168,0.0017956274095922709,0.00357997789978981,-0.9759318828582764
1682451338.97987103,36295709,2,0.21799246966838837,0.0017763277282938361,0.0036869265604764223,-0.9759418964385986
1682451339.07988405,36395722,2,0.2179136425256729,0.0018223276128992438,0.003556432668119669,-0.9759598970413208
1682451339.17992020,36495758,2,0.21798110008239746,0.0017624335596337914,0.0035819783806800842,-0.9759448170661926
1682451339.27994609,36595784,2,0.21796701848506927,0.0017422089586034417,0.0035471743904054165,-0.9759481549263
1682451339.37993407,36695772,2,0.21792420744895935,0.0017450834857299924,0.0034878025762736797,-0.9759579300880432
1682451339.47986913,36795707,2,0.21794447302818298,0.0017575407400727272,0.003550880355760455,-0.9759531021118164
1682451339.57986903,36895707,2,0.21785429120063782,0.0017536741215735674,0.00353805860504508,-0.9759733080863953
1682451339.67987919,36995717,2,0.21779637038707733,0.0016886199591681361,0.0036307750269770622,-0.9759860038757324
1682451339.77987909,37095717,2,0.2179514765739441,0.0017445291159674525,0.0034979109186679125,-0.9759517908096313
1682451339.87986803,37195706,2,0.2179853618144989,0.0017144643934443593,0.0035844771191477776,-0.975943922996521
1682451339.97989106,37295729,2,0.21810966730117798,0.0016998902428895235,0.003501876723021269,-0.9759165048599243
1682451340.07992315,37395761,2,0.2183295488357544,0.0016571884043514729,0.0035640972200781107,-0.9758671522140503
1682451340.17996407,37495802,2,0.21838133037090302,0.0017073332564905286,0.003483337350189686,-0.975855827331543
1682451340.27993202,37595770,2,0.2183908224105835,0.0016684788279235363,0.0035377098247408867,-0.9758535623550415
1682451340.37986922,37695707,2,0.2184118777513504,0.001686184317804873,0.003446609480306506,-0.9758491516113281
1682451340.47987819,37795716,2,0.21822252869606018,0.0016589489532634616,0.0034856603015214205,-0.9758914113044739
1682451340.57987905,37895717,2,0.21816125512123108,0.0016984045505523682,0.0035426863469183445,-0.9759048223495483
1682451340.67987704,37995715,2,0.21821555495262146,0.0016692659119144082,0.0034763719886541367,-0.975892961025238
1682451340.77986813,38095706,2,0.2181304693222046,0.0016767712077125907,0.003540197154507041,-0.9759117364883423
1682451340.87988019,38195718,2,0.2181510627269745,0.0016463430365547538,0.0034866929054260254,-0.9759073853492737
1682451340.97993016,38295768,2,0.21815499663352966,0.0016058291075751185,0.0035330322571098804,-0.9759064316749573
1682451341.07994604,38395784,2,0.21801002323627472,0.0015527268406003714,0.003478463040664792,-0.9759390950202942
1682451341.17993307,38495771,2,0.21801909804344177,0.001570862135849893,0.003564033657312393,-0.9759367108345032
1682451341.27987218,38595710,2,0.21802663803100586,0.0015694343019276857,0.003501452971249819,-0.9759352803230286
1682451341.37987304,38695711,2,0.21800145506858826,0.001547854975797236,0.00351260369643569,-0.9759408831596375
1682451341.47988224,38795720,2,0.21807006001472473,0.0014769402332603931,0.0034766378812491894,-0.9759258031845093
1682451341.57987404,38895712,2,0.21814267337322235,0.0014737427700310946,0.003449090989306569,-0.9759097099304199
1682451341.67987514,38995713,2,0.21811531484127045,0.0014744193758815527,0.003468756563961506,-0.9759157299995422
1682451341.77988219,39095720,2,0.21818400919437408,0.0015150329563766718,0.0034302021376788616,-0.9759004712104797
1682451341.87992716,39195765,2,0.218099907040596,0.001495356671512127,0.0034363651648163795,-0.975919246673584
1682451341.97994614,39295784,2,0.2179386466741562,0.001543619902804494,0.003368756268173456,-0.9759554266929626
1682451342.07993507,39395773,2,0.21793213486671448,0.0015168047975748777,0.003409600118175149,-0.9759567975997925
1682451342.17987013,39495708,2,0.2178201824426651,0.0015306771965697408,0.003343952586874366,-0.9759820103645325
1682451342.27987123,39595709,2,0.21768133342266083,0.001508401590399444,0.0033770643640309572,-0.9760128855705261
1682451342.37987208,39695710,2,0.21764212846755981,0.0015309894224628806,0.003339900402352214,-0.9760217070579529
1682451342.47987008,39795708,2,0.21756359934806824,0.001503374078311026,0.0034266989678144455,-0.9760389924049377
1682451342.57987022,39895708,2,0.21746298670768738,0.001563804573379457,0.003398663131520152,-0.9760614037513733
1682451342.67988515,39995723,2,0.21746210753917694,0.0015493363607674837,0.0033678601030260324,-0.9760617017745972
1682451342.77993608,40095774,2,0.217391237616539,0.0015765270218253136,0.0033156091812998056,-0.976077675819397
1682451342.87994123,40195779,2,0.21738705039024353,0.0015834930818527937,0.0032544881105422974,-0.9760787487030029
1682451342.97993302,40295771,2,0.21750186383724213,0.0016048995312303305,0.0032934132032096386,-0.97605299949646
1682451343.07987809,40395716,2,0.2175571173429489,0.0016546145780012012,0.0032496682833880186,-0.976040780544281
1682451343.17987108,40495709,2,0.21769015491008759,0.0016928151017054915,0.0033183302730321884,-0.976010799407959
1682451343.27987218,40595710,2,0.21783006191253662,0.0017077901866286993,0.003294099122285843,-0.9759796857833862
1682451343.37987804,40695716,2,0.2178420126438141,0.0016454941360279918,0.0033075311221182346,-0.9759770631790161
1682451343.47986913,40795707,2,0.2178398072719574,0.0016924365190789104,0.003268413245677948,-0.9759775996208191
1682451343.57988620,40895724,2,0.21788260340690613,0.001694184960797429,0.0033046796452254057,-0.9759679436683655
1682451343.67993712,40995775,2,0.21782125532627106,0.0016894428990781307,0.0032578371465206146,-0.9759817719459534
1682451343.77994204,41095780,2,0.2178569734096527,0.001775669865310192,0.003277592593804002,-0.9759736061096191
1682451343.87992620,41195764,2,0.21788319945335388,0.0017660801531746984,0.003281567245721817,-0.9759677648544312
1682451343.97987223,41295710,2,0.21780066192150116,0.0017481985269114375,0.003295022761449218,-0.975986123085022
1682451344.07986903,41395707,2,0.21777929365634918,0.0017261849716305733,0.003306667087599635,-0.975990891456604
1682451344.17987108,41495709,2,0.2178572565317154,0.0017401708755642176,0.0032579158432781696,-0.9759736657142639
1682451344.27987218,41595710,2,0.21791568398475647,0.001765785738825798,0.003327449318021536,-0.9759603142738342
1682451344.37987208,41695710,2,0.21798701584339142,0.00173528166487813,0.0033076934050768614,-0.9759445190429688
1682451344.47988605,41795724,2,0.21804207563400269,0.0016916835447773337,0.0033959350548684597,-0.9759320020675659
1682451344.57992721,41895765,2,0.21800652146339417,0.001695670885965228,0.003410922596231103,-0.9759398698806763
1682451344.67997217,41995810,2,0.21795596182346344,0.00171402539126575,0.0034681300166994333,-0.9759509563446045
1682451344.77993321,42095771,2,0.21790271997451782,0.0017040554666891694,0.0034708844032138586,-0.9759628176689148
1682451344.87988019,42195718,2,0.21770814061164856,0.001706087845377624,0.0035469457507133484,-0.9760059714317322
1682451344.97987509,42295713,2,0.21769733726978302,0.0017047811998054385,0.0035962581168860197,-0.9760082364082336
1682451345.07987309,42395711,2,0.217585951089859,0.001713257166557014,0.003608981380239129,-0.9760329723358154
1682451345.17986822,42495706,2,0.21747155487537384,0.0017216139240190387,0.0036025431472808123,-0.9760584831237793
1682451345.27987313,42595711,2,0.21744729578495026,0.0017507565207779408,0.003567625069990754,-0.9760639667510986
1682451345.37988710,42695725,2,0.21744434535503387,0.0017609091009944677,0.0036350025329738855,-0.9760643839836121
1682451345.47993422,42795772,2,0.21739467978477478,0.001767300651408732,0.0036549579817801714,-0.9760753512382507
1682451345.57994103,42895779,2,0.21737325191497803,0.0017850905423983932,0.003708457574248314,-0.9760798811912537
1682451345.67993712,42995775,2,0.21727530658245087,0.0018233346054330468,0.003698111744597554,-0.9761016368865967
1682451345.77986908,43095707,2,0.2171705961227417,0.0018229124834761024,0.003754891688004136,-0.9761247634887695
1682451345.87986922,43195707,2,0.2171330749988556,0.0018611184787005186,0.0037052424158900976,-0.9761332273483276
1682451345.97987318,43295711,2,0.21710141003131866,0.001926381723023951,0.003714257152751088,-0.9761400818824768
1682451346.07987022,43395708,2,0.21708165109157562,0.0019720853306353092,0.0036825600545853376,-0.9761444926261902
1682451346.17986917,43495707,2,0.217105433344841,0.001991819590330124,0.0036713567096740007,-0.97613924741745
1682451346.27988815,43595726,2,0.21708641946315765,0.0019852337427437305,0.0036873365752398968,-0.9761434197425842
1682451346.37993503,43695773,2,0.2170267552137375,0.0019995211623609066,0.0036616164725273848,-0.9761567115783691
1682451346.47994518,43795783,2,0.2169937938451767,0.0020025367848575115,0.003678910667076707,-0.9761639833450317
1682451346.57993007,43895768,2,0.21693924069404602,0.0019941688515245914,0.003631261643022299,-0.9761763215065002
1682451346.67987108,43995709,2,0.21690769493579865,0.001976525643840432,0.0036282744258642197,-0.9761833548545837
1682451346.77987313,44095711,2,0.21687307953834534,0.001963256159797311,0.0035927777644246817,-0.9761912226676941
1682451346.87986803,44195706,2,0.21682967245578766,0.0019537925254553556,0.003609473817050457,-0.9762008190155029
1682451346.97987318,44295711,2,0.2167835235595703,0.0019712422508746386,0.0035957908257842064,-0.9762110710144043
1682451347.07987404,44395712,2,0.2167704850435257,0.001965812174603343,0.0035782060585916042,-0.9762140512466431
1682451347.17988515,44495723,2,0.21665330231189728,0.00197719968855381,0.003559859935194254,-0.9762400984764099
1682451347.27993512,44595773,2,0.21653743088245392,0.0019295687088742852,0.0035597202368080616,-0.9762659072875977
1682451347.37994623,44695784,2,0.21649490296840668,0.0019724792800843716,0.0036080253776162863,-0.9762750864028931
1682451347.47993016,44795768,2,0.21640095114707947,0.0020039821974933147,0.0036433853674679995,-0.9762957096099854
1682451347.57987523,44895713,2,0.21635736525058746,0.0019933271687477827,0.0036511567886918783,-0.976305365562439
1682451347.67988515,44995723,2,0.216398224234581,0.0020025447010993958,0.0036393331829458475,-0.9762963652610779
1682451347.77987909,45095717,2,0.21638894081115723,0.002068029250949621,0.0036801225505769253,-0.9762980937957764
1682451347.87988019,45195718,2,0.21642042696475983,0.002050701528787613,0.0036734731402248144,-0.9762911796569824
1682451347.97987318,45295711,2,0.21649552881717682,0.0020578205585479736,0.003645955352112651,-0.9762746095657349
1682451348.07988811,45395726,2,0.21649038791656494,0.0021175683941692114,0.0036036756355315447,-0.9762758016586304
1682451348.17994523,45495783,2,0.21652758121490479,0.002099468372762203,0.0036134046968072653,-0.9762675762176514
1682451348.27994204,45595780,2,0.21660740673542023,0.0021122677717357874,0.003638842608779669,-0.9762497544288635
1682451348.37993026,45695768,2,0.21659311652183533,0.0020935270003974438,0.003670254023745656,-0.9762527942657471
1682451348.47986913,45795707,2,0.21659614145755768,0.0021140461321920156,0.003658401081338525,-0.9762521386146545
1682451348.57988024,45895718,2,0.21660691499710083,0.0021606390364468098,0.0036697681061923504,-0.976249635219574
1682451348.67987919,45995717,2,0.21658340096473694,0.0021180922631174326,0.003680641297250986,-0.9762548804283142
1682451348.77988124,46095719,2,0.2166338413953781,0.0021592688281089067,0.0036666435189545155,-0.9762436747550964
1682451348.87986922,46195707,2,0.21672594547271729,0.002166747348383069,0.0036978235002607107,-0.9762230515480042
1682451348.97988510,46295723,2,0.216753289103508,0.0021536103449761868,0.003631827887147665,-0.9762172698974609
1682451349.07994723,46395785,2,0.2167602777481079,0.002152784960344434,0.0036556574050337076,-0.976215660572052
1682451349.17994714,46495785,2,0.21681693196296692,0.00218818336725235,0.0036597077269107103,-0.9762029647827148
1682451349.27993202,46595770,2,0.21678733825683594,0.0022218525409698486,0.003672566032037139,-0.9762094020843506
1682451349.37988424,46695722,2,0.2168089598417282,0.0022139567881822586,0.003641074290499091,-0.9762047529220581
1682451349.47987318,46795711,2,0.21685685217380524,0.002237224020063877,0.0036351741291582584,-0.9761940836906433
1682451349.57986903,46895707,2,0.21688561141490936,0.0022721383720636368,0.0035774533171206713,-0.9761878252029419
1682451349.67987609,46995714,2,0.21691423654556274,0.002242149319499731,0.003581081051379442,-0.9761815071105957
1682451349.77986908,47095707,2,0.21687646210193634,0.0022030440159142017,0.0036189204547554255,-0.9761898517608643
1682451349.87988424,47195722,2,0.21688280999660492,0.0021852708887308836,0.0036320628132671118,-0.9761884212493896
1682451349.97994113,47295779,2,0.21685706079006195,0.002192447427660227,0.003599522402510047,-0.9761942625045776
1682451350.07994509,47395783,2,0.21682439744472504,0.00220083468593657,0.0035766726359725,-0.976201593875885
1682451350.17993307,47495771,2,0.21678782999515533,0.0021987746004015207,0.0035809390246868134,-0.9762097001075745
1682451350.27987623,47595714,2,0.21678757667541504,0.0021919584833085537,0.003593939822167158,-0.9762097001075745
1682451350.37987113,47695709,2,0.2167443186044693,0.002211175858974457,0.0035604778677225113,-0.9762194156646729
1682451350.47987413,47795712,2,0.21668006479740143,0.0022018789313733578,0.003553684800863266,-0.976233720779419
1682451350.57987022,47895708,2,0.21668940782546997,0.0021694800816476345,0.0035653477534651756,-0.9762316942214966
1682451350.67987323,47995711,2,0.21667662262916565,0.0021255919709801674,0.003600670723244548,-0.976234495639801
1682451350.77989316,48095731,2,0.2166534960269928,0.002149745123460889,0.0035916694905608892,-0.9762396216392517
1682451350.87994003,48195778,2,0.21667852997779846,0.002197078661993146,0.0035354862920939922,-0.9762341380119324
1682451350.97994518,48295783,2,0.21669350564479828,0.0021586010698229074,0.0035243697930127382,-0.9762309193611145
1682451351.07993817,48395776,2,0.21668335795402527,0.002142165321856737,0.00354481628164649,-0.9762331247329712
1682451351.17987919,48495717,2,0.2167777717113495,0.0021123155020177364,0.003511041635647416,-0.9762123823165894
1682451351.27988124,48595719,2,0.2167835831642151,0.002099192002788186,0.003572646761313081,-0.97621089220047
1682451351.37987423,48695712,2,0.216767355799675,0.0020985433366149664,0.003534059040248394,-0.9762146472930908
1682451351.47986817,48795706,2,0.2168177217245102,0.002110198838636279,0.003543966682627797,-0.9762033820152283
1682451351.57986903,48895707,2,0.21676145493984222,0.00213792291469872,0.0034863378386944532,-0.9762160181999207
1682451351.67990613,48995744,2,0.21671973168849945,0.0021288073621690273,0.003492741845548153,-0.9762253165245056
1682451351.77993917,49095777,2,0.21670636534690857,0.0020952580962330103,0.0035074264742434025,-0.9762282967567444
1682451351.87994003,49195778,2,0.2167329490184784,0.0020943479612469673,0.0034942016936838627,-0.9762224555015564
1682451351.97993803,49295776,2,0.21674154698848724,0.0020351323764771223,0.0035422416403889656,-0.9762204885482788
1682451352.07988310,49395721,2,0.21676723659038544,0.0020232824608683586,0.0035359819885343313,-0.9762148261070251
1682451352.17987108,49495709,2,0.21676062047481537,0.001959949266165495,0.0035235995892435312,-0.9762164354324341
1682451352.27987409,49595712,2,0.21679019927978516,0.0019502603681758046,0.0035286566708236933,-0.9762098789215088
1682451352.37987113,49695709,2,0.21676908433437347,0.001862605451606214,0.003526784712448716,-0.9762147665023804
1682451352.47987008,49795708,2,0.21669133007526398,0.001778566394932568,0.0035294212866574526,-0.9762321710586548
1682451352.57988405,49895722,2,0.21663470566272736,0.0017459659138694406,0.0034979553893208504,-0.9762449264526367
1682451352.67993808,49995776,2,0.21656210720539093,0.0017378204502165318,0.0034863485489040613,-0.9762610793113708
1682451352.77996111,50095799,2,0.2165410816669464,0.0017179219285026193,0.003419918939471245,-0.9762660264968872
1682451352.87993026,50195768,2,0.21648460626602173,0.0017046085558831692,0.0034013986587524414,-0.9762786030769348
1682451352.97987223,50295710,2,0.2164202779531479,0.0016770041547715664,0.0033598379231989384,-0.9762930870056152
1682451353.07987618,50395714,2,0.2163597047328949,0.0016397902509197593,0.0033348780125379562,-0.9763066172599792
1682451353.17987418,50495712,2,0.21637679636478424,0.0016592794563621283,0.003291834844276309,-0.976302981376648
1682451353.27987719,50595715,2,0.2164583057165146,0.0016468137037009,0.0032687049824744463,-0.9762849807739258
1682451353.37988114,50695719,2,0.2165701538324356,0.0016453764401376247,0.0033006854355335236,-0.9762600660324097
1682451353.47988319,50795721,2,0.21662001311779022,0.0017043042462319136,0.0032750607933849096,-0.9762490391731262
1682451353.57993817,50895776,2,0.21667790412902832,0.0017306646332144737,0.003337341593578458,-0.9762359261512756
1682451353.67995119,50995789,2,0.21671262383460999,0.0017463027033954859,0.003259121673181653,-0.9762284159660339
1682451353.77993417,51095772,2,0.21664263308048248,0.001786602777428925,0.003260386409237981,-0.9762439131736755
1682451353.87987113,51195709,2,0.21657977998256683,0.0017669574590399861,0.0032437180634588003,-0.9762579202651978
1682451353.97987413,51295712,2,0.2165290117263794,0.00177151954267174,0.003219212405383587,-0.9762692451477051
1682451354.07987118,51395709,2,0.21647077798843384,0.0018052943050861359,0.00324938609264791,-0.976282000541687
1682451354.17987204,51495710,2,0.2164686918258667,0.001810343936085701,0.0032279707957059145,-0.97628253698349
1682451354.27987719,51595715,2,0.21640606224536896,0.0017498404486104846,0.0032423846423625946,-0.9762964844703674
1682451354.37994313,51695781,2,0.21637512743473053,0.001697894069366157,0.003243647050112486,-0.9763034582138062
1682451354.47993517,51795773,2,0.21631929278373718,0.0016935555031523108,0.003230541478842497,-0.9763158559799194
1682451354.57994723,51895785,2,0.2163034975528717,0.0017324931686744094,0.0031809546053409576,-0.976319432258606
1682451354.67993212,51995770,2,0.21632036566734314,0.0017207709606736898,0.003140887012705207,-0.9763158559799194
1682451354.77988505,52095723,2,0.21633745729923248,0.0017131143249571323,0.0030973637476563454,-0.9763122200965881
1682451354.87986922,52195707,2,0.216295525431633,0.0017497651278972626,0.003093303181231022,-0.9763214588165283
1682451354.97987318,52295711,2,0.2162623107433319,0.0017013854812830687,0.0031286105513572693,-0.9763287901878357
1682451355.07987523,52395713,2,0.21622563898563385,0.0016187531873583794,0.0030999460723251104,-0.9763371348381042
1682451355.17986917,52495707,2,0.21621334552764893,0.0016297564143314958,0.0030712613370269537,-0.9763399362564087
1682451355.27988625,52595724,2,0.21622315049171448,0.0016100284410640597,0.003033942310139537,-0.9763379096984863
1682451355.37992716,52695765,2,0.21625065803527832,0.001599048380739987,0.0030174991115927696,-0.976331889629364
1682451355.47994304,52795781,2,0.21626196801662445,0.0015715615591034293,0.0030225859954953194,-0.9763294458389282
1682451355.57993412,52895772,2,0.21626535058021545,0.0015325711574405432,0.003010369837284088,-0.9763287901878357
1682451355.67987609,52995714,2,0.21621623635292053,0.0015291894087567925,0.0029930099844932556,-0.9763396978378296
1682451355.77988410,53095722,2,0.216212198138237,0.0015544486232101917,0.0029962703119963408,-0.9763405323028564
1682451355.87988019,53195718,2,0.2161264270544052,0.0015210738638415933,0.0029966954607516527,-0.9763596057891846
1682451355.97987723,53295715,2,0.21612142026424408,0.0014780638739466667,0.003038751892745495,-0.9763606190681458
1682451356.07987022,53395708,2,0.2161567211151123,0.001421771477907896,0.003036844078451395,-0.9763529300689697
1682451356.17987919,53495717,2,0.21609117090702057,0.001292899833060801,0.0030545543413609266,-0.9763675332069397
1682451356.27992415,53595762,2,0.21603885293006897,0.0012805558508262038,0.0030377523507922888,-0.9763792157173157
1682451356.37994409,53695782,2,0.2160097360610962,0.0013148904545232654,0.0030234649311751127,-0.9763856530189514
1682451356.47993922,53795777,2,0.2159820944070816,0.0012994916178286076,0.0030171857215464115,-0.9763917922973633
1682451356.57987022,53895708,2,0.21595726907253265,0.001232949667610228,0.003011200809851289,-0.9763973951339722
1682451356.67987418,53995712,2,0.21589171886444092,0.0012357084779068828,0.002980167046189308,-0.9764119982719421
1682451356.77988124,54095719,2,0.21586064994335175,0.0012892555678263307,0.0029461670201271772,-0.9764189124107361
1682451356.87987304,54195711,2,0.21580973267555237,0.0012756541837006807,0.002968155313283205,-0.9764301180839539
1682451356.97987223,54295710,2,0.21573875844478607,0.0012510031228885055,0.002988798078149557,-0.976445734500885
1682451357.07988405,54395722,2,0.21567703783512115,0.0013012874405831099,0.0029718726873397827,-0.9764593839645386
1682451357.17992115,54495759,2,0.21566323935985565,0.0012967305956408381,0.0029650989454239607,-0.9764624238014221
1682451357.27994609,54595784,2,0.21565717458724976,0.0012605669908225536,0.0029565023723989725,-0.9764638543128967
1682451357.37993622,54695774,2,0.21561747789382935,0.0012033162638545036,0.002958359895274043,-0.9764726758003235
1682451357.47986817,54795706,2,0.21558356285095215,0.0011898813536390662,0.0029923073016107082,-0.9764800667762756
1682451357.57987618,54895714,2,0.21553626656532288,0.0011233246186748147,0.0030126560013741255,-0.9764905571937561
1682451357.67987609,54995714,2,0.21546024084091187,0.001162456115707755,0.00300807598978281,-0.976507306098938
1682451357.77986813,55095706,2,0.2155032753944397,0.0011843027314171195,0.003025928745046258,-0.9764977097511292
1682451357.87987304,55195711,2,0.21551086008548737,0.0012268167920410633,0.0029913426842540503,-0.9764961004257202
1682451357.97988725,55295725,2,0.21544377505779266,0.001242856029421091,0.003021835582330823,-0.976510763168335
1682451358.07992411,55395762,2,0.2154596745967865,0.0012346470030024648,0.0030268330592662096,-0.9765072464942932
1682451358.17995811,55495796,2,0.2154283970594406,0.0012346651637926698,0.0030212239362299442,-0.9765141606330872
1682451358.27993107,55595769,2,0.21536137163639069,0.0011469251476228237,0.0029615105595439672,-0.9765292406082153
1682451358.37987518,55695713,2,0.2153366208076477,0.0011317681055516005,0.002969479886814952,-0.9765347242355347
1682451358.47988820,55795726,2,0.21526052057743073,0.0011270283721387386,0.0029616544488817453,-0.9765515327453613
1682451358.57986903,55895707,2,0.21514974534511566,0.0011722864583134651,0.002958721714094281,-0.9765759110450745
1682451358.67987108,55995709,2,0.2150927037000656,0.0011668981751427054,0.0029550858307629824,-0.9765884876251221
1682451358.77987218,56095710,2,0.21509963274002075,0.0011704247444868088,0.0029633597005158663,-0.9765869379043579
1682451358.87987804,56195716,2,0.21515697240829468,0.0011951073538511992,0.002929606009274721,-0.9765743613243103
1682451358.97992611,56295764,2,0.21520747244358063,0.0012032563099637628,0.002891754964366555,-0.9765633344650269
1682451359.07995009,56395788,2,0.21520717442035675,0.0011889528250321746,0.0028494063299149275,-0.9765635132789612
1682451359.17993212,56495770,2,0.21522493660449982,0.0011943974532186985,0.002840809291228652,-0.9765596389770508
1682451359.27987218,56595710,2,0.21524183452129364,0.0011614469112828374,0.0028378572314977646,-0.9765559434890747
1682451359.37988114,56695719,2,0.2152642160654068,0.0011562248691916466,0.0028050753753632307,-0.9765511155128479
1682451359.47987509,56795713,2,0.2152552455663681,0.0012181273195892572,0.002788068726658821,-0.9765530824661255
1682451359.57987022,56895708,2,0.21531860530376434,0.0011984456796199083,0.0027797843795269728,-0.976539134979248
1682451359.67987609,56995714,2,0.2153048813343048,0.0012140076141804457,0.0027649891562759876,-0.9765422344207764
1682451359.77988315,57095721,2,0.21534383296966553,0.001206996152177453,0.0027845813892781734,-0.9765335917472839
1682451359.87991810,57195756,2,0.21532826125621796,0.001179358223453164,0.002817961387336254,-0.9765369296073914
1682451359.97994518,57295783,2,0.21538421511650085,0.0011862204410135746,0.0028100337367504835,-0.9765246510505676
1682451360.07993507,57395773,2,0.21534936130046844,0.0012206526007503271,0.002860129112377763,-0.9765321016311646
1682451360.17986917,57495707,2,0.21530742943286896,0.0012269081780686975,0.002890143310651183,-0.97654128074646
1682451360.27987313,57595711,2,0.21532490849494934,0.0012343836715444922,0.002900924300774932,-0.9765373468399048
1682451360.37987113,57695709,2,0.21524377167224884,0.0012519342126324773,0.0028795795515179634,-0.9765552878379822
1682451360.47986913,57795707,2,0.2152096927165985,0.0012664978858083487,0.0028743683360517025,-0.9765627980232239
1682451360.57986903,57895707,2,0.21509216725826263,0.0012572730192914605,0.002874104306101799,-0.9765887260437012
1682451360.67988324,57995721,2,0.21499310433864594,0.0012581124901771545,0.002844307105988264,-0.9766106009483337
1682451360.77992415,58095762,2,0.21490518748760223,0.0012768054148182273,0.002850723685696721,-0.976629912853241
1682451360.87994123,58195779,2,0.21480800211429596,0.0013356938725337386,0.002831131685525179,-0.9766513109207153
1682451360.97993112,58295769,2,0.21468883752822876,0.0013088941341266036,0.0028284480795264244,-0.9766775369644165
1682451361.07987618,58395714,2,0.21459747850894928,0.0013606867287307978,0.0028527022805064917,-0.9766974449157715
1682451361.17987823,58495716,2,0.21452704071998596,0.0013185655698180199,0.002839241176843643,-0.9767130613327026
1682451361.27988315,58595721,2,0.21445925533771515,0.001346510834991932,0.002907490823417902,-0.9767276644706726
1682451361.37988305,58695721,2,0.2143915593624115,0.0013310270151123405,0.0029495779890567064,-0.9767424464225769
1682451361.47987103,58795709,2,0.21437089145183563,0.0013890017289668322,0.002949714194983244,-0.9767469167709351
1682451361.57988405,58895722,2,0.21439626812934875,0.0013445690274238586,0.002896748250350356,-0.9767415523529053
1682451361.67992806,58995766,2,0.2144145667552948,0.0013557790080085397,0.0029218129348009825,-0.9767374396324158
1682451361.77994323,59095781,2,0.21439099311828613,0.001324119628407061,0.0029491258319467306,-0.9767425656318665
1682451361.87992811,59195766,2,0.2143954634666443,0.001288053928874433,0.003002242185175419,-0.9767414927482605
1682451361.97988105,59295719,2,0.2143949270248413,0.0012939480366185308,0.003010186366736889,-0.9767415523529053
1682451362.07988620,59395724,2,0.21441011130809784,0.0013454026775434613,0.003028211649507284,-0.9767380952835083
1682451362.17988014,59495718,2,0.21439354121685028,0.0013317400589585304,0.00303801242262125,-0.9767417311668396
1682451362.27987409,59595712,2,0.21429987251758575,0.0013542771339416504,0.003006539074704051,-0.9767623543739319
1682451362.37987208,59695710,2,0.21428844332695007,0.0013968931743875146,0.003063993062824011,-0.9767646193504333
1682451362.47988319,59795721,2,0.2142481505870819,0.0014148232294246554,0.0031141957733780146,-0.9767732620239258
1682451362.57992220,59895760,2,0.21426883339881897,0.0014032138278707862,0.0031389370560646057,-0.9767686724662781
1682451362.67995024,59995788,2,0.21420440077781677,0.001330128638073802,0.0030990224331617355,-0.976783037185669
1682451362.77993321,60095771,2,0.21415840089321136,0.0013227718882262707,0.003105174284428358,-0.976793110370636
1682451362.87986922,60195707,2,0.21411338448524475,0.0012572506675496697,0.003122844733297825,-0.9768030047416687
1682451362.97987819,60295716,2,0.21408136188983917,0.0012468044878914952,0.003117057029157877,-0.9768100380897522
1682451363.07987309,60395711,2,0.21402350068092346,0.001210626563988626,0.003182417945936322,-0.976822555065155
1682451363.17986917,60495707,2,0.21403230726718903,0.0013076075119897723,0.003224189393222332,-0.9768204092979431
1682451363.27987218,60595710,2,0.21398673951625824,0.001293727196753025,0.003257281379774213,-0.9768303036689758
1682451363.37988520,60695723,2,0.21396487951278687,0.0013189571909606457,0.0032486782874912024,-0.9768350720405579
1682451363.47992325,60795761,2,0.21399416029453278,0.0012964169727638364,0.0032293745316565037,-0.9768287539482117
1682451363.57994223,60895780,2,0.21402689814567566,0.0012827303726226091,0.003266074927523732,-0.9768214821815491
1682451363.67993903,60995777,2,0.2140052169561386,0.00123310717754066,0.0032970737665891647,-0.9768261909484863
1682451363.77986813,61095706,2,0.21400411427021027,0.0012524042977020144,0.0032932511530816555,-0.9768264293670654
1682451363.87987518,61195713,2,0.21401681005954742,0.0012252568267285824,0.0033324980176985264,-0.9768235087394714
1682451363.97988224,61295720,2,0.21401536464691162,0.0012087675277143717,0.0033490341156721115,-0.9768238067626953
1682451364.07987213,61395710,2,0.21408458054065704,0.0012408585753291845,0.003351181047037244,-0.9768086075782776
1682451364.17987108,61495709,2,0.2140996754169464,0.0012490005465224385,0.003376514883711934,-0.9768052101135254
1682451364.27988911,61595727,2,0.21409229934215546,0.0012348837917670608,0.0034230989404022694,-0.976806640625
1682451364.37992406,61695762,2,0.2141525000333786,0.0012752062175422907,0.0034502665512263775,-0.9767932891845703
1682451364.47996116,61795799,2,0.21417951583862305,0.0013251870404928923,0.003410905599594116,-0.9767874479293823
1682451364.57993007,61895768,2,0.2142534852027893,0.001346628530882299,0.0033889447804540396,-0.9767712950706482
1682451364.67988205,61995720,2,0.21426205337047577,0.0013898180332034826,0.003370170248672366,-0.9767693877220154
1682451364.77987814,62095716,2,0.2142786979675293,0.001362527022138238,0.0033708997070789337,-0.9767658114433289
1682451364.87987804,62195716,2,0.2142537236213684,0.0013473198050633073,0.0033779414370656013,-0.9767712950706482
1682451364.97987604,62295714,2,0.21429479122161865,0.0013440536567941308,0.0033661227207630873,-0.9767622947692871
1682451365.07987523,62395713,2,0.21429450809955597,0.0012885730247944593,0.0033533175010234118,-0.9767624735832214
1682451365.17988014,62495718,2,0.21429549157619476,0.0012901783920824528,0.0033580255694687366,-0.9767622351646423
1682451365.27993011,62595768,2,0.2142501175403595,0.0012716589262709022,0.003426062874495983,-0.9767720103263855
1682451365.37994623,62695784,2,0.21423226594924927,0.0012211971916258335,0.0034344333689659834,-0.9767759442329407
1682451365.47993016,62795768,2,0.21423444151878357,0.0011421596864238381,0.0034767792094498873,-0.9767754077911377
1682451365.57987714,62895715,2,0.21416707336902618,0.001118187909014523,0.003513076575472951,-0.9767900705337524
1682451365.67989516,62995733,2,0.21410703659057617,0.0011194691760465503,0.0035012976732105017,-0.9768033027648926
1682451365.77987313,63095711,2,0.21406088769435883,0.0010853377170860767,0.0035376271698623896,-0.9768133163452148
1682451365.87987208,63195710,2,0.2140117734670639,0.0011026404099538922,0.0035431785508990288,-0.9768240451812744
1682451365.97987413,63295712,2,0.21400344371795654,0.0011305686784908175,0.0035156516823917627,-0.9768259525299072
1682451366.07989120,63395729,2,0.214009627699852,0.001111708115786314,0.0035220205318182707,-0.9768245816230774
1682451366.17992806,63495766,2,0.21406400203704834,0.0011241594329476357,0.003518272191286087,-0.9768126606941223
1682451366.27996802,63595806,2,0.21410924196243286,0.0010499292984604836,0.0034638275392353535,-0.9768030047416687
1682451366.37993503,63695773,2,0.2141704261302948,0.0010204488644376397,0.003395490348339081,-0.9767898917198181
1682451366.47987103,63795709,2,0.2141353338956833,0.000991653767414391,0.0034061160404235125,-0.9767975807189941
1682451366.57988119,63895719,2,0.21415632963180542,0.0009835092350840569,0.0033435469958931208,-0.9767931699752808
1682451366.67987823,63995716,2,0.21415360271930695,0.0009584944928064942,0.0032807542011141777,-0.9767940044403076
1682451366.77987504,64095713,2,0.2141653150320053,0.0009297514916397631,0.0032594746444374323,-0.9767915606498718
1682451366.87987423,64195712,2,0.21416877210140228,0.0008855881751514971,0.00328247738070786,-0.976790726184845
1682451366.97988510,64295723,2,0.21418815851211548,0.0008993461960926652,0.003300256561487913,-0.9767864346504211
1682451367.07993221,64395770,2,0.2141827642917633,0.0008819703944027424,0.003307952079921961,-0.9767876267433167
1682451367.17994308,64495781,2,0.214182510972023,0.0008910858887247741,0.0032626609317958355,-0.976787805557251
1682451367.27993417,64595772,2,0.21419794857501984,0.0009024573373608291,0.0032678586430847645,-0.9767844080924988
