timestamp,TimeUS,C,Roll,Pitch,Yaw,VN,VE,VD,dPD,PN,PE,PD,GX,GY,GZ,OH
1682451314.17995620,11495794,2,0.0,0.0,0.0,0.0,0.0,0.0,0.0,0.0,0.0,0.0,0.0,0.0,0.0,0.0
1682451314.27989507,11595733,2,0.0,0.0,0.0,0.0,0.0,0.0,0.0,0.0,0.0,0.0,0.0,0.0,0.0,0.0
1682451314.37991118,11695749,2,0.0,0.0,0.0,0.0,0.0,0.0,0.0,0.0,0.0,0.0,0.0,0.0,0.0,0.0
1682451314.47989321,11795731,2,0.0,0.0,0.0,0.0,0.0,0.0,0.0,0.0,0.0,0.0,0.0,0.0,0.0,0.0
1682451314.57989407,11895732,2,0.0,0.0,0.0,0.0,0.0,0.0,0.0,0.0,0.0,0.0,0.0,0.0,0.0,0.0
1682451314.67988825,11995726,2,0.0,0.0,0.0,0.0,0.0,0.0,0.0,0.0,0.0,0.0,0.0,0.0,0.0,0.0
1682451314.77989507,12095733,2,0.0,0.0,0.0,0.0,0.0,0.0,0.0,0.0,0.0,0.0,0.0,0.0,0.0,0.0
1682451314.87994123,12195779,2,0.0,0.0,0.0,0.0,0.0,0.0,0.0,0.0,0.0,0.0,0.0,0.0,0.0,0.0
1682451314.97995615,12295794,2,0.0,0.0,0.0,0.0,0.0,0.0,0.0,0.0,0.0,0.0,0.0,0.0,0.0,0.0
1682451315.07995105,12395789,2,0.0,0.0,0.0,0.0,0.0,0.0,0.0,0.0,0.0,0.0,0.0,0.0,0.0,0.0
1682451315.17988110,12495719,2,-0.33,0.06,359.99,0.006183256395161152,0.0013285382883623242,0.017022084444761276,0.005945321172475815,0.0,0.0,0.0006957685691304505,0.0,0.0,0.0,0.0
1682451315.27989411,12595732,2,-0.33,0.06,359.98,0.008671347983181477,-0.002268596086651087,0.06040463224053383,0.036328431218862534,0.0,0.0,0.0049034226685762405,0.0,0.0,0.0,0.0
1682451315.37989426,12695732,2,-0.33,0.05,359.98,0.012945011258125305,-0.0004481396172195673,0.10782969743013382,-0.3128878176212311,0.0,0.0,-0.03263729065656662,0.0,0.0,0.0,0.0
1682451315.47988009,12795718,2,-0.32,0.05,359.98,0.016210488975048065,-0.002103267004713416,0.1407558023929596,-0.27880361676216125,0.0,0.0,-0.04759367182850838,0.0,0.0,0.0,0.0
1682451315.57988310,12895721,2,-0.32,0.05,359.97,0.01919545605778694,-0.00033827227889560163,0.1657702624797821,0.058638542890548706,0.0,0.0,-0.03636414557695389,0.0,0.0,0.0,0.0
1682451315.67990923,12995747,2,-0.31,0.04,359.96,0.02321625128388405,-0.0009292378672398627,0.1842932105064392,0.28784117102622986,0.0,0.0,-0.01301922369748354,0.0,0.0,0.0,0.0
1682451315.77993512,13095773,2,-0.32,0.04,359.95,0.024231500923633575,-3.057184585486539e-05,0.19628030061721802,0.3174370527267456,0.0,0.0,0.009333789348602295,0.0,0.0,0.0,0.0
1682451315.87995219,13195790,2,-0.31,0.03,359.95,0.029771598055958748,0.0003695944033097476,0.20266029238700867,0.24217776954174042,0.0,0.0,0.02785373479127884,0.0,0.0,0.0,0.0
1682451315.97994304,13295781,2,-0.32,0.03,359.94,0.03210524097084999,-0.000665613217279315,0.20890262722969055,0.19956137239933014,0.0,0.0,0.04658566042780876,0.0,0.0,0.0,0.0
1682451316.07989311,13395731,2,-0.31,0.04,359.94,0.03727792948484421,-7.473705045413226e-05,0.21285119652748108,0.1954759955406189,0.0,0.0,0.06598614901304245,0.0,0.0,0.0,0.0
1682451316.17989111,13495729,2,-0.31,0.04,359.93,0.0388360433280468,-0.00135220552328974,0.215094193816185,0.1724512279033661,0.0,0.0,0.08270598948001862,0.0,0.0,0.0,0.0
1682451316.27988505,13595723,2,-0.3,0.04,359.93,0.04117313027381897,5.660395618178882e-05,0.21474717557430267,0.11694613099098206,0.0,0.0,0.09448621422052383,0.0,0.0,0.0,0.0
1682451316.37988424,13695722,2,-0.31,0.06,359.93,0.04220876097679138,-0.0005731484852731228,0.2144661843776703,0.09239483624696732,0.0,0.0,0.10599096864461899,0.0,0.0,0.0,0.0
1682451316.47988009,13795718,2,-0.31,0.06,359.92,0.041844747960567474,0.0007365444325841963,0.210760235786438,0.05840117856860161,0.0,0.0,0.1124318465590477,0.0,0.0,0.0,0.0
1682451316.57989407,13895732,2,-0.3,0.08,359.92,0.04160432890057564,-0.00016490169218741357,0.20605862140655518,0.01723257079720497,0.0,0.0,0.11649668961763382,0.0,0.0,0.0,0.0
1682451316.67993402,13995772,2,-0.3,0.09,359.91,0.03975147381424904,0.0009137086453847587,0.20103366672992706,0.011341139674186707,0.0,0.0,0.11951183527708054,0.0,0.0,0.0,0.0
1682451316.77996922,14095807,2,-0.28,0.1,359.91,0.037044454365968704,0.00037425788468681276,0.1956213116645813,-0.004226080607622862,0.0,0.0,0.12042155116796494,0.0,0.0,0.0,0.0
1682451316.87993908,14195777,2,-0.29,0.11,359.90000000000003,0.03461005911231041,0.0014416745398193598,0.18870531022548676,-0.04115668684244156,0.0,0.0,0.11723184585571289,0.0,0.0,0.0,0.0
1682451316.97989511,14295733,2,-0.28,0.19,203.73000000000002,0.02978455275297165,-0.000567512062843889,0.18324723839759827,-0.0428844653069973,0.0,0.0,0.11568184196949005,0.0,0.0,0.0,0.0
1682451317.07989311,14395731,2,-0.29,0.17,203.74,0.021712366491556168,-0.001824093866162002,0.1795857846736908,0.011665042489767075,0.0,0.0,0.11860381066799164,0.0,0.0,0.0,0.0
1682451317.17988014,14495718,2,-0.28,0.15,203.78,0.01501445658504963,-0.005700828041881323,0.17574143409729004,0.05145011469721794,0.0,0.0,0.12321491539478302,0.0,0.0,0.0,0.0
1682451317.27988815,14595726,2,-0.27,0.15,203.85,0.008336860686540604,-0.0063924845308065414,0.17298196256160736,0.05971343070268631,0.0,0.0,0.12805208563804626,0.0,0.0,0.0,0.0
1682451317.37988925,14695727,2,-0.27,0.13,204.01,0.0015064012259244919,-0.010250847786664963,0.1677899956703186,0.01665409281849861,0.0,0.0,0.1280919909477234,0.0,0.0,0.0,0.0
1682451317.47993112,14795769,2,-0.26,0.13,204.18,0.0029377827886492014,-0.009130888618528843,0.1598862111568451,-0.043718621134757996,0.0,0.0,0.12375379353761673,0.0,0.0,0.0,0.0
1682451317.57994103,14895779,2,-0.27,0.14,204.29,-0.006863636430352926,-0.013636382296681404,0.15378694236278534,-0.07855109870433807,0.0,0.0,0.11736491322517395,0.0,0.0,0.0,0.0
1682451317.67995811,14995796,2,-0.25,0.14,204.37,-0.0047024148516356945,-0.013730619102716446,0.14533928036689758,-0.09341032803058624,0.0,0.0,0.11001534759998322,0.0,0.0,0.0,0.0
1682451317.77994514,15095783,2,-0.26,0.14,204.41,-0.01424545980989933,-0.01796978898346424,0.14079207181930542,-0.04965924099087715,0.0,0.0,0.10809747874736786,0.0,0.0,0.0,0.0
1682451317.87988710,15195725,2,-0.25,0.13,204.43,-0.009010493755340576,-0.01594531536102295,0.13692037761211395,-0.0034496088046580553,0.0,0.0,0.10703762620687485,0.0,0.0,0.0,0.0
1682451317.97990823,15295746,2,-0.25,0.15,204.42000000000002,-0.020316487178206444,-0.020967761054635048,0.13118451833724976,-0.01530084665864706,0.0,0.0,0.10467885434627533,0.0,0.0,0.0,0.0
1682451318.07988024,15395718,2,-0.25,0.14,204.4,-0.014155068434774876,-0.01948683336377144,0.12417881935834885,-0.04990145564079285,0.0,0.0,0.09888292104005814,0.0,0.0,0.0,0.0
1682451318.17988324,15495721,2,-0.25,0.17,204.38,-0.017890196293592453,-0.020467493683099747,0.11563906073570251,-0.10575762391090393,0.0,0.0,0.08881637454032898,0.0,0.0,0.0,0.0
1682451318.27988315,15595721,2,-0.25,0.15,204.36,-0.028002485632896423,-0.024508647620677948,0.10719390213489532,-0.1394902914762497,0.0,0.0,0.07674863934516907,0.0,0.0,0.0,0.0
1682451318.37992120,15695759,2,-0.24,0.14,204.39000000000001,-0.021561430767178535,-0.021134784445166588,0.09924477338790894,-0.11380817741155624,0.0,0.0,0.06776823103427887,0.0,0.0,-0.01,0.0
1682451318.47993517,15795773,2,-0.25,0.15,204.4,-0.02443789504468441,-0.02462528832256794,0.09528034925460815,-0.036196719855070114,0.0,0.0,0.0660775676369667,0.0,0.0,-0.01,0.0
1682451318.57995605,15895794,2,-0.25,0.14,204.42000000000002,-0.022993426769971848,-0.021990669891238213,0.09160665422677994,0.012789499014616013,0.0,0.0,0.06508278101682663,0.0,0.0,-0.01,0.0
1682451318.67994523,15995783,2,-0.25,0.16,204.48000000000002,-0.021282603964209557,-0.02377428486943245,0.08711548894643784,-0.007741241250187159,0.0,0.0,0.06250669807195663,0.0,0.0,-0.02,0.0
1682451318.77988005,16095718,2,-0.26,0.16,204.5,-0.024204591289162636,-0.021938299760222435,0.0833582952618599,-0.031496621668338776,0.0,0.0,0.0581943541765213,0.0,-0.01,-0.02,0.0
1682451318.87988019,16195718,2,-0.26,0.19,204.54,-0.018896427005529404,-0.021473191678524017,0.07799679040908813,-0.04080327972769737,0.0,0.0,0.05471370369195938,0.01,-0.01,-0.03,0.0
1682451318.97988510,16295723,2,-0.26,0.19,204.59,-0.023607192561030388,-0.02286560833454132,0.07421418279409409,-0.03145255520939827,0.0,0.0,0.05192652717232704,0.01,-0.01,-0.03,0.0
1682451319.07988310,16395721,2,-0.27,0.22,204.61,-0.007498039398342371,-0.01738888770341873,0.06976626068353653,-0.02708551473915577,0.0,0.0,0.049230143427848816,0.01,-0.01,-0.04,0.0
1682451319.17988324,16495721,2,-0.28,0.23,204.64000000000001,-0.025620078667998314,-0.023897504433989525,0.06600532680749893,-0.040797505527734756,0.0,0.0,0.0447491817176342,0.01,-0.02,-0.05,0.0
1682451319.27989316,16595731,2,-0.28,0.23,204.70000000000002,-0.0055664051324129105,-0.014516526833176613,0.05628014728426933,-0.10587770491838455,0.0,0.0,0.033356115221977234,0.01,-0.02,-0.04,0.0
1682451319.37994123,16695779,2,-0.29,0.27,204.72,-0.015264753252267838,-0.016339197754859924,0.050012268126010895,-0.11115953326225281,0.0,0.0,0.02562318742275238,0.01,-0.02,-0.05,0.0
1682451319.47995305,16795791,2,-0.29,0.25,204.72,-0.00940623413771391,-0.013903127983212471,0.04639742150902748,-0.04910867661237717,0.0,0.0,0.022451018914580345,0.01,-0.02,-0.05,0.0
1682451319.57994008,16895778,2,-0.29,0.29,204.78,-0.006394413765519857,-0.010159194469451904,0.04291773959994316,-0.016120566055178642,0.0,0.0,0.019972525537014008,0.01,-0.03,-0.06,0.0
1682451319.67988920,16995727,2,-0.3,0.28,204.78,-0.009709419682621956,-0.010745852254331112,0.03954850137233734,-0.021319260820746422,0.0,0.0,0.01649489626288414,0.02,-0.03,-0.05,0.0
1682451319.77988720,17095725,2,-0.3,0.29,204.78,0.0002218793670181185,-0.004646319895982742,0.034628573805093765,-0.0335003137588501,0.0,0.0,0.012822040356695652,0.02,-0.03,-0.06,0.0
1682451319.87988710,17195725,2,-0.31,0.3,204.82,-0.006056999787688255,-0.005809725262224674,0.02873724140226841,-0.06194135174155235,0.0,0.0,0.005900196731090546,0.02,-0.03,-0.06,0.0
1682451319.97989106,17295729,2,-0.31,0.29,204.81,0.0019481135532259941,-9.73586575128138e-05,0.02483277954161167,-0.0700104609131813,0.0,0.0,0.00016163973486982286,0.02,-0.03,-0.06,0.0
1682451320.07987905,17395717,2,-0.32,0.31,204.82,0.000710733700543642,-0.001191384857520461,0.017694342881441116,-0.07916311919689178,0.0,0.0,-0.007678770925849676,0.02,-0.03,-0.06,0.0
1682451320.17988920,17495727,2,-0.32,0.3,204.83,0.0018721238011494279,0.0013192757032811642,0.012547759339213371,-0.07937859743833542,0.0,0.0,-0.014425118453800678,0.02,-0.03,-0.05,0.0
1682451320.27993608,17595774,2,-0.33,0.3,204.81,0.0048578898422420025,0.003417635103687644,0.005436354782432318,-0.09249821305274963,0.0,0.0,-0.024095891043543816,0.02,-0.03,-0.05,0.0
1682451320.37995720,17695795,2,-0.32,0.3,204.79,0.0014761597849428654,0.0040620253421366215,-0.00037055829307064414,-0.07932087033987045,0.0,0.0,-0.030080335214734077,0.02,-0.03,-0.04,0.0
1682451320.47994304,17795781,2,-0.33,0.3,204.8,0.005845765117555857,0.0068656220100820065,-0.004521751776337624,-0.0596773736178875,0.0,0.0,-0.03672286123037338,0.02,-0.03,-0.04,0.0
1682451320.57988405,17895722,2,-0.33,0.3,204.78,0.0037443116307258606,0.005739545915275812,-0.009799282066524029,-0.089802086353302,0.0,0.0,-0.04686276242136955,0.02,-0.03,-0.05,0.0
1682451320.67988515,17995723,2,-0.33,0.3,204.79,0.0037367981858551502,0.007057709153741598,-0.018597140908241272,-0.14263901114463806,0.0,0.0,-0.061254821717739105,0.02,-0.03,-0.06,0.0
1682451320.77987909,18095717,2,-0.33,0.32,204.85,0.010157851502299309,0.010013727471232414,-0.02506350539624691,-0.12743103504180908,0.0,0.0,-0.07071416825056076,0.02,-0.03,-0.08,0.0
1682451320.87988019,18195718,2,-0.33,0.31,204.85,0.002344281179830432,0.00833191443234682,-0.030481357127428055,-0.09308547526597977,0.0,0.0,-0.07998939603567123,0.02,-0.03,-0.08,0.0
1682451320.97988820,18295726,2,-0.33,0.31,204.89000000000001,0.010005266405642033,0.011087430641055107,-0.036322083324193954,-0.08544652909040451,0.0,0.0,-0.0886029377579689,0.02,-0.03,-0.07,0.0
1682451321.07989407,18395732,2,-0.33,0.32,204.92000000000002,0.0032129138708114624,0.008738321252167225,-0.04010017216205597,-0.06215595453977585,0.0,0.0,-0.0946948379278183,0.02,-0.03,-0.05,0.0
1682451321.17993116,18495769,2,-0.33,0.31,204.88,0.0077772438526153564,0.010848665609955788,-0.04062512516975403,-0.029922371730208397,0.0,0.0,-0.09817245602607727,0.02,-0.03,-0.06,0.0
1682451321.27996016,18595798,2,-0.34,0.3,204.9,0.0007106492412276566,0.008409873582422733,-0.04190191626548767,-0.020997488871216774,0.0,0.0,-0.10187621414661407,0.02,-0.03,-0.07,0.0
1682451321.37994409,18695782,2,-0.34,0.29,204.93,0.012553896754980087,0.006345196161419153,-0.04421891272068024,-0.03374115005135536,0.0,0.0,-0.10634458065032959,0.02,-0.03,-0.06,0.0
1682451321.47988009,18795718,2,-0.38,0.32,204.87,0.010617559775710106,0.015967249870300293,-0.04604795202612877,-0.026923680678009987,0.0,0.0,-0.10860709846019745,0.02,-0.03,-0.06,0.0
1682451321.57988214,18895720,2,-0.36,0.31,204.84,-0.0024382853880524635,0.0039292676374316216,-0.04621664807200432,-0.00316146994009614,0.0,0.0,-0.109035424888134,0.02,-0.03,-0.07,0.0
1682451321.67988610,18995724,2,-0.34,0.29,204.96,0.0034710941836237907,0.015696564689278603,-0.04488472267985344,0.017384128645062447,0.0,0.0,-0.10788524150848389,0.02,-0.03,-0.08,0.0
1682451321.77988124,19095719,2,-0.34,0.3,204.96,0.008806968107819557,0.004749394953250885,-0.04029045253992081,0.029517762362957,0.0,0.0,-0.10631072521209717,0.02,-0.03,-0.08,0.0
1682451321.87988114,19195719,2,-0.37,0.28,204.91,0.006156187038868666,0.01566563919186592,-0.04222350940108299,0.025760311633348465,0.0,0.0,-0.10451312363147736,0.02,-0.03,-0.08,0.0
1682451321.97990918,19295747,2,-0.32,0.29,205.01,0.0031743349973112345,0.004741928074508905,-0.043078403919935226,-0.004387522116303444,0.0,0.0,-0.10654645413160324,0.02,-0.02,-0.08,0.0
1682451322.07993507,19395773,2,-0.34,0.28,205.04,0.0023225611075758934,0.01705186441540718,-0.046469204127788544,-0.06580684334039688,0.0,0.0,-0.11365887522697449,0.02,-0.02,-0.09,0.0
1682451322.17997217,19495810,2,-0.35000000000000003,0.29,204.98000000000002,0.012644234113395214,0.005954808555543423,-0.04994930699467659,-0.09509330987930298,0.0,0.0,-0.12102638185024261,0.02,-0.02,-0.09,0.0
1682451322.27994609,19595784,2,-0.35000000000000003,0.29,205.04,-0.0031970355194061995,0.014380976557731628,-0.05302194878458977,-0.07649742066860199,0.0,0.0,-0.12655752897262573,0.02,-0.02,-0.09,0.0
1682451322.37988710,19695725,2,-0.36,0.26,205.08,0.0008254387066699564,0.0024359063245356083,-0.05857504904270172,-0.0956973060965538,0.0,0.0,-0.13643929362297058,0.02,-0.02,-0.1,0.0
1682451322.47988105,19795719,2,-0.36,0.29,205.07,0.014494204893708229,0.018972247838974,-0.06289790570735931,-0.11681238561868668,0.0,0.0,-0.1467030644416809,0.02,-0.02,-0.1,0.0
1682451322.57988214,19895720,2,-0.35000000000000003,0.29,205.06,-0.014380916953086853,-0.0011781498324126005,-0.06540507823228836,-0.08455117791891098,0.0,0.0,-0.15384216606616974,0.02,-0.02,-0.1,0.0
1682451322.67988324,19995721,2,-0.32,0.25,205.17000000000002,0.010802906937897205,0.014271155931055546,-0.0655098557472229,-0.0426478311419487,0.0,0.0,-0.15810346603393555,0.02,-0.02,-0.09,0.0
1682451322.77988005,20095718,2,-0.34,0.3,205.12,-1.569254709465895e-05,0.006273787468671799,-0.06565355509519577,-0.045005735009908676,0.0,0.0,-0.1643620878458023,0.02,-0.02,-0.07,0.0
1682451322.87989426,20195732,2,-0.31,0.26,205.02,-0.001170195173472166,0.005996176041662693,-0.06686059385538101,-0.05210188031196594,0.0,0.0,-0.16952307522296906,0.02,-0.02,-0.07,0.0
1682451322.97994304,20295781,2,-0.34,0.29,205.11,0.006545999087393284,0.008909223601222038,-0.06678935885429382,-0.026933200657367706,0.0,0.0,-0.1723061501979828,0.01,-0.02,-0.07,0.0
1682451323.07995725,20395795,2,-0.32,0.26,205.04,-0.006349035073071718,0.00298161874525249,-0.06699783354997635,-0.017489230260252953,0.0,0.0,-0.17485643923282623,0.01,-0.02,-0.08,0.0
1682451323.17993903,20495777,2,-0.34,0.27,204.99,0.009789749048650265,0.011694734916090965,-0.06737268716096878,0.0036665047518908978,0.0,0.0,-0.1745012402534485,0.01,-0.02,-0.07,0.0
1682451323.27988315,20595721,2,-0.32,0.28,205.07,-0.006106029264628887,0.001808035303838551,-0.0650281310081482,0.021773776039481163,0.0,0.0,-0.17384843528270721,0.01,-0.02,-0.06,0.0
1682451323.37988305,20695721,2,-0.33,0.26,205.0,0.009713334031403065,0.010866145603358746,-0.06331903487443924,0.02452414482831955,0.0,0.0,-0.17212128639221191,0.01,-0.02,-0.06,0.0
1682451323.47988105,20795719,2,-0.32,0.28,204.97,-0.001055642031133175,0.0013327859342098236,-0.058871567249298096,0.06274775415658951,0.0,0.0,-0.1661331057548523,0.01,-0.02,-0.07,0.0
1682451323.57988811,20895726,2,-0.31,0.26,205.05,0.002163161989301443,0.005119821522384882,-0.0543929822742939,0.0950067788362503,0.0,0.0,-0.15826518833637238,0.01,-0.02,-0.08,0.0
1682451323.67988706,20995725,2,-0.32,0.3,205.04,0.005186453927308321,0.005669637583196163,-0.05015803128480911,0.08366721868515015,0.0,0.0,-0.1520630568265915,0.01,-0.02,-0.08,0.0
1682451323.77988911,21095727,2,-0.29,0.24,205.01,-0.01539470162242651,-0.0051650842651724815,-0.04912768304347992,0.021528247743844986,0.0,0.0,-0.15160243213176727,0.01,-0.02,-0.09,0.0
1682451323.87993813,21195776,2,-0.3,0.23,205.11,0.01869969628751278,0.007017588242888451,-0.05245274305343628,-0.06996601819992065,0.0,0.0,-0.1583845466375351,0.01,-0.02,-0.08,0.0
1682451323.97995710,21295795,2,-0.3,0.27,205.12,0.0026787547394633293,0.0019137327326461673,-0.056684285402297974,-0.12343846261501312,0.0,0.0,-0.16766534745693207,0.01,-0.02,-0.08,0.0
1682451324.07994509,21395783,2,-0.32,0.26,205.09,0.0038949730806052685,0.0031889169476926327,-0.05885406211018562,-0.11017593741416931,0.0,0.0,-0.17539793252944946,0.01,-0.02,-0.08,0.0
1682451324.17988825,21495726,2,-0.3,0.28,205.16,0.002454470144584775,0.001309964107349515,-0.06179901957511902,-0.09461147338151932,0.0,0.0,-0.18385697901248932,0.01,-0.02,-0.08,0.0
1682451324.27989411,21595732,2,-0.3,0.26,205.14000000000001,0.0004986495478078723,-3.879030191455968e-05,-0.06373005360364914,-0.0878242626786232,0.0,0.0,-0.1916361153125763,0.01,-0.02,-0.08,0.0
1682451324.37988114,21695719,2,-0.28,0.26,205.09,0.0035222640726715326,-0.0010354961268603802,-0.06316619366407394,-0.039828259497880936,0.0,0.0,-0.1944780796766281,0.01,-0.02,-0.08,0.0
1682451324.47988224,21795720,2,-0.28,0.27,205.15,0.004024935886263847,-0.00025422166800126433,-0.06166831776499748,0.010900075547397137,0.0,0.0,-0.19452162086963654,0.01,-0.02,-0.07,0.0
1682451324.57988715,21895725,2,-0.24,0.28,205.14000000000001,0.010485272854566574,0.0045349556021392345,-0.0604398250579834,0.035710420459508896,0.0,0.0,-0.1924082189798355,0.01,-0.02,-0.07,0.0
1682451324.67989326,21995731,2,-0.25,0.31,205.13,0.003959383815526962,0.0016401264583691955,-0.058018241077661514,0.04964815080165863,0.0,0.0,-0.18922366201877594,0.01,-0.02,-0.07,0.0
1682451324.77994013,22095778,2,-0.29,0.29,205.17000000000002,0.0041931928135454655,-0.0032523060217499733,-0.05728418380022049,0.03576980531215668,0.0,0.0,-0.18732628226280212,0.01,-0.02,-0.08,0.0
1682451324.87995815,22195796,2,-0.25,0.31,205.19,0.008485492318868637,0.006427759770303965,-0.05530119687318802,0.03222331777215004,0.0,0.0,-0.183773934841156,0.01,-0.02,-0.08,0.0
1682451324.97994304,22295781,2,-0.23,0.32,205.20000000000002,0.0007381453760899603,-0.0003010905929841101,-0.05321533605456352,0.03625829517841339,0.0,0.0,-0.18121246993541718,0.01,-0.02,-0.08,0.0
1682451325.07988524,22395723,2,-0.2,0.32,205.22,0.0021541097667068243,0.00225827656686306,-0.05313826724886894,0.024012956768274307,0.0,0.0,-0.1786813586950302,0.01,-0.02,-0.08,0.0
1682451325.17988014,22495718,2,-0.35000000000000003,0.29,205.18,-0.005716920364648104,-0.010405238717794418,-0.050776608288288116,0.03334915265440941,0.0,0.0,-0.1754983812570572,0.01,-0.02,-0.08,0.0
1682451325.27988410,22595722,2,-0.26,0.29,205.15,0.010409536771476269,0.011595109477639198,-0.04793331027030945,0.0642625242471695,0.0,0.0,0.0115128792822361,0.01,-0.02,-0.08,261.81
1682451325.37988520,22695723,2,-0.36,0.31,205.21,-0.0024332269094884396,-0.006114853546023369,-0.04563826322555542,0.07500729709863663,0.0,0.0,0.01735900714993477,0.01,-0.02,-0.07,261.81
1682451325.47988105,22795719,2,-0.26,0.28,205.17000000000002,0.005059365648776293,0.005480315536260605,-0.04148054122924805,0.09179458767175674,0.011131884530186653,0.0,0.026449475437402725,0.01,-0.02,-0.07,261.81
1682451325.57989407,22895732,2,-0.36,0.3,205.14000000000001,0.006424493622034788,0.0005523102008737624,-0.03691303730010986,0.15131577849388123,0.011131884530186653,0.0,0.04156700149178505,0.01,-0.02,-0.07,261.81
1682451325.67994523,22995783,2,-0.27,0.28,205.18,-0.0035450609866529703,-0.0017135594971477985,-0.030247345566749573,0.14469562470912933,0.04452753812074661,0.008180002681910992,0.0520138181746006,0.01,-0.02,-0.07,261.81
1682451325.77995515,23095793,2,-0.37,0.3,205.15,0.014442097395658493,0.007789075840264559,-0.027779659256339073,0.09434068202972412,0.04452753812074661,0.008180002681910992,0.060451310127973557,0.01,-0.02,-0.07,261.81
1682451325.87995005,23195788,2,-0.28,0.3,205.12,-0.0029866343829780817,-0.0033627129159867764,-0.02347392961382866,0.08208851516246796,0.04452753812074661,0.008180002681910992,0.06922253966331482,0.01,-0.02,-0.07,261.81
1682451325.97989416,23295732,2,-0.35000000000000003,0.29,205.15,0.010834252461791039,0.010508598759770393,-0.01913176290690899,0.09921877086162567,0.04452753812074661,0.008180002681910992,0.08004744350910187,0.01,-0.02,-0.06,261.81
1682451326.07988024,23395718,2,-0.3,0.31,205.13,0.0031962976790964603,-0.004184603225439787,-0.016222024336457253,0.10108834505081177,0.04452753812074661,0.0,0.08990594744682312,0.01,-0.02,-0.06,261.81
1682451326.17988610,23495724,2,-0.34,0.29,205.1,0.005505638662725687,0.009471321478486061,-0.013711490668356419,0.05948295444250107,0.04452753812074661,0.0,0.09437993168830872,0.01,-0.02,-0.07,261.81
1682451326.27989316,23595731,2,-0.32,0.31,205.16,0.01004105620086193,-0.003401741851121187,-0.011869148351252079,0.03631728142499924,0.04452753812074661,0.0,0.09975425899028778,0.01,-0.02,-0.07,261.81
1682451326.37988019,23695718,2,-0.31,0.3,205.15,0.004450300708413124,0.009804674424231052,-0.00855488982051611,0.06550648808479309,0.04452753812074661,0.0,0.10785870254039764,0.01,-0.02,-0.07,261.81
1682451326.47989511,23795733,2,-0.33,0.31,205.15,0.01592070795595646,-3.381833084858954e-05,-0.0058759720996022224,0.09120744466781616,0.04452753812074661,0.0,0.11598667502403259,0.01,-0.02,-0.07,261.81
1682451326.57994723,23895785,2,-0.3,0.31,205.20000000000002,0.002999587683007121,0.007247583940625191,-0.0022977048065513372,0.1039268970489502,0.04452753812074661,0.0,0.12570074200630188,0.01,-0.02,-0.07,261.81
1682451326.67995715,23995795,2,-0.34,0.31,205.19,0.015623806044459343,0.0020292962435632944,-0.001073191873729229,0.08678697049617767,0.04452753812074661,0.0,0.13333222270011902,0.01,-0.02,-0.07,261.81
1682451326.77994204,24095780,2,-0.28,0.32,205.19,0.004842332098633051,0.005210125353187323,0.0020415049511939287,0.0790892168879509,0.04452753812074661,0.0,0.14152643084526062,0.01,-0.02,-0.07,261.81
1682451326.87987924,24195717,2,-0.34,0.3,205.25,0.013085058890283108,0.0035317507572472095,0.0029712810646742582,0.05390402302145958,0.04452753812074661,0.0,0.14628206193447113,0.01,-0.02,-0.08,261.81
1682451326.97989011,24295728,2,-0.27,0.31,205.24,0.010172609239816666,0.00504171010106802,0.0028987624682486057,0.00500647583976388,0.04452753812074661,0.0,0.14736732840538025,0.01,-0.02,-0.08,261.81
1682451327.07990623,24395744,2,-0.33,0.3,205.23000000000002,0.00997136626392603,0.005059126764535904,0.0026608260814100504,-0.014055307023227215,0.04452753812074661,0.0,0.14759382605552673,0.01,-0.02,-0.07,261.81
1682451327.17989206,24495730,2,-0.28,0.3,205.27,0.013710865750908852,0.0018447121838107705,0.0006236484041437507,-0.052737485617399216,0.04452753812074661,0.0,0.14299854636192322,0.01,-0.01,-0.07,261.81
1682451327.27988410,24595722,2,-0.32,0.3,205.24,0.008162589743733406,0.006308880168944597,-0.0023358159232884645,-0.10019613057374954,0.03339565545320511,-0.008180002681910992,0.1348409354686737,0.01,-0.01,-0.07,261.81
1682451327.37995625,24695794,2,-0.29,0.3,205.24,0.014052600599825382,0.0008502578712068498,-0.005093294661492109,-0.08146603405475616,0.03339565545320511,-0.008180002681910992,0.1296558678150177,0.01,-0.01,-0.07,261.81
1682451327.47994709,24795785,2,-0.31,0.3,205.26,0.008206523023545742,0.0077817803248763084,-0.00574516411870718,-0.04192877933382988,0.022263769060373306,-0.008180002681910992,0.12621352076530457,0.01,-0.01,-0.07,261.81
1682451327.57995415,24895792,2,-0.31,0.29,205.22,0.014344219118356705,0.00016998070350382477,-0.007969370111823082,-0.04054905101656914,0.022263769060373306,-0.008180002681910992,0.12162435054779053,0.01,-0.01,-0.06,261.81
1682451327.67994213,24995780,2,-0.31,0.3,205.21,0.009766285307705402,0.00827284436672926,-0.007812126539647579,-0.03196248039603233,0.022263769060373306,-0.008180002681910992,0.1187935471534729,0.01,-0.01,-0.06,261.81
1682451327.77987909,25095717,2,-0.32,0.29,205.22,0.012576871551573277,0.0002252011327072978,-0.00817546620965004,-0.02033184841275215,0.022263769060373306,-0.008180002681910992,0.11623170971870422,0.01,-0.01,-0.07,261.81
1682451327.87988615,25195724,2,-0.31,0.3,205.20000000000002,0.015833238139748573,0.008379919454455376,-0.009871119633316994,-0.049524664878845215,0.022263769060373306,-0.008180002681910992,0.11032174527645111,0.01,-0.01,-0.07,261.81
1682451327.97990704,25295745,2,-0.34,0.29,205.20000000000002,0.008319362998008728,-0.0005399546353146434,-0.010430347174406052,-0.04270882159471512,0.022263769060373306,-0.008180002681910992,0.1075964868068695,0.01,-0.01,-0.07,261.81
1682451328.07988620,25395724,2,-0.3,0.29,205.22,0.01371818222105503,0.006564047187566757,-0.010541712865233421,0.012758311815559864,0.03339565545320511,-0.016360005363821983,0.10919573903083801,0.01,-0.01,-0.06,261.81
1682451328.17988014,25495718,2,-0.35000000000000003,0.29,205.19,0.0056871073320508,0.0029412705916911364,-0.008720101788640022,0.03314314782619476,0.03339565545320511,-0.016360005363821983,0.11073853075504303,0.01,-0.01,-0.06,261.81
1682451328.27990723,25595745,2,-0.29,0.28,205.18,0.012591215781867504,0.008778467774391174,-0.00786819588392973,0.021167324855923653,0.03339565545320511,-0.016360005363821983,0.11157374083995819,0.01,-0.01,-0.06,261.81
1682451328.37994719,25695785,2,-0.33,0.29,205.21,0.005831464659422636,0.005608038045465946,-0.008217181079089642,0.007360467687249184,0.03339565545320511,-0.016360005363821983,0.11179248988628387,0.01,-0.01,-0.07,261.81
1682451328.47995925,25795797,2,-0.3,0.28,205.20000000000002,0.008851462975144386,0.0030410196632146835,-0.009360574185848236,-0.0009861320722848177,0.03339565545320511,-0.016360005363821983,0.11182475090026855,0.01,-0.01,-0.08,261.81
1682451328.57994103,25895779,2,-0.32,0.29,205.24,0.007955130189657211,0.005957264453172684,-0.010546914301812649,0.010486971586942673,0.03339565545320511,-0.016360005363821983,0.11337803304195404,0.01,-0.01,-0.08,261.81
1682451328.67988324,25995721,2,-0.31,0.28,205.29,0.0052492194809019566,0.0014097988605499268,-0.0095274168998003,0.04323789104819298,0.03339565545320511,-0.016360005363821983,0.11772207915782928,0.01,-0.01,-0.08,261.81
1682451328.77992225,26095760,2,-0.31,0.28,205.3,0.00985899567604065,0.008201390504837036,-0.007259909529238939,0.0748855322599411,0.03339565545320511,-0.016360005363821983,0.124327152967453,0.01,-0.01,-0.08,261.81
1682451328.87988019,26195718,2,-0.31,0.28,205.34,0.003703758353367448,0.0013101509539410472,-0.006667335517704487,0.061494890600442886,0.04452753812074661,-0.016360005363821983,0.12840497493743896,0.01,-0.01,-0.08,261.81
1682451328.97988319,26295721,2,-0.3,0.26,205.37,0.008155683986842632,0.007625126279890537,-0.0069669997319579124,0.02640857920050621,0.04452753812074661,-0.016360005363821983,0.13062384724617004,0.01,-0.01,-0.08,261.81
1682451329.07988715,26395725,2,-0.32,0.26,205.38,0.004900759551674128,0.001830524648539722,-0.007500871550291777,0.0006847460754215717,0.03339565545320511,-0.02454000897705555,0.13082264363765717,0.01,-0.01,-0.09,261.81
1682451329.17989016,26495728,2,-0.3,0.26,205.42000000000002,0.005839300807565451,0.005159495398402214,-0.008631035685539246,-0.02221887744963169,0.03339565545320511,-0.02454000897705555,0.12944017350673676,0.01,-0.01,-0.09,261.81
1682451329.27993917,26595777,2,-0.32,0.26,205.45000000000002,0.004570652265101671,0.002856146078556776,-0.009351427666842937,-0.029301580041646957,0.03339565545320511,-0.02454000897705555,0.12757650017738342,0.01,-0.01,-0.09,261.81
1682451329.37996006,26695798,2,-0.3,0.25,205.44,0.003057759488001466,0.0038305127527564764,-0.009415664710104465,-0.044939637184143066,0.03339565545320511,-0.02454000897705555,0.12321963906288147,0.01,-0.01,-0.09,261.81
1682451329.47994018,26795778,2,-0.32,0.26,205.46,0.004682200960814953,0.0036215607542544603,-0.010965550318360329,-0.07667208462953568,0.03339565545320511,-0.02454000897705555,0.11620877683162689,0.01,-0.01,-0.09,261.81
1682451329.57988310,26895721,2,-0.3,0.25,205.47,0.0009471213561482728,0.0005626131896860898,-0.011135999113321304,-0.05884939432144165,0.03339565545320511,-0.02454000897705555,0.11279648542404175,0.01,-0.01,-0.09,261.81
1682451329.67988706,26995725,2,-0.32,0.26,205.44,0.004128935281187296,0.0030053313821554184,-0.011465082876384258,-0.02075781859457493,0.04452753812074661,-0.02454000897705555,0.1106983870267868,0.01,-0.01,-0.09,261.81
1682451329.77988625,27095724,2,-0.3,0.26,205.45000000000002,0.0013540965737774968,-0.0010468451073393226,-0.011524653062224388,-0.008383462205529213,0.04452753812074661,-0.02454000897705555,0.1095278263092041,0.01,-0.01,-0.09,261.81
1682451329.87988210,27195720,2,-0.31,0.26,205.47,0.002566076349467039,0.002339672762900591,-0.010815130546689034,0.007972055114805698,0.03339565545320511,-0.02454000897705555,0.10976453125476837,0.01,-0.01,-0.09,261.81
1682451329.97988725,27295725,2,-0.31,0.26,205.46,0.0012740971287712455,-0.00172638357616961,-0.011455855332314968,0.0067617339082062244,0.03339565545320511,-0.02454000897705555,0.10944022238254547,0.01,-0.01,-0.09,261.81
1682451330.07990623,27395744,2,-0.3,0.25,205.48000000000002,0.00023617089027538896,0.0006466295453719795,-0.011016681790351868,-0.007349390536546707,0.03339565545320511,-0.02454000897705555,0.10810171067714691,0.01,-0.01,-0.09,261.81
1682451330.17993617,27495774,2,-0.31,0.26,205.5,0.00029818000621162355,-0.0017707879887893796,-0.010797678492963314,0.0018702346133068204,0.03339565545320511,-0.02454000897705555,0.1089601069688797,0.01,-0.01,-0.09,261.81
1682451330.27995610,27595794,2,-0.3,0.25,205.49,-0.0032437655609101057,-0.0002651879913173616,-0.010372850112617016,0.03228410333395004,0.055659420788288116,-0.02454000897705555,0.11210000514984131,0.01,-0.01,-0.09,261.81
1682451330.37994409,27695782,2,-0.31,0.25,205.49,-0.0013050101697444916,-0.0017870391020551324,-0.009907757863402367,0.024475904181599617,0.055659420788288116,-0.02454000897705555,0.11279366910457611,0.01,-0.01,-0.08,261.81
1682451330.47988415,27795722,2,-0.3,0.24,205.48000000000002,-0.00509154237806797,-0.0010721914004534483,-0.010368912480771542,0.0017994062509387732,0.07792319357395172,-0.02454000897705555,0.11307521164417267,0.01,-0.01,-0.08,261.81
1682451330.57988214,27895720,2,-0.31,0.24,205.45000000000002,-0.0032401366624981165,-0.0018652169965207577,-0.010575776919722557,0.0003567358653526753,0.07792319357395172,-0.02454000897705555,0.11324439942836761,0.01,-0.01,-0.08,261.81
1682451330.67988324,27995721,2,-0.3,0.24,205.45000000000002,-0.005308740772306919,-0.00277638784609735,-0.011559411883354187,-0.01457085832953453,0.10018695890903473,-0.02454000897705555,0.11166149377822876,0.01,-0.01,-0.08,261.81
1682451330.77988410,28095722,2,-0.31,0.24,205.44,-0.004669557325541973,-0.0016141304513439536,-0.011135264299809933,-0.024922583252191544,0.10018695890903473,-0.02454000897705555,0.10975852608680725,0.01,-0.01,-0.08,261.81
1682451330.87988019,28195718,2,-0.29,0.25,205.43,-0.005001411307603121,-0.0037898600567132235,-0.010962714441120625,-0.018375253304839134,0.11131884157657623,-0.02454000897705555,0.10852812230587006,0.01,-0.01,-0.09,261.81
1682451330.97989416,28295732,2,-0.3,0.25,205.46,-0.006059037521481514,-0.002238035202026367,-0.011303217150270939,-0.019469372928142548,0.11131884157657623,-0.02454000897705555,0.10649283230304718,0.01,-0.01,-0.09,261.81
1682451331.07994723,28395785,2,-0.29,0.25,205.46,-0.005826855544000864,-0.004069419112056494,-0.011566339060664177,-0.022266007959842682,0.13358262181282043,-0.03272001072764397,0.10466556251049042,0.01,-0.01,-0.09,261.81
1682451331.17995405,28495792,2,-0.29,0.25,205.47,-0.007485806010663509,-0.003445347072556615,-0.013335957191884518,-0.027947725728154182,0.13358262181282043,-0.03272001072764397,0.10172325372695923,0.01,-0.01,-0.09,261.81
1682451331.27994108,28595779,2,-0.3,0.25,205.5,-0.005795699544250965,-0.00553134735673666,-0.014691106975078583,-0.03765203803777695,0.13358262181282043,-0.02454000897705555,0.09837083518505096,0.01,-0.01,-0.09,261.81
1682451331.37989116,28695729,2,-0.28,0.25,205.5,-0.007450795732438564,-0.003926492761820555,-0.01501609105616808,0.0022905049845576286,0.13358262181282043,-0.02454000897705555,0.10024695098400116,0.01,-0.01,-0.09,261.81
1682451331.47988009,28795718,2,-0.29,0.26,205.5,-0.006492249201983213,-0.00607031024992466,-0.013947573490440845,0.04682508111000061,0.14471450448036194,-0.03272001072764397,0.10358361899852753,0.01,-0.01,-0.08,261.81
1682451331.57988214,28895720,2,-0.27,0.26,205.52,-0.00621240446344018,-0.00688897492364049,-0.01216728612780571,0.0516190379858017,0.14471450448036194,-0.03272001072764397,0.1073259711265564,0.01,-0.01,-0.09,261.81
1682451331.67988825,28995726,2,-0.28,0.25,205.51,-0.0046487064100801945,-0.00783512182533741,-0.010172577574849129,0.04633070528507233,0.14471450448036194,-0.03272001072764397,0.11058400571346283,0.01,-0.01,-0.08,261.81
1682451331.77988005,29095718,2,-0.27,0.26,205.51,-0.004034753423184156,-0.008818041533231735,-0.00930461473762989,0.02004016377031803,0.14471450448036194,-0.03272001072764397,0.11168751120567322,0.01,-0.01,-0.09,261.81
1682451331.87989116,29195729,2,-0.28,0.26,205.52,-0.0028531737625598907,-0.009514336474239826,-0.008377110585570335,0.021028971299529076,0.16697826981544495,-0.04090001434087753,0.1148512214422226,0.01,-0.01,-0.08,261.81
1682451331.97993612,29295774,2,-0.27,0.25,205.51,-0.0010482239304110408,-0.01091041974723339,-0.00736955227330327,0.04497557133436203,0.16697826981544495,-0.04090001434087753,0.11932098865509033,0.01,-0.01,-0.08,261.81
1682451332.07995605,29395794,2,-0.27,0.25,205.49,-0.001129570184275508,-0.010974028147757053,-0.005589549895375967,0.05245696380734444,0.17811015248298645,-0.04090001434087753,0.12404659390449524,0.01,-0.01,-0.08,261.81
1682451332.17994308,29495781,2,-0.27,0.26,205.48000000000002,0.0002585231850389391,-0.01282036118209362,-0.004123393911868334,0.05666026100516319,0.17811015248298645,-0.04090001434087753,0.1292639523744583,0.01,-0.01,-0.08,261.81
1682451332.27988410,29595722,2,-0.26,0.26,205.45000000000002,7.873170397942886e-05,-0.011602776125073433,-0.002411396475508809,0.05116280913352966,0.17811015248298645,-0.04090001434087753,0.1338323950767517,0.01,-0.01,-0.08,261.81
1682451332.37989020,29695728,2,-0.26,0.26,205.43,0.0017936344956979156,-0.013578261248767376,-0.002670873189345002,0.014137821272015572,0.17811015248298645,-0.04090001434087753,0.13393762707710266,0.01,-0.01,-0.07,261.81
1682451332.47988009,29795718,2,-0.26,0.26,205.42000000000002,0.0014969412004575133,-0.01268170028924942,-0.001876752357929945,-0.012822378426790237,0.18924203515052795,-0.04090001434087753,0.13439583778381348,0.01,-0.01,-0.07,261.81
1682451332.57988214,29895720,2,-0.26,0.26,205.4,0.0024256007745862007,-0.014112484641373158,-0.0019225080031901598,-0.009055661968886852,0.18924203515052795,-0.04090001434087753,0.13396283984184265,0.01,-0.01,-0.07,261.81
1682451332.67988706,29995725,2,-0.26,0.26,205.38,0.0032192356884479523,-0.01357279159128666,-0.002306121401488781,-0.021828792989253998,0.20037391781806946,-0.04090001434087753,0.1322336047887802,0.01,-0.01,-0.07,261.81
1682451332.77987719,30095715,2,-0.26,0.26,205.37,0.004686337895691395,-0.014971299096941948,-0.0012830576160922647,-0.026792611926794052,0.20037391781806946,-0.04090001434087753,0.1301693320274353,0.01,-0.01,-0.06,261.81
1682451332.87992024,30195758,2,-0.3,0.27,205.32,0.005809962749481201,-0.017758065834641457,-0.0018074165564030409,-0.03756241872906685,0.21150580048561096,-0.0490800179541111,0.1269853115081787,0.01,-0.01,-0.06,261.81
1682451332.97994423,30295782,2,-0.22,0.27,205.32,0.006382529158145189,-0.01555339153856039,-0.00022736199025530368,-0.025466814637184143,0.21150580048561096,-0.0490800179541111,0.125532329082489,0.01,-0.01,-0.06,261.81
1682451333.07993722,30395775,2,-0.28,0.28,205.32,0.006209284067153931,-0.014010634273290634,0.0004948179703205824,-0.0014595333486795425,0.22263768315315247,-0.0490800179541111,0.12536197900772095,0.01,-0.01,-0.06,261.81
1682451333.17986917,30495707,2,-0.23,0.27,205.29,0.009419189766049385,-0.02100869081914425,0.00018756250210572034,0.019087083637714386,0.22263768315315247,-0.0490800179541111,0.12716412544250488,0.01,-0.01,-0.06,261.81
1682451333.27987123,30595709,2,-0.28,0.28,205.3,0.00996704213321209,-0.014565672725439072,0.00086653494508937,0.03467782214283943,0.24490146338939667,-0.057260021567344666,0.12970422208309174,0.01,-0.01,-0.06,261.81
1682451333.37987709,30695715,2,-0.25,0.28,205.3,0.010178147815167904,-0.02350296825170517,0.0017910106107592583,0.029795289039611816,0.24490146338939667,-0.057260021567344666,0.13171108067035675,0.01,-0.01,-0.06,261.81
1682451333.47986913,30795707,2,-0.27,0.28,205.27,0.010439091362059116,-0.01547289825975895,0.0026939818635582924,0.0227125845849514,0.256033331155777,-0.06544002145528793,0.13359153270721436,0.01,-0.01,-0.06,261.81
1682451333.57987118,30895709,2,-0.27,0.28,205.28,0.011418148875236511,-0.023500049486756325,0.0032783891074359417,0.028637198731303215,0.256033331155777,-0.06544002145528793,0.13655118644237518,0.01,-0.01,-0.06,261.81
1682451333.67988706,30995725,2,-0.25,0.28,205.28,0.011368410661816597,-0.01487120520323515,0.0032223775051534176,0.016463568434119225,0.26716524362564087,-0.0736200287938118,0.1375153660774231,0.01,-0.01,-0.06,261.81
1682451333.77991915,31095757,2,-0.29,0.28,205.26,0.015602554194629192,-0.022376857697963715,0.0029980360995978117,0.0045580253936350346,0.26716524362564087,-0.0736200287938118,0.13848452270030975,0.01,-0.01,-0.06,261.81
1682451333.87994218,31195780,2,-0.24,0.28,205.27,0.012674964964389801,-0.016896169632673264,0.003295580158010125,0.015171446837484837,0.2782971262931824,-0.0736200287938118,0.14035101234912872,0.01,-0.01,-0.06,261.81
1682451333.97993803,31295776,2,-0.29,0.29,205.26,0.017467297613620758,-0.020422114059329033,0.004318130202591419,0.056203681975603104,0.2782971262931824,-0.0736200287938118,0.1466067135334015,0.01,-0.01,-0.05,261.81
1682451334.07986903,31395707,2,-0.24,0.28,205.24,0.014900661073625088,-0.01957666128873825,0.005759338848292828,0.08708390593528748,0.3005608916282654,-0.08180002868175507,0.15399160981178284,0.01,-0.01,-0.06,261.81
1682451334.17986917,31495707,2,-0.29,0.28,205.25,0.017954617738723755,-0.018328653648495674,0.006772749125957489,0.08948446065187454,0.3005608916282654,-0.08180002868175507,0.1617383509874344,0.01,-0.01,-0.06,261.81
1682451334.27987218,31595710,2,-0.25,0.28,205.25,0.017890939489006996,-0.02042289450764656,0.00925614032894373,0.09599363058805466,0.3116927742958069,-0.08180002868175507,0.17039014399051666,0.01,-0.01,-0.05,261.81
1682451334.37986922,31695707,2,-0.29,0.29,205.23000000000002,0.017909934744238853,-0.018038194626569748,0.01156517956405878,0.07344511151313782,0.3116927742958069,-0.08180002868175507,0.176222562789917,0.01,-0.01,-0.05,261.81
1682451334.47986913,31795707,2,-0.26,0.29,205.24,0.019010378047823906,-0.022319426760077477,0.01260568667203188,0.04784826189279556,0.3339565396308899,-0.08998003602027893,0.18134942650794983,0.01,-0.01,-0.05,261.81
1682451334.57988214,31895720,2,-0.28,0.29,205.23000000000002,0.017940931022167206,-0.01699000410735607,0.013929261825978756,0.055556636303663254,0.3339565396308899,-0.08998003602027893,0.18762138485908508,0.01,-0.01,-0.05,261.81
1682451334.67992210,31995760,2,-0.27,0.29,205.22,0.02057507261633873,-0.023846568539738655,0.014390535652637482,0.056748438626527786,0.3450884222984314,-0.0981600359082222,0.1931687742471695,0.01,-0.01,-0.05,261.81
1682451334.77994704,32095785,2,-0.27,0.28,205.24,0.017222397029399872,-0.01681489869952202,0.015545311383903027,0.04871470108628273,0.3450884222984314,-0.0981600359082222,0.1981179565191269,0.01,-0.01,-0.06,261.81
1682451334.87992811,32195766,2,-0.28,0.28,205.24,0.021171821281313896,-0.02131289429962635,0.01583234779536724,0.03182971104979515,0.3673521876335144,-0.10634004324674606,0.20115916430950165,0.01,-0.01,-0.06,261.81
1682451334.97987318,32295711,2,-0.27,0.29,205.24,0.017578797414898872,-0.016089709475636482,0.01576593518257141,0.022838333621621132,0.3673521876335144,-0.10634004324674606,0.20434436202049255,0.01,-0.01,-0.06,261.81
1682451335.07988024,32395718,2,-0.3,0.29,205.27,0.021018635481595993,-0.01825651153922081,0.016448693349957466,0.033526331186294556,0.3896159529685974,-0.11452004313468933,0.20818881690502167,0.01,-0.01,-0.06,261.81
1682451335.17986917,32495707,2,-0.28,0.29,205.27,0.019837524741888046,-0.015762465074658394,0.01715165190398693,0.030000442638993263,0.3896159529685974,-0.11452004313468933,0.21092075109481812,0.01,-0.01,-0.06,261.81
1682451335.27987623,32595714,2,-0.31,0.29,205.26,0.020442260429263115,-0.01758265681564808,0.018019206821918488,0.023638220503926277,0.4118797183036804,-0.11452004313468933,0.21357019245624542,0.01,-0.01,-0.06,261.81
1682451335.37987304,32695711,2,-0.29,0.3,205.3,0.021917352452874184,-0.015843702480196953,0.017806492745876312,0.02054441161453724,0.4118797183036804,-0.11452004313468933,0.21572169661521912,0.01,-0.01,-0.06,261.81
1682451335.47987819,32795716,2,-0.32,0.3,205.29,0.022331437095999718,-0.014398307539522648,0.019544314593076706,0.027096444740891457,0.4230116009712219,-0.11452004313468933,0.21891683340072632,0.02,-0.01,-0.06,261.81
1682451335.57992125,32895759,2,-0.29,0.3,205.29,0.022769562900066376,-0.01624317467212677,0.02045583352446556,0.037961702793836594,0.4230116009712219,-0.11452004313468933,0.22253549098968506,0.02,-0.01,-0.06,261.81
1682451335.67994618,32995784,2,-0.31,0.3,205.31,0.021091841161251068,-0.011958307586610317,0.021337885409593582,0.03580157086253166,0.4341434836387634,-0.1227000504732132,0.22576512396335602,0.02,-0.01,-0.06,261.81
1682451335.77992821,33095766,2,-0.3,0.31,205.31,0.023453958332538605,-0.014137063175439835,0.02144435979425907,0.016030732542276382,0.4341434836387634,-0.1227000504732132,0.2266443371772766,0.02,-0.01,-0.06,261.81
1682451335.87993312,33195771,2,-0.31,0.31,205.3,0.021211355924606323,-0.009625634178519249,0.02087867073714733,-0.008476749062538147,0.44527536630630493,-0.1227000504732132,0.2263280749320984,0.02,-0.01,-0.05,261.81
1682451335.97987509,33295713,2,-0.32,0.31,205.31,0.02369588054716587,-0.012236344628036022,0.020162560045719147,-0.006892218720167875,0.44527536630630493,-0.1227000504732132,0.22675788402557373,0.02,-0.01,-0.05,261.81
1682451336.07986903,33395707,2,-0.31,0.31,205.28,0.02129456400871277,-0.0075225066393613815,0.02112184837460518,0.02395334094762802,0.44527536630630493,-0.13088004291057587,0.23016545176506042,0.02,-0.01,-0.05,261.81
1682451336.17986822,33495706,2,-0.33,0.31,205.28,0.022633736953139305,-0.010025553405284882,0.02254176326096058,0.027814174070954323,0.44527536630630493,-0.13088004291057587,0.23168504238128662,0.02,-0.01,-0.05,261.81
1682451336.27987719,33595715,2,-0.32,0.32,205.29,0.022233042865991592,-0.006140168756246567,0.022526131942868233,0.0012009689817205071,0.4341434836387634,-0.13906005024909973,0.23150606453418732,0.02,-0.01,-0.05,261.81
1682451336.37988424,33695722,2,-0.35000000000000003,0.32,205.28,0.02401532605290413,-0.007636275142431259,0.0217470470815897,-0.03685477748513222,0.4341434836387634,-0.13906005024909973,0.22795110940933228,0.02,-0.01,-0.05,261.81
1682451336.47992420,33795762,2,-0.33,0.33,205.28,0.024700677022337914,-0.005862928926944733,0.02076660469174385,-0.05803298577666283,0.4341434836387634,-0.1472400575876236,0.2235696166753769,0.02,-0.01,-0.05,261.81
1682451336.57994223,33895780,2,-0.35000000000000003,0.33,205.3,0.024609539657831192,-0.003978722728788853,0.019737301394343376,-0.06172351539134979,0.4341434836387634,-0.1472400575876236,0.21853725612163544,0.02,-0.01,-0.05,261.81
1682451336.67993116,33995769,2,-0.34,0.32,205.28,0.025544648990035057,-0.0038467266131192446,0.018184244632720947,-0.05260632187128067,0.4341434836387634,-0.15542006492614746,0.21450155973434448,0.02,-0.01,-0.05,261.81
1682451336.77988124,34095719,2,-0.36,0.31,205.28,0.02361006662249565,-0.0003893922548741102,0.017677556723356247,-0.02146410010755062,0.4341434836387634,-0.15542006492614746,0.2129148244857788,0.02,-0.01,-0.05,261.81
1682451336.87987804,34195716,2,-0.35000000000000003,0.32,205.29,0.024606632068753242,0.00041360792238265276,0.017661994323134422,-0.008024665527045727,0.4341434836387634,-0.16360005736351013,0.21136412024497986,0.02,-0.01,-0.05,261.81
1682451336.97988224,34295720,2,-0.36,0.31,205.27,0.022435102611780167,0.0047283233143389225,0.01655767671763897,-0.008818596601486206,0.4341434836387634,-0.16360005736351013,0.21009115874767303,0.02,-0.01,-0.05,261.81
1682451337.07988214,34395720,2,-0.37,0.31,205.28,0.022209731861948967,0.0025572676677256823,0.015441743656992912,-0.00982168223708868,0.4341434836387634,-0.171780064702034,0.20870131254196167,0.02,-0.01,-0.05,261.81
1682451337.17986822,34495706,2,-0.36,0.31,205.28,0.021170273423194885,0.007599802687764168,0.013371775858104229,-0.0308014415204525,0.4341434836387634,-0.171780064702034,0.2051953226327896,0.02,-0.01,-0.05,261.81
1682451337.27988815,34595726,2,-0.37,0.31,205.26,0.021463435143232346,0.006138830445706844,0.010939677245914936,-0.06454788148403168,0.4341434836387634,-0.17996007204055786,0.19867722690105438,0.02,-0.01,-0.05,261.81
1682451337.37992620,34695764,2,-0.35000000000000003,0.32,205.26,0.020206889137625694,0.010194733738899231,0.009383652359247208,-0.07831604033708572,0.4341434836387634,-0.17996007204055786,0.19226422905921936,0.02,-0.01,-0.05,261.81
1682451337.47994208,34795780,2,-0.37,0.32,205.25,0.020121555775403976,0.010183862410485744,0.009538790211081505,-0.059827495366334915,0.44527536630630493,-0.18814007937908173,0.187393456697464,0.02,-0.01,-0.05,261.81
1682451337.57993007,34895768,2,-0.34,0.31,205.22,0.020177919417619705,0.012645670212805271,0.008502110838890076,-0.04851318523287773,0.44527536630630493,-0.18814007937908173,0.182650625705719,0.02,-0.01,-0.05,261.81
1682451337.67988706,34995725,2,-0.36,0.31,205.21,0.019193068146705627,0.013536526821553707,0.006554699968546629,-0.05724131315946579,0.4564072787761688,-0.1963200718164444,0.17674796283245087,0.02,-0.01,-0.05,261.81
1682451337.77988625,35095724,2,-0.35000000000000003,0.3,205.19,0.019504554569721222,0.013912294991314411,0.005139108747243881,-0.051421988755464554,0.4564072787761688,-0.1963200718164444,0.17228873074054718,0.02,-0.01,-0.05,261.81
1682451337.87987804,35195716,2,-0.36,0.3,205.17000000000002,0.01907544769346714,0.01590057462453842,0.0039405860006809235,-0.04666141793131828,0.4564072787761688,-0.20450007915496826,0.16721826791763306,0.02,-0.01,-0.05,261.81
1682451337.97988415,35295722,2,-0.35000000000000003,0.3,205.17000000000002,0.019567402079701424,0.015009051188826561,0.00218530953861773,-0.04441042244434357,0.4564072787761688,-0.20450007915496826,0.16313648223876953,0.02,-0.01,-0.05,261.81
1682451338.07986903,35395707,2,-0.36,0.3,205.18,0.018500279635190964,0.018892735242843628,0.002086061052978039,-0.03315814584493637,0.4564072787761688,-0.21268008649349213,0.15952572226524353,0.02,-0.01,-0.05,261.81
1682451338.17988205,35495720,2,-0.36,0.3,205.17000000000002,0.01708773896098137,0.017310718074440956,0.0012297789799049497,-0.026341812685132027,0.4564072787761688,-0.21268008649349213,0.15679435431957245,0.02,-0.01,-0.05,261.81
1682451338.27992725,35595765,2,-0.35000000000000003,0.3,205.17000000000002,0.01578734815120697,0.020033149048686028,0.001408955780789256,-0.008892137557268143,0.44527536630630493,-0.22904008626937866,0.1557559370994568,0.02,-0.01,-0.04,261.81
1682451338.37994504,35695783,2,-0.36,0.3,205.17000000000002,0.015620558522641659,0.018864857032895088,0.0014957762323319912,0.008026376366615295,0.44527536630630493,-0.22904008626937866,0.15603691339492798,0.02,-0.01,-0.05,261.81
1682451338.47993207,35795770,2,-0.35000000000000003,0.29,205.16,0.013888256624341011,0.021229345351457596,0.0024967382196336985,0.028020409867167473,0.44527536630630493,-0.23722009360790253,0.15848304331302643,0.02,-0.01,-0.05,261.81
1682451338.57987404,35895712,2,-0.37,0.29,205.17000000000002,0.0137679697945714,0.020102405920624733,0.002487502759322524,0.030122363939881325,0.44527536630630493,-0.23722009360790253,0.15989987552165985,0.02,-0.01,-0.05,261.81
1682451338.67987919,35995717,2,-0.35000000000000003,0.29,205.18,0.013993467204272747,0.02216775342822075,0.0028902392368763685,0.019047493115067482,0.44527536630630493,-0.2454001009464264,0.16148553788661957,0.02,-0.01,-0.05,261.81
1682451338.77987814,36095716,2,-0.37,0.29,205.17000000000002,0.013239051215350628,0.02149697206914425,0.00468639750033617,0.02667582593858242,0.44527536630630493,-0.2454001009464264,0.16404245793819427,0.02,-0.01,-0.04,261.81
1682451338.87986803,36195706,2,-0.35000000000000003,0.29,205.18,0.01333373598754406,0.02134752832353115,0.00538313714787364,0.02351308986544609,0.44527536630630493,-0.25358009338378906,0.16580860316753387,0.02,-0.01,-0.04,261.81
1682451338.97987103,36295709,2,-0.36,0.29,205.18,0.012503160163760185,0.022354405373334885,0.005129924044013023,0.011721210554242134,0.44527536630630493,-0.25358009338378906,0.16684654355049133,0.02,-0.01,-0.04,261.81
1682451339.07988405,36395722,2,-0.35000000000000003,0.29,205.17000000000002,0.012189461849629879,0.02148069255053997,0.004511603154242039,-0.0102376164868474,0.44527536630630493,-0.25358009338378906,0.16559584438800812,0.02,-0.01,-0.04,261.81
1682451339.17992020,36495758,2,-0.35000000000000003,0.28,205.18,0.011399965733289719,0.022457333281636238,0.00430317921563983,-0.020709602162241936,0.44527536630630493,-0.25358009338378906,0.16441409289836884,0.02,-0.01,-0.04,261.81
1682451339.27994609,36595784,2,-0.35000000000000003,0.28,205.17000000000002,0.011892198584973812,0.021331213414669037,0.0044206795282661915,-0.01416822150349617,0.4341434836387634,-0.26176008582115173,0.163659930229187,0.02,-0.01,-0.04,261.81
1682451339.37993407,36695772,2,-0.34,0.28,205.17000000000002,0.009874442592263222,0.022460881620645523,0.005128063261508942,-0.004011668264865875,0.4341434836387634,-0.26176008582115173,0.1636010706424713,0.02,-0.01,-0.04,261.81
1682451339.47986913,36795707,2,-0.35000000000000003,0.28,205.17000000000002,0.008959993720054626,0.020212963223457336,0.004696566611528397,0.0036413248162716627,0.4230116009712219,-0.2699401080608368,0.16396301984786987,0.02,-0.01,-0.04,261.81
1682451339.57986903,36895707,2,-0.35000000000000003,0.28,205.16,0.007361914496868849,0.022084305062890053,0.00410841079428792,-0.024779507890343666,0.4230116009712219,-0.2699401080608368,0.16007357835769653,0.02,-0.01,-0.04,261.81
1682451339.67987919,36995717,2,-0.36,0.27,205.15,0.006949977949261665,0.020616672933101654,0.0029285394120961428,-0.03676179423928261,0.4230116009712219,-0.27812010049819946,0.15803036093711853,0.02,-0.01,-0.04,261.81
1682451339.77987909,37095717,2,-0.34,0.28,205.17000000000002,0.005886425729840994,0.02175985835492611,0.0037145058158785105,-0.0037270081229507923,0.4230116009712219,-0.27812010049819946,0.15860798954963684,0.02,-0.01,-0.05,261.81
1682451339.87986803,37195706,2,-0.35000000000000003,0.28,205.18,0.005173081532120705,0.021476689726114273,0.003467464353889227,0.00791866797953844,0.4230116009712219,-0.27812010049819946,0.15858279168605804,0.02,-0.01,-0.05,261.81
1682451339.97989106,37295729,2,-0.34,0.27,205.19,0.00353709957562387,0.02136286534368992,0.0029617389664053917,-0.004623412620276213,0.4230116009712219,-0.27812010049819946,0.1576465666294098,0.02,-0.01,-0.05,261.81
1682451340.07992315,37395761,2,-0.35000000000000003,0.27,205.22,0.0037763852160423994,0.021108444780111313,0.0030206781812012196,-0.010567162185907364,0.4118797183036804,-0.2863001227378845,0.1566896140575409,0.02,-0.01,-0.05,261.81
1682451340.17996407,37495802,2,-0.34,0.27,205.22,0.004332539159804583,0.02070152573287487,0.003713846206665039,0.006742685567587614,0.4118797183036804,-0.2863001227378845,0.15776067972183228,0.02,-0.01,-0.05,261.81
1682451340.27993202,37595770,2,-0.35000000000000003,0.27,205.22,0.0035373803693801165,0.020207807421684265,0.004213068168610334,0.015373574569821358,0.4118797183036804,-0.2944801151752472,0.1586851328611374,0.02,-0.01,-0.04,261.81
1682451340.37986922,37695707,2,-0.34,0.27,205.23000000000002,0.003328914986923337,0.018020357936620712,0.004397960379719734,0.00799169484525919,0.4118797183036804,-0.2944801151752472,0.1591387391090393,0.02,-0.01,-0.04,261.81
1682451340.47987819,37795716,2,-0.34,0.27,205.20000000000002,0.002093733986839652,0.019921371713280678,0.0030191384721547365,-0.017466334626078606,0.4007478356361389,-0.30266010761260986,0.15695533156394958,0.02,-0.01,-0.04,261.81
1682451340.57987905,37895717,2,-0.35000000000000003,0.27,205.20000000000002,0.0027167622465640306,0.017823832109570503,0.0024792146869003773,-0.03412564471364021,0.4007478356361389,-0.30266010761260986,0.15437264740467072,0.02,-0.01,-0.05,261.81
1682451340.67987704,37995715,2,-0.34,0.27,205.20000000000002,0.0017447919817641377,0.017992058768868446,0.0001778920559445396,-0.03420248255133629,0.4007478356361389,-0.30266010761260986,0.1516469120979309,0.02,-0.01,-0.05,261.81
1682451340.77986813,38095706,2,-0.35000000000000003,0.27,205.19,0.0014604596653953195,0.016698690131306648,-0.0002281377965118736,-0.025801533833146095,0.4007478356361389,-0.30266010761260986,0.14972585439682007,0.02,-0.01,-0.04,261.81
1682451340.87988019,38195718,2,-0.34,0.27,205.20000000000002,0.0014760895865038037,0.016268398612737656,-0.0007578677032142878,-0.018779240548610687,0.4007478356361389,-0.3108401298522949,0.14771518111228943,0.02,-0.01,-0.04,261.81
1682451340.97993016,38295768,2,-0.35000000000000003,0.26,205.20000000000002,0.0018238072516396642,0.01538715697824955,-0.0012257648631930351,-0.020500345155596733,0.4007478356361389,-0.3108401298522949,0.14564520120620728,0.02,-0.01,-0.04,261.81
1682451341.07994604,38395784,2,-0.35000000000000003,0.26,205.18,0.0018238719785586,0.015490020625293255,-0.0009100764873437583,-0.014833655208349228,0.3896159529685974,-0.3190201222896576,0.14423632621765137,0.02,-0.01,-0.04,261.81
1682451341.17993307,38495771,2,-0.35000000000000003,0.26,205.18,0.0008420624071732163,0.014950485900044441,-0.0009503146284259856,0.012332528829574585,0.3896159529685974,-0.3190201222896576,0.1458948850631714,0.02,-0.01,-0.04,261.81
1682451341.27987218,38595710,2,-0.35000000000000003,0.26,205.18,-7.057675975374877e-05,0.014028697274625301,-0.00038364806096069515,0.03466861695051193,0.3896159529685974,-0.32720011472702026,0.14833900332450867,0.02,-0.01,-0.04,261.81
1682451341.37987304,38695711,2,-0.35000000000000003,0.26,205.18,-0.0007855694857425988,0.014993355609476566,-2.5213827029801905e-05,0.04527415707707405,0.3896159529685974,-0.32720011472702026,0.15226760506629944,0.02,-0.01,-0.04,261.81
1682451341.47988224,38795720,2,-0.35000000000000003,0.25,205.19,-0.0009510780801065266,0.012877861969172955,0.0014067492447793484,0.06229909136891365,0.4007478356361389,-0.32720011472702026,0.1576002538204193,0.02,-0.01,-0.04,261.81
1682451341.57987404,38895712,2,-0.34,0.25,205.19,-0.0019851564429700375,0.012950366362929344,0.0030045851599425077,0.06521771103143692,0.4007478356361389,-0.32720011472702026,0.16301529109477997,0.02,-0.01,-0.04,261.81
1682451341.67987514,38995713,2,-0.35000000000000003,0.25,205.19,-0.002007611095905304,0.011351527646183968,0.003585670841857791,0.059225328266620636,0.4007478356361389,-0.3353801369667053,0.16827630996704102,0.02,-0.01,-0.04,261.81
1682451341.77988219,39095720,2,-0.34,0.25,205.20000000000002,-0.0019558591302484274,0.011236277408897877,0.003647144651040435,0.03570522367954254,0.4007478356361389,-0.3353801369667053,0.1710825264453888,0.02,-0.01,-0.04,261.81
1682451341.87992716,39195765,2,-0.34,0.25,205.19,-0.0016926495591178536,0.010599130764603615,0.0031461776234209538,0.014117083512246609,0.3896159529685974,-0.343560129404068,0.17306965589523315,0.02,-0.01,-0.04,261.81
1682451341.97994614,39295784,2,-0.33,0.25,205.17000000000002,-0.0019897304009646177,0.010890317149460316,0.003801625454798341,0.026518527418375015,0.3896159529685974,-0.343560129404068,0.1767122894525528,0.02,-0.01,-0.04,261.81
1682451342.07993507,39395773,2,-0.34,0.25,205.17000000000002,-0.0020747194066643715,0.009948366321623325,0.004776916932314634,0.042333975434303284,0.3896159529685974,-0.35174012184143066,0.1808471381664276,0.02,-0.01,-0.04,261.81
1682451342.17987013,39495708,2,-0.33,0.25,205.16,-0.001914305961690843,0.009054858237504959,0.005759720224887133,0.04898945614695549,0.3896159529685974,-0.35174012184143066,0.18550392985343933,0.02,-0.01,-0.04,261.81
1682451342.27987123,39595709,2,-0.34,0.25,205.14000000000001,-0.0019706308376044035,0.009231265634298325,0.006502446718513966,0.03964688628911972,0.3896159529685974,-0.3599201440811157,0.18872559070587158,0.02,-0.01,-0.04,261.81
1682451342.37987208,39695710,2,-0.33,0.25,205.14000000000001,-0.0027664995286613703,0.009033231064677238,0.006243546027690172,0.01945648528635502,0.3896159529685974,-0.3599201440811157,0.19071319699287415,0.02,-0.01,-0.04,261.81
1682451342.47987008,39795708,2,-0.34,0.25,205.13,-0.0036434538196772337,0.009752804413437843,0.005985744297504425,0.011954262852668762,0.4007478356361389,-0.3681001365184784,0.1923942267894745,0.02,-0.01,-0.04,261.81
1682451342.57987022,39895708,2,-0.34,0.25,205.11,-0.003551742061972618,0.0081358402967453,0.006168657913804054,0.007035415153950453,0.4007478356361389,-0.3681001365184784,0.1934134066104889,0.02,-0.01,-0.04,261.81
1682451342.67988515,39995723,2,-0.33,0.25,205.11,-0.0050179981626570225,0.008717354387044907,0.0071228365413844585,0.003168754279613495,0.4007478356361389,-0.37628015875816345,0.1940711885690689,0.02,-0.01,-0.04,261.81
1682451342.77993608,40095774,2,-0.33,0.25,205.11,-0.003667483339086175,0.008241119794547558,0.007755771279335022,0.005212046205997467,0.4007478356361389,-0.37628015875816345,0.19500648975372314,0.02,-0.01,-0.04,261.81
1682451342.87994123,40195779,2,-0.32,0.25,205.11,-0.004476996138691902,0.009194436483085155,0.007550738751888275,0.014137323945760727,0.4007478356361389,-0.3844601511955261,0.19682788848876953,0.02,-0.01,-0.04,261.81
1682451342.97993302,40295771,2,-0.32,0.26,205.12,-0.0038382031489163637,0.007432912476360798,0.0072898766957223415,0.01690158247947693,0.4007478356361389,-0.3844601511955261,0.19820423424243927,0.02,-0.01,-0.04,261.81
1682451343.07987809,40395716,2,-0.32,0.26,205.13,-0.004849720746278763,0.007378842681646347,0.007143506780266762,0.0003549018001649529,0.4007478356361389,-0.3926401436328888,0.19779828190803528,0.02,-0.01,-0.04,261.81
1682451343.17987108,40495709,2,-0.32,0.27,205.14000000000001,-0.00547222513705492,0.006314183585345745,0.006220153532922268,-0.012989751063287258,0.4007478356361389,-0.3926401436328888,0.19703854620456696,0.02,-0.01,-0.04,261.81
1682451343.27987218,40595710,2,-0.32,0.27,205.16,-0.00593183608725667,0.0061980863101780415,0.005706678610295057,-0.010421857237815857,0.4007478356361389,-0.40082016587257385,0.19655627012252808,0.02,-0.01,-0.04,261.81
1682451343.37987804,40695716,2,-0.32,0.26,205.16,-0.005602368153631687,0.005789541639387608,0.005501825828105211,-0.0009473201353102922,0.4007478356361389,-0.40082016587257385,0.19687174260616302,0.02,-0.01,-0.04,261.81
