timestamp,TimeUS,I,Status,GMS,GWk,NSats,HDop,Lat,Lng,Alt,Spd,GCrs,VZ,Yaw,U
1667404189.79999995,435955518,0,3,316207800,2234,12,0.89,42.7285998,-84.48475909999999,261.43,0.018027758225798607,3.1798300743103027,-0.02500000037252903,0.0,1
1667404189.95945001,436114968,0,3,316208000,2234,12,0.89,42.7285999,-84.48475909999999,261.43,0.011180340312421322,153.43495178222656,-0.06800000369548798,0.0,1
1667404190.15943599,436314954,0,3,316208200,2234,12,0.89,42.7285999,-84.48475909999999,261.45,0.012369317002594471,284.0362548828125,0.02200000174343586,0.0,1
1667404190.34013486,436495653,0,3,316208400,2234,12,0.89,42.7286,-84.48475909999999,261.46,0.0070710680447518826,188.13011169433594,-0.05700000375509262,0.0,1
1667404190.54007006,436695588,0,3,316208600,2234,12,0.89,42.7286,-84.48475909999999,261.47,0.025455845519900322,135.0,-0.04500000178813934,0.0,1
1667404190.74007487,436895593,0,3,316208800,2234,12,0.89,42.7286,-84.484759,261.47,0.00984885822981596,113.96247863769531,-0.05000000074505806,0.0,1
1667404190.94006491,437095583,0,3,316209000,2234,12,0.89,42.7286,-84.484759,261.49,0.012083047069609165,114.4439468383789,-0.024000000208616257,0.0,1
1667404191.14007092,437295589,0,3,316209200,2234,12,0.89,42.7286,-84.484759,261.5,0.01720465160906315,144.46231079101562,-0.07100000232458115,0.0,1
1667404191.34004998,437495568,0,3,316209400,2234,12,0.89,42.7286001,-84.4847589,261.51,0.01612451672554016,7.125016212463379,-0.010000000707805157,0.0,1
1667404191.55940604,437714924,0,3,316209600,2234,12,0.89,42.7286001,-84.4847589,261.52,0.013928388245403767,158.9624786376953,-0.023000001907348633,0.0,1
1667404191.75938988,437914908,0,3,316209800,2234,12,0.89,42.7286001,-84.4847589,261.53000000000003,0.029120439663529396,15.945395469665527,-0.055000003427267075,0.0,1
1667404191.94009590,438095614,0,3,316210000,2234,12,0.89,42.728600199999995,-84.4847588,261.54,0.023600848391652107,143.6156463623047,-0.07100000232458115,0.0,1
1667404192.14019489,438295713,0,3,316210200,2234,12,0.89,42.7286001,-84.4847588,261.56,0.04318564757704735,132.18443298339844,-0.11600000411272049,0.0,1
1667404192.34007287,438495591,0,3,316210400,2234,12,0.89,42.7286001,-84.4847587,261.57,0.012529964558780193,151.38954162597656,-0.1080000028014183,0.0,1
1667404192.53999496,438695513,0,3,316210600,2234,13,0.89,42.728600199999995,-84.4847587,261.59000000000003,0.021260293200612068,311.1859130859375,-0.06700000166893005,0.0,1
1667404192.74006891,438895587,0,3,316210800,2234,13,0.8300000000000001,42.728600199999995,-84.4847587,261.58,0.015264337882399559,58.392494201660156,-0.04500000178813934,0.0,1
1667404192.95935893,439114877,0,3,316211000,2234,13,0.8300000000000001,42.728600199999995,-84.4847587,261.58,0.06296824663877487,147.31944274902344,-0.07500000298023224,0.0,1
1667404193.14014697,439295665,0,3,316211200,2234,13,0.8300000000000001,42.728600199999995,-84.48475859999999,261.59000000000003,0.00632455525919795,108.43494415283203,-0.020000001415610313,0.0,1
1667404193.34000301,439495521,0,3,316211400,2234,13,0.8300000000000001,42.728600199999995,-84.48475859999999,261.6,0.01486606989055872,132.273681640625,-0.09100000560283661,0.0,1
1667404193.54007101,439695589,0,3,316211600,2234,13,0.8300000000000001,42.728600199999995,-84.48475859999999,261.62,0.015811389312148094,55.30484390258789,-0.023000001907348633,0.0,1
1667404193.74017191,439895690,0,3,316211800,2234,13,0.8300000000000001,42.7286003,-84.4847585,261.63,0.012041594833135605,4.763641834259033,-0.04400000348687172,0.0,1
1667404193.95947289,440114991,0,3,316212000,2234,13,0.8300000000000001,42.7286003,-84.4847585,261.64,0.028792360797524452,159.67684936523438,0.00800000037997961,0.0,1
1667404194.15941000,440314928,0,3,316212200,2234,13,0.8300000000000001,42.7286003,-84.4847585,261.64,0.01603122055530548,176.4236602783203,0.004000000189989805,0.0,1
1667404194.35944796,440514966,0,3,316212400,2234,13,0.8300000000000001,42.7286003,-84.48475839999999,261.66,0.027784887701272964,149.74356079101562,-0.06700000166893005,0.0,1
1667404194.53997898,440695497,0,3,316212600,2234,13,0.8300000000000001,42.7286003,-84.48475839999999,261.67,0.014764823019504547,28.300756454467773,-0.0560000017285347,0.0,1
1667404194.74008298,440895601,0,3,316212800,2234,13,0.8300000000000001,42.7286003,-84.48475839999999,261.68,0.014317821711301804,102.09474182128906,-0.10200000554323196,0.0,1
1667404194.95934606,441114864,0,3,316213000,2234,13,0.8300000000000001,42.7286003,-84.48475839999999,261.69,0.007280109915882349,195.94540405273438,-0.08500000089406967,0.0,1
1667404195.15943503,441314953,0,3,316213200,2234,13,0.8300000000000001,42.7286003,-84.4847583,261.7,0.02906888537108898,93.94517517089844,-0.046000003814697266,0.0,1
1667404195.35946584,441514984,0,3,316213400,2234,13,0.8300000000000001,42.7286003,-84.4847583,261.71,0.01702938787639141,273.366455078125,-0.026000000536441803,0.0,1
1667404195.55945396,441714972,0,3,316213600,2234,13,0.8300000000000001,42.7286003,-84.4847583,261.71,0.03088689222931862,150.94540405273438,-0.052000001072883606,0.0,1
1667404195.75939584,441914914,0,3,316213800,2234,13,0.8300000000000001,42.7286003,-84.4847583,261.71,0.020124612376093864,116.5650405883789,-0.06800000369548798,0.0,1
1667404195.95939684,442114915,0,3,316214000,2234,13,0.8300000000000001,42.7286003,-84.4847582,261.73,0.017720045521855354,253.6104736328125,-0.023000001907348633,0.0,1
1667404196.15937400,442314892,0,3,316214200,2234,13,0.8300000000000001,42.7286003,-84.4847583,261.73,0.007810249924659729,309.8055725097656,-0.1420000046491623,0.0,1
1667404196.33997989,442495498,0,3,316214400,2234,13,0.8300000000000001,42.7286003,-84.4847583,261.72,0.02500000037252903,73.73979187011719,-0.1080000028014183,0.0,1
1667404196.54009485,442695613,0,3,316214600,2234,13,0.8300000000000001,42.7286003,-84.4847582,261.73,0.011045361869037151,95.19442749023438,-0.16600000858306885,0.0,1
1667404196.74006796,442895586,0,3,316214800,2234,13,0.8300000000000001,42.7286004,-84.4847582,261.74,0.021931713446974754,114.22773742675781,-0.16900001466274261,0.0,1
1667404196.94017887,443095697,0,3,316215000,2234,13,0.8300000000000001,42.7286003,-84.4847581,261.76,0.051088158041238785,130.23634338378906,-0.20900000631809235,0.0,1
1667404197.15939498,443314913,0,3,316215200,2234,13,0.8300000000000001,42.7286003,-84.484758,261.77,0.02416609413921833,155.5560302734375,-0.16900001466274261,0.0,1
1667404197.34017992,443495698,0,3,316215400,2234,13,0.8300000000000001,42.7286003,-84.484758,261.78000000000003,0.012206556275486946,235.0079803466797,-0.039000000804662704,0.0,1
1667404197.54013395,443695652,0,3,316215600,2234,13,0.8300000000000001,42.7286003,-84.484758,261.78000000000003,0.02408318966627121,265.2363586425781,-0.05700000375509262,0.0,1
1667404197.74007201,443895590,0,3,316215800,2234,13,0.8300000000000001,42.7286004,-84.484758,261.79,0.02340940199792385,340.01690673828125,-0.05900000408291817,0.0,1
1667404197.95937490,444114893,0,3,316216000,2234,13,0.8300000000000001,42.7286004,-84.48475789999999,261.79,0.012206556275486946,34.99201583862305,0.05700000375509262,0.0,1
1667404198.15938783,444314906,0,3,316216200,2234,13,0.8300000000000001,42.7286005,-84.48475789999999,261.79,0.046141091734170914,299.8988952636719,0.06800000369548798,0.0,1
1667404198.35941792,444514936,0,3,316216400,2234,13,0.8300000000000001,42.7286005,-84.48475789999999,261.79,0.012083047069609165,114.4439468383789,0.04700000211596489,0.0,1
1667404198.55944705,444714965,0,3,316216600,2234,13,0.8300000000000001,42.7286005,-84.4847578,261.8,0.03827532008290291,326.72509765625,0.08300000429153442,0.0,1
1667404198.75944805,444914966,0,3,316216800,2234,13,0.8300000000000001,42.7286005,-84.4847578,261.8,0.018439089879393578,192.52880859375,0.03800000250339508,0.0,1
1667404198.94000793,445095526,0,3,316217000,2234,13,0.8300000000000001,42.7286005,-84.4847578,261.81,0.017000000923871994,241.92752075195312,0.006000000052154064,0.0,1
1667404199.15939093,445314909,0,3,316217200,2234,12,0.8300000000000001,42.7286006,-84.4847577,261.8,0.026000000536441803,67.380126953125,0.046000003814697266,0.0,1
1667404199.34011006,445495628,0,3,316217400,2234,12,0.8300000000000001,42.7286006,-84.4847576,261.78000000000003,0.012041594833135605,85.2363510131836,0.0020000000949949026,0.0,1
1667404199.55938387,445714902,0,3,316217600,2234,12,0.8300000000000001,42.7286007,-84.4847576,261.77,0.015524175018072128,345.0685729980469,-0.04000000283122063,0.0,1
1667404199.73993897,445895457,0,3,316217800,2234,12,0.8300000000000001,42.7286007,-84.4847575,261.78000000000003,0.01077033020555973,111.80139923095703,0.08100000023841858,0.0,1
1667404199.95946193,446114980,0,3,316218000,2234,12,0.89,42.7286007,-84.48475739999999,261.78000000000003,0.004472136031836271,116.5650405883789,0.020000001415610313,0.0,1
1667404200.15946198,446314980,0,3,316218200,2234,12,0.89,42.728600799999995,-84.48475739999999,261.78000000000003,0.04393176734447479,138.69137573242188,-0.1080000028014183,0.0,1
1667404200.34002686,446495545,0,3,316218400,2234,12,0.89,42.728600799999995,-84.4847573,261.78000000000003,0.01603122055530548,86.42366027832031,-0.07400000095367432,0.0,1
1667404200.54005384,446695572,0,3,316218600,2234,12,0.89,42.728600899999996,-84.4847573,261.77,0.007810249924659729,309.8055725097656,-0.058000002056360245,0.0,1
1667404200.74003887,446895557,0,3,316218800,2234,12,0.89,42.728600899999996,-84.4847573,261.76,0.01612451672554016,299.744873046875,-0.005000000353902578,0.0,1
1667404200.94004083,447095559,0,3,316219000,2234,12,0.89,42.728601,-84.4847573,261.75,0.0058309524320065975,329.0362548828125,-0.06599999964237213,0.0,1
1667404201.14014602,447295664,0,3,316219200,2234,12,0.89,42.728601,-84.48475719999999,261.76,0.03138471022248268,120.65066528320312,-0.02500000037252903,0.0,1
1667404201.33998585,447495504,0,3,316219400,2234,12,0.89,42.7286011,-84.48475719999999,261.74,0.005385165102779865,201.80142211914062,-0.05400000140070915,0.0,1
1667404201.55947399,447714992,0,3,316219600,2234,12,0.89,42.7286011,-84.48475719999999,261.73,0.019723083823919296,120.46554565429688,-0.05000000074505806,0.0,1
1667404201.75945306,447914971,0,3,316219800,2234,12,0.89,42.7286012,-84.48475719999999,261.7,0.014866068959236145,109.65381622314453,-0.032999999821186066,0.0,1
1667404201.95948005,448114998,0,3,316220000,2234,12,0.89,42.7286012,-84.4847571,261.68,0.013928388245403767,111.03750610351562,-0.013000000268220901,0.0,1
1667404202.13998199,448295500,0,3,316220200,2234,12,0.89,42.7286013,-84.4847571,261.68,0.020024985074996948,357.1376037597656,0.07000000029802322,0.0,1
1667404202.34004498,448495563,0,3,316220400,2234,12,0.89,42.728601399999995,-84.4847571,261.65,0.0010000000474974513,0.0,-0.0010000000474974513,0.0,1
1667404202.54003286,448695551,0,3,316220600,2234,12,0.89,42.728601399999995,-84.4847571,261.63,0.0150332972407341,273.8140869140625,0.0020000000949949026,0.0,1
1667404202.74005485,448895573,0,3,316220800,2234,12,0.89,42.728601499999996,-84.4847571,261.62,0.018601076677441597,36.25383758544922,-0.01600000075995922,0.0,1
1667404202.94010496,449095623,0,3,316221000,2234,12,0.89,42.728601499999996,-84.4847571,261.6,0.025019992142915726,177.70938110351562,0.04100000113248825,0.0,1
1667404203.14003086,449295549,0,3,316221200,2234,12,0.89,42.728601499999996,-84.4847571,261.58,0.01612451672554016,262.875,-0.06200000271201134,0.0,1
1667404203.34008193,449495600,0,3,316221400,2234,12,0.89,42.7286016,-84.4847571,261.56,0.0072111026383936405,146.30992126464844,-0.02500000037252903,0.0,1
1667404203.54003501,449695553,0,3,316221600,2234,12,0.89,42.7286016,-84.4847571,261.54,0.015000000596046448,270.0,-0.032999999821186066,0.0,1
1667404203.74003386,449895552,0,3,316221800,2234,12,0.89,42.7286017,-84.4847571,261.5,0.007615773472934961,203.1986083984375,-0.055000003427267075,0.0,1
1667404203.94004393,450095562,0,3,316222000,2234,12,0.89,42.7286018,-84.4847571,261.48,0.019026298075914383,356.9872131347656,0.013000000268220901,0.0,1
1667404204.14003396,450295552,0,3,316222200,2234,12,0.89,42.7286018,-84.4847571,261.46,0.01603122055530548,266.4236755371094,0.0430000014603138,0.0,1
1667404204.34007192,450495590,0,3,316222400,2234,12,0.89,42.7286019,-84.4847571,261.44,0.007615773472934961,246.80142211914062,0.0430000014603138,0.0,1
1667404204.54006290,450695581,0,3,316222600,2234,12,0.89,42.7286019,-84.4847571,261.41,0.04060788452625275,279.9262390136719,0.04100000113248825,0.0,1
1667404204.74024200,450895760,0,3,316222800,2234,12,0.89,42.728601999999995,-84.48475719999999,261.39,0.05185557156801224,309.52264404296875,0.09600000083446503,0.0,1
1667404204.95940185,451114920,0,3,316223000,2234,12,0.89,42.728601999999995,-84.48475719999999,261.36,0.03577708825469017,206.56504821777344,0.04000000283122063,0.0,1
1667404205.15942097,451314939,0,3,316223200,2234,12,0.89,42.728601999999995,-84.48475719999999,261.34000000000003,0.028635643422603607,167.9052276611328,-0.052000001072883606,0.0,1
1667404205.35931802,451514836,0,3,316223400,2234,12,0.89,42.728601999999995,-84.48475719999999,261.32,0.005656854715198278,45.0,0.014000000432133675,0.0,1
1667404205.55936503,451714883,0,3,316223600,2234,12,0.89,42.728602099999996,-84.4847571,261.29,0.01910497434437275,6.009006023406982,-0.03100000135600567,0.0,1
1667404205.74016190,451895680,0,3,316223800,2234,12,0.89,42.728602099999996,-84.4847571,261.26,0.012806248851120472,38.65980529785156,0.013000000268220901,0.0,1
1667404205.95940185,452114920,0,3,316224000,2234,12,0.89,42.728602099999996,-84.4847571,261.24,0.014866068959236145,160.34616088867188,-0.009000000543892384,0.0,1
1667404206.15942287,452314941,0,3,316224200,2234,12,0.89,42.728602099999996,-84.484757,261.22,0.012806248851120472,308.6598205566406,0.0,0.0,1
1667404206.35946798,452514986,0,3,316224400,2234,12,0.89,42.7286022,-84.484757,261.19,0.026476405560970306,349.1144714355469,-0.04500000178813934,0.0,1
1667404206.54010797,452695626,0,3,316224600,2234,12,0.89,42.7286022,-84.4847571,261.16,0.0361386239528656,194.42079162597656,-0.13600000739097595,0.0,1
1667404206.74004483,452895563,0,3,316224800,2234,12,0.89,42.7286022,-84.484757,261.13,0.03448187932372093,119.53876495361328,-0.09800000488758087,0.0,1
1667404206.95940590,453114924,0,3,316225000,2234,12,0.89,42.7286022,-84.484757,261.1,0.010049876756966114,275.7106018066406,-0.14100000262260437,0.0,1
1667404207.14005303,453295571,0,3,316225200,2234,12,0.89,42.728602099999996,-84.484757,261.11,0.008602325804531574,324.4623107910156,-0.027000000700354576,0.0,1
1667404207.35938787,453514906,0,3,316225400,2234,12,0.89,42.728602099999996,-84.484757,261.07,0.02024845778942108,200.22486877441406,-0.049000002443790436,0.0,1
1667404207.54010606,453695624,0,3,316225600,2234,12,0.89,42.728602099999996,-84.484757,261.04,0.009219544939696789,139.39869689941406,-0.06400000303983688,0.0,1
1667404207.74011302,453895631,0,3,316225800,2234,12,0.89,42.728602099999996,-84.4847569,261.03000000000003,0.021931713446974754,24.22774314880371,0.009000000543892384,0.0,1
1667404207.95943785,454114956,0,3,316226000,2234,12,0.89,42.728601999999995,-84.4847568,261.01,0.008544004522264004,69.4439468383789,0.0430000014603138,0.0,1
1667404208.15946388,454314982,0,3,316226200,2234,13,0.89,42.728601999999995,-84.4847568,261.0,0.013000000268220901,270.0,0.036000002175569534,0.0,1
1667404208.35942006,454514938,0,3,316226400,2234,13,0.89,42.7286019,-84.48475669999999,260.99,0.029546573758125305,246.0375213623047,0.07000000029802322,0.0,1
1667404208.55938506,454714903,0,3,316226600,2234,13,0.89,42.7286018,-84.48475669999999,260.96,0.010630146600306034,131.1859130859375,0.055000003427267075,0.0,1
1667404208.75936389,454914882,0,3,316226800,2234,13,0.89,42.7286017,-84.4847565,260.96,0.010295630432665348,209.05459594726562,0.08900000154972076,0.0,1
1667404208.95938587,455114904,0,3,316227000,2234,13,0.89,42.7286016,-84.4847565,260.91,0.0126491105183959,18.434947967529297,-0.029000001028180122,0.0,1
1667404209.15940905,455314927,0,3,316227200,2234,13,0.89,42.728601499999996,-84.4847563,260.91,0.006403124425560236,128.65980529785156,0.05400000140070915,0.0,1
1667404209.35946298,455514981,0,3,316227400,2234,13,0.89,42.728601399999995,-84.48475619999999,260.91,0.06312685459852219,139.4971466064453,-0.007000000216066837,0.0,1
1667404229.35939503,475514913,0,3,316247400,2234,13,0.89,42.7285983,-84.4847494,262.47,0.022360680624842644,10.304844856262207,0.07700000703334808,0.0,1
1667404229.55941892,475714937,0,3,316247600,2234,13,0.89,42.7285982,-84.4847494,262.5,0.015000000596046448,270.0,-0.015000000596046448,0.0,1
1667404229.75947094,475914989,0,3,316247800,2234,13,0.89,42.7285981,-84.48474929999999,262.54,0.015811389312148094,145.30484008789062,0.003000000026077032,0.0,1
1667404229.95939803,476114916,0,3,316248000,2234,13,0.89,42.728598,-84.4847492,262.58,0.019416488707065582,348.111328125,0.052000001072883606,0.0,1
1667404230.14004183,476295560,0,3,316248200,2234,13,0.89,42.728598,-84.4847491,262.61,0.031144825741648674,317.6025695800781,0.055000003427267075,0.0,1
1667404230.35943389,476514952,0,3,316248400,2234,13,0.89,42.7285979,-84.484749,262.65,0.009219544939696789,167.47119140625,-0.0010000000474974513,0.0,1
1667404230.55938506,476714903,0,3,316248600,2234,13,0.89,42.728597799999996,-84.4847489,262.69,0.018973667174577713,161.56504821777344,-0.018000001087784767,0.0,1
1667404230.75939083,476914909,0,3,316248800,2234,13,0.89,42.728597699999995,-84.48474879999999,262.73,0.004472136031836271,63.4349479675293,0.006000000052154064,0.0,1
1667404230.95941401,477114932,0,3,316249000,2234,13,0.89,42.7285976,-84.4847487,262.76,0.006082762498408556,99.46231842041016,-0.02800000086426735,0.0,1
1667404231.14009094,477295609,0,3,316249200,2234,13,0.89,42.7285976,-84.4847486,262.79,0.0058309524320065975,300.9637451171875,-0.010000000707805157,0.0,1
1667404231.34004784,477495566,0,3,316249400,2234,13,0.89,42.7285975,-84.4847485,262.81,0.022561030462384224,347.19573974609375,0.020000001415610313,0.0,1
1667404231.54001188,477695530,0,3,316249600,2234,13,0.89,42.7285975,-84.4847484,262.84000000000003,0.0126491105183959,71.56504821777344,-0.032999999821186066,0.0,1
1667404231.74013591,477895654,0,3,316249800,2234,13,0.89,42.7285975,-84.48474829999999,262.86,0.0072111026383936405,123.6900634765625,0.0560000017285347,0.0,1
1667404231.95940590,478114924,0,3,316250000,2234,13,0.89,42.7285974,-84.4847482,262.89,0.012727922759950161,135.0,-0.0010000000474974513,0.0,1
1667404232.15938997,478314908,0,3,316250200,2234,13,0.89,42.7285974,-84.48474809999999,262.93,0.025961510837078094,164.3577423095703,-0.07500000298023224,0.0,1
1667404232.34002686,478495545,0,3,316250400,2234,13,0.89,42.7285973,-84.484748,262.96,0.02024845778942108,212.90524291992188,-0.04200000315904617,0.0,1
1667404232.54005194,478695570,0,3,316250600,2234,13,0.89,42.7285973,-84.484748,263.0,0.00824621133506298,165.9637451171875,0.06800000369548798,0.0,1
1667404232.73997688,478895495,0,3,316250800,2234,13,0.89,42.7285973,-84.4847479,263.02,0.006403124425560236,141.34017944335938,-0.04700000211596489,0.0,1
1667404232.94007683,479095595,0,3,316251000,2234,13,0.89,42.7285973,-84.4847478,263.05,0.00806225836277008,119.744873046875,0.0010000000474974513,0.0,1
1667404233.14002991,479295548,0,3,316251200,2234,13,0.89,42.7285973,-84.4847478,263.08,0.0298328697681427,320.4403381347656,0.01100000087171793,0.0,1
1667404233.34004402,479495562,0,3,316251400,2234,13,0.89,42.7285973,-84.4847477,263.1,0.021260293200612068,311.1859130859375,-0.027000000700354576,0.0,1
1667404233.54008603,479695604,0,3,316251600,2234,13,0.89,42.7285973,-84.4847477,263.12,0.03231098875403404,158.19857788085938,-0.00800000037997961,0.0,1
1667404233.74006486,479895583,0,3,316251800,2234,13,0.89,42.7285973,-84.48474759999999,263.15,0.03405877575278282,176.63352966308594,-0.013000000268220901,0.0,1
1667404233.94005990,480095578,0,3,316252000,2234,13,0.89,42.7285973,-84.48474759999999,263.17,0.00806225836277008,119.744873046875,-0.04000000283122063,0.0,1
1667404234.14002085,480295539,0,3,316252200,2234,13,0.89,42.7285973,-84.4847475,263.21,0.02088061347603798,196.69924926757812,-0.04700000211596489,0.0,1
1667404234.34012604,480495644,0,3,316252400,2234,13,0.89,42.7285973,-84.4847475,263.22,0.02332380972802639,149.03623962402344,-0.07400000095367432,0.0,1
1667404234.54007101,480695589,0,3,316252600,2234,13,0.89,42.7285973,-84.48474739999999,263.25,0.018027756363153458,303.6900634765625,-0.03400000184774399,0.0,1
1667404234.75944400,480914962,0,3,316252800,2234,13,0.89,42.7285973,-84.48474739999999,263.27,0.003000000026077032,0.0,0.049000002443790436,0.0,1
1667404234.94007802,481095596,0,3,316253000,2234,13,0.89,42.7285974,-84.48474739999999,263.27,0.031906113028526306,32.195735931396484,-0.02500000037252903,0.0,1
1667404235.15939403,481314912,0,3,316253200,2234,13,0.89,42.7285975,-84.4847473,263.28000000000003,0.0468188039958477,340.01690673828125,0.02800000086426735,0.0,1
1667404235.35941792,481514936,0,3,316253400,2234,13,0.89,42.7285976,-84.4847473,263.3,0.03162277862429619,341.5650634765625,-0.02200000174343586,0.0,1
1667404235.55936694,481714885,0,3,316253600,2234,13,0.89,42.728597699999995,-84.4847473,263.3,0.006082762498408556,9.462321281433105,-0.04400000348687172,0.0,1
1667404235.74011588,481895634,0,3,316253800,2234,13,0.89,42.728597799999996,-84.48474739999999,263.3,0.014317821711301804,282.0947570800781,-0.029000001028180122,0.0,1
1667404235.97944093,482134959,0,3,316254000,2234,13,0.89,42.7285979,-84.48474739999999,263.3,0.003162277629598975,108.43494415283203,-0.030000001192092896,0.0,1
1667404236.15949202,482315010,0,3,316254200,2234,13,0.89,42.728598,-84.48474739999999,263.31,0.03606937825679779,313.876708984375,0.009000000543892384,0.0,1
1667404236.35939598,482514914,0,3,316254400,2234,13,0.89,42.7285981,-84.48474739999999,263.3,0.009219544939696789,130.60128784179688,-0.04500000178813934,0.0,1
1667404236.55938697,482714905,0,3,316254600,2234,13,0.89,42.7285982,-84.48474739999999,263.32,0.003162277629598975,71.56504821777344,-0.09200000762939453,0.0,1
1667404236.75937104,482914889,0,3,316254800,2234,13,0.89,42.7285983,-84.48474739999999,263.32,0.02900000289082527,136.3971710205078,-0.05100000277161598,0.0,1
1667404236.93998384,483095502,0,3,316255000,2234,13,0.89,42.728598399999996,-84.48474739999999,263.31,0.010295630432665348,330.9454040527344,-0.1380000114440918,0.0,1
1667404237.15939188,483314910,0,3,316255200,2234,13,0.89,42.7285985,-84.48474739999999,263.32,0.009219544939696789,220.60130310058594,-0.09100000560283661,0.0,1
1667404237.34003592,483495554,0,3,316255400,2234,13,0.89,42.7285986,-84.4847475,263.31,0.03847077116370201,98.97261810302734,-0.11100000888109207,0.0,1
1667404237.55940485,483714923,0,3,316255600,2234,13,0.89,42.7285987,-84.48474739999999,263.3,0.012041594833135605,184.76365661621094,-0.05900000408291817,0.0,1
1667404237.74008393,483895602,0,3,316255800,2234,13,0.89,42.7285988,-84.4847475,263.29,0.02280350960791111,74.74488067626953,-0.1210000067949295,0.0,1
1667404237.95944905,484114967,0,3,316256000,2234,13,0.89,42.7285989,-84.4847475,263.28000000000003,0.011313709430396557,45.0,0.026000000536441803,0.0,1
1667404238.15939188,484314910,0,3,316256200,2234,13,0.89,42.728598999999996,-84.4847475,263.27,0.021095024421811104,328.5704345703125,0.08100000023841858,0.0,1
1667404238.34006405,484495582,0,3,316256400,2234,13,0.89,42.7285991,-84.4847475,263.24,0.00806225836277008,277.1250305175781,0.004000000189989805,0.0,1
1667404238.55939293,484714911,0,3,316256600,2234,13,0.89,42.7285992,-84.4847475,263.23,0.005099019967019558,281.3099365234375,0.07800000160932541,0.0,1
1667404238.75941086,484914929,0,3,316256800,2234,13,0.89,42.7285993,-84.4847475,263.22,0.047010637819767,330.7086486816406,0.20900000631809235,0.0,1
1667404238.94016194,485095680,0,3,316257000,2234,13,0.89,42.7285994,-84.48474759999999,263.21,0.05345091596245766,252.58203125,0.06200000271201134,0.0,1
1667404239.15944886,485314967,0,3,316257200,2234,13,0.89,42.7285995,-84.48474759999999,263.21,0.00824621133506298,75.96375274658203,0.03500000014901161,0.0,1
1667404239.35946798,485514986,0,3,316257400,2234,13,0.89,42.728599599999995,-84.48474759999999,263.19,0.024041632190346718,163.07247924804688,-0.027000000700354576,0.0,1
1667404239.55938196,485714900,0,3,316257600,2234,13,0.89,42.728599599999995,-84.4847477,263.19,0.018601076677441597,323.74615478515625,0.04500000178813934,0.0,1
1667404239.74005795,485895576,0,3,316257800,2234,13,0.89,42.7285997,-84.4847477,263.19,0.011401754803955555,232.12501525878906,0.039000000804662704,0.0,1
1667404239.95938396,486114902,0,3,316258000,2234,13,0.89,42.7285998,-84.4847477,263.17,0.03189043700695038,131.1859130859375,0.023000001907348633,0.0,1
1667404240.14007306,486295591,0,3,316258200,2234,13,0.89,42.7285998,-84.4847477,263.16,0.020615529268980026,345.9637451171875,-0.021000001579523087,0.0,1
1667404240.35942292,486514941,0,3,316258400,2234,13,0.89,42.7285999,-84.4847478,263.13,0.00824621133506298,75.96375274658203,0.03100000135600567,0.0,1
1667404240.54001904,486695537,0,3,316258600,2234,13,0.89,42.7286,-84.4847478,263.13,0.03498571366071701,329.0362548828125,0.11600000411272049,0.0,1
1667404240.74016905,486895687,0,3,316258800,2234,13,0.89,42.7286,-84.4847479,263.09000000000003,0.013601471669971943,216.02737426757812,0.06400000303983688,0.0,1
1667404240.95941091,487114929,0,3,316259000,2234,13,0.89,42.7286001,-84.484748,263.06,0.018248287960886955,260.5376892089844,0.039000000804662704,0.0,1
1667404241.14005399,487295572,0,3,316259200,2234,13,0.89,42.7286001,-84.48474809999999,263.04,0.011401754803955555,232.12501525878906,0.01100000087171793,0.0,1
1667404241.34005404,487495572,0,3,316259400,2234,13,0.89,42.7286001,-84.4847482,263.01,0.0374833308160305,133.9190673828125,0.039000000804662704,0.0,1
1667404241.55940104,487714919,0,3,316259600,2234,13,0.89,42.7286001,-84.4847482,262.99,0.038832977414131165,348.111328125,0.06700000166893005,0.0,1
1667404241.75938797,487914906,0,3,316259800,2234,13,0.89,42.7286001,-84.48474829999999,262.95,0.011661904864013195,30.96375274658203,0.00800000037997961,0.0,1
1667404241.95944500,488114963,0,3,316260000,2234,13,0.89,42.7286001,-84.4847484,262.94,0.03764306381344795,286.9908447265625,0.05900000408291817,0.0,1
1667404242.15939689,488314915,0,3,316260200,2234,13,0.89,42.728600199999995,-84.4847485,262.91,0.01720465160906315,324.4623107910156,-0.02200000174343586,0.0,1
1667404242.34006906,488495587,0,3,316260400,2234,13,0.89,42.728600199999995,-84.4847486,262.89,0.010816654190421104,146.30992126464844,0.004000000189989805,0.0,1
1667404242.54015803,488695676,0,3,316260600,2234,12,0.89,42.728600199999995,-84.4847487,262.86,0.007615773472934961,113.1985855102539,-0.0690000057220459,0.0,1
1667404242.73998094,488895499,0,3,316260800,2234,12,0.93,42.728600199999995,-84.48474879999999,262.84000000000003,0.04623851552605629,338.4286804199219,0.0,0.0,1
1667404242.95936489,489114883,0,3,316261000,2234,12,0.93,42.728600199999995,-84.484749,262.83,0.033600594848394394,306.52886962890625,-0.013000000268220901,0.0,1
1667404243.14003801,489295556,0,3,316261200,2234,12,0.93,42.728600199999995,-84.4847492,262.79,0.04901020601391792,268.83087158203125,-0.05900000408291817,0.0,1
1667404243.34005404,489495572,0,3,316261400,2234,12,0.93,42.7286001,-84.48474929999999,262.77,0.049091752618551254,176.4964599609375,0.07200000435113907,0.0,1
1667404243.55939698,489714915,0,3,316261600,2234,12,0.93,42.7286,-84.4847494,262.74,0.02607681043446064,212.47120666503906,-0.03500000014901161,0.0,1
1667404243.74011898,489895637,0,3,316261800,2234,12,0.93,42.7286,-84.48474949999999,262.74,0.022203603759407997,54.16234588623047,0.05100000277161598,0.0,1
1667404243.94005990,490095578,0,3,316262000,2234,12,0.93,42.7285999,-84.48474949999999,262.73,0.0020000000949949026,90.0,0.10100000351667404,0.0,1
1667404244.15948892,490315007,0,3,316262200,2234,12,0.93,42.7285999,-84.4847496,262.7,0.01969771645963192,156.03750610351562,-0.027000000700354576,0.0,1
1667404244.34010005,490495618,0,3,316262400,2234,12,0.93,42.7285998,-84.4847496,262.68,0.02302173152565956,2.4895524978637695,-0.009000000543892384,0.0,1
1667404244.54001403,490695532,0,3,316262600,2234,12,0.93,42.7285998,-84.4847497,262.66,0.030675724148750305,340.9743957519531,0.04200000315904617,0.0,1
1667404244.73999691,490895515,0,3,316262800,2234,12,0.93,42.7285998,-84.4847498,262.64,0.00984885822981596,336.0375061035156,0.05000000074505806,0.0,1
1667404244.94005203,491095570,0,3,316263000,2234,12,0.93,42.7285997,-84.4847498,262.59000000000003,0.018681542947888374,105.52410125732422,-0.03800000250339508,0.0,1
1667404245.14009905,491295617,0,3,316263200,2234,12,0.93,42.7285997,-84.4847499,262.57,0.008602325804531574,35.53767776489258,-0.017000000923871994,0.0,1
1667404245.34013295,491495651,0,3,316263400,2234,12,0.93,42.728599599999995,-84.4847499,262.55,0.01100000087171793,270.0,0.029000001028180122,0.0,1
1667404245.54004002,491695558,0,3,316263600,2234,12,0.93,42.728599599999995,-84.48474999999999,262.53000000000003,0.009219544939696789,347.47119140625,-0.005000000353902578,0.0,1
1667404245.74004793,491895566,0,3,316263800,2234,12,0.93,42.7285995,-84.48474999999999,262.52,0.018248287960886955,350.5376892089844,0.05700000375509262,0.0,1
1667404245.95940804,492114926,0,3,316264000,2234,12,0.93,42.7285994,-84.4847501,262.49,0.011045361869037151,5.194427967071533,-0.04100000113248825,0.0,1
1667404246.15944386,492314962,0,3,316264200,2234,12,0.93,42.7285994,-84.4847501,262.49,0.04101219400763512,1.3971809148788452,0.1340000033378601,0.0,1
1667404246.35937691,492514895,0,3,316264400,2234,12,0.93,42.7285992,-84.4847501,262.46,0.05703508108854294,177.9904327392578,-0.03700000047683716,0.0,1
1667404246.54005885,492695577,0,3,316264600,2234,12,0.93,42.7285991,-84.4847502,262.45,0.029154760763049126,329.0362548828125,0.055000003427267075,0.0,1
1667404246.75939393,492914912,0,3,316264800,2234,12,0.93,42.728598999999996,-84.4847502,262.41,0.009219544939696789,347.47119140625,-0.08300000429153442,0.0,1
1667404246.95946288,493114981,0,3,316265000,2234,12,0.93,42.7285989,-84.4847502,262.4,0.03023243322968483,124.2156982421875,-0.01900000125169754,0.0,1
1667404247.15947604,493314994,0,3,316265200,2234,12,0.93,42.7285988,-84.4847502,262.4,0.02325940877199173,25.463342666625977,-0.07100000232458115,0.0,1
1667404247.34005284,493495571,0,3,316265400,2234,12,0.93,42.7285987,-84.4847502,262.4,0.01910497434437275,186.00901794433594,-0.08500000089406967,0.0,1
1667404247.54005289,493695571,0,3,316265600,2234,12,0.93,42.7285986,-84.4847503,262.38,0.03448187932372093,163.14158630371094,-0.11700000613927841,0.0,1
1667404247.74014997,493895668,0,3,316265800,2234,12,0.93,42.7285985,-84.4847503,262.37,0.020396079868078232,101.30992126464844,-0.03700000047683716,0.0,1
1667404247.94005895,494095577,0,3,316266000,2234,12,0.93,42.728598399999996,-84.4847503,262.36,0.021931713446974754,294.2277526855469,-0.018000001087784767,0.0,1
1667404248.14004493,494295563,0,3,316266200,2234,12,0.93,42.7285982,-84.4847503,262.35,0.04753946140408516,165.37911987304688,-0.06400000303983688,0.0,1
1667404248.34007788,494495596,0,3,316266400,2234,12,0.93,42.7285981,-84.4847503,262.34000000000003,0.009433981962502003,212.00538635253906,0.08100000023841858,0.0,1
1667404293.94022799,540095746,0,3,316312000,2234,12,0.89,42.728600199999995,-84.4847571,258.85,0.024041632190346718,16.92751121520996,-0.014000000432133675,0.0,1
1667404294.13998890,540295507,0,3,316312200,2234,12,0.89,42.7286003,-84.4847571,258.87,0.023600848391652107,323.61566162109375,0.05300000309944153,0.0,1
1667404294.34006500,540495583,0,3,316312400,2234,12,0.89,42.7286004,-84.4847571,258.85,0.013000000268220901,0.0,0.010000000707805157,0.0,1
1667404294.54006505,540695583,0,3,316312600,2234,12,0.89,42.7286004,-84.484757,258.85,0.013601470738649368,107.10272216796875,-0.026000000536441803,0.0,1
1667404294.74004698,540895565,0,3,316312800,2234,12,0.89,42.7286005,-84.484757,258.85,0.019026298075914383,3.012787342071533,0.014000000432133675,0.0,1
1667404294.94005895,541095577,0,3,316313000,2234,12,0.89,42.7286005,-84.484757,258.84000000000003,0.008602325804531574,144.46231079101562,-0.027000000700354576,0.0,1
1667404295.13996291,541295481,0,3,316313200,2234,12,0.89,42.7286006,-84.4847569,258.84000000000003,0.01303840521723032,327.52880859375,0.09000000357627869,0.0,1
1667404295.34013104,541495649,0,3,316313400,2234,12,0.89,42.7286006,-84.4847569,258.84000000000003,0.025495098903775215,205.5599822998047,0.021000001579523087,0.0,1
1667404295.54000902,541695527,0,3,316313600,2234,12,0.89,42.7286006,-84.4847569,258.84000000000003,0.015652475878596306,116.5650405883789,-0.03500000014901161,0.0,1
1667404295.73999691,541895515,0,3,316313800,2234,12,0.89,42.7286007,-84.4847568,258.84000000000003,0.020024985074996948,92.86239624023438,-0.029000001028180122,0.0,1
1667404295.94004583,542095564,0,3,316314000,2234,12,0.89,42.7286007,-84.4847568,258.85,0.016401220113039017,217.568603515625,0.026000000536441803,0.0,1
1667404296.13997889,542295497,0,3,316314200,2234,12,0.89,42.7286007,-84.4847568,258.84000000000003,0.021095024421811104,301.4295654296875,-0.03100000135600567,0.0,1
1667404296.34010196,542495620,0,3,316314400,2234,12,0.89,42.728600799999995,-84.4847568,258.83,0.01303840521723032,94.39869689941406,-0.007000000216066837,0.0,1
1667404296.54008889,542695607,0,3,316314600,2234,12,0.89,42.728600899999996,-84.4847568,258.82,0.01910497434437275,132.87889099121094,-0.004000000189989805,0.0,1
1667404296.74012184,542895640,0,3,316314800,2234,12,0.89,42.728600899999996,-84.4847568,258.82,0.007810249924659729,320.1944274902344,-0.010000000707805157,0.0,1
1667404296.94007993,543095598,0,3,316315000,2234,12,0.89,42.728600899999996,-84.4847568,258.81,0.03584689646959305,202.9887237548828,-0.01100000087171793,0.0,1
1667404297.14009190,543295610,0,3,316315200,2234,12,0.89,42.728600899999996,-84.4847568,258.81,0.025495098903775215,168.6900634765625,-0.009000000543892384,0.0,1
1667404297.34007096,543495589,0,3,316315400,2234,12,0.89,42.728600899999996,-84.4847568,258.79,0.015231546945869923,66.80140686035156,-0.08300000429153442,0.0,1
1667404297.54003000,543695548,0,3,316315600,2234,12,0.89,42.728601,-84.4847568,258.77,0.013892443850636482,329.7435607910156,-0.055000003427267075,0.0,1
1667404297.74009299,543895611,0,3,316315800,2234,12,0.89,42.7286011,-84.4847568,258.77,0.05728001520037651,134.2926788330078,-0.08500000089406967,0.0,1
1667404297.93999791,544095516,0,3,316316000,2234,12,0.89,42.7286011,-84.48475669999999,258.77,0.04254409670829773,156.44772338867188,-0.1550000011920929,0.0,1
1667404298.14019895,544295717,0,3,316316200,2234,12,0.89,42.7286011,-84.48475669999999,258.74,0.04866209998726845,99.46231842041016,-0.16300000250339508,0.0,1
1667404298.34014702,544495665,0,3,316316400,2234,12,0.89,42.7286012,-84.48475669999999,258.74,0.01649242267012596,194.0362548828125,-0.11500000208616257,0.0,1
1667404298.54006600,544695584,0,3,316316600,2234,12,0.89,42.7286012,-84.48475669999999,258.73,0.012206556275486946,124.99201965332031,-0.039000000804662704,0.0,1
1667404298.74003100,544895549,0,3,316316800,2234,12,0.89,42.7286013,-84.4847566,258.72,0.03206244111061096,93.57632446289062,0.06300000101327896,0.0,1
1667404298.94006395,545095582,0,3,316317000,2234,12,0.89,42.7286013,-84.4847566,258.71,0.024413112550973892,214.99203491210938,0.06200000271201134,0.0,1
1667404299.14004302,545295561,0,3,316317200,2234,12,0.89,42.7286013,-84.4847566,258.71,0.02765863575041294,319.3987121582031,0.017000000923871994,0.0,1
1667404299.34009099,545495609,0,3,316317400,2234,12,0.89,42.728601399999995,-84.48475669999999,258.71,0.02121320553123951,261.8699035644531,0.039000000804662704,0.0,1
1667404299.54003501,545695553,0,3,316317600,2234,12,0.89,42.728601499999996,-84.48475669999999,258.69,0.02831960655748844,317.8623962402344,0.046000003814697266,0.0,1
1667404299.74004292,545895561,0,3,316317800,2234,12,0.89,42.7286016,-84.48475669999999,258.69,0.046043459326028824,325.6196594238281,-0.004000000189989805,0.0,1
1667404299.94011402,546095632,0,3,316318000,2234,12,0.89,42.7286017,-84.48475669999999,258.68,0.011661904864013195,30.96375274658203,0.12300000339746475,0.0,1
1667404300.14015603,546295674,0,3,316318200,2234,12,0.89,42.7286018,-84.48475669999999,258.65,0.029068883508443832,296.5650634765625,0.04500000178813934,0.0,1
1667404300.34000087,546495519,0,3,316318400,2234,12,0.89,42.7286018,-84.48475669999999,258.65,0.011401754803955555,217.87498474121094,0.07600000500679016,0.0,1
1667404300.54004097,546695559,0,3,316318600,2234,12,0.89,42.7286019,-84.48475669999999,258.63,0.007280109915882349,344.0545959472656,0.029000001028180122,0.0,1
1667404300.74004984,546895568,0,3,316318800,2234,12,0.93,42.7286019,-84.48475669999999,258.62,0.01100000087171793,180.0,-0.046000003814697266,0.0,1
1667404300.93999195,547095510,0,3,316319000,2234,12,0.93,42.728601999999995,-84.48475669999999,258.59000000000003,0.028160257264971733,173.88449096679688,-0.06100000441074371,0.0,1
1667404301.14001298,547295531,0,3,316319200,2234,12,0.93,42.728601999999995,-84.48475669999999,258.58,0.027658633887767792,192.52880859375,-0.05700000375509262,0.0,1
1667404301.34012103,547495639,0,3,316319400,2234,12,0.93,42.728602099999996,-84.48475669999999,258.56,0.02024845778942108,110.22484588623047,-0.052000001072883606,0.0,1
1667404301.54005599,547695574,0,3,316319600,2234,12,0.93,42.7286022,-84.48475669999999,258.55,0.010198039934039116,191.3099365234375,0.009000000543892384,0.0,1
1667404301.74005294,547895571,0,3,316319800,2234,12,0.93,42.7286023,-84.48475669999999,258.53000000000003,0.02607681043446064,32.471187591552734,0.015000000596046448,0.0,1
1667404301.94005084,548095569,0,3,316320000,2234,12,0.93,42.7286024,-84.48475669999999,258.52,0.02607681043446064,327.52880859375,0.013000000268220901,0.0,1
1667404302.14005804,548295576,0,3,316320200,2234,12,0.93,42.7286025,-84.48475669999999,258.51,0.022561030462384224,257.19573974609375,0.07000000029802322,0.0,1
1667404302.34016895,548495687,0,3,316320400,2234,12,0.93,42.728602599999995,-84.48475669999999,258.49,0.010630146600306034,138.81407165527344,-0.004000000189989805,0.0,1
1667404302.55938005,548714898,0,3,316320600,2234,12,0.93,42.728602699999996,-84.48475669999999,258.46,0.02376973070204258,202.2490234375,-0.06200000271201134,0.0,1
1667404302.74006486,548895583,0,3,316320800,2234,12,0.93,42.7286028,-84.48475669999999,258.46,0.02942787855863571,9.7824068069458,0.01900000125169754,0.0,1
1667404302.94007087,549095589,0,3,316321000,2234,12,0.93,42.7286029,-84.48475669999999,258.44,0.02154066041111946,338.1986083984375,0.06200000271201134,0.0,1
1667404303.14012599,549295644,0,3,316321200,2234,12,0.93,42.728603,-84.48475669999999,258.42,0.00707106851041317,225.0,-0.017000000923871994,0.0,1
1667404303.34005594,549495574,0,3,316321400,2234,12,0.93,42.7286031,-84.48475669999999,258.42,0.012165524996817112,279.46234130859375,0.036000002175569534,0.0,1
1667404303.54007983,549695598,0,3,316321600,2234,12,0.93,42.728603199999995,-84.48475669999999,258.4,0.007280109915882349,164.05459594726562,-0.05400000140070915,0.0,1
1667404303.74013090,549895649,0,3,316321800,2234,12,0.93,42.7286034,-84.48475669999999,258.39,0.009219544939696789,310.6012878417969,-0.021000001579523087,0.0,1
1667404303.94007087,550095589,0,3,316322000,2234,12,0.93,42.7286035,-84.4847568,258.37,0.056727420538663864,319.2891540527344,0.01600000075995922,0.0,1
1667404304.14004087,550295559,0,3,316322200,2234,12,0.93,42.7286036,-84.4847568,258.37,0.01726267673075199,259.9920349121094,0.04200000315904617,0.0,1
1667404304.34007883,550495597,0,3,316322400,2234,12,0.93,42.728603799999995,-84.4847568,258.34000000000003,0.028635643422603607,12.094756126403809,-0.03700000047683716,0.0,1
1667404304.54014683,550695665,0,3,316322600,2234,12,0.93,42.728603899999996,-84.4847568,258.33,0.0014142136787995696,315.0,0.04100000113248825,0.0,1
1667404304.74006796,550895586,0,3,316322800,2234,12,0.93,42.7286041,-84.4847568,258.32,0.03138471022248268,337.52056884765625,0.04700000211596489,0.0,1
1667404304.93997192,551095490,0,3,316323000,2234,12,0.93,42.7286042,-84.4847568,258.3,0.02765863575041294,310.6012878417969,0.030000001192092896,0.0,1
1667404305.14005494,551295573,0,3,316323200,2234,12,0.93,42.728604399999995,-84.4847568,258.29,0.02500000037252903,16.26020622253418,0.06400000303983688,0.0,1
1667404305.34005284,551495571,0,3,316323400,2234,12,0.93,42.728604499999996,-84.4847568,258.27,0.0072111026383936405,213.69007873535156,0.07600000500679016,0.0,1
1667404305.54011583,551695634,0,3,316323600,2234,12,0.93,42.7286046,-84.4847568,258.25,0.009899495169520378,315.0,0.04500000178813934,0.0,1
1667404305.73999095,551895509,0,3,316323800,2234,12,0.93,42.7286048,-84.4847568,258.23,0.025632010772824287,69.4439468383789,0.046000003814697266,0.0,1
1667404305.94010186,552095620,0,3,316324000,2234,12,0.93,42.7286049,-84.48475669999999,258.22,0.022360680624842644,243.43496704101562,-0.005000000353902578,0.0,1
1667404306.14013290,552295651,0,3,316324200,2234,12,0.93,42.728604999999995,-84.4847568,258.22,0.020518286153674126,223.0250701904297,0.0,0.0,1
1667404306.34009600,552495614,0,3,316324400,2234,12,0.93,42.728605099999996,-84.4847568,258.22,0.019924860447645187,17.52556610107422,0.020000001415610313,0.0,1
1667404306.54017091,552695689,0,3,316324600,2234,12,0.93,42.7286052,-84.48475669999999,258.21,0.01702938787639141,229.76365661621094,0.10400000214576721,0.0,1
1667404306.74004602,552895564,0,3,316324800,2234,12,0.93,42.7286053,-84.48475669999999,258.18,0.023086795583367348,355.0302734375,0.020000001415610313,0.0,1
1667404306.94006896,553095587,0,3,316325000,2234,12,0.93,42.7286055,-84.48475669999999,258.18,0.017464250326156616,283.24053955078125,0.01100000087171793,0.0,1
1667404307.14007497,553295593,0,3,316325200,2234,12,0.93,42.728605599999995,-84.48475669999999,258.16,0.019646884873509407,14.743561744689941,0.015000000596046448,0.0,1
1667404307.34014106,553495659,0,3,316325400,2234,12,0.93,42.728605699999996,-84.48475669999999,258.16,0.01969771645963192,156.03750610351562,-0.02500000037252903,0.0,1
1667404307.53993201,553695450,0,3,316325600,2234,12,0.93,42.7286058,-84.48475669999999,258.16,0.01615549437701702,248.1986083984375,-0.05100000277161598,0.0,1
1667404307.74009490,553895613,0,3,316325800,2234,12,0.93,42.7286059,-84.48475669999999,258.15,0.016278821974992752,169.38034057617188,-0.058000002056360245,0.0,1
1667404307.94005203,554095570,0,3,316326000,2234,12,0.93,42.7286061,-84.48475669999999,258.14,0.019026298075914383,183.01280212402344,-0.052000001072883606,0.0,1
1667404308.14005303,554295571,0,3,316326200,2234,12,0.93,42.7286061,-84.48475669999999,258.13,0.03807886689901352,166.32867431640625,-0.18400001525878906,0.0,1
1667404308.34003305,554495551,0,3,316326400,2234,12,0.93,42.7286062,-84.48475669999999,258.14,0.028600702062249184,126.46922302246094,-0.11400000751018524,0.0,1
1667404308.54005289,554695571,0,3,316326600,2234,12,0.93,42.7286064,-84.48475669999999,258.12,0.034885529428720474,152.70042419433594,-0.15700000524520874,0.0,1
1667404308.74005699,554895575,0,3,316326800,2234,12,0.93,42.7286065,-84.48475669999999,258.12,0.005099019967019558,191.3099365234375,-0.04400000348687172,0.0,1
1667404308.94011903,555095637,0,3,316327000,2234,12,0.93,42.7286066,-84.48475669999999,258.1,0.027784887701272964,329.7435607910156,-0.02800000086426735,0.0,1
1667404309.14013100,555295649,0,3,316327200,2234,12,0.93,42.7286068,-84.48475669999999,258.11,0.02080865204334259,324.78240966796875,0.13500000536441803,0.0,1
1667404309.34017301,555495691,0,3,316327400,2234,11,0.93,42.728606899999996,-84.4847566,258.09000000000003,0.030016662552952766,91.90914154052734,0.11100000888109207,0.0,1
1667404309.54004502,555695563,0,3,316327600,2234,11,0.93,42.728607,-84.4847566,258.08,0.010816654190421104,236.3099365234375,0.11100000888109207,0.0,1
1667404309.74005389,555895572,0,3,316327800,2234,11,0.93,42.7286071,-84.4847565,258.08,0.025079874321818352,23.498563766479492,0.18700000643730164,0.0,1
1667404309.95939803,556114916,0,3,316328000,2234,11,0.93,42.7286073,-84.4847565,258.05,0.05547071620821953,332.0490417480469,0.10000000149011612,0.0,1
1667404310.14006686,556295585,0,3,316328200,2234,11,0.93,42.728607499999995,-84.4847565,258.02,0.04716990888118744,21.124717712402344,0.15600000321865082,0.0,1
1667404310.34008789,556495606,0,3,316328400,2234,11,0.93,42.7286076,-84.4847564,258.01,0.0510392040014267,357.7542724609375,0.13700000941753387,0.0,1
1667404310.54005098,556695569,0,3,316328600,2234,12,0.93,42.7286078,-84.4847565,257.97,0.021000001579523087,270.0,0.10600000619888306,0.0,1
1667404310.74016786,556895686,0,3,316328800,2234,12,0.93,42.7286078,-84.4847565,257.95,0.01615549437701702,248.1986083984375,0.08300000429153442,0.0,1
1667404310.94021893,557095737,0,3,316329000,2234,12,0.93,42.7286079,-84.4847565,257.95,0.013601471669971943,306.0273742675781,0.13100001215934753,0.0,1
1667404311.14005303,557295571,0,3,316329200,2234,12,0.93,42.728608,-84.4847564,257.94,0.0036055513191968203,326.3099365234375,0.05100000277161598,0.0,1
1667404311.33998585,557495504,0,3,316329400,2234,12,0.93,42.728608099999995,-84.4847564,257.93,0.0070710680447518826,351.8699035644531,0.03800000250339508,0.0,1
1667404311.53999090,557695509,0,3,316329600,2234,12,0.93,42.7286082,-84.4847563,257.91,0.020024985074996948,92.86239624023438,-0.014000000432133675,0.0,1
1667404311.74005890,557895577,0,3,316329800,2234,12,0.93,42.7286084,-84.4847563,257.9,0.016278821974992752,349.3803405761719,0.023000001907348633,0.0,1
1667404311.94001794,558095536,0,3,316330000,2234,12,0.93,42.7286084,-84.48475619999999,257.9,0.014560219831764698,195.94540405273438,0.0560000017285347,0.0,1
1667404312.14010000,558295618,0,3,316330200,2234,12,0.93,42.7286086,-84.48475619999999,257.88,0.04328972473740578,353.36749267578125,0.03100000135600567,0.0,1
1667404312.34008884,558495607,0,3,316330400,2234,12,0.93,42.728608699999995,-84.4847561,257.86,0.018973667174577713,18.434947967529297,0.06000000238418579,0.0,1
1667404312.55940795,558714926,0,3,316330600,2234,12,0.93,42.728608799999996,-84.4847561,257.83,0.03337663784623146,188.61566162109375,-0.017000000923871994,0.0,1
1667404312.74012089,558895639,0,3,316330800,2234,12,0.93,42.7286089,-84.4847561,257.82,0.028635643422603607,282.0947570800781,0.08500000089406967,0.0,1
1667404312.94005895,559095577,0,3,316331000,2234,12,0.93,42.728609,-84.4847561,257.8,0.013928388245403767,291.0375061035156,-0.010000000707805157,0.0,1
