timestamp,TimeUS,Lat,Lng,Alt,RelHomeAlt,RelOriginAlt
1667404189.80074906,435956267,42.7285991,-84.48476099999999,255.64999389648438,0.006346931681036949,0.036346931010484695
1667404189.80092001,435956438,42.7285991,-84.48476099999999,255.64999389648438,0.006346931681036949,0.036346931010484695
1667404189.84007287,435995591,42.7285991,-84.48476099999999,255.64999389648438,0.007215840741991997,0.03721584007143974
1667404189.87975097,436035269,42.7285991,-84.48476099999999,255.64999389648438,0.008465500548481941,0.03846549987792969
1667404189.90023685,436055755,42.7285991,-84.48476099999999,255.64999389648438,0.008949818089604378,0.038949817419052124
1667404189.91976094,436075279,42.7285991,-84.48476099999999,255.64999389648438,0.0098849106580019,0.039884909987449646
1667404189.95977092,436115289,42.7285991,-84.48476099999999,255.6599884033203,0.011521091684699059,0.041521091014146805
1667404190.00021291,436155731,42.7285992,-84.48476099999999,255.6599884033203,0.014004549011588097,0.04400454834103584
1667404190.00031590,436155834,42.7285992,-84.48476099999999,255.6599884033203,0.014004549011588097,0.04400454834103584
1667404190.04034305,436195861,42.7285992,-84.48476099999999,255.6599884033203,0.016897955909371376,0.04689795523881912
1667404190.07978392,436235302,42.7285992,-84.48476099999999,255.6599884033203,0.01988389901816845,0.049883898347616196
1667404190.10022688,436255745,42.7285992,-84.48476099999999,255.6699981689453,0.021382680162787437,0.051382679492235184
1667404190.11973500,436275253,42.7285992,-84.48476099999999,255.6699981689453,0.022889355197548866,0.05288935452699661
1667404190.15985203,436315370,42.7285992,-84.48476099999999,255.6699981689453,0.025777829810976982,0.05577782914042473
1667404190.20038891,436355907,42.7285992,-84.4847609,255.6699981689453,0.026743778958916664,0.05674377828836441
1667404190.20053792,436356056,42.7285992,-84.4847609,255.6699981689453,0.026743778958916664,0.05674377828836441
1667404190.24040699,436395925,42.7285992,-84.4847609,255.6699981689453,0.028338203206658363,0.05833820253610611
1667404190.27977204,436435290,42.7285992,-84.4847609,255.67999267578125,0.03001675195991993,0.060016751289367676
1667404190.30030084,436455819,42.7285993,-84.4847609,255.67999267578125,0.030701836571097374,0.06070183590054512
1667404190.31980896,436475327,42.7285993,-84.4847609,255.67999267578125,0.031768471002578735,0.06176847219467163
1667404190.35975695,436515275,42.7285993,-84.4847609,255.67999267578125,0.033658429980278015,0.06365843117237091
1667404190.40030694,436555825,42.7285993,-84.4847609,255.67999267578125,0.03526848554611206,0.06526848673820496
1667404190.40040994,436555928,42.7285993,-84.4847609,255.67999267578125,0.03526848554611206,0.06526848673820496
1667404190.44036102,436595879,42.7285993,-84.4847609,255.67999267578125,0.03727313131093979,0.06727313250303268
1667404190.47969484,436635213,42.7285993,-84.4847609,255.67999267578125,0.03933485597372055,0.06933485716581345
1667404190.50032496,436655843,42.7285993,-84.4847609,255.6899871826172,0.04027443379163742,0.07027443498373032
1667404190.51980805,436675326,42.7285993,-84.4847609,255.6899871826172,0.041463546454906464,0.07146354764699936
1667404190.55976105,436715279,42.7285993,-84.4847609,255.6899871826172,0.04341544210910797,0.07341544330120087
1667404190.60034394,436755862,42.7285993,-84.4847609,255.6899871826172,0.044859692454338074,0.07485969364643097
1667404190.60044885,436755967,42.7285993,-84.4847609,255.6899871826172,0.044859692454338074,0.07485969364643097
1667404190.64035797,436795876,42.7285993,-84.4847609,255.6899871826172,0.04658323526382446,0.07658323645591736
1667404190.67970300,436835221,42.7285993,-84.4847609,255.6899871826172,0.048089466989040375,0.07808946818113327
1667404190.70034695,436855865,42.7285993,-84.4847609,255.6899871826172,0.04878910630941391,0.0787891075015068
1667404190.71967292,436875191,42.7285993,-84.4847609,255.6899871826172,0.04977896809577942,0.07977896928787231
1667404190.75973892,436915257,42.7285994,-84.4847609,255.6999969482422,0.051125526428222656,0.08112552762031555
1667404190.80037189,436955890,42.7285994,-84.4847609,255.6999969482422,0.05195595324039459,0.08195595443248749
1667404190.80047393,436955992,42.7285994,-84.4847609,255.6999969482422,0.05195595324039459,0.08195595443248749
1667404190.84040284,436995921,42.7285994,-84.4847609,255.6999969482422,0.053285449743270874,0.08328545093536377
1667404190.87976384,437035282,42.7285994,-84.4847609,255.6999969482422,0.05465250462293625,0.08465250581502914
1667404190.90032506,437055843,42.7285994,-84.4847609,255.6999969482422,0.05522807687520981,0.0852280780673027
1667404190.91964388,437075162,42.7285994,-84.4847609,255.6999969482422,0.05614727735519409,0.08614727854728699
1667404190.95976686,437115285,42.7285994,-84.48476079999999,255.6999969482422,0.05734773725271225,0.08734773844480515
1667404191.00031996,437155838,42.7285994,-84.48476079999999,255.6999969482422,0.0577043741941452,0.0877043753862381
1667404191.00042105,437155939,42.7285994,-84.48476079999999,255.6999969482422,0.0577043741941452,0.0877043753862381
1667404191.04049897,437196017,42.7285994,-84.48476079999999,255.6999969482422,0.058715686202049255,0.08871568739414215
1667404191.07977796,437235296,42.7285994,-84.48476079999999,255.6999969482422,0.05985168367624283,0.08985168486833572
1667404191.10026288,437255781,42.7285994,-84.48476079999999,255.70999145507812,0.06029695272445679,0.09029695391654968
1667404191.11974001,437275258,42.7285994,-84.48476079999999,255.70999145507812,0.061096787452697754,0.09109678864479065
1667404191.15967393,437315192,42.7285994,-84.48476079999999,255.70999145507812,0.06244640797376633,0.09244640916585922
1667404191.20028901,437355807,42.7285994,-84.48476079999999,255.70999145507812,0.0636972188949585,0.09369722008705139
1667404191.20042992,437355948,42.7285994,-84.48476079999999,255.70999145507812,0.0636972188949585,0.09369722008705139
1667404191.24050283,437396021,42.7285994,-84.4847607,255.70999145507812,0.06524878740310669,0.09524878859519958
1667404191.27973795,437435256,42.7285994,-84.4847607,255.70999145507812,0.06670108437538147,0.09670108556747437
1667404191.30022192,437455740,42.7285994,-84.4847607,255.70999145507812,0.06734884530305862,0.09734884649515152
1667404191.31977797,437475296,42.7285994,-84.4847607,255.70999145507812,0.06822555512189865,0.09822555631399155
1667404191.35975385,437515272,42.7285994,-84.4847607,255.70999145507812,0.06934519857168198,0.09934519976377487
1667404191.40024304,437555761,42.7285994,-84.4847607,255.70999145507812,0.06942985206842422,0.09942985326051712
1667404191.40037584,437555894,42.7285994,-84.4847607,255.70999145507812,0.06942985206842422,0.09942985326051712
1667404191.44040895,437595927,42.7285994,-84.4847607,255.72000122070312,0.07022252678871155,0.10022252798080444
1667404191.47979593,437635314,42.7285994,-84.4847607,255.72000122070312,0.07108664512634277,0.10108664631843567
1667404191.50021100,437655729,42.7285994,-84.4847607,255.72000122070312,0.07136043161153793,0.10136043280363083
1667404191.51976895,437675287,42.7285994,-84.4847607,255.72000122070312,0.07207030057907104,0.10207030177116394
1667404191.55976892,437715287,42.7285994,-84.4847606,255.72000122070312,0.07303479313850403,0.10303479433059692
1667404191.60029101,437755809,42.7285994,-84.4847606,255.72000122070312,0.07303916662931442,0.10303916782140732
1667404191.60042691,437755945,42.7285994,-84.4847606,255.72000122070312,0.07303916662931442,0.10303916782140732
1667404191.64036989,437795888,42.7285994,-84.4847606,255.72000122070312,0.0735907107591629,0.1035907119512558
1667404191.67977095,437835289,42.7285994,-84.4847606,255.72000122070312,0.07406266033649445,0.10406266152858734
1667404191.70022297,437855741,42.7285994,-84.4847606,255.72000122070312,0.07414282858371735,0.10414282977581024
1667404191.71977901,437875297,42.7285994,-84.4847606,255.72000122070312,0.07471979409456253,0.10471979528665543
1667404191.75978684,437915305,42.7285994,-84.4847606,255.72000122070312,0.07541537284851074,0.10541537404060364
1667404191.80034399,437955862,42.7285995,-84.4847606,255.72000122070312,0.07599453628063202,0.10599453747272491
1667404191.80041790,437955936,42.7285995,-84.4847606,255.72000122070312,0.07599453628063202,0.10599453747272491
1667404191.84030199,437995820,42.7285995,-84.4847606,255.72000122070312,0.0768996998667717,0.1068997010588646
1667404191.87989593,438035414,42.7285995,-84.4847606,255.72000122070312,0.07758779078722,0.1075877919793129
1667404191.90035987,438055878,42.7285995,-84.4847606,255.72000122070312,0.07778260856866837,0.10778260976076126
1667404191.91982603,438075344,42.7285995,-84.4847606,255.72000122070312,0.07840325683355331,0.10840325802564621
1667404191.95984483,438115363,42.7285995,-84.4847605,255.72000122070312,0.07923896610736847,0.10923896729946136
1667404192.00032187,438155840,42.7285995,-84.4847605,255.72999572753906,0.0800924003124237,0.1100924015045166
1667404192.00043583,438155954,42.7285995,-84.4847605,255.72999572753906,0.0800924003124237,0.1100924015045166
1667404192.04034185,438195860,42.7285995,-84.4847605,255.72999572753906,0.0811852365732193,0.1111852377653122
1667404192.07967901,438235197,42.7285995,-84.4847605,255.72999572753906,0.08210311830043793,0.11210311949253082
1667404192.10028696,438255805,42.7285995,-84.4847605,255.72999572753906,0.08243782818317413,0.11243782937526703
1667404192.11975598,438275274,42.7285995,-84.4847605,255.72999572753906,0.08310670405626297,0.11310670524835587
1667404192.15977001,438315288,42.7285995,-84.4847605,255.72999572753906,0.0844573825597763,0.1144573837518692
1667404192.20033503,438355853,42.7285995,-84.4847605,255.72999572753906,0.0867418423295021,0.116741843521595
1667404192.20043397,438355952,42.7285995,-84.4847605,255.72999572753906,0.0867418423295021,0.116741843521595
1667404192.24041891,438395937,42.7285995,-84.4847605,255.72999572753906,0.08889446407556534,0.11889446526765823
1667404192.27974892,438435267,42.7285995,-84.4847604,255.739990234375,0.09107784181833267,0.12107784301042557
1667404192.30046606,438455984,42.7285995,-84.4847604,255.739990234375,0.0922183021903038,0.1222183033823967
1667404192.31983304,438475351,42.7285995,-84.4847604,255.739990234375,0.09325719624757767,0.12325719743967056
1667404192.35981202,438515330,42.7285995,-84.4847604,255.739990234375,0.09549672901630402,0.1254967302083969
1667404192.40032101,438555839,42.7285995,-84.4847604,255.739990234375,0.09866255521774292,0.12866255640983582
1667404192.40042496,438555943,42.7285995,-84.4847604,255.739990234375,0.09866255521774292,0.12866255640983582
1667404192.44038606,438595904,42.7285995,-84.4847604,255.75,0.10128988325595856,0.13128988444805145
1667404192.47975683,438635275,42.7285995,-84.4847604,255.75,0.10357964038848877,0.13357964158058167
1667404192.50044394,438655962,42.7285995,-84.4847604,255.75,0.10489211976528168,0.13489212095737457
1667404192.51971889,438675237,42.7285995,-84.4847604,255.75,0.10591372847557068,0.13591372966766357
1667404192.55981088,438715329,42.7285995,-84.48476029999999,255.75,0.10801674425601959,0.1380167454481125
1667404192.60026097,438755779,42.7285995,-84.48476029999999,255.75999450683594,0.11022976040840149,0.14022976160049438
1667404192.60044599,438755964,42.7285995,-84.48476029999999,255.75999450683594,0.11022976040840149,0.14022976160049438
1667404192.64038301,438795901,42.7285995,-84.48476029999999,255.75999450683594,0.11227276921272278,0.14227277040481567
1667404192.67981386,438835332,42.728599599999995,-84.48476029999999,255.75999450683594,0.11412705481052399,0.14412705600261688
1667404192.70029783,438855816,42.728599599999995,-84.48476029999999,255.75999450683594,0.1151311993598938,0.1451312005519867
1667404192.71978402,438875302,42.728599599999995,-84.48476029999999,255.75999450683594,0.11604876816272736,0.14604876935482025
1667404192.75967789,438915196,42.728599599999995,-84.48476029999999,255.75999450683594,0.11756321787834167,0.14756321907043457
1667404192.80033684,438955855,42.728599599999995,-84.48476029999999,255.75999450683594,0.1186782717704773,0.1486782729625702
1667404192.80047894,438955997,42.728599599999995,-84.48476029999999,255.75999450683594,0.1186782717704773,0.1486782729625702
1667404192.84039402,438995912,42.728599599999995,-84.48476029999999,255.76998901367188,0.12001429498195648,0.15001429617404938
1667404192.87978387,439035302,42.728599599999995,-84.48476029999999,255.76998901367188,0.12120917439460754,0.15120917558670044
1667404192.90023184,439055750,42.728599599999995,-84.48476029999999,255.76998901367188,0.12176655232906342,0.1517665535211563
1667404192.91977906,439075297,42.728599599999995,-84.48476029999999,255.76998901367188,0.12251044809818268,0.15251044929027557
1667404192.95972395,439115242,42.728599599999995,-84.48476029999999,255.76998901367188,0.12369777262210846,0.15369777381420135
1667404193.00025702,439155775,42.728599599999995,-84.48476029999999,255.76998901367188,0.12547320127487183,0.15547320246696472
1667404193.00039983,439155918,42.728599599999995,-84.48476029999999,255.76998901367188,0.12547320127487183,0.15547320246696472
1667404193.04044604,439195964,42.728599599999995,-84.48476029999999,255.76998901367188,0.12719403207302094,0.15719403326511383
1667404193.07977200,439235290,42.728599599999995,-84.48476029999999,255.76998901367188,0.12871240079402924,0.15871240198612213
1667404193.10022783,439255746,42.728599599999995,-84.4847602,255.76998901367188,0.12943878769874573,0.15943878889083862
1667404193.11976099,439275279,42.728599599999995,-84.4847602,255.77999877929688,0.13032236695289612,0.160322368144989
1667404193.15976286,439315281,42.728599599999995,-84.4847602,255.77999877929688,0.13128899037837982,0.16128899157047272
1667404193.20024085,439355759,42.728599599999995,-84.4847602,255.77999877929688,0.13135665655136108,0.16135665774345398
1667404193.20031285,439355831,42.728599599999995,-84.4847602,255.77999877929688,0.13135665655136108,0.16135665774345398
1667404193.24031997,439395838,42.728599599999995,-84.4847602,255.77999877929688,0.13205666840076447,0.16205666959285736
1667404193.27979589,439435314,42.728599599999995,-84.4847602,255.77999877929688,0.13268519937992096,0.16268520057201385
1667404193.30022693,439455745,42.728599599999995,-84.4847602,255.77999877929688,0.13292644917964935,0.16292645037174225
1667404193.31979799,439475316,42.728599599999995,-84.4847602,255.77999877929688,0.13352128863334656,0.16352128982543945
1667404193.35978389,439515302,42.728599599999995,-84.4847602,255.77999877929688,0.13440534472465515,0.16440534591674805
1667404193.40033388,439555852,42.728599599999995,-84.4847602,255.77999877929688,0.13563141226768494,0.16563141345977783
1667404193.40043306,439555951,42.728599599999995,-84.4847602,255.77999877929688,0.13563141226768494,0.16563141345977783
1667404193.44028687,439595805,42.728599599999995,-84.4847602,255.77999877929688,0.1369718760251999,0.16697187721729279
1667404193.47981000,439635328,42.728599599999995,-84.4847602,255.77999877929688,0.13794998824596405,0.16794998943805695
1667404193.50039005,439655908,42.728599599999995,-84.4847602,255.77999877929688,0.1384134143590927,0.1684134155511856
1667404193.51978397,439675302,42.728599599999995,-84.4847602,255.77999877929688,0.13910536468029022,0.16910536587238312
1667404193.55989194,439715410,42.728599599999995,-84.4847601,255.7899932861328,0.14013443887233734,0.17013444006443024
1667404193.60032701,439755845,42.728599599999995,-84.4847601,255.7899932861328,0.14050056040287018,0.17050056159496307
1667404193.60044098,439755959,42.728599599999995,-84.4847601,255.7899932861328,0.14050056040287018,0.17050056159496307
1667404193.64031005,439795828,42.728599599999995,-84.4847601,255.7899932861328,0.1413009762763977,0.1713009774684906
1667404193.67968893,439835207,42.728599599999995,-84.4847601,255.7899932861328,0.14209899306297302,0.17209899425506592
1667404193.70027399,439855792,42.728599599999995,-84.4847601,255.7899932861328,0.14241038262844086,0.17241038382053375
1667404193.71974397,439875262,42.728599599999995,-84.4847601,255.7899932861328,0.14302855730056763,0.17302855849266052
1667404193.75982094,439915339,42.728599599999995,-84.4847601,255.7899932861328,0.14396706223487854,0.17396706342697144
1667404193.80036902,439955887,42.7285997,-84.4847601,255.7899932861328,0.14478452503681183,0.17478452622890472
1667404193.80047297,439955991,42.7285997,-84.4847601,255.7899932861328,0.14478452503681183,0.17478452622890472
1667404193.84041691,439995935,42.7285997,-84.4847601,255.7899932861328,0.14583343267440796,0.17583343386650085
1667404193.87969398,440035212,42.7285997,-84.4847601,255.7899932861328,0.1469234824180603,0.1769234836101532
1667404193.90033698,440055855,42.7285997,-84.4847601,255.7899932861328,0.14741209149360657,0.17741209268569946
1667404193.91973495,440075253,42.7285997,-84.4847601,255.7899932861328,0.1480683982372284,0.1780683994293213
1667404193.95978093,440115299,42.7285997,-84.4847601,255.7899932861328,0.1491459757089615,0.17914597690105438
1667404194.00031400,440155832,42.7285997,-84.4847601,255.7899932861328,0.148676797747612,0.1786767989397049
1667404194.00038600,440155904,42.7285997,-84.4847601,255.7899932861328,0.148676797747612,0.1786767989397049
1667404194.04042292,440195941,42.7285997,-84.4847601,255.7899932861328,0.14888803660869598,0.17888803780078888
1667404194.07978392,440235302,42.7285997,-84.4847601,255.7899932861328,0.1490360051393509,0.1790360063314438
1667404194.10032701,440255845,42.7285997,-84.4847601,255.7899932861328,0.14899228513240814,0.17899228632450104
1667404194.11978292,440275301,42.7285997,-84.4847601,255.7899932861328,0.14937731623649597,0.17937731742858887
1667404194.15969896,440315217,42.7285997,-84.4847601,255.7899932861328,0.14961959421634674,0.17961959540843964
1667404194.20029783,440355816,42.7285998,-84.4847601,255.7899932861328,0.1484144926071167,0.1784144937992096
1667404194.20046592,440355984,42.7285998,-84.4847601,255.7899932861328,0.1484144926071167,0.1784144937992096
1667404194.24061584,440396134,42.7285998,-84.4847601,255.7899932861328,0.14811605215072632,0.1781160533428192
1667404194.27981806,440435336,42.7285998,-84.4847601,255.7899932861328,0.1479349583387375,0.17793495953083038
1667404194.30034590,440455864,42.7285998,-84.4847601,255.7899932861328,0.14769652485847473,0.17769652605056763
1667404194.31967783,440475196,42.7285998,-84.48476,255.7899932861328,0.14791321754455566,0.17791321873664856
1667404194.35975289,440515271,42.7285998,-84.48476,255.7899932861328,0.14803853631019592,0.17803853750228882
1667404194.40046597,440555984,42.7285998,-84.48476,255.7899932861328,0.14874505996704102,0.1787450611591339
1667404194.40058088,440556099,42.7285998,-84.48476,255.7899932861328,0.14874505996704102,0.1787450611591339
1667404194.44041395,440595932,42.7285998,-84.48476,255.7899932861328,0.14960242807865143,0.17960242927074432
1667404194.47988200,440635400,42.7285998,-84.48476,255.79998779296875,0.15043385326862335,0.18043385446071625
1667404194.50035787,440655876,42.7285998,-84.48476,255.79998779296875,0.15075616538524628,0.18075616657733917
1667404194.52012086,440675639,42.7285998,-84.48476,255.79998779296875,0.15123243629932404,0.18123243749141693
1667404194.55975294,440715271,42.7285998,-84.48476,255.79998779296875,0.15325798094272614,0.18325798213481903
1667404194.60026002,440755778,42.7285998,-84.48476,255.79998779296875,0.15623430907726288,0.18623431026935577
1667404194.60040498,440755923,42.7285998,-84.48476,255.79998779296875,0.15623430907726288,0.18623431026935577
1667404194.64049387,440796012,42.7285998,-84.48476,255.79998779296875,0.15820886194705963,0.18820886313915253
1667404194.67981791,440835336,42.7285998,-84.48476,255.79998779296875,0.15939439833164215,0.18939439952373505
1667404194.70028901,440855807,42.7285998,-84.48476,255.79998779296875,0.1598903387784958,0.18989033997058868
1667404194.71983695,440875355,42.7285998,-84.48476,255.80999755859375,0.1605132669210434,0.1905132681131363
1667404194.75980902,440915327,42.7285998,-84.48476,255.80999755859375,0.16224516928195953,0.19224517047405243
1667404194.80034494,440955863,42.7285998,-84.4847599,255.80999755859375,0.16509120166301727,0.19509120285511017
1667404194.80055785,440956076,42.7285998,-84.4847599,255.80999755859375,0.16509120166301727,0.19509120285511017
1667404194.84049392,440996012,42.7285998,-84.4847599,255.80999755859375,0.1668158322572708,0.1968158334493637
1667404194.87977505,441035293,42.7285998,-84.4847599,255.80999755859375,0.16720101237297058,0.19720101356506348
1667404194.90031695,441055835,42.7285998,-84.4847599,255.80999755859375,0.16730648279190063,0.19730648398399353
1667404194.91984296,441075361,42.7285998,-84.4847599,255.80999755859375,0.16774263978004456,0.19774264097213745
1667404194.95979905,441115317,42.7285998,-84.4847599,255.80999755859375,0.1676885485649109,0.19768854975700378
1667404195.00034285,441155861,42.7285998,-84.4847599,255.80999755859375,0.1681707501411438,0.1981707513332367
1667404195.00050092,441156019,42.7285998,-84.4847599,255.80999755859375,0.1681707501411438,0.1981707513332367
1667404195.04044485,441195963,42.7285998,-84.4847599,255.80999755859375,0.16766972839832306,0.19766972959041595
1667404195.07976985,441235288,42.7285998,-84.4847599,255.80999755859375,0.16490699350833893,0.19490699470043182
1667404195.10038590,441255904,42.7285998,-84.4847599,255.80999755859375,0.16311658918857574,0.19311659038066864
1667404195.11986494,441275383,42.7285998,-84.4847599,255.80999755859375,0.1626572161912918,0.1926572173833847
1667404195.15980697,441315325,42.7285998,-84.4847599,255.79998779296875,0.15967527031898499,0.18967527151107788
1667404195.20041203,441355930,42.7285998,-84.4847599,255.79998779296875,0.15571096539497375,0.18571096658706665
1667404195.20059896,441356117,42.7285998,-84.4847599,255.79998779296875,0.15571096539497375,0.18571096658706665
1667404195.24081898,441396337,42.7285998,-84.4847599,255.79998779296875,0.1530563086271286,0.1830563098192215
1667404195.27975702,441435275,42.7285998,-84.4847599,255.7899932861328,0.14973606169223785,0.17973606288433075
1667404195.30035996,441455878,42.7285998,-84.4847599,255.7899932861328,0.14764314889907837,0.17764315009117126
1667404195.31977892,441475297,42.7285998,-84.48475979999999,255.7899932861328,0.14697590470314026,0.17697590589523315
1667404195.35985088,441515369,42.7285998,-84.48475979999999,255.7899932861328,0.14416638016700745,0.17416638135910034
1667404195.40036297,441555881,42.7285998,-84.48475979999999,255.7899932861328,0.1404711902141571,0.17047119140625
1667404195.40051389,441556032,42.7285998,-84.48475979999999,255.7899932861328,0.1404711902141571,0.17047119140625
1667404195.44044399,441595962,42.7285998,-84.48475979999999,255.77999877929688,0.13789518177509308,0.16789518296718597
1667404195.47973585,441635254,42.7285998,-84.48475979999999,255.77999877929688,0.1346924602985382,0.1646924614906311
1667404195.50042105,441655939,42.7285998,-84.48475979999999,255.77999877929688,0.1327023059129715,0.1627023071050644
1667404195.52011204,441675630,42.7285998,-84.48475979999999,255.77999877929688,0.13203389942646027,0.16203390061855316
1667404195.55985999,441715378,42.7285998,-84.48475979999999,255.76998901367188,0.1287411004304886,0.15874110162258148
1667404195.60036206,441755880,42.7285998,-84.48475979999999,255.76998901367188,0.1247825175523758,0.1547825187444687
1667404195.60047984,441755998,42.7285998,-84.48475979999999,255.76998901367188,0.1247825175523758,0.1547825187444687
1667404195.64042783,441795946,42.7285998,-84.48475979999999,255.76998901367188,0.12188753485679626,0.15188753604888916
1667404195.67980599,441835324,42.7285998,-84.48475979999999,255.75999450683594,0.1181543618440628,0.1481543630361557
1667404195.70037389,441855892,42.7285998,-84.48475979999999,255.75999450683594,0.11586098372936249,0.14586098492145538
1667404195.71972203,441875240,42.7285998,-84.48475979999999,255.75999450683594,0.11499685049057007,0.14499685168266296
1667404195.75979185,441915310,42.7285998,-84.48475979999999,255.75999450683594,0.11139877140522003,0.14139877259731293
1667404195.80043793,441955956,42.7285999,-84.48475979999999,255.75,0.10758762061595917,0.13758762180805206
1667404195.80057287,441956091,42.7285999,-84.48475979999999,255.75,0.10758762061595917,0.13758762180805206
1667404195.84039497,441995913,42.7285998,-84.48475979999999,255.75,0.10519000887870789,0.13519001007080078
1667404195.87980795,442035326,42.7285998,-84.48475979999999,255.75,0.10275053977966309,0.13275054097175598
1667404195.90034699,442055865,42.7285998,-84.48475979999999,255.75,0.10123412311077118,0.13123412430286407
1667404195.91981697,442075335,42.7285998,-84.48475979999999,255.75,0.10070523619651794,0.13070523738861084
1667404195.95978189,442115300,42.7285998,-84.48475979999999,255.739990234375,0.09845508635044098,0.12845508754253387
1667404196.00036597,442155884,42.7285999,-84.48475979999999,255.739990234375,0.09556315839290619,0.12556315958499908
1667404196.00056291,442156081,42.7285999,-84.48475979999999,255.739990234375,0.09556315839290619,0.12556315958499908
1667404196.04050493,442196023,42.7285999,-84.48475979999999,255.739990234375,0.09376765042543411,0.12376765161752701
1667404196.07984591,442235364,42.7285999,-84.48475979999999,255.739990234375,0.09195438027381897,0.12195438146591187
1667404196.10042596,442255944,42.7285999,-84.48475979999999,255.739990234375,0.0908300057053566,0.1208300068974495
1667404196.11988592,442275404,42.7285999,-84.48475979999999,255.739990234375,0.09044525772333145,0.12044525891542435
1667404196.15975285,442315271,42.7285999,-84.48475979999999,255.72999572753906,0.08836503326892853,0.11836503446102142
1667404196.20030594,442355824,42.7285999,-84.48475979999999,255.72999572753906,0.08773893117904663,0.11773893237113953
1667404196.20054102,442356059,42.7285999,-84.48475979999999,255.72999572753906,0.08773893117904663,0.11773893237113953
1667404196.24053597,442396054,42.7285999,-84.48475979999999,255.72999572753906,0.08808004856109619,0.11808004975318909
1667404196.27985597,442435374,42.7285999,-84.48475979999999,255.72999572753906,0.08944879472255707,0.11944879591464996
1667404196.30028486,442455803,42.7285999,-84.48475979999999,255.739990234375,0.09022390842437744,0.12022390961647034
1667404196.31980991,442475328,42.7285999,-84.48475979999999,255.739990234375,0.09078843891620636,0.12078844010829926
1667404196.35982084,442515339,42.7285999,-84.48475979999999,255.739990234375,0.0917583629488945,0.1217583641409874
1667404196.40034294,442555861,42.7285999,-84.48475979999999,255.739990234375,0.09348194301128387,0.12348194420337677
1667404196.40048599,442556004,42.7285999,-84.48475979999999,255.739990234375,0.09348194301128387,0.12348194420337677
1667404196.44037485,442595893,42.7285999,-84.48475979999999,255.739990234375,0.09447802603244781,0.12447802722454071
1667404196.47977185,442635290,42.7285999,-84.48475979999999,255.739990234375,0.09471604228019714,0.12471604347229004
1667404196.50042892,442655947,42.7285999,-84.4847597,255.739990234375,0.0947970598936081,0.12479706108570099
1667404196.52005887,442675577,42.7285999,-84.4847597,255.739990234375,0.09503240883350372,0.12503241002559662
1667404196.55980492,442715323,42.7285999,-84.4847597,255.739990234375,0.09560397267341614,0.12560397386550903
1667404196.60038686,442755905,42.7285999,-84.4847597,255.739990234375,0.09762778878211975,0.12762778997421265
1667404196.60054398,442756062,42.7285999,-84.4847597,255.739990234375,0.09762778878211975,0.12762778997421265
1667404196.64050102,442796019,42.7285999,-84.4847597,255.739990234375,0.09899334609508514,0.12899334728717804
1667404196.67979193,442835310,42.7285999,-84.4847597,255.739990234375,0.09987413883209229,0.12987414002418518
1667404196.70032287,442855841,42.7285999,-84.4847597,255.75,0.10034552216529846,0.13034552335739136
1667404196.71976495,442875283,42.7285999,-84.4847597,255.75,0.10078243911266327,0.13078244030475616
1667404196.75979805,442915316,42.7285999,-84.4847597,255.75,0.1019880622625351,0.131988063454628
1667404196.80044293,442955961,42.7285999,-84.4847597,255.75,0.10477064549922943,0.13477064669132233
1667404196.80058694,442956105,42.7285999,-84.4847597,255.75,0.10477064549922943,0.13477064669132233
1667404196.84042597,442995944,42.7285999,-84.4847597,255.75,0.10652518272399902,0.13652518391609192
1667404196.87977695,443035295,42.7285999,-84.4847597,255.75,0.10746398568153381,0.1374639868736267
1667404196.90038395,443055902,42.7285999,-84.4847597,255.75,0.10797640681266785,0.13797640800476074
1667404196.91993403,443075452,42.7285999,-84.4847597,255.75,0.1084677129983902,0.1384677141904831
1667404196.95984006,443115358,42.7285999,-84.4847597,255.75,0.10961101949214935,0.13961102068424225
1667404197.00046587,443155984,42.7285999,-84.4847597,255.75999450683594,0.11248670518398285,0.14248670637607574
1667404197.00060296,443156121,42.7285999,-84.4847597,255.75999450683594,0.11248670518398285,0.14248670637607574
1667404197.04045892,443195977,42.7285999,-84.48475959999999,255.75999450683594,0.11465772986412048,0.14465773105621338
1667404197.07981396,443235332,42.7285999,-84.48475959999999,255.75999450683594,0.11642813682556152,0.14642813801765442
1667404197.10031796,443255836,42.7285999,-84.48475959999999,255.75999450683594,0.11746412515640259,0.14746412634849548
1667404197.11967492,443275193,42.7285999,-84.48475959999999,255.75999450683594,0.11818879842758179,0.14818879961967468
1667404197.15982485,443315343,42.7285999,-84.48475959999999,255.75999450683594,0.11868548393249512,0.148685485124588
1667404197.20035195,443355870,42.7285999,-84.48475959999999,255.76998901367188,0.12075074017047882,0.15075074136257172
1667404197.20047688,443355995,42.7285999,-84.48475959999999,255.76998901367188,0.12075074017047882,0.15075074136257172
1667404197.24051404,443396032,42.7285999,-84.48475959999999,255.76998901367188,0.12241987884044647,0.15241988003253937
1667404197.27982187,443435340,42.7285999,-84.48475959999999,255.76998901367188,0.12369807064533234,0.15369807183742523
1667404197.30038786,443455906,42.7285999,-84.48475959999999,255.76998901367188,0.12441541254520416,0.15441541373729706
1667404197.31972003,443475238,42.7285999,-84.48475959999999,255.76998901367188,0.12503446638584137,0.15503446757793427
1667404197.35985589,443515374,42.7285999,-84.48475959999999,255.76998901367188,0.12602730095386505,0.15602730214595795
1667404197.40040803,443555926,42.7285999,-84.48475959999999,255.76998901367188,0.12684977054595947,0.15684977173805237
1667404197.40053988,443556058,42.7285999,-84.48475959999999,255.76998901367188,0.12684977054595947,0.15684977173805237
1667404197.44043899,443595957,42.7285999,-84.4847595,255.76998901367188,0.1277223527431488,0.1577223539352417
1667404197.47980404,443635322,42.7285999,-84.4847595,255.76998901367188,0.12846101820468903,0.15846101939678192
1667404197.50034189,443655860,42.7285999,-84.4847595,255.76998901367188,0.12880858778953552,0.15880858898162842
1667404197.51989603,443675414,42.7285999,-84.4847595,255.76998901367188,0.12926724553108215,0.15926724672317505
1667404197.55972004,443715238,42.7285999,-84.4847595,255.76998901367188,0.1297423541545868,0.1597423553466797
1667404197.60027194,443755790,42.7285999,-84.4847595,255.77999877929688,0.13013331592082977,0.16013331711292267
1667404197.60049701,443756015,42.7285999,-84.4847595,255.77999877929688,0.13013331592082977,0.16013331711292267
1667404197.64044690,443795965,42.7285999,-84.4847595,255.77999877929688,0.13063682615756989,0.16063682734966278
1667404197.67980385,443835322,42.7285999,-84.4847595,255.77999877929688,0.13080330193042755,0.16080330312252045
1667404197.70028400,443855802,42.7285999,-84.4847595,255.77999877929688,0.13080230355262756,0.16080230474472046
1667404197.71994090,443875459,42.7285999,-84.4847595,255.77999877929688,0.1311073899269104,0.1611073911190033
1667404197.75981998,443915338,42.7285999,-84.4847595,255.77999877929688,0.13071706891059875,0.16071707010269165
1667404197.80031991,443955838,42.7285999,-84.4847595,255.76998901367188,0.12989969551563263,0.15989969670772552
1667404197.80048490,443956003,42.7285999,-84.4847595,255.76998901367188,0.12989969551563263,0.15989969670772552
1667404197.84037399,443995892,42.7285999,-84.4847595,255.76998901367188,0.129094198346138,0.1590941995382309
1667404197.87984490,444035363,42.7285999,-84.4847595,255.76998901367188,0.12720689177513123,0.15720689296722412
1667404197.90044904,444055967,42.7285999,-84.48475959999999,255.76998901367188,0.12594245374202728,0.15594245493412018
1667404197.91980791,444075326,42.7285999,-84.48475959999999,255.76998901367188,0.1256774365901947,0.1556774377822876
1667404197.95986795,444115386,42.7285999,-84.48475959999999,255.76998901367188,0.12440986931324005,0.15440987050533295
1667404198.00035000,444155868,42.7285999,-84.48475959999999,255.76998901367188,0.12140318751335144,0.15140318870544434
1667404198.00050306,444156021,42.7285999,-84.48475959999999,255.76998901367188,0.12140318751335144,0.15140318870544434
1667404198.04042006,444195938,42.7285999,-84.48475959999999,255.75999450683594,0.11963167786598206,0.14963167905807495
1667404198.07977390,444235292,42.7285999,-84.48475959999999,255.75999450683594,0.11786867678165436,0.14786867797374725
1667404198.10031295,444255831,42.7285999,-84.48475959999999,255.75999450683594,0.1166921854019165,0.1466921865940094
1667404198.11984587,444275364,42.7285999,-84.48475959999999,255.75999450683594,0.11641176044940948,0.14641176164150238
1667404198.15978789,444315306,42.7286,-84.48475959999999,255.75999450683594,0.1145746111869812,0.1445746123790741
1667404198.20036387,444355882,42.7286,-84.48475959999999,255.75999450683594,0.1103888750076294,0.1403888761997223
1667404198.20050693,444356025,42.7286,-84.48475959999999,255.75999450683594,0.1103888750076294,0.1403888761997223
1667404198.24058986,444396108,42.7286,-84.48475959999999,255.75,0.10775895416736603,0.13775895535945892
1667404198.27971005,444435228,42.7286,-84.48475959999999,255.75,0.10512660443782806,0.13512660562992096
1667404198.30036092,444455879,42.7286,-84.48475959999999,255.75,0.10346245765686035,0.13346245884895325
1667404198.31976891,444475287,42.7286,-84.48475959999999,255.75,0.10287854075431824,0.13287854194641113
1667404198.35980892,444515327,42.7286,-84.48475959999999,255.75,0.10095547139644623,0.13095547258853912
1667404198.40037990,444555898,42.7286,-84.48475959999999,255.739990234375,0.09759621322154999,0.12759621441364288
1667404198.40051103,444556029,42.7286,-84.48475959999999,255.739990234375,0.09759621322154999,0.12759621441364288
1667404198.44053793,444596056,42.7286,-84.48475959999999,255.739990234375,0.09541340172290802,0.12541340291500092
1667404198.47972083,444635239,42.7286,-84.48475959999999,255.739990234375,0.09318907558917999,0.12318907678127289
1667404198.50039005,444655908,42.7286,-84.48475959999999,255.739990234375,0.09179259836673737,0.12179259955883026
1667404198.51982903,444675347,42.7286,-84.48475959999999,255.739990234375,0.09128158539533615,0.12128158658742905
1667404198.55983901,444715357,42.7286001,-84.48475959999999,255.72999572753906,0.0883667841553688,0.1183667853474617
1667404198.60046792,444755986,42.7286001,-84.48475959999999,255.72999572753906,0.0826164111495018,0.1126164123415947
1667404198.60061789,444756136,42.7286001,-84.48475959999999,255.72999572753906,0.0826164111495018,0.1126164123415947
1667404198.64042306,444795941,42.7286001,-84.48475959999999,255.72000122070312,0.07856036722660065,0.10856036841869354
1667404198.67976689,444835285,42.7286001,-84.48475959999999,255.72000122070312,0.074129618704319,0.1041296198964119
1667404198.70034099,444855859,42.7286001,-84.48475959999999,255.72000122070312,0.07142499834299088,0.10142499953508377
1667404198.71972799,444875246,42.7286001,-84.48475959999999,255.72000122070312,0.07022838294506073,0.10022838413715363
1667404198.75977898,444915297,42.7286001,-84.48475959999999,255.70999145507812,0.06600651890039444,0.09600652009248734
1667404198.80059600,444956114,42.7286001,-84.48475959999999,255.6999969482422,0.05995587259531021,0.0899558737874031
1667404198.80077505,444956293,42.7286001,-84.48475959999999,255.6999969482422,0.05995587259531021,0.0899558737874031
1667404198.84043884,444995957,42.7286001,-84.48475959999999,255.6999969482422,0.0560392290353775,0.0860392302274704
1667404198.87982583,445035344,42.7286001,-84.48475959999999,255.6999969482422,0.052493736147880554,0.08249373733997345
1667404198.90044093,445055959,42.7286001,-84.48475959999999,255.6999969482422,0.05034918338060379,0.08034918457269669
1667404198.91973186,445075250,42.7286001,-84.48475959999999,255.6899871826172,0.04935368150472641,0.0793536826968193
1667404198.95972705,445115245,42.7286001,-84.48475959999999,255.6899871826172,0.04656451195478439,0.07656451314687729
1667404199.00040197,445155920,42.7286001,-84.48475959999999,255.6899871826172,0.04329425096511841,0.0732942521572113
1667404199.00051999,445156038,42.7286001,-84.48475959999999,255.6899871826172,0.04329425096511841,0.0732942521572113
1667404199.04039693,445195915,42.728600199999995,-84.48475959999999,255.6899871826172,0.040888771414756775,0.07088877260684967
1667404199.07980084,445235319,42.728600199999995,-84.48475959999999,255.67999267578125,0.038229770958423615,0.06822977215051651
1667404199.10032797,445255846,42.728600199999995,-84.48475959999999,255.67999267578125,0.036647580564022064,0.06664758175611496
1667404199.11979890,445275317,42.728600199999995,-84.48475959999999,255.67999267578125,0.035877808928489685,0.06587781012058258
1667404199.15979385,445315312,42.728600199999995,-84.48475959999999,255.67999267578125,0.033522360026836395,0.06352236121892929
1667404199.20028090,445355799,42.728600199999995,-84.4847595,255.6699981689453,0.029982397332787514,0.05998239666223526
1667404199.20042992,445355948,42.728600199999995,-84.4847595,255.6699981689453,0.029982397332787514,0.05998239666223526
1667404199.24043083,445395949,42.728600199999995,-84.4847595,255.6699981689453,0.027217691764235497,0.05721769109368324
1667404199.27982593,445435344,42.728600199999995,-84.4847595,255.6699981689453,0.02396962232887745,0.053969621658325195
1667404199.30053306,445456051,42.728600199999995,-84.4847595,255.6699981689453,0.02204606495797634,0.05204606428742409
1667404199.31975698,445475275,42.728600199999995,-84.4847595,255.6699981689453,0.02107199840247631,0.05107199773192406
1667404199.35983396,445515352,42.728600199999995,-84.4847595,255.6599884033203,0.017146864905953407,0.047146864235401154
1667404199.40028691,445555805,42.728600199999995,-84.4847595,255.6599884033203,0.01192479394376278,0.041924793273210526
1667404199.40058899,445556107,42.728600199999995,-84.4847595,255.6599884033203,0.01192479394376278,0.041924793273210526
1667404199.44052696,445596045,42.728600199999995,-84.4847595,255.64999389648438,0.008246323093771935,0.03824632242321968
1667404199.47985888,445635377,42.728600199999995,-84.4847595,255.64999389648438,0.0046276915818452835,0.03462769091129303
1667404199.50029206,445655810,42.728600199999995,-84.4847595,255.64999389648438,0.002516241744160652,0.0325162410736084
1667404199.51988602,445675404,42.728600199999995,-84.4847595,255.64999389648438,0.001391516998410225,0.03139151632785797
1667404199.55982685,445715345,42.728600199999995,-84.4847595,255.63999938964844,-0.0019933078438043594,0.028006691485643387
1667404199.60030484,445755823,42.728600199999995,-84.4847595,255.63999938964844,-0.0052183568477630615,0.024781642481684685
1667404199.60042787,445755946,42.728600199999995,-84.4847595,255.63999938964844,-0.0052183568477630615,0.024781642481684685
1667404199.64042091,445795939,42.728600199999995,-84.4847595,255.63999938964844,-0.007897162809967995,0.02210283651947975
1667404199.67976785,445835286,42.728600199999995,-84.4847595,255.62998962402344,-0.011110302060842514,0.018889697268605232
1667404199.70048285,445856001,42.7286003,-84.4847595,255.62998962402344,-0.012953672558069229,0.017046326771378517
1667404199.71982288,445875341,42.7286003,-84.4847595,255.62998962402344,-0.013981059193611145,0.0160189401358366
1667404199.75977802,445915296,42.7286003,-84.4847594,255.62998962402344,-0.01764410175383091,0.012355897575616837
1667404199.80044198,445955960,42.7286003,-84.4847594,255.6199951171875,-0.02291269227862358,0.00708730798214674
1667404199.80058384,445956102,42.7286003,-84.4847594,255.6199951171875,-0.02291269227862358,0.00708730798214674
1667404199.84039497,445995913,42.7286003,-84.4847594,255.6199951171875,-0.026641232892870903,0.0033587662037461996
1667404199.87986994,446035388,42.7286003,-84.4847594,255.61000061035156,-0.030173521488904953,-0.0001735219411784783
1667404199.90038705,446055905,42.7286003,-84.4847594,255.61000061035156,-0.03221098333597183,-0.002210985403507948
1667404199.91980696,446075325,42.7286003,-84.4847594,255.61000061035156,-0.03337964415550232,-0.003379642963409424
1667404199.95983696,446115355,42.7286003,-84.4847594,255.61000061035156,-0.03666285425424576,-0.006662853993475437
1667404200.00033689,446155855,42.7286003,-84.4847594,255.59999084472656,-0.0405118390917778,-0.010511841624975204
1667404200.00049090,446156009,42.7286003,-84.4847594,255.59999084472656,-0.0405118390917778,-0.010511841624975204
1667404200.04044485,446195963,42.7286003,-84.4847594,255.59999084472656,-0.04367780685424805,-0.01367780938744545
1667404200.07975388,446235272,42.7286003,-84.4847593,255.59999084472656,-0.04735177010297775,-0.017351770773530006
1667404200.10036206,446255880,42.7286003,-84.4847593,255.59999084472656,-0.04946272447705269,-0.019462725147604942
1667404200.11976504,446275283,42.7286003,-84.4847593,255.58999633789062,-0.05070028454065323,-0.02070028707385063
1667404200.15983796,446315356,42.7286003,-84.4847593,255.58999633789062,-0.053271010518074036,-0.02327101118862629
1667404200.20035291,446355871,42.7286003,-84.4847592,255.58999633789062,-0.05363968014717102,-0.023639680817723274
1667404200.20050883,446356027,42.7286003,-84.4847592,255.58999633789062,-0.05363968014717102,-0.023639680817723274
1667404200.24048805,446396006,42.7286003,-84.4847592,255.58999633789062,-0.05411142855882645,-0.02411142736673355
1667404200.27985406,446435372,42.7286003,-84.4847592,255.58999633789062,-0.05453379452228546,-0.024533793330192566
1667404200.30040288,446455921,42.7286003,-84.4847592,255.58999633789062,-0.054673947393894196,-0.0246739462018013
1667404200.31970596,446475224,42.7286003,-84.4847592,255.58999633789062,-0.05496734380722046,-0.024967346340417862
1667404200.35978603,446515304,42.7286003,-84.4847592,255.58999633789062,-0.05517784506082535,-0.0251778457313776
1667404200.40037990,446555898,42.7286003,-84.4847592,255.58999633789062,-0.0542914941906929,-0.024291492998600006
1667404200.40051794,446556036,42.7286003,-84.4847592,255.58999633789062,-0.0542914941906929,-0.024291492998600006
1667404200.44044495,446595963,42.7286003,-84.4847592,255.58999633789062,-0.054190270602703094,-0.024190271273255348
1667404200.47985291,446635371,42.7286003,-84.4847592,255.58999633789062,-0.05455782264471054,-0.024557823315262794
1667404200.50033784,446655856,42.7286003,-84.4847592,255.58999633789062,-0.05466056615114212,-0.024660564959049225
1667404200.51974988,446675268,42.7286004,-84.4847592,255.58999633789062,-0.054927825927734375,-0.02492782473564148
1667404200.55975294,446715271,42.7286004,-84.4847592,255.58999633789062,-0.05572972819209099,-0.025729728862643242
1667404200.60044694,446755965,42.7286004,-84.48475909999999,255.58999633789062,-0.05607640743255615,-0.026076408103108406
1667404200.60058188,446756100,42.7286004,-84.48475909999999,255.58999633789062,-0.05607640743255615,-0.026076408103108406
1667404200.64038801,446795906,42.7286004,-84.48475909999999,255.58999633789062,-0.05657786875963211,-0.026577867567539215
1667404200.67979288,446835311,42.7286004,-84.48475909999999,255.58999633789062,-0.0571570061147213,-0.027157006785273552
1667404200.70051503,446856033,42.7286004,-84.48475909999999,255.58999633789062,-0.057389385998249054,-0.02738938480615616
1667404200.71979904,446875317,42.7286004,-84.48475909999999,255.58999633789062,-0.05771608278155327,-0.027716083452105522
1667404200.75971889,446915237,42.7286004,-84.48475909999999,255.58999633789062,-0.0584142804145813,-0.028414281085133553
1667404200.80040884,446955927,42.7286004,-84.48475909999999,255.58999633789062,-0.05891525745391846,-0.02891525998711586
1667404200.80055904,446956077,42.7286004,-84.48475909999999,255.58999633789062,-0.05891525745391846,-0.02891525998711586
1667404200.84045696,446995975,42.7286004,-84.48475909999999,255.58999633789062,-0.059337109327316284,-0.029337111860513687
1667404200.87981796,447035336,42.7286004,-84.48475909999999,255.58999633789062,-0.05946294590830803,-0.029462946578860283
1667404200.90068293,447056201,42.7286004,-84.48475909999999,255.58999633789062,-0.059417784214019775,-0.02941778674721718
1667404200.91977787,447075296,42.7286004,-84.48475909999999,255.58999633789062,-0.05962985008955002,-0.02962985262274742
1667404200.95987391,447115392,42.7286004,-84.48475909999999,255.58999633789062,-0.059623267501592636,-0.02962326817214489
1667404201.00035405,447155872,42.7286004,-84.48475909999999,255.58999633789062,-0.058629266917705536,-0.02862926945090294
1667404201.00052905,447156047,42.7286004,-84.48475909999999,255.58999633789062,-0.058629266917705536,-0.02862926945090294
1667404201.04036593,447195884,42.7286004,-84.484759,255.58999633789062,-0.05848698690533638,-0.028486987575888634
1667404201.07986403,447235382,42.7286005,-84.484759,255.58999633789062,-0.05885083228349686,-0.02885083481669426
1667404201.10030103,447255819,42.7286005,-84.484759,255.58999633789062,-0.05895698815584183,-0.028956986963748932
1667404201.11986685,447275385,42.7286005,-84.484759,255.58999633789062,-0.059238504618406296,-0.02923850528895855
1667404201.15978098,447315299,42.7286005,-84.484759,255.58999633789062,-0.05984614044427872,-0.02984614111483097
1667404201.20037889,447355897,42.7286005,-84.484759,255.5800018310547,-0.06016009300947189,-0.030160091817378998
1667404201.20052600,447356044,42.7286005,-84.484759,255.5800018310547,-0.06016009300947189,-0.030160091817378998
1667404201.24032998,447395848,42.7286005,-84.484759,255.5800018310547,-0.06067866086959839,-0.030678659677505493
1667404201.27976394,447435282,42.7286005,-84.484759,255.5800018310547,-0.06132197380065918,-0.031321972608566284
1667404201.30039787,447455916,42.7286005,-84.484759,255.5800018310547,-0.06159771978855133,-0.031597722321748734
1667404201.31986499,447475383,42.7286005,-84.484759,255.5800018310547,-0.06196151673793793,-0.03196151554584503
1667404201.35978889,447515307,42.7286005,-84.484759,255.5800018310547,-0.062076687812805176,-0.03207669034600258
1667404201.40035391,447555872,42.7286005,-84.484759,255.5800018310547,-0.06113830953836441,-0.031138310208916664
1667404201.40048504,447556003,42.7286005,-84.484759,255.5800018310547,-0.06113830953836441,-0.031138310208916664
1667404201.44040704,447595925,42.7286005,-84.484759,255.5800018310547,-0.06077955663204193,-0.030779559165239334
1667404201.47974491,447635263,42.7286005,-84.484759,255.5800018310547,-0.06054079160094261,-0.030540792271494865
1667404201.50038886,447655907,42.7286005,-84.4847589,255.5800018310547,-0.06029912829399109,-0.030299127101898193
1667404201.51977491,447675293,42.7286005,-84.4847589,255.5800018310547,-0.060394395142793655,-0.03039439581334591
1667404201.55983090,447715349,42.7286005,-84.4847589,255.5800018310547,-0.06035074219107628,-0.030350742861628532
1667404201.60035801,447755876,42.7286005,-84.4847589,255.58999633789062,-0.05907681584358215,-0.029076814651489258
1667404201.60047603,447755994,42.7286005,-84.4847589,255.58999633789062,-0.05907681584358215,-0.029076814651489258
1667404201.64036989,447795888,42.7286006,-84.4847589,255.58999633789062,-0.05866410210728645,-0.028664102777838707
1667404201.67988801,447835406,42.7286006,-84.4847589,255.58999633789062,-0.058705225586891174,-0.02870522439479828
1667404201.70032883,447855847,42.7286006,-84.4847589,255.58999633789062,-0.058638885617256165,-0.02863888442516327
1667404201.71971083,447875229,42.7286006,-84.4847589,255.58999633789062,-0.058810919523239136,-0.02881092205643654
1667404201.75977588,447915294,42.7286006,-84.4847589,255.58999633789062,-0.059366535395383835,-0.02936653606593609
1667404201.80042291,447955941,42.7286006,-84.4847589,255.58999633789062,-0.05928865820169449,-0.02928866073489189
1667404201.80055189,447956070,42.7286006,-84.4847589,255.58999633789062,-0.05928865820169449,-0.02928866073489189
1667404201.84043097,447995949,42.7286006,-84.4847589,255.58999633789062,-0.05912187695503235,-0.02912187948822975
1667404201.87981296,448035331,42.7286006,-84.4847589,255.58999633789062,-0.058391038328409195,-0.02839103899896145
1667404201.90056992,448056088,42.7286006,-84.4847589,255.58999633789062,-0.05786179378628731,-0.02786179445683956
1667404201.91973090,448075249,42.7286006,-84.4847588,255.58999633789062,-0.05780389904975891,-0.027803899720311165
1667404201.95994997,448115468,42.7286006,-84.4847588,255.58999633789062,-0.05733881890773773,-0.027338817715644836
1667404202.00038886,448155907,42.7286006,-84.4847588,255.58999633789062,-0.056154415011405945,-0.0261544156819582
1667404202.00052094,448156039,42.7286006,-84.4847588,255.58999633789062,-0.056154415011405945,-0.0261544156819582
1667404202.04048085,448195999,42.7286006,-84.4847588,255.58999633789062,-0.05595681071281433,-0.025956809520721436
1667404202.07980585,448235324,42.7286006,-84.4847588,255.58999633789062,-0.05645632743835449,-0.026456328108906746
1667404202.10031605,448255834,42.7286006,-84.4847588,255.58999633789062,-0.056690920144319534,-0.026690920814871788
1667404202.11973906,448275257,42.7286006,-84.4847588,255.58999633789062,-0.05698201060295105,-0.026982011273503304
1667404202.15975595,448315274,42.7286006,-84.4847588,255.58999633789062,-0.058235861361026764,-0.02823586016893387
1667404202.20036292,448355881,42.7286007,-84.4847588,255.5800018310547,-0.060434676706790924,-0.030434679239988327
1667404202.20052099,448356039,42.7286007,-84.4847588,255.5800018310547,-0.060434676706790924,-0.030434679239988327
1667404202.24043202,448395950,42.7286007,-84.4847588,255.5800018310547,-0.06219638139009476,-0.03219638392329216
1667404202.27982402,448435342,42.7286007,-84.4847588,255.5800018310547,-0.06396439671516418,-0.03396439924836159
1667404202.30027986,448455798,42.7286007,-84.4847588,255.5800018310547,-0.06493733078241348,-0.03493732959032059
1667404202.31984806,448475366,42.7286007,-84.4847588,255.5800018310547,-0.06562569737434387,-0.035625699907541275
1667404202.35974002,448515258,42.7286007,-84.4847588,255.5800018310547,-0.06685217469930649,-0.03685217723250389
1667404202.40041089,448555929,42.7286007,-84.4847587,255.5800018310547,-0.06778742372989655,-0.03778742253780365
1667404202.40056300,448556081,42.7286007,-84.4847587,255.5800018310547,-0.06778742372989655,-0.03778742253780365
1667404202.44045591,448595974,42.7286007,-84.4847587,255.5800018310547,-0.06910714507102966,-0.039107147604227066
1667404202.47983003,448635348,42.7286007,-84.4847587,255.5699920654297,-0.07117518782615662,-0.04117518663406372
1667404202.50036788,448655886,42.728600799999995,-84.4847587,255.5699920654297,-0.07231391221284866,-0.042313914746046066
1667404202.51977396,448675292,42.728600799999995,-84.4847587,255.5699920654297,-0.07311196625232697,-0.04311196878552437
1667404202.55978298,448715301,42.728600799999995,-84.4847587,255.5699920654297,-0.0746595710515976,-0.044659573584795
1667404202.60030890,448755827,42.728600799999995,-84.4847587,255.5699920654297,-0.07599574327468872,-0.045995745807886124
1667404202.60047793,448755996,42.728600799999995,-84.4847587,255.5699920654297,-0.07599574327468872,-0.045995745807886124
1667404202.64038086,448795899,42.728600799999995,-84.4847587,255.5699920654297,-0.07731606811285019,-0.04731607064604759
1667404202.67976189,448835280,42.728600799999995,-84.4847587,255.5699920654297,-0.07882236689329147,-0.04882236570119858
1667404202.70030093,448855819,42.728600799999995,-84.4847587,255.5699920654297,-0.07961682975292206,-0.04961683228611946
1667404202.71980286,448875321,42.728600799999995,-84.4847587,255.55999755859375,-0.08027148991823196,-0.05027149245142937
1667404202.75984287,448915361,42.728600799999995,-84.4847587,255.55999755859375,-0.08143076300621033,-0.05143076553940773
1667404202.80056500,448956083,42.728600799999995,-84.4847587,255.55999755859375,-0.08215435594320297,-0.05215435475111008
1667404202.80073190,448956250,42.728600799999995,-84.4847587,255.55999755859375,-0.08215435594320297,-0.05215435475111008
1667404202.84036398,448995882,42.728600899999996,-84.4847587,255.55999755859375,-0.08336146920919418,-0.05336146801710129
1667404202.87976789,449035286,42.728600899999996,-84.4847587,255.55999755859375,-0.08526960760354996,-0.05526960641145706
1667404202.90078092,449056299,42.728600899999996,-84.4847587,255.55999755859375,-0.08628162741661072,-0.05628162622451782
1667404202.91985297,449075371,42.728600899999996,-84.4847587,255.55999755859375,-0.08703587204217911,-0.05703587085008621
1667404202.95981002,449115328,42.728600899999996,-84.4847587,255.55999755859375,-0.08910169452428818,-0.05910169705748558
1667404203.00036883,449155887,42.728600899999996,-84.4847587,255.54998779296875,-0.0916508212685585,-0.061650823801755905
1667404203.00049186,449156010,42.728600899999996,-84.4847587,255.54998779296875,-0.0916508212685585,-0.061650823801755905
1667404203.04038191,449195900,42.728600899999996,-84.4847587,255.54998779296875,-0.09354556351900101,-0.06354556232690811
1667404203.07975006,449235268,42.728600899999996,-84.4847587,255.54998779296875,-0.09506968408823013,-0.06506968289613724
1667404203.10035706,449255875,42.728600899999996,-84.4847587,255.54998779296875,-0.09589757025241852,-0.06589756906032562
1667404203.11986399,449275382,42.728600899999996,-84.4847587,255.54998779296875,-0.09657396376132965,-0.06657396256923676
1667404203.15972400,449315242,42.728600899999996,-84.4847587,255.54998779296875,-0.09814858436584473,-0.06814858317375183
1667404203.20040202,449355920,42.728601,-84.4847587,255.54998779296875,-0.09914335608482361,-0.06914335489273071
1667404203.20054102,449356059,42.728601,-84.4847587,255.54998779296875,-0.09914335608482361,-0.06914335489273071
1667404203.24042487,449395943,42.728601,-84.4847587,255.5399932861328,-0.10016559064388275,-0.07016558945178986
1667404203.27973604,449435254,42.728601,-84.4847587,255.5399932861328,-0.10120601952075958,-0.07120601832866669
1667404203.30036998,449455888,42.728601,-84.4847587,255.5399932861328,-0.10172397643327713,-0.07172397524118423
1667404203.31982994,449475348,42.728601,-84.4847587,255.5399932861328,-0.10225632041692734,-0.07225631922483444
1667404203.35977101,449515289,42.728601,-84.4847587,255.5399932861328,-0.1032397523522377,-0.0732397511601448
1667404203.40036488,449555883,42.728601,-84.4847587,255.5399932861328,-0.1037779450416565,-0.0737779438495636
1667404203.40048385,449556002,42.728601,-84.4847587,255.5399932861328,-0.1037779450416565,-0.0737779438495636
1667404203.44042587,449595944,42.728601,-84.4847587,255.5399932861328,-0.1046619862318039,-0.074661985039711
1667404203.47987485,449635393,42.728601,-84.4847587,255.5399932861328,-0.10584326088428497,-0.07584325969219208
1667404203.50037503,449655893,42.728601,-84.4847587,255.5399932861328,-0.10643976181745529,-0.0764397606253624
1667404203.51974392,449675262,42.728601,-84.4847587,255.5399932861328,-0.10700584203004837,-0.07700584083795547
1667404203.55971503,449715233,42.728601,-84.4847587,255.5399932861328,-0.10801104456186295,-0.07801104336977005
1667404203.60031796,449755836,42.728601,-84.4847587,255.5399932861328,-0.10838980227708817,-0.07838980108499527
1667404203.60051394,449756032,42.728601,-84.4847587,255.5399932861328,-0.10838980227708817,-0.07838980108499527
1667404203.64052892,449796047,42.728601,-84.4847587,255.5399932861328,-0.10899320989847183,-0.07899320870637894
1667404203.67976189,449835280,42.7286011,-84.4847587,255.5399932861328,-0.10959231853485107,-0.07959231734275818
1667404203.70044899,449855967,42.7286011,-84.4847587,255.5399932861328,-0.10984013974666595,-0.07984013855457306
1667404203.71975899,449875277,42.7286011,-84.4847587,255.52999877929688,-0.11024274677038193,-0.08024274557828903
1667404203.75971985,449915238,42.7286011,-84.4847587,255.52999877929688,-0.11033924669027328,-0.08033924549818039
1667404203.80042696,449955945,42.7286011,-84.4847587,255.5399932861328,-0.10925714671611786,-0.07925714552402496
1667404203.80059099,449956109,42.7286011,-84.4847587,255.5399932861328,-0.10925714671611786,-0.07925714552402496
1667404203.84050202,449996020,42.7286011,-84.4847587,255.5399932861328,-0.10898876190185547,-0.07898876070976257
1667404203.87982106,450035339,42.7286011,-84.4847587,255.5399932861328,-0.10897312313318253,-0.07897312194108963
1667404203.90039206,450055910,42.7286011,-84.4847587,255.5399932861328,-0.10884442925453186,-0.07884442806243896
1667404203.91984296,450075361,42.7286011,-84.4847587,255.5399932861328,-0.10906418412923813,-0.07906418293714523
1667404203.95973492,450115253,42.7286011,-84.4847587,255.5399932861328,-0.10936187952756882,-0.07936187833547592
1667404204.00030994,450155828,42.7286011,-84.4847587,255.5399932861328,-0.10948196053504944,-0.07948195934295654
1667404204.00046587,450155984,42.7286011,-84.4847587,255.5399932861328,-0.10948196053504944,-0.07948195934295654
1667404204.04040790,450195926,42.7286011,-84.4847587,255.5399932861328,-0.11000420898199081,-0.08000420778989792
1667404204.07978702,450235305,42.7286012,-84.4847587,255.52999877929688,-0.11070239543914795,-0.08070239424705505
1667404204.10024786,450255766,42.7286012,-84.4847587,255.52999877929688,-0.11100663244724274,-0.08100663125514984
1667404204.11982393,450275342,42.7286012,-84.4847587,255.52999877929688,-0.11143290996551514,-0.08143290877342224
1667404204.15985584,450315374,42.7286012,-84.4847587,255.52999877929688,-0.11227146536111832,-0.08227146416902542
1667404204.20045090,450355969,42.7286012,-84.4847587,255.52999877929688,-0.11324696987867355,-0.08324696868658066
1667404204.20063400,450356152,42.7286012,-84.4847587,255.52999877929688,-0.11324696987867355,-0.08324696868658066
1667404204.24032092,450395839,42.7286012,-84.4847587,255.52999877929688,-0.1141289547085762,-0.0841289535164833
1667404204.27984786,450435366,42.7286012,-84.4847587,255.52999877929688,-0.11468417197465897,-0.08468417078256607
1667404204.30035996,450455878,42.7286012,-84.4847587,255.52999877929688,-0.11491648107767105,-0.08491647988557816
1667404204.31978989,450475308,42.7286012,-84.4847587,255.52999877929688,-0.11536901444196701,-0.08536901324987411
1667404204.35979104,450515309,42.7286012,-84.4847587,255.52999877929688,-0.1154344230890274,-0.08543442189693451
1667404204.40037298,450555891,42.7286013,-84.4847587,255.52999877929688,-0.1151018738746643,-0.08510187268257141
1667404204.40053201,450556050,42.7286013,-84.4847587,255.52999877929688,-0.1151018738746643,-0.08510187268257141
1667404204.44037485,450595893,42.7286013,-84.4847587,255.52999877929688,-0.11500284075737,-0.0850028395652771
1667404204.47983599,450635354,42.7286013,-84.4847587,255.52999877929688,-0.11452662944793701,-0.08452662825584412
1667404204.50034904,450655867,42.7286013,-84.4847587,255.52999877929688,-0.11411672085523605,-0.08411671966314316
1667404204.51982784,450675346,42.7286013,-84.4847587,255.52999877929688,-0.11424029618501663,-0.08424029499292374
1667404204.55988598,450715404,42.7286013,-84.4847587,255.52999877929688,-0.11401981860399246,-0.08401981741189957
1667404204.60032892,450755847,42.7286013,-84.4847587,255.52999877929688,-0.11368347704410553,-0.08368347585201263
1667404204.60045505,450755973,42.7286013,-84.4847587,255.52999877929688,-0.11368347704410553,-0.08368347585201263
1667404204.64044785,450795966,42.7286013,-84.4847587,255.52999877929688,-0.11396630853414536,-0.08396630734205246
1667404204.67974901,450835267,42.7286013,-84.4847587,255.52999877929688,-0.11459587514400482,-0.08459587395191193
