timestamp,TimeUS,C,Roll,Pitch,Yaw,VN,VE,VD,dPD,PN,PE,PD,GX,GY,GZ,OH
1667404189.79904890,435954567,1,-0.31,0.7000000000000001,259.0,0.025952979922294617,-0.003124672221019864,-0.07562027871608734,-0.014260011725127697,-16.027135848999023,1.3787174224853516,-0.04192901402711868,0.55,-0.16,-0.17,255.56
1667404189.83904290,435994561,1,-0.31,0.7000000000000001,258.99,0.026327842846512794,-0.0034486372023820877,-0.0750766173005104,-0.019349897280335426,-16.025405883789062,1.3787060976028442,-0.04287674278020859,0.55,-0.16,-0.17,255.56
1667404189.87909198,436034610,1,-0.31,0.7000000000000001,258.99,0.027358803898096085,-0.0029978242237120867,-0.07470535486936569,-0.022125327959656715,-16.023521423339844,1.3787883520126343,-0.04406650364398956,0.55,-0.16,-0.17,255.56
1667404189.89903688,436054555,1,-0.31,0.7000000000000001,258.99,0.027687670662999153,-0.00312270550057292,-0.07446053624153137,-0.024075236171483994,-16.022724151611328,1.3787882328033447,-0.04500855505466461,0.55,-0.16,-0.17,255.56
1667404189.91910291,436074621,1,-0.31,0.7000000000000001,258.99,0.028291838243603706,-0.0032878248021006584,-0.07402575016021729,-0.026135601103305817,-16.021696090698242,1.378828763961792,-0.045508597046136856,0.55,-0.16,-0.17,255.56
1667404189.95912099,436114639,1,-0.31,0.7000000000000001,258.99,0.028444260358810425,-0.0038970275782048702,-0.07370833307504654,-0.03198583051562309,-16.019954681396484,1.3788070678710938,-0.04711252450942993,0.55,-0.16,-0.17,255.56
1667404189.99903488,436154553,1,-0.31,0.7000000000000001,258.99,0.028557730838656425,-0.003836670657619834,-0.07375524938106537,-0.0401696115732193,-16.01821517944336,1.3788909912109375,-0.04921196773648262,0.56,-0.16,-0.17,255.56
1667404190.03906083,436194579,1,-0.31,0.7000000000000001,258.98,0.028659576550126076,-0.003935148473829031,-0.07441139221191406,-0.05584554746747017,-16.0162296295166,1.3793632984161377,-0.05208656191825867,0.56,-0.16,-0.17,255.56
1667404190.07909083,436234609,1,-0.31,0.7000000000000001,258.98,0.02866137959063053,-0.0036988016217947006,-0.07453864067792892,-0.07060720771551132,-16.014562606811523,1.3796051740646362,-0.05511648207902908,0.56,-0.16,-0.17,255.56
1667404190.09905696,436254575,1,-0.3,0.7000000000000001,258.98,0.028557315468788147,-0.0037265713326632977,-0.07488103210926056,-0.07684322446584702,-16.013822555541992,1.379646897315979,-0.05666542798280716,0.56,-0.16,-0.17,255.56
1667404190.11908698,436274605,1,-0.31,0.7000000000000001,258.98,0.02851235121488571,-0.00363861839286983,-0.07484215497970581,-0.08120686560869217,-16.012981414794922,1.3797938823699951,-0.05818452313542366,0.56,-0.16,-0.17,255.56
1667404190.15910602,436314624,1,-0.31,0.7000000000000001,258.97,0.028789713978767395,-0.004223598632961512,-0.0750223770737648,-0.08667440712451935,-16.011451721191406,1.379921317100525,-0.061208657920360565,0.56,-0.16,-0.17,255.56
1667404190.19908595,436354604,1,-0.31,0.7000000000000001,258.97,0.028649739921092987,-0.00434262165799737,-0.07451475411653519,-0.0768190249800682,-16.00967788696289,1.3800954818725586,-0.06265724450349808,0.56,-0.16,-0.17,255.56
1667404190.23906398,436394582,1,-0.3,0.7000000000000001,258.97,0.02797018550336361,-0.004840186331421137,-0.07369989156723022,-0.0613982118666172,-16.007871627807617,1.3802927732467651,-0.06383967399597168,0.56,-0.16,-0.17,255.56
1667404190.27905989,436434578,1,-0.31,0.7000000000000001,258.96,0.028098896145820618,-0.005128374323248863,-0.07324592024087906,-0.04936019331216812,-16.006343841552734,1.380333423614502,-0.0655537098646164,0.56,-0.16,-0.17,255.56
1667404190.29905987,436454578,1,-0.3,0.7000000000000001,258.96,0.027944207191467285,-0.00525529682636261,-0.07311376929283142,-0.045568302273750305,-16.005651473999023,1.380294680595398,-0.06667681783437729,0.56,-0.16,-0.17,255.56
1667404190.31908584,436474604,1,-0.31,0.7000000000000001,258.95,0.0279576163738966,-0.005326407495886087,-0.07270988821983337,-0.0430440716445446,-16.004892349243164,1.3803143501281738,-0.06741133332252502,0.56,-0.16,-0.17,255.56
1667404190.35908389,436514602,1,-0.31,0.7000000000000001,258.95,0.028078747913241386,-0.00556565634906292,-0.07179320603609085,-0.04137439653277397,-16.003427505493164,1.3803597688674927,-0.0693485215306282,0.56,-0.16,-0.17,255.56
1667404190.39909792,436554616,1,-0.31,0.7000000000000001,258.94,0.02666483446955681,-0.0061042169108986855,-0.07141286879777908,-0.04177846387028694,-16.001916885375977,1.3805499076843262,-0.0712764635682106,0.56,-0.16,-0.17,255.56
1667404190.43908000,436594598,1,-0.31,0.7000000000000001,258.94,0.025350337848067284,-0.00612256582826376,-0.07100076228380203,-0.04375678673386574,-16.000486373901367,1.3807868957519531,-0.07302135974168777,0.56,-0.16,-0.17,255.56
1667404190.47903705,436634555,1,-0.31,0.7000000000000001,258.94,0.024219026789069176,-0.006491147913038731,-0.07035883516073227,-0.04596639797091484,-15.99927806854248,1.380828619003296,-0.07513024657964706,0.56,-0.16,-0.17,255.56
1667404190.49911499,436654633,1,-0.31,0.7000000000000001,258.93,0.024040330201387405,-0.006569512654095888,-0.07044853270053864,-0.04776975139975548,-15.99873161315918,1.3807824850082397,-0.07635170966386795,0.56,-0.16,-0.17,255.56
1667404190.51905894,436674577,1,-0.31,0.7000000000000001,258.93,0.02368173375725746,-0.00685780169442296,-0.070438452064991,-0.049483221024274826,-15.998177528381348,1.3808140754699707,-0.07732804864645004,0.56,-0.16,-0.17,255.56
1667404190.55909491,436714613,1,-0.31,0.7000000000000001,258.93,0.022979917004704475,-0.006598254200071096,-0.07007881253957748,-0.0518074557185173,-15.997145652770996,1.3809692859649658,-0.07937432825565338,0.56,-0.16,-0.17,255.56
1667404190.59909296,436754611,1,-0.31,0.7000000000000001,258.92,0.02168884314596653,-0.005978995468467474,-0.06959432363510132,-0.04940472170710564,-15.99626636505127,1.3815268278121948,-0.08112235367298126,0.56,-0.16,-0.17,255.56
1667404190.63907290,436794591,1,-0.3,0.6900000000000001,258.91,0.019645970314741135,-0.0050340197049081326,-0.06903905421495438,-0.04726490005850792,-15.995521545410156,1.3822447061538696,-0.08265852928161621,0.56,-0.16,-0.17,255.56
1667404190.67906189,436834580,1,-0.31,0.6900000000000001,258.89,0.018139852210879326,-0.004582274239510298,-0.06859351694583893,-0.043160222470760345,-15.994906425476074,1.3826836347579956,-0.0842413604259491,0.56,-0.16,-0.17,255.56
1667404190.69908285,436854601,1,-0.3,0.6900000000000001,258.89,0.017385447397828102,-0.0049528079107403755,-0.06857045739889145,-0.041657786816358566,-15.994607925415039,1.382786750793457,-0.0852675586938858,0.56,-0.16,-0.17,255.56
1667404190.71905994,436874578,1,-0.3,0.6900000000000001,258.88,0.016440046951174736,-0.004693101160228252,-0.06847203522920609,-0.0407184399664402,-15.994400024414062,1.383068323135376,-0.08599623292684555,0.56,-0.16,-0.17,255.56
1667404190.75909090,436914609,1,-0.3,0.6900000000000001,258.87,0.015440266579389572,-0.004041842184960842,-0.06817133724689484,-0.038988031446933746,-15.99385929107666,1.3835721015930176,-0.08748683333396912,0.56,-0.16,-0.17,255.56
1667404190.79908490,436954603,1,-0.31,0.6900000000000001,258.86,0.01407929789274931,-0.0031936715822666883,-0.06731617450714111,-0.033501505851745605,-15.993195533752441,1.38435959815979,-0.08875134587287903,0.56,-0.16,-0.17,255.56
1667404190.83909798,436994616,1,-0.3,0.6900000000000001,258.86,0.012499799020588398,-0.0020722560584545135,-0.06669240444898605,-0.03065086342394352,-15.992667198181152,1.3853564262390137,-0.0897567942738533,0.56,-0.16,-0.17,255.56
1667404190.87904406,437034562,1,-0.31,0.6900000000000001,258.85,0.011050277389585972,-0.0012544038472697139,-0.06623626500368118,-0.029228581115603447,-15.992260932922363,1.3860297203063965,-0.09119481593370438,0.56,-0.16,-0.17,255.56
1667404190.89908695,437054605,1,-0.31,0.6900000000000001,258.84000000000003,0.010587302967905998,-0.0010364593472331762,-0.06582607328891754,-0.029250530526041985,-15.992081642150879,1.3862385749816895,-0.09211274236440659,0.56,-0.16,-0.17,255.56
1667404190.91903806,437074556,1,-0.31,0.6900000000000001,258.84000000000003,0.009871208108961582,-0.0006530563114210963,-0.0655563473701477,-0.030030468478798866,-15.991949081420898,1.386660099029541,-0.09276669472455978,0.56,-0.16,-0.17,255.56
1667404190.95906186,437114580,1,-0.31,0.6900000000000001,258.84000000000003,0.008549466729164124,-0.00012576418521348387,-0.06526993215084076,-0.03156870976090431,-15.991602897644043,1.387397289276123,-0.0940297469496727,0.56,-0.16,-0.17,255.56
1667404190.99908900,437154607,1,-0.31,0.7000000000000001,258.83,0.007212470751255751,0.0006083509651944041,-0.06512261182069778,-0.02692609280347824,-15.991132736206055,1.388375997543335,-0.09489402920007706,0.56,-0.16,-0.17,255.56
1667404191.03909087,437194609,1,-0.31,0.6900000000000001,258.83,0.005780934821814299,0.0015070372028276324,-0.06428944319486618,-0.023055674508213997,-15.990755081176758,1.3895597457885742,-0.09546011686325073,0.56,-0.16,-0.17,255.56
1667404191.07909894,437234617,1,-0.31,0.6900000000000001,258.82,0.004384477157145739,0.0020980266854166985,-0.06400202214717865,-0.021920720115303993,-15.990518569946289,1.3903896808624268,-0.09668700397014618,0.56,-0.16,-0.17,255.56
1667404191.09904599,437254564,1,-0.31,0.6900000000000001,258.82,0.004134668968617916,0.002235916443169117,-0.06399163603782654,-0.02266334742307663,-15.99043083190918,1.3906705379486084,-0.09755190461874008,0.56,-0.16,-0.17,255.56
1667404191.11907506,437274593,1,-0.31,0.6900000000000001,258.82,0.0032931878231465816,0.0026985029689967632,-0.06375298649072647,-0.0238164234906435,-15.990363121032715,1.3911710977554321,-0.09805730730295181,0.56,-0.16,-0.17,255.56
1667404191.15903091,437314549,1,-0.31,0.6900000000000001,258.82,0.0022706983145326376,0.003491069423034787,-0.06319969147443771,-0.026965942233800888,-15.990221977233887,1.3920173645019531,-0.09945344179868698,0.56,-0.16,-0.17,255.56
1667404191.19905901,437354577,1,-0.31,0.7000000000000001,258.82,0.0002112067595589906,0.004318282473832369,-0.06287379562854767,-0.030965715646743774,-15.990065574645996,1.3930189609527588,-0.1010117307305336,0.56,-0.16,-0.17,255.56
1667404191.23909903,437394617,1,-0.31,0.7000000000000001,258.81,-0.0014826363185420632,0.004943880718201399,-0.06264160573482513,-0.03589649870991707,-15.990018844604492,1.3941936492919922,-0.10233578830957413,0.56,-0.16,-0.17,255.56
1667404191.27907085,437434589,1,-0.31,0.7000000000000001,258.81,-0.002760228468105197,0.005616563372313976,-0.062430258840322495,-0.03802289068698883,-15.990097999572754,1.3950556516647339,-0.10386583209037781,0.56,-0.16,-0.17,255.56
1667404191.29906297,437454581,1,-0.31,0.7000000000000001,258.8,-0.0032284415792673826,0.005987987387925386,-0.06242619827389717,-0.03879908472299576,-15.990161895751953,1.3953769207000732,-0.1048487201333046,0.56,-0.16,-0.17,255.56
1667404191.31911397,437474632,1,-0.31,0.7000000000000001,258.8,-0.003869802923873067,0.006587530020624399,-0.062334708869457245,-0.03962082788348198,-15.990253448486328,1.3958877325057983,-0.10555233061313629,0.56,-0.16,-0.17,255.56
1667404191.35907197,437514590,1,-0.31,0.7000000000000001,258.8,-0.005185199901461601,0.0070114703848958015,-0.06205105036497116,-0.03941948711872101,-15.990124702453613,1.3967409133911133,-0.10676756501197815,0.5700000000000001,-0.16,-0.17,255.56
1667404191.39903188,437554550,1,-0.31,0.7000000000000001,258.79,-0.00540168397128582,0.007613758556544781,-0.061500780284404755,-0.030296940356492996,-15.989381790161133,1.3976470232009888,-0.107407346367836,0.56,-0.16,-0.17,255.56
1667404191.43906188,437594580,1,-0.31,0.7000000000000001,258.78000000000003,-0.005619162693619728,0.008219677954912186,-0.06085943058133125,-0.022472141310572624,-15.98850154876709,1.3986635208129883,-0.10773558169603348,0.56,-0.16,-0.17,255.56
1667404191.47908998,437634608,1,-0.31,0.7000000000000001,258.77,-0.005368581973016262,0.008430855348706245,-0.0608496367931366,-0.018643105402588844,-15.987998962402344,1.3994388580322266,-0.10872089862823486,0.56,-0.16,-0.17,255.56
1667404191.49903202,437654550,1,-0.31,0.7000000000000001,258.77,-0.0054921298287808895,0.008557709865272045,-0.06080833449959755,-0.018296271562576294,-15.987882614135742,1.399744987487793,-0.10952205210924149,0.5700000000000001,-0.16,-0.17,255.56
1667404191.51909304,437674611,1,-0.3,0.7000000000000001,258.77,-0.005362913943827152,0.008882332593202591,-0.06044613569974899,-0.018629606813192368,-15.987553596496582,1.4001657962799072,-0.10988645255565643,0.56,-0.16,-0.17,255.56
1667404191.55908489,437714603,1,-0.31,0.7000000000000001,258.77,-0.005771405063569546,0.008751229383051395,-0.059733111411333084,-0.020652204751968384,-15.987176895141602,1.4008487462997437,-0.11106003820896149,0.5700000000000001,-0.16,-0.17,255.56
1667404191.59905195,437754570,1,-0.31,0.7000000000000001,258.76,-0.006127483677119017,0.009233741089701653,-0.05884053558111191,-0.018096046522259712,-15.98655891418457,1.4016594886779785,-0.11157923191785812,0.5700000000000001,-0.16,-0.17,255.56
1667404191.63907504,437794593,1,-0.3,0.7000000000000001,258.76,-0.006916172802448273,0.009330802597105503,-0.058000918477773666,-0.014955474063754082,-15.985816955566406,1.4025307893753052,-0.11169019341468811,0.56,-0.16,-0.17,255.56
1667404191.67909598,437834614,1,-0.3,0.7000000000000001,258.76,-0.007148606702685356,0.009442523121833801,-0.05758509784936905,-0.01113367360085249,-15.985437393188477,1.403209924697876,-0.11224678158760071,0.5700000000000001,-0.16,-0.17,255.56
1667404191.69905996,437854578,1,-0.3,0.7000000000000001,258.76,-0.00695323059335351,0.009545777924358845,-0.05736236646771431,-0.01014605164527893,-15.985376358032227,1.4034879207611084,-0.11286155134439468,0.5700000000000001,-0.16,-0.17,255.56
1667404191.71908784,437874606,1,-0.3,0.7000000000000001,258.75,-0.007064193952828646,0.009669294580817223,-0.0572013258934021,-0.010022137314081192,-15.985132217407227,1.4038437604904175,-0.11301278322935104,0.5700000000000001,-0.16,-0.17,255.56
1667404191.75909090,437914609,1,-0.3,0.7000000000000001,258.75,-0.007326576393097639,0.00979921780526638,-0.05658595263957977,-0.011787455528974533,-15.984899520874023,1.4044451713562012,-0.11388468742370605,0.5700000000000001,-0.16,-0.17,255.56
1667404191.79909587,437954614,1,-0.3,0.7000000000000001,258.75,-0.006456898991018534,0.00983118824660778,-0.05598022788763046,-0.014601489529013634,-15.98344612121582,1.4051951169967651,-0.11480093747377396,0.5700000000000001,-0.16,-0.17,255.56
1667404191.83904004,437994558,1,-0.3,0.7000000000000001,258.75,-0.005104139447212219,0.010210593231022358,-0.055239319801330566,-0.018623750656843185,-15.981629371643066,1.4059867858886719,-0.11532986164093018,0.5700000000000001,-0.16,-0.17,255.56
1667404191.87906599,438034584,1,-0.3,0.7000000000000001,258.75,-0.004393310751765966,0.010605761781334877,-0.05450673773884773,-0.018502116203308105,-15.980450630187988,1.406638503074646,-0.11604876071214676,0.5700000000000001,-0.16,-0.17,255.56
1667404191.89909601,438054614,1,-0.3,0.7000000000000001,258.75,-0.004273308906704187,0.010694276541471481,-0.054388586431741714,-0.018306754529476166,-15.980104446411133,1.406919002532959,-0.11668907850980759,0.5700000000000001,-0.16,-0.17,255.56
1667404191.91908884,438074607,1,-0.3,0.7000000000000001,258.75,-0.003775021294131875,0.010873316787183285,-0.053996630012989044,-0.01823442429304123,-15.979363441467285,1.4072600603103638,-0.11694177240133286,0.5700000000000001,-0.16,-0.17,255.56
1667404191.95909691,438114615,1,-0.3,0.7000000000000001,258.75,-0.0035060367081314325,0.011167644523084164,-0.053961969912052155,-0.019317224621772766,-15.978328704833984,1.4079794883728027,-0.11781604588031769,0.5700000000000001,-0.16,-0.17,255.56
1667404191.99909401,438154612,1,-0.3,0.7000000000000001,258.74,-0.003974926192313433,0.011478661559522152,-0.05370016768574715,-0.021567825227975845,-15.977351188659668,1.4089142084121704,-0.11894379556179047,0.5700000000000001,-0.16,-0.17,255.56
1667404192.03906393,438194582,1,-0.3,0.7000000000000001,258.74,-0.004311074502766132,0.01168136578053236,-0.05308082327246666,-0.02520054578781128,-15.976187705993652,1.4099080562591553,-0.11974330246448517,0.5700000000000001,-0.16,-0.17,255.56
1667404192.07903790,438234556,1,-0.3,0.7000000000000001,258.74,-0.004432308953255415,0.011966079473495483,-0.052918724715709686,-0.02555859461426735,-15.975489616394043,1.4107152223587036,-0.1206720843911171,0.5700000000000001,-0.16,-0.17,255.56
1667404192.09909296,438254611,1,-0.3,0.7000000000000001,258.74,-0.0046659912914037704,0.012240445241332054,-0.05306597054004669,-0.025709927082061768,-15.975309371948242,1.411056399345398,-0.1213718131184578,0.5700000000000001,-0.16,-0.17,255.56
1667404192.11906195,438274580,1,-0.3,0.7000000000000001,258.73,-0.004737252369523048,0.012466754764318466,-0.05316610634326935,-0.026023462414741516,-15.97489070892334,1.4114891290664673,-0.12177078425884247,0.5700000000000001,-0.16,-0.17,255.56
1667404192.15908599,438314604,1,-0.3,0.7000000000000001,258.73,-0.005513032898306847,0.012614523060619831,-0.05261676758527756,-0.027070997282862663,-15.974453926086426,1.4124504327774048,-0.12317090481519699,0.5700000000000001,-0.16,-0.17,255.56
1667404192.19907284,438354591,1,-0.3,0.7000000000000001,258.73,-0.006370962131768465,0.013124301098287106,-0.052559949457645416,-0.037124235183000565,-15.97425651550293,1.413779854774475,-0.1253378540277481,0.5700000000000001,-0.16,-0.17,255.56
1667404192.23909688,438394615,1,-0.3,0.7000000000000001,258.73,-0.007889770902693272,0.013670185580849648,-0.05264616012573242,-0.04849201440811157,-15.974071502685547,1.4152805805206299,-0.1275923103094101,0.5700000000000001,-0.16,-0.17,255.56
1667404192.27907991,438434598,1,-0.3,0.7000000000000001,258.73,-0.009401356801390648,0.015322064980864525,-0.05309092625975609,-0.05715283378958702,-15.974130630493164,1.4164977073669434,-0.1298239678144455,0.5700000000000001,-0.16,-0.17,255.56
1667404192.29909706,438454615,1,-0.3,0.7000000000000001,258.73,-0.010240757837891579,0.0143726272508502,-0.051429491490125656,-0.0582522451877594,-15.974239349365234,1.4169831275939941,-0.13090315461158752,0.5700000000000001,-0.16,-0.17,255.56
1667404192.31906891,438474587,1,-0.3,0.7000000000000001,258.72,-0.010630634613335133,0.0143817737698555,-0.05200108513236046,-0.06091022118926048,-15.974303245544434,1.4176512956619263,-0.13208486139774323,0.5700000000000001,-0.16,-0.17,255.56
1667404192.35909891,438514617,1,-0.3,0.7000000000000001,258.72,-0.011253210715949535,0.016803022474050522,-0.05426405370235443,-0.0649334192276001,-15.974421501159668,1.4187811613082886,-0.13438090682029724,0.5700000000000001,-0.16,-0.17,255.56
1667404192.39909291,438554611,1,-0.29,0.7000000000000001,258.71,-0.012020868249237537,0.01569497212767601,-0.05303370952606201,-0.06897825747728348,-15.974369049072266,1.4198267459869385,-0.13723191618919373,0.5700000000000001,-0.16,-0.17,255.56
1667404192.43906188,438594580,1,-0.3,0.7000000000000001,258.71,-0.013274052180349827,0.009192311204969883,-0.056054212152957916,-0.07700975239276886,-15.974255561828613,1.4209387302398682,-0.14017373323440552,0.5700000000000001,-0.16,-0.17,255.56
1667404192.47908401,438634602,1,-0.3,0.71,258.7,-0.01337033323943615,0.017652908340096474,-0.05694075673818588,-0.07757443189620972,-15.974408149719238,1.421811819076538,-0.14254701137542725,0.5700000000000001,-0.16,-0.17,255.56
1667404192.49913502,438654653,1,-0.3,0.7000000000000001,258.7,-0.017377333715558052,0.009147160686552525,-0.053328920155763626,-0.07249730080366135,-15.974610328674316,1.422163724899292,-0.143759623169899,0.5700000000000001,-0.16,-0.17,255.56
1667404192.51907802,438674596,1,-0.3,0.6900000000000001,258.7,-0.015507013536989689,0.01496030855923891,-0.05235438421368599,-0.06985385715961456,-15.974753379821777,1.4225741624832153,-0.14495715498924255,0.5700000000000001,-0.16,-0.17,255.56
1667404192.55910301,438714621,1,-0.29,0.6900000000000001,258.69,-0.01632280834019184,0.013481896370649338,-0.051354892551898956,-0.06400436162948608,-15.974721908569336,1.4232925176620483,-0.14709922671318054,0.5700000000000001,-0.16,-0.17,255.56
1667404192.59909391,438754612,1,-0.29,0.6900000000000001,258.69,-0.011123833246529102,0.021486490964889526,-0.053482457995414734,-0.06026775762438774,-15.973957061767578,1.42366361618042,-0.14921368658542633,0.5700000000000001,-0.16,-0.17,255.56
1667404192.63909483,438794613,1,-0.3,0.7000000000000001,258.68,-0.012689187191426754,0.012464769184589386,-0.05561942234635353,-0.058461591601371765,-15.972882270812988,1.4239015579223633,-0.15129682421684265,0.5700000000000001,-0.16,-0.17,255.56
1667404192.67910385,438834622,1,-0.3,0.71,258.67,-0.012794651091098785,0.01717435009777546,-0.05393267795443535,-0.05261365324258804,-15.972328186035156,1.4242573976516724,-0.15323922038078308,0.5700000000000001,-0.16,-0.17,255.56
1667404192.69907284,438854591,1,-0.3,0.71,258.67,-0.014980130828917027,0.0122675197198987,-0.05415216460824013,-0.051159828901290894,-15.972275733947754,1.4244409799575806,-0.15425549447536469,0.5700000000000001,-0.16,-0.17,255.56
1667404192.71904683,438874565,1,-0.29,0.7000000000000001,258.67,-0.01567455381155014,0.012962584383785725,-0.0536455474793911,-0.049356549978256226,-15.971967697143555,1.4244860410690308,-0.15523815155029297,0.5700000000000001,-0.16,-0.17,255.56
1667404192.75904489,438914563,1,-0.28,0.7000000000000001,258.68,-0.01334959827363491,0.00941673293709755,-0.052536431699991226,-0.044816866517066956,-15.971426010131836,1.4247506856918335,-0.1568160057067871,0.5700000000000001,-0.16,-0.17,255.56
1667404192.79906702,438954585,1,-0.28,0.7000000000000001,258.69,-0.013149005360901356,0.013475884683430195,-0.05467044934630394,-0.0395088791847229,-15.970328330993652,1.4250813722610474,-0.15813520550727844,0.5700000000000001,-0.16,-0.17,255.56
1667404192.83909798,438994616,1,-0.29,0.6900000000000001,258.7,-0.00908344890922308,0.010423121973872185,-0.05424174666404724,-0.0340440459549427,-15.968840599060059,1.4254118204116821,-0.1592702567577362,0.5700000000000001,-0.16,-0.17,255.56
1667404192.87909389,439034612,1,-0.3,0.7000000000000001,258.7,-0.010270497761666775,0.015315080992877483,-0.05336568132042885,-0.02908678539097309,-15.967981338500977,1.4258278608322144,-0.16054870188236237,0.5700000000000001,-0.16,-0.17,255.56
1667404192.89906788,439054586,1,-0.3,0.7000000000000001,258.69,-0.0084646912291646,0.013415135443210602,-0.05258902162313461,-0.027165906503796577,-15.967764854431152,1.4260694980621338,-0.1613607555627823,0.5700000000000001,-0.16,-0.17,255.56
1667404192.91910386,439074622,1,-0.3,0.7000000000000001,258.69,-0.01024376880377531,0.015430047176778316,-0.053038809448480606,-0.02716534212231636,-15.967194557189941,1.4262696504592896,-0.16198261082172394,0.5700000000000001,-0.16,-0.17,255.56
1667404192.95904303,439114561,1,-0.29,0.7000000000000001,258.67,-0.009926426224410534,0.013750948011875153,-0.05197075381875038,-0.026103466749191284,-15.966595649719238,1.4267843961715698,-0.1632407158613205,0.5700000000000001,-0.16,-0.17,255.56
1667404192.99908185,439154600,1,-0.28,0.7000000000000001,258.63,-0.010992164723575115,0.014979103580117226,-0.051942333579063416,-0.028647903352975845,-15.966621398925781,1.4279000759124756,-0.16491232812404633,0.5700000000000001,-0.16,-0.17,255.56
1667404193.03906894,439194587,1,-0.29,0.7000000000000001,258.63,-0.010031618177890778,0.011025871150195599,-0.050799425691366196,-0.03262966498732567,-15.966638565063477,1.4291378259658813,-0.1664057970046997,0.5700000000000001,-0.16,-0.17,255.56
1667404193.07909083,439234609,1,-0.29,0.6900000000000001,258.65,-0.011873291805386543,0.009392441250383854,-0.048505645245313644,-0.032467808574438095,-15.966809272766113,1.4299708604812622,-0.16781848669052124,0.5700000000000001,-0.16,-0.17,255.56
1667404193.09907699,439254595,1,-0.29,0.68,258.65,-0.010969555005431175,0.010866118595004082,-0.05055834725499153,-0.03500622510910034,-15.96695327758789,1.4302947521209717,-0.16868361830711365,0.5700000000000001,-0.16,-0.17,255.56
1667404193.11911988,439274638,1,-0.28,0.67,258.65,-0.014680296182632446,0.010194951668381691,-0.04957530274987221,-0.0345015712082386,-15.967076301574707,1.4307550191879272,-0.1693480908870697,0.5700000000000001,-0.16,-0.17,255.56
1667404193.15908289,439314601,1,-0.25,0.65,258.67,-0.01589694805443287,0.004996090196073055,-0.049937523901462555,-0.03327864035964012,-15.967344284057617,1.4313929080963135,-0.17024198174476624,0.5700000000000001,-0.16,-0.17,255.56
1667404193.19903684,439354555,1,-0.25,0.64,258.63,-0.01893750950694084,0.015972359105944633,-0.05129414424300194,-0.02406502142548561,-15.967109680175781,1.4319660663604736,-0.17054446041584015,0.5700000000000001,-0.16,-0.17,255.56
1667404193.23904300,439394561,1,-0.25,0.64,258.6,-0.009669167920947075,0.01833975315093994,-0.04701496660709381,-0.011630849912762642,-15.966856956481934,1.4328058958053589,-0.17061182856559753,0.5700000000000001,-0.16,-0.16,255.56
1667404193.27907300,439434591,1,-0.28,0.66,258.53000000000003,-0.00666299881413579,0.017035018652677536,-0.043861839920282364,-0.003636582987383008,-15.966391563415527,1.4337797164916992,-0.17112137377262115,0.5700000000000001,-0.16,-0.16,255.56
1667404193.29908895,439454607,1,-0.3,0.65,258.52,-0.025516295805573463,0.01715864986181259,-0.052174799144268036,-0.011212019249796867,-15.966554641723633,1.4341678619384766,-0.1716749221086502,0.5700000000000001,-0.16,-0.16,255.56
1667404193.31908894,439474607,1,-0.26,0.65,258.5,-0.00440904451534152,0.02482355386018753,-0.04825631529092789,-0.007502433378249407,-15.966506958007812,1.434685230255127,-0.17183895409107208,0.5700000000000001,-0.16,-0.16,255.56
1667404193.35911393,439514632,1,-0.24,0.68,258.48,-0.02666378766298294,0.019971391186118126,-0.04588449373841286,-0.0070854187943041325,-15.966075897216797,1.4358668327331543,-0.17261366546154022,0.5700000000000001,-0.16,-0.16,255.56
1667404193.39911294,439554631,1,-0.24,0.66,258.49,-0.012604151852428913,0.0212290920317173,-0.04428878799080849,-0.012174326926469803,-15.966029167175293,1.4367128610610962,-0.1738443523645401,0.5700000000000001,-0.16,-0.16,255.56
1667404193.43905187,439594570,1,-0.22,0.67,258.49,-0.013224608264863491,0.006548023782670498,-0.04806707799434662,-0.02432815544307232,-15.965152740478516,1.4377995729446411,-0.17485810816287994,0.5700000000000001,-0.16,-0.16,255.56
1667404193.47906804,439634586,1,-0.27,0.66,258.45,-0.006924573332071304,0.01977161131799221,-0.040177129209041595,-0.019218653440475464,-15.965048789978027,1.4381542205810547,-0.17573769390583038,0.5700000000000001,-0.16,-0.16,255.56
1667404193.49909687,439654615,1,-0.27,0.65,258.43,-0.01258155982941389,0.023226942867040634,-0.04628877341747284,-0.025690121576189995,-15.964909553527832,1.4386944770812988,-0.1764020025730133,0.5700000000000001,-0.16,-0.16,255.56
1667404193.51909089,439674609,1,-0.26,0.65,258.41,-0.013243011198937893,0.01113218441605568,-0.0486253947019577,-0.02826538123190403,-15.96468734741211,1.4390521049499512,-0.17678894102573395,0.5700000000000001,-0.16,-0.16,255.56
1667404193.55909300,439714611,1,-0.28,0.65,258.35,-0.010421757586300373,0.021057402715086937,-0.03940708190202713,-0.019789626821875572,-15.964361190795898,1.439591646194458,-0.1777554154396057,0.5700000000000001,-0.16,-0.16,255.56
1667404193.59909987,439754618,1,-0.26,0.65,258.31,-0.022365359589457512,0.01735759899020195,-0.044167641550302505,-0.02333943545818329,-15.963808059692383,1.4405667781829834,-0.17864100635051727,0.5700000000000001,-0.16,-0.16,255.56
1667404193.63908100,439794599,1,-0.23,0.65,258.27,0.001379399560391903,0.026131797581911087,-0.049042679369449615,-0.027829626575112343,-15.962838172912598,1.4413807392120361,-0.17932428419589996,0.5700000000000001,-0.16,-0.16,255.56
1667404193.67903686,439834555,1,-0.23,0.67,258.25,-0.024266144260764122,0.020775683224201202,-0.05064903572201729,-0.028920507058501244,-15.962404251098633,1.4422372579574585,-0.18028824031352997,0.5700000000000001,-0.16,-0.16,255.56
1667404193.69905186,439854570,1,-0.26,0.66,258.24,-0.01252077054232359,0.019017748534679413,-0.04289798438549042,-0.02130303718149662,-15.962504386901855,1.442598819732666,-0.18097415566444397,0.5700000000000001,-0.16,-0.16,255.56
1667404193.71907187,439874590,1,-0.27,0.67,258.25,0.002381703583523631,0.021871274337172508,-0.04352499917149544,-0.022425604984164238,-15.961979866027832,1.442967176437378,-0.18140490353107452,0.5700000000000001,-0.16,-0.16,255.56
1667404193.75908995,439914608,1,-0.26,0.66,258.24,-0.02381751872599125,0.014823910780251026,-0.04694189503788948,-0.027653221040964127,-15.961413383483887,1.4435778856277466,-0.18253810703754425,0.5700000000000001,-0.16,-0.16,255.56
1667404193.79908395,439954602,1,-0.26,0.67,258.2,-0.010100089013576508,0.016463998705148697,-0.04514479637145996,-0.029110895469784737,-15.960607528686523,1.4440078735351562,-0.183865025639534,0.5700000000000001,-0.16,-0.16,255.56
1667404193.83910799,439994626,1,-0.25,0.65,258.16,-0.020698292180895805,0.007841171696782112,-0.051133591681718826,-0.039047952741384506,-15.959543228149414,1.4444942474365234,-0.1851073056459427,0.5700000000000001,-0.16,-0.16,255.56
1667404193.87907100,440034589,1,-0.25,0.65,258.1,-0.0015121864853426814,0.022280128672719002,-0.04373300448060036,-0.03381812572479248,-15.959030151367188,1.4448453187942505,-0.18644990026950836,0.5700000000000001,-0.16,-0.16,255.56
1667404193.89909697,440054615,1,-0.24,0.65,258.08,-0.0077330684289336205,0.02637864276766777,-0.042507827281951904,-0.033410582691431046,-15.95877456665039,1.445274829864502,-0.18716689944267273,0.5700000000000001,-0.16,-0.16,255.56
1667404193.91903806,440074556,1,-0.27,0.64,258.06,-0.014937108382582664,0.015128670260310173,-0.043047625571489334,-0.034752264618873596,-15.958383560180664,1.445625901222229,-0.18781203031539917,0.5700000000000001,-0.16,-0.16,255.56
1667404193.95907187,440114590,1,-0.26,0.65,258.03000000000003,-0.0057152812369167805,0.02649574540555477,-0.044357433915138245,-0.03691655024886131,-15.95792007446289,1.4460523128509521,-0.18912196159362793,0.5700000000000001,-0.16,-0.16,255.56
1667404193.99909091,440154609,1,-0.26,0.66,258.04,-0.004010495264083147,0.018416473641991615,-0.036837898194789886,-0.022090712562203407,-15.95710277557373,1.44703209400177,-0.18936730921268463,0.5700000000000001,-0.16,-0.16,255.56
1667404194.03913999,440194658,1,-0.27,0.65,258.02,-0.01718306355178356,0.020401880145072937,-0.03765340894460678,-0.013492394238710403,-15.956338882446289,1.4476444721221924,-0.18931250274181366,0.5700000000000001,-0.16,-0.15,255.56
1667404194.07909894,440234617,1,-0.25,0.65,258.0,9.818560647545382e-05,0.018426721915602684,-0.042866043746471405,-0.010636178776621819,-15.95577621459961,1.4485193490982056,-0.18962591886520386,0.5700000000000001,-0.16,-0.15,255.56
1667404194.09909701,440254615,1,-0.24,0.66,257.99,-0.018299918621778488,0.011598324403166771,-0.04502269998192787,-0.01028858870267868,-15.955706596374512,1.4487812519073486,-0.190050408244133,0.5700000000000001,-0.16,-0.15,255.56
1667404194.11907291,440274591,1,-0.24,0.66,257.97,-0.020134372636675835,0.020038215443491936,-0.039977822452783585,-0.0040340665727853775,-15.955612182617188,1.4490149021148682,-0.1901041716337204,0.5700000000000001,-0.16,-0.15,255.56
1667404194.15906596,440314584,1,-0.25,0.66,257.92,-0.0003266974235884845,0.017261875793337822,-0.03361460566520691,0.003217890625819564,-15.955029487609863,1.4497594833374023,-0.19042186439037323,0.5700000000000001,-0.16,-0.15,255.56
1667404194.19909906,440354617,1,-0.26,0.64,257.88,-0.010380025953054428,0.02336088940501213,-0.043093159794807434,0.0010861752089112997,-15.954691886901855,1.4497766494750977,-0.1897526979446411,0.5700000000000001,-0.16,-0.15,255.56
1667404194.23908806,440394606,1,-0.23,0.65,257.86,-0.004096602089703083,0.009280163794755936,-0.04322472959756851,0.008552838116884232,-15.953694343566895,1.450087070465088,-0.18866534531116486,0.5700000000000001,-0.16,-0.15,255.56
1667404194.27910900,440434627,1,-0.26,0.66,257.8,-0.010260967537760735,0.02421463280916214,-0.0319427028298378,0.02353934943675995,-15.953696250915527,1.450212836265564,-0.18835575878620148,0.5700000000000001,-0.16,-0.15,255.56
1667404194.29906297,440454581,1,-0.26,0.67,257.76,0.00777009129524231,0.028328686952590942,-0.04022488370537758,0.015124794095754623,-15.953536987304688,1.4507066011428833,-0.1885312795639038,0.5700000000000001,-0.16,-0.15,255.56
1667404194.31905103,440474569,1,-0.27,0.68,257.72,-0.0004252604558132589,0.015119814313948154,-0.028785068541765213,0.025339853018522263,-15.953078269958496,1.4509291648864746,-0.18818968534469604,0.5700000000000001,-0.16,-0.15,255.56
1667404194.35908103,440514599,1,-0.27,0.6900000000000001,257.67,0.0008627027273178101,0.031177489086985588,-0.034038711339235306,0.015970494598150253,-15.953006744384766,1.451315999031067,-0.18812978267669678,0.5700000000000001,-0.16,-0.15,255.56
1667404194.39906597,440554584,1,-0.28,0.7000000000000001,257.66,-0.005391324404627085,0.012196386232972145,-0.03515796363353729,0.006138044409453869,-15.952221870422363,1.452563762664795,-0.1887291818857193,0.5700000000000001,-0.16,-0.15,255.56
1667404194.43909287,440594611,1,-0.28,0.7000000000000001,257.67,-0.009573359042406082,0.024670029059052467,-0.035718970000743866,-0.005709560122340918,-15.95228099822998,1.4532575607299805,-0.18910375237464905,0.5700000000000001,-0.16,-0.15,255.56
1667404194.47908688,440634605,1,-0.27,0.71,257.71,-0.01016737800091505,0.007641548756510019,-0.032305069267749786,-0.009572170674800873,-15.952157020568848,1.4541298151016235,-0.18969430029392242,0.5700000000000001,-0.16,-0.15,255.56
1667404194.49904704,440654565,1,-0.26,0.7000000000000001,257.72,-0.01236637867987156,0.005087032914161682,-0.029743613675236702,-0.009611447341740131,-15.952298164367676,1.4542338848114014,-0.1901191622018814,0.5700000000000001,-0.16,-0.15,255.56
1667404194.51909590,440674614,1,-0.26,0.6900000000000001,257.72,-0.009076972492039204,0.017668122425675392,-0.030940545722842216,-0.01296918373554945,-15.952309608459473,1.4545239210128784,-0.19030486047267914,0.5700000000000001,-0.16,-0.15,255.56
1667404194.55904484,440714563,1,-0.27,0.68,257.7,-0.01027700025588274,0.003540383419021964,-0.031719621270895004,-0.022244742140173912,-15.952183723449707,1.4551184177398682,-0.19205622375011444,0.5700000000000001,-0.16,-0.15,255.56
1667404194.59903097,440754549,1,-0.28,0.68,257.66,-0.00035946036223322153,0.02413392998278141,-0.0307039562612772,-0.039494872093200684,-15.951162338256836,1.45542311668396,-0.19431179761886597,0.5700000000000001,-0.16,-0.15,255.56
1667404194.63907790,440794596,1,-0.29,0.68,257.59000000000003,-0.009503323584794998,0.011059751734137535,-0.03287401795387268,-0.05670878663659096,-15.950224876403809,1.4559916257858276,-0.19632509350776672,0.5700000000000001,-0.16,-0.15,255.56
1667404194.67909598,440834614,1,-0.28,0.6900000000000001,257.54,-0.009130652993917465,0.02980545535683632,-0.03193465247750282,-0.05323290452361107,-15.949620246887207,1.4567371606826782,-0.19716647267341614,0.5700000000000001,-0.16,-0.15,255.56
1667404194.69906306,440854581,1,-0.27,0.7000000000000001,257.53000000000003,-0.012571997009217739,0.019382594153285027,-0.029463032260537148,-0.046084675937891006,-15.949602127075195,1.4572038650512695,-0.1976369172334671,0.5700000000000001,-0.16,-0.15,255.56
1667404194.71906900,440874587,1,-0.26,0.7000000000000001,257.54,-0.004313834477216005,0.015858111903071404,-0.031198835000395775,-0.04297711327672005,-15.94930362701416,1.4574170112609863,-0.19799956679344177,0.5700000000000001,-0.16,-0.15,255.56
1667404194.75910497,440914623,1,-0.26,0.71,257.56,-0.011606905609369278,0.022111937403678894,-0.03179512917995453,-0.036706820130348206,-15.948640823364258,1.4583213329315186,-0.19950488209724426,0.5700000000000001,-0.16,-0.15,255.56
1667404194.79906893,440954587,1,-0.27,0.7000000000000001,257.59000000000003,-0.002611468080431223,0.013493611477315426,-0.03142550587654114,-0.0432797409594059,-15.947936058044434,1.4590240716934204,-0.20177917182445526,0.5700000000000001,-0.16,-0.15,255.56
1667404194.83905387,440994572,1,-0.28,0.7000000000000001,257.62,-0.0084834648296237,0.0115590188652277,-0.032289981842041016,-0.05307575687766075,-15.946879386901855,1.4599108695983887,-0.2036028355360031,0.5700000000000001,-0.16,-0.15,255.56
1667404194.87905884,441034577,1,-0.28,0.7000000000000001,257.63,-0.002229053294286132,0.015467461198568344,-0.031183753162622452,-0.04126523807644844,-15.946276664733887,1.4603991508483887,-0.20376978814601898,0.5700000000000001,-0.16,-0.15,255.56
1667404194.89903784,441054556,1,-0.28,0.6900000000000001,257.61,-0.00846057292073965,0.01704811118543148,-0.030562030151486397,-0.032109733670949936,-15.946127891540527,1.4607853889465332,-0.20406311750411987,0.5700000000000001,-0.16,-0.15,255.56
1667404194.91908693,441074605,1,-0.27,0.6900000000000001,257.59000000000003,-0.011696078814566135,0.010616723448038101,-0.030666213482618332,-0.024195292964577675,-15.94587230682373,1.4611173868179321,-0.20407812297344208,0.5700000000000001,-0.16,-0.15,255.56
1667404194.95909500,441114613,1,-0.27,0.6900000000000001,257.53000000000003,-0.006253008730709553,0.021632106974720955,-0.031033774837851524,-0.009435486048460007,-15.945568084716797,1.4618077278137207,-0.20376832783222198,0.5700000000000001,-0.16,-0.15,255.56
1667404194.99906087,441154579,1,-0.27,0.68,257.49,-0.004958880599588156,0.01493146363645792,-0.030169159173965454,0.0009290408925153315,-15.944826126098633,1.4622857570648193,-0.2042783796787262,0.5700000000000001,-0.16,-0.15,255.56
1667404195.03907299,441194591,1,-0.27,0.7000000000000001,257.49,-0.0016622861148789525,0.01962776854634285,-0.030590640380978584,-5.101309216115624e-05,-15.943761825561523,1.4627989530563354,-0.20337167382240295,0.5700000000000001,-0.16,-0.15,255.56
1667404195.07905197,441234570,1,-0.28,0.7000000000000001,257.51,-0.005674321670085192,0.01637500338256359,-0.028904590755701065,0.029339952394366264,-15.943178176879883,1.4632030725479126,-0.20039422810077667,0.5700000000000001,-0.16,-0.15,255.56
1667404195.09909391,441254612,1,-0.28,0.7000000000000001,257.53000000000003,-0.005391234066337347,0.018044844269752502,-0.0299846138805151,0.04504840075969696,-15.94306468963623,1.46351158618927,-0.19972027838230133,0.5700000000000001,-0.16,-0.15,255.56
1667404195.11908698,441274605,1,-0.28,0.7000000000000001,257.54,-0.006946315057575703,0.01157828513532877,-0.03001037798821926,0.05863386020064354,-15.942764282226562,1.4636833667755127,-0.19793380796909332,0.5700000000000001,-0.16,-0.15,255.56
1667404195.15908289,441314601,1,-0.27,0.6900000000000001,257.56,-0.00880384910851717,0.0162010807543993,-0.028455333784222603,0.08110593259334564,-15.942551612854004,1.4639865159988403,-0.194756418466568,0.5700000000000001,-0.16,-0.15,255.56
1667404195.19910097,441354619,1,-0.26,0.6900000000000001,257.55,-0.007286520674824715,0.009764696471393108,-0.028059614822268486,0.09720116853713989,-15.942022323608398,1.4646981954574585,-0.19186796247959137,0.5700000000000001,-0.16,-0.15,255.56
1667404195.23905206,441394570,1,-0.26,0.6900000000000001,257.53000000000003,-0.004456201568245888,0.01699131354689598,-0.02715144120156765,0.09889678657054901,-15.941337585449219,1.4654910564422607,-0.18782766163349152,0.5700000000000001,-0.16,-0.15,255.56
1667404195.27908087,441434599,1,-0.27,0.6900000000000001,257.49,-0.005232139490544796,0.012934678234159946,-0.026138361543416977,0.10547364503145218,-15.940893173217773,1.4661110639572144,-0.18432962894439697,0.5700000000000001,-0.16,-0.15,255.56
1667404195.29909706,441454615,1,-0.28,0.6900000000000001,257.48,-0.0050999377854168415,0.018642505630850792,-0.026946114376187325,0.10600076615810394,-15.940810203552246,1.4664652347564697,-0.1834592968225479,0.5700000000000001,-0.16,-0.15,255.56
1667404195.31905603,441474574,1,-0.28,0.7000000000000001,257.46,-0.004349663853645325,0.01509294006973505,-0.02524412050843239,0.10722067207098007,-15.940560340881348,1.4668893814086914,-0.18140316009521484,0.5700000000000001,-0.16,-0.15,255.56
1667404195.35908890,441514607,1,-0.27,0.7000000000000001,257.44,-0.00896378979086876,0.01803133450448513,-0.024880314245820045,0.10234583914279938,-15.940385818481445,1.4675205945968628,-0.17841531336307526,0.5700000000000001,-0.16,-0.15,255.56
1667404195.39908791,441554606,1,-0.26,0.7000000000000001,257.45,-0.00752263842150569,0.012180419638752937,-0.024155819788575172,0.0964515209197998,-15.939837455749512,1.467793583869934,-0.17569361627101898,0.56,-0.16,-0.15,255.56
1667404195.43909597,441594614,1,-0.26,0.7000000000000001,257.47,-0.005323505960404873,0.01856614090502262,-0.023993683978915215,0.0849514752626419,-15.939159393310547,1.4679023027420044,-0.17188207805156708,0.56,-0.16,-0.15,255.56
1667404195.47907400,441634592,1,-0.26,0.7000000000000001,257.49,-0.004398341756314039,0.010899845510721207,-0.02280784584581852,0.08632910251617432,-15.938676834106445,1.4681504964828491,-0.16854475438594818,0.5700000000000001,-0.16,-0.15,255.56
1667404195.49908400,441654602,1,-0.26,0.71,257.5,-0.005046844016760588,0.014876320958137512,-0.022619420662522316,0.08687889575958252,-15.938589096069336,1.4682985544204712,-0.16770008206367493,0.5700000000000001,-0.16,-0.15,255.56
1667404195.51903105,441674549,1,-0.27,0.71,257.5,-0.0035292773973196745,0.013493434526026249,-0.02197543904185295,0.08694440871477127,-15.938314437866211,1.4683928489685059,-0.16573145985603333,0.5700000000000001,-0.16,-0.15,255.56
1667404195.55906487,441714583,1,-0.27,0.7000000000000001,257.49,-0.008339779451489449,0.009741738438606262,-0.021040063351392746,0.0869523212313652,-15.938065528869629,1.4684816598892212,-0.16228990256786346,0.5700000000000001,-0.16,-0.15,255.56
1667404195.59909201,441754610,1,-0.27,0.7000000000000001,257.47,-0.007884588092565536,0.010220286436378956,-0.02097206562757492,0.08774375915527344,-15.937978744506836,1.468791127204895,-0.15937353670597076,0.5700000000000001,-0.16,-0.15,255.56
1667404195.63907599,441794594,1,-0.25,0.6900000000000001,257.44,-0.009143264032900333,0.011398177593946457,-0.01977352984249592,0.08219596743583679,-15.937928199768066,1.468951940536499,-0.15521764755249023,0.5700000000000001,-0.16,-0.15,255.56
1667404195.67909598,441834614,1,-0.25,0.6900000000000001,257.42,-0.006724568549543619,0.009542809799313545,-0.019561927765607834,0.0881950780749321,-15.937944412231445,1.4692481756210327,-0.1513882428407669,0.5700000000000001,-0.16,-0.15,255.56
1667404195.69908190,441854600,1,-0.26,0.6900000000000001,257.42,-0.007055314257740974,0.012516430579125881,-0.018932480365037918,0.0920177549123764,-15.938003540039062,1.4694081544876099,-0.15036463737487793,0.5700000000000001,-0.16,-0.15,255.56
1667404195.71907306,441874591,1,-0.26,0.6900000000000001,257.42,-0.0042874678038060665,0.013573983684182167,-0.01882709190249443,0.09379986673593521,-15.93797779083252,1.4695844650268555,-0.1481243371963501,0.5700000000000001,-0.16,-0.15,255.56
1667404195.75902987,441914548,1,-0.27,0.6900000000000001,257.44,-0.008396826684474945,0.012915193103253841,-0.017627151682972908,0.09633620083332062,-15.938033103942871,1.4699575901031494,-0.1444031000137329,0.5700000000000001,-0.16,-0.15,255.56
1667404195.79905701,441954575,1,-0.26,0.7000000000000001,257.47,-0.007506458554416895,0.012401488609611988,-0.017787782475352287,0.09414183348417282,-15.937904357910156,1.470566987991333,-0.1415768414735794,0.5700000000000001,-0.16,-0.15,255.56
1667404195.83908796,441994606,1,-0.26,0.7000000000000001,257.48,-0.011330859735608101,0.013203156180679798,-0.016583861783146858,0.08417274057865143,-15.937880516052246,1.471174716949463,-0.13801774382591248,0.5700000000000001,-0.16,-0.15,255.56
1667404195.87905002,442034568,1,-0.25,0.7000000000000001,257.47,-0.010931047610938549,0.010792361572384834,-0.016576051712036133,0.07569900155067444,-15.937952041625977,1.4716960191726685,-0.13549543917179108,0.5700000000000001,-0.16,-0.15,255.56
1667404195.89906502,442054583,1,-0.25,0.7000000000000001,257.46,-0.011467047035694122,0.010783624835312366,-0.016106870025396347,0.07206922024488449,-15.93809700012207,1.4719293117523193,-0.1348412185907364,0.5700000000000001,-0.16,-0.15,255.56
1667404195.91906285,442074581,1,-0.25,0.7000000000000001,257.45,-0.005848324857652187,0.009621849283576012,-0.01611422933638096,0.06749749183654785,-15.938116073608398,1.4721646308898926,-0.13336507976055145,0.5700000000000001,-0.16,-0.15,255.56
1667404195.95906806,442114586,1,-0.27,0.6900000000000001,257.42,-0.010422728955745697,0.010857172310352325,-0.01489967666566372,0.061080899089574814,-15.938226699829102,1.4725847244262695,-0.13102814555168152,0.5700000000000001,-0.16,-0.15,255.56
1667404195.99909186,442154610,1,-0.27,0.6900000000000001,257.4,-0.005801368970423937,0.011522367596626282,-0.01541146170347929,0.05627294257283211,-15.93800163269043,1.4727551937103271,-0.12890535593032837,0.5700000000000001,-0.16,-0.15,255.56
1667404196.03908801,442194606,1,-0.27,0.6900000000000001,257.4,-0.010552719235420227,0.01262170821428299,-0.013309250585734844,0.05171884223818779,-15.93776798248291,1.4728647470474243,-0.1262175291776657,0.5700000000000001,-0.16,-0.15,255.56
1667404196.07908702,442234605,1,-0.26,0.6900000000000001,257.41,-0.0068392083048820496,0.0150375971570611,-0.01473062764853239,0.04665979743003845,-15.93765926361084,1.4731718301773071,-0.12433258444070816,0.5700000000000001,-0.16,-0.15,255.56
1667404196.09903002,442254548,1,-0.25,0.6900000000000001,257.42,-0.008614366874098778,0.013654178939759731,-0.012436787597835064,0.04711010307073593,-15.937718391418457,1.4733636379241943,-0.12387123703956604,0.5700000000000001,-0.16,-0.15,255.56
1667404196.11908793,442274606,1,-0.25,0.6900000000000001,257.43,-0.005092536099255085,0.013995052315294743,-0.013325361534953117,0.04385453462600708,-15.937663078308105,1.4734753370285034,-0.12275733053684235,0.56,-0.16,-0.15,255.56
1667404196.15908384,442314602,1,-0.26,0.6900000000000001,257.44,-0.006268415134400129,0.010909432545304298,-0.01181125734001398,0.04354969412088394,-15.937600135803223,1.4737181663513184,-0.12058086693286896,0.5700000000000001,-0.16,-0.15,255.56
1667404196.19905090,442354569,1,-0.26,0.7000000000000001,257.43,-0.005562013015151024,0.01058647409081459,-0.011935604736208916,0.0361444316804409,-15.937126159667969,1.4736772775650024,-0.12019161880016327,0.56,-0.16,-0.15,255.56
1667404196.23906898,442394587,1,-0.25,0.6900000000000001,257.41,-0.006753986235707998,0.006962232757359743,-0.014496509917080402,0.018181344494223595,-15.936562538146973,1.4734971523284912,-0.12021877616643906,0.56,-0.16,-0.15,255.56
1667404196.27908301,442434601,1,-0.25,0.68,257.39,-0.007564936298877001,0.007852964103221893,-0.01309792697429657,-0.005836051888763905,-15.936323165893555,1.4733598232269287,-0.12151885777711868,0.56,-0.16,-0.15,255.56
1667404196.29905391,442454572,1,-0.24,0.68,257.38,-0.007521261926740408,0.007777259219437838,-0.01447560265660286,-0.020128393545746803,-15.936312675476074,1.473438024520874,-0.12203802913427353,0.56,-0.16,-0.15,255.56
1667404196.31908393,442474602,1,-0.24,0.68,257.37,-0.0058158524334430695,0.006318443920463324,-0.012652651406824589,-0.02863263338804245,-15.936129570007324,1.473354697227478,-0.12278977781534195,0.56,-0.16,-0.15,255.56
1667404196.35908890,442514607,1,-0.24,0.68,257.37,-0.007531159091740847,0.010621128603816032,-0.016177475452423096,-0.0442204587161541,-15.935802459716797,1.4734734296798706,-0.12370573729276657,0.56,-0.16,-0.15,255.56
1667404196.39907002,442554588,1,-0.25,0.68,257.39,-0.00167650927323848,0.011147581040859222,-0.013098718598484993,-0.04788748547434807,-15.935206413269043,1.4738085269927979,-0.12511199712753296,0.56,-0.16,-0.15,255.56
1667404196.43903399,442594552,1,-0.25,0.6900000000000001,257.4,-0.004303785506635904,0.009117687121033669,-0.013522886671125889,-0.05168737471103668,-15.934548377990723,1.4741591215133667,-0.1263117790222168,0.56,-0.16,-0.15,255.56
1667404196.47906089,442634579,1,-0.25,0.7000000000000001,257.41,-0.005320419557392597,0.004608640912920237,-0.015528826974332333,-0.04365608096122742,-15.934112548828125,1.4744517803192139,-0.12647254765033722,0.56,-0.16,-0.15,255.56
1667404196.49905705,442654575,1,-0.24,0.6900000000000001,257.4,-0.007613345980644226,0.005693634506314993,-0.015423082746565342,-0.03666430711746216,-15.93408489227295,1.474537968635559,-0.1266389638185501,0.56,-0.16,-0.15,255.56
1667404196.51908684,442674605,1,-0.24,0.6900000000000001,257.4,-0.004151171073317528,0.009099802933633327,-0.01199690904468298,-0.026679186150431633,-15.933862686157227,1.4746659994125366,-0.12672053277492523,0.56,-0.16,-0.15,255.56
1667404196.55908203,442714600,1,-0.24,0.68,257.38,-0.005340092815458775,0.00375718018040061,-0.013725713826715946,-0.017849408090114594,-15.93349838256836,1.4749056100845337,-0.12722589075565338,0.56,-0.16,-0.15,255.56
1667404196.59908295,442754601,1,-0.24,0.6900000000000001,257.36,-0.0015298118814826012,0.0031862854957580566,-0.015322552062571049,-0.02407974563539028,-15.932990074157715,1.4752180576324463,-0.12889736890792847,0.56,-0.16,-0.15,255.56
1667404196.63907003,442794588,1,-0.24,0.6900000000000001,257.35,-0.0025694952346384525,0.008715640753507614,-0.01762496307492256,-0.03533843532204628,-15.932332992553711,1.4755239486694336,-0.13055667281150818,0.56,-0.16,-0.15,255.56
1667404196.67904091,442834559,1,-0.24,0.68,257.35,-0.0030563529580831528,0.0057244673371315,-0.017287641763687134,-0.03548026084899902,-15.931936264038086,1.4758774042129517,-0.13139468431472778,0.56,-0.16,-0.15,255.56
1667404196.69908690,442854605,1,-0.25,0.68,257.36,-0.0037926335353404284,0.008708780631422997,-0.018438614904880524,-0.03489583358168602,-15.93185806274414,1.476035714149475,-0.1317947804927826,0.56,-0.16,-0.15,255.56
1667404196.71907401,442874592,1,-0.24,0.6900000000000001,257.36,-0.004071533214300871,0.005422317422926426,-0.019309433177113533,-0.0336482897400856,-15.931646347045898,1.4762457609176636,-0.13227352499961853,0.56,-0.16,-0.15,255.56
1667404196.75908184,442914600,1,-0.24,0.6900000000000001,257.38,-0.002536674262955785,0.01140693761408329,-0.019863814115524292,-0.03036106750369072,-15.931333541870117,1.4766004085540771,-0.1334640234708786,0.56,-0.16,-0.15,255.56
1667404196.79907584,442954594,1,-0.24,0.68,257.38,-0.00257763615809381,0.006179438903927803,-0.01786748692393303,-0.037306949496269226,-15.930891990661621,1.4772608280181885,-0.1357787698507309,0.56,-0.16,-0.15,255.56
1667404196.83908892,442994607,1,-0.25,0.6900000000000001,257.37,-0.0018097339197993279,0.00770667614415288,-0.02161169983446598,-0.05173008516430855,-15.930330276489258,1.4780218601226807,-0.13800662755966187,0.56,-0.16,-0.15,255.56
1667404196.87905884,443034577,1,-0.25,0.6900000000000001,257.36,-0.0005717099411413074,0.011918514035642147,-0.02295186184346676,-0.050080426037311554,-15.930000305175781,1.478470802307129,-0.1389128565788269,0.5700000000000001,-0.16,-0.15,255.56
1667404196.89907002,443054588,1,-0.24,0.7000000000000001,257.35,-0.0010957475751638412,0.01570282131433487,-0.017927877604961395,-0.04088817164301872,-15.929900169372559,1.478821039199829,-0.13934773206710815,0.56,-0.16,-0.15,255.56
1667404196.91906095,443074579,1,-0.24,0.6900000000000001,257.33,-0.0034376366529613733,0.005194321274757385,-0.021079445257782936,-0.03940052166581154,-15.929734230041504,1.479156494140625,-0.13986775279045105,0.56,-0.16,-0.15,255.56
1667404196.95909595,443114614,1,-0.24,0.6900000000000001,257.32,-0.001480395207181573,0.011140470393002033,-0.02417079173028469,-0.03358893096446991,-15.929618835449219,1.4799394607543945,-0.14093464612960815,0.56,-0.16,-0.15,255.56
1667404196.99908590,443154604,1,-0.24,0.7000000000000001,257.31,-0.0004019319312646985,0.004394718445837498,-0.01990777626633644,-0.035018131136894226,-15.929789543151855,1.4808423519134521,-0.14325475692749023,0.5700000000000001,-0.16,-0.15,255.56
1667404197.03909898,443194617,1,-0.25,0.7000000000000001,257.32,-0.0027201802004128695,0.004673805087804794,-0.021712910383939743,-0.04656084626913071,-15.929932594299316,1.4820990562438965,-0.14581063389778137,0.5700000000000001,-0.16,-0.15,255.56
1667404197.07906389,443234582,1,-0.25,0.6900000000000001,257.33,-0.0016971025615930557,0.011586091481149197,-0.024051474407315254,-0.05218939855694771,-15.930108070373535,1.4830185174942017,-0.1474737823009491,0.5700000000000001,-0.16,-0.15,255.56
1667404197.09908795,443254606,1,-0.25,0.6900000000000001,257.33,-0.005138434004038572,0.0052406624890863895,-0.024000778794288635,-0.05181016027927399,-15.93021297454834,1.48337984085083,-0.1482050120830536,0.56,-0.16,-0.15,255.56
1667404197.11903000,443274548,1,-0.25,0.6900000000000001,257.33,-0.005589463748037815,0.0037448471412062645,-0.025349080562591553,-0.05215177312493324,-15.930400848388672,1.4838330745697021,-0.14913561940193176,0.5700000000000001,-0.16,-0.15,255.56
1667404197.15905786,443314576,1,-0.25,0.7000000000000001,257.32,-0.003425135277211666,0.013077341951429844,-0.023912934586405754,-0.041739027947187424,-15.930676460266113,1.4848190546035767,-0.14953234791755676,0.56,-0.16,-0.15,255.56
1667404197.19908285,443354601,1,-0.25,0.6900000000000001,257.31,-0.004501033574342728,0.0090919965878129,-0.025247832760214806,-0.03451356291770935,-15.931028366088867,1.4858171939849854,-0.15129119157791138,0.5700000000000001,-0.16,-0.15,255.56
1667404197.23909402,443394612,1,-0.25,0.7000000000000001,257.28000000000003,-0.004657108802348375,0.0088168540969491,-0.026479503139853477,-0.036602992564439774,-15.931445121765137,1.4869645833969116,-0.15313930809497833,0.5700000000000001,-0.16,-0.15,255.56
1667404197.27908993,443434608,1,-0.25,0.71,257.27,-0.004187561571598053,0.012839761562645435,-0.029138723388314247,-0.03807615116238594,-15.931818008422852,1.487887978553772,-0.15436427295207977,0.5700000000000001,-0.16,-0.15,255.56
1667404197.29908800,443454606,1,-0.26,0.71,257.27,-0.005627015605568886,0.0091059235855937,-0.027954846620559692,-0.03569057583808899,-15.931986808776855,1.488261342048645,-0.15497294068336487,0.5700000000000001,-0.16,-0.15,255.56
1667404197.31906986,443474588,1,-0.26,0.7000000000000001,257.26,-0.005978301167488098,0.010872089304029942,-0.029157821089029312,-0.03563226759433746,-15.932246208190918,1.4887259006500244,-0.15563324093818665,0.5700000000000001,-0.16,-0.15,255.56
1667404197.35904098,443514559,1,-0.25,0.7000000000000001,257.27,-0.00729413004592061,0.009095077402889729,-0.026497792452573776,-0.02927231602370739,-15.932636260986328,1.489424228668213,-0.15654748678207397,0.5700000000000001,-0.16,-0.15,255.56
1667404197.39906096,443554579,1,-0.25,0.7000000000000001,257.28000000000003,-0.006969466805458069,0.010670456103980541,-0.02875133976340294,-0.025407100096344948,-15.932930946350098,1.4897196292877197,-0.1574040949344635,0.5700000000000001,-0.16,-0.15,255.56
1667404197.43908405,443594602,1,-0.25,0.6900000000000001,257.28000000000003,-0.006436240393668413,0.011067469604313374,-0.02981586568057537,-0.022511957213282585,-15.933218002319336,1.4900797605514526,-0.15818637609481812,0.5700000000000001,-0.16,-0.15,255.56
1667404197.47907686,443634595,1,-0.25,0.6900000000000001,257.27,-0.005913472734391689,0.011033627204596996,-0.03149478882551193,-0.020207133144140244,-15.93348217010498,1.490485668182373,-0.1588677316904068,0.5700000000000001,-0.16,-0.15,255.56
1667404197.49905801,443654576,1,-0.25,0.6900000000000001,257.26,-0.005630169995129108,0.011658593080937862,-0.029756559059023857,-0.016933273524045944,-15.933619499206543,1.4906775951385498,-0.1593281328678131,0.5700000000000001,-0.16,-0.15,255.56
1667404197.51907086,443674589,1,-0.26,0.7000000000000001,257.25,-0.006270234938710928,0.011583229526877403,-0.028956592082977295,-0.015150804072618484,-15.933778762817383,1.4908616542816162,-0.1596594750881195,0.5700000000000001,-0.16,-0.15,255.56
1667404197.55906105,443714579,1,-0.25,0.71,257.23,-0.006088955793529749,0.012372652068734169,-0.0298233050853014,-0.013469167985022068,-15.933952331542969,1.491095781326294,-0.16006211936473846,0.5700000000000001,-0.16,-0.15,255.56
1667404197.59906197,443754580,1,-0.24,0.7000000000000001,257.22,-0.007174805272370577,0.008948949165642262,-0.025791073217988014,-0.0064749461598694324,-15.933905601501465,1.491131067276001,-0.1605970412492752,0.5700000000000001,-0.16,-0.15,255.56
1667404197.63904285,443794561,1,-0.25,0.7000000000000001,257.21,-0.006178117822855711,0.010364662855863571,-0.029817581176757812,-0.010175729170441628,-15.933822631835938,1.4908767938613892,-0.16086409986019135,0.56,-0.16,-0.15,255.56
1667404197.67908883,443834607,1,-0.25,0.71,257.22,-0.005785266403108835,0.006285850889980793,-0.02922743931412697,-0.005872194655239582,-15.933871269226074,1.4906936883926392,-0.1609734445810318,0.5700000000000001,-0.16,-0.15,255.56
1667404197.69905400,443854572,1,-0.25,0.7000000000000001,257.22,-0.0049431780353188515,0.007944529876112938,-0.02843918837606907,-0.0033191062975674868,-15.933913230895996,1.490677833557129,-0.16123388707637787,0.56,-0.16,-0.15,255.56
1667404197.71913099,443874649,1,-0.25,0.6900000000000001,257.23,-0.005123993381857872,0.008048567920923233,-0.028141960501670837,-0.0017811423167586327,-15.93388557434082,1.4905750751495361,-0.16122722625732422,0.56,-0.16,-0.15,255.56
1667404197.75909591,443914614,1,-0.25,0.68,257.24,-0.005811657756567001,0.005406834650784731,-0.027670646086335182,0.00348682701587677,-15.933675765991211,1.4903526306152344,-0.16083337366580963,0.56,-0.16,-0.15,255.56
1667404197.79903889,443954557,1,-0.24,0.6900000000000001,257.23,-0.006138695403933525,0.004772409331053495,-0.027443354949355125,0.011375587433576584,-15.932977676391602,1.4900760650634766,-0.16043402254581451,0.56,-0.16,-0.15,255.56
1667404197.83906388,443994582,1,-0.24,0.6900000000000001,257.22,-0.0036866937298327684,0.008214181289076805,-0.026502953842282295,0.015321272425353527,-15.932085990905762,1.4897397756576538,-0.15913181006908417,0.56,-0.16,-0.15,255.56
1667404197.87907791,444034596,1,-0.23,0.68,257.21,-0.003433773759752512,0.004840740468353033,-0.025403372943401337,0.032000720500946045,-15.931499481201172,1.4895776510238647,-0.15718448162078857,0.56,-0.16,-0.15,255.56
1667404197.89908504,444054603,1,-0.23,0.6900000000000001,257.21,-0.003135340753942728,0.004012983292341232,-0.026062263175845146,0.03968486934900284,-15.9313383102417,1.4895246028900146,-0.15679669380187988,0.56,-0.16,-0.15,255.56
1667404197.91908383,444074602,1,-0.24,0.6900000000000001,257.2,-0.0022941906936466694,0.003430524840950966,-0.026190059259533882,0.04589812457561493,-15.930962562561035,1.4893368482589722,-0.15560142695903778,0.56,-0.16,-0.15,255.56
1667404197.95909095,444114609,1,-0.24,0.6900000000000001,257.2,-0.0020373461302369833,0.0048818280920386314,-0.025131044909358025,0.05279981344938278,-15.930451393127441,1.4891277551651,-0.154274582862854,0.56,-0.16,-0.15,255.56
1667404197.99907398,444154592,1,-0.24,0.68,257.21,-0.002359184669330716,0.0034949607215821743,-0.02466704323887825,0.05806757137179375,-15.929482460021973,1.4893267154693604,-0.15216390788555145,0.56,-0.16,-0.15,255.56
1667404198.03906989,444194588,1,-0.23,0.6900000000000001,257.22,-0.0024207832757383585,0.00033565404010005295,-0.024545686319470406,0.06000895798206329,-15.928359985351562,1.489392638206482,-0.14937855303287506,0.56,-0.16,-0.15,255.56
1667404198.07903504,444234553,1,-0.23,0.6900000000000001,257.23,-0.0010619871318340302,0.001800787402316928,-0.022419754415750504,0.06309518963098526,-15.927620887756348,1.4894351959228516,-0.14754831790924072,0.56,-0.16,-0.15,255.56
1667404198.09906602,444254584,1,-0.23,0.68,257.23,-0.0007765796617604792,0.002206904347985983,-0.022057129070162773,0.06236748397350311,-15.927387237548828,1.4894685745239258,-0.14716307818889618,0.56,-0.16,-0.15,255.56
1667404198.11908102,444274599,1,-0.23,0.68,257.23,-1.3498628504748922e-05,0.0027344548143446445,-0.021621081978082657,0.06076655164361,-15.926918983459473,1.4895076751708984,-0.14600619673728943,0.56,-0.16,-0.15,255.56
