timestamp,TimeUS,C,Q1,Q2,Q3,Q4
1667404189.79904890,435954567,1,-0.6360911130905151,-0.0029964731074869633,-0.006057763006538153,0.7715843319892883
1667404189.83904290,435994561,1,-0.6360611915588379,-0.002982218749821186,-0.006046290043741465,0.7716091275215149
1667404189.87909198,436034610,1,-0.6360397338867188,-0.002999222604557872,-0.006033600773662329,0.771626889705658
1667404189.89903688,436054555,1,-0.6360369324684143,-0.0030076957773417234,-0.006019106600433588,0.771629273891449
1667404189.91910291,436074621,1,-0.6360326409339905,-0.003016250440850854,-0.0060103340074419975,0.7716328501701355
1667404189.95912099,436114639,1,-0.6360238790512085,-0.0030301446095108986,-0.00601178640499711,0.7716400027275085
1667404189.99903488,436154553,1,-0.636018693447113,-0.0030481412541121244,-0.006019323132932186,0.771644115447998
1667404190.03906083,436194579,1,-0.636009156703949,-0.0030456609092652798,-0.006017087958753109,0.7716520428657532
1667404190.07909083,436234609,1,-0.6359758973121643,-0.0030370501335710287,-0.006014785263687372,0.7716795206069946
1667404190.09905696,436254575,1,-0.6359625458717346,-0.0030387744773179293,-0.006000672932714224,0.7716906070709229
1667404190.11908698,436274605,1,-0.6359479427337646,-0.003045863239094615,-0.006023856811225414,0.7717024087905884
1667404190.15910602,436314624,1,-0.6359213590621948,-0.0030365323182195425,-0.006011912599205971,0.7717244625091553
1667404190.19908595,436354604,1,-0.6359027028083801,-0.003037009621039033,-0.00600813003256917,0.7717398405075073
1667404190.23906398,436394582,1,-0.6358864903450012,-0.003037300193682313,-0.005996762774884701,0.7717533111572266
1667404190.27905989,436434578,1,-0.6358444094657898,-0.003034830093383789,-0.006013860460370779,0.7717878818511963
1667404190.29905987,436454578,1,-0.6358230113983154,-0.0030409598257392645,-0.006006627809256315,0.7718055248260498
1667404190.31908584,436474604,1,-0.6358023881912231,-0.003027369501069188,-0.005998685490339994,0.7718226313591003
1667404190.35908389,436514602,1,-0.6357554197311401,-0.0030180567409843206,-0.005997012369334698,0.7718613743782043
1667404190.39909792,436554616,1,-0.6357146501541138,-0.0030132061801850796,-0.006003723479807377,0.7718949317932129
1667404190.43908000,436594598,1,-0.6356924772262573,-0.0030069458298385143,-0.006016240920871496,0.7719131112098694
1667404190.47903705,436634555,1,-0.6356762647628784,-0.003012213157489896,-0.006020818836987019,0.7719264030456543
1667404190.49911499,436654633,1,-0.6356644630432129,-0.0030123477336019278,-0.006013284903019667,0.7719361782073975
1667404190.51905894,436674577,1,-0.6356542110443115,-0.003022379009053111,-0.006026492454111576,0.7719444632530212
1667404190.55909491,436714613,1,-0.6356152296066284,-0.0030107912607491016,-0.005993947386741638,0.7719768285751343
1667404190.59909296,436754611,1,-0.635543704032898,-0.0030101840384304523,-0.005987582728266716,0.7720357775688171
1667404190.63907290,436794591,1,-0.6354762315750122,-0.002999065211042762,-0.005964780226349831,0.7720915675163269
1667404190.67906189,436834580,1,-0.6353994011878967,-0.0029862832743674517,-0.005981068592518568,0.7721547484397888
1667404190.69908285,436854601,1,-0.635356068611145,-0.002997994888573885,-0.005969810299575329,0.7721903920173645
1667404190.71905994,436874578,1,-0.6353278756141663,-0.003000779077410698,-0.005964797921478748,0.7722136378288269
1667404190.75909090,436914609,1,-0.6352594494819641,-0.003001077566295862,-0.005964267533272505,0.7722699046134949
1667404190.79908490,436954603,1,-0.6351956725120544,-0.00298631121404469,-0.005961437243968248,0.7723224759101868
1667404190.83909798,436994616,1,-0.6351375579833984,-0.002981428289785981,-0.00595045555382967,0.7723703980445862
1667404190.87904406,437034562,1,-0.6350716948509216,-0.00297758262604475,-0.0059584337286651134,0.7724244594573975
1667404190.89908695,437054605,1,-0.635054349899292,-0.0029688654467463493,-0.005967871285974979,0.7724387049674988
1667404190.91903806,437074556,1,-0.6350414752960205,-0.0029655792750418186,-0.005974419880658388,0.772449254989624
1667404190.95906186,437114580,1,-0.6350077986717224,-0.002972597489133477,-0.005984162911772728,0.772476851940155
1667404190.99908900,437154607,1,-0.634972095489502,-0.0029848432168364525,-0.005991014651954174,0.772506058216095
1667404191.03909087,437194609,1,-0.6349385976791382,-0.002966733183711767,-0.005984282121062279,0.7725337147712708
1667404191.07909894,437234617,1,-0.6349253058433533,-0.0029625119641423225,-0.0059825824573636055,0.7725446820259094
1667404191.09904599,437254564,1,-0.6349133849143982,-0.002959323115646839,-0.005993536673486233,0.7725543975830078
1667404191.11907506,437274593,1,-0.6349078416824341,-0.002976191695779562,-0.0059957355260849,0.772558867931366
1667404191.15903091,437314549,1,-0.6348825693130493,-0.00297569390386343,-0.005997270345687866,0.7725796103477478
1667404191.19905901,437354577,1,-0.6348676681518555,-0.0029872963204979897,-0.00600450811907649,0.772591769695282
1667404191.23909903,437394617,1,-0.6348423957824707,-0.0029795649461448193,-0.0060200439766049385,0.772612452507019
1667404191.27907085,437434589,1,-0.6348093748092651,-0.002987947780638933,-0.006032510194927454,0.7726394534111023
1667404191.29906297,437454581,1,-0.6347963213920593,-0.002997790463268757,-0.006033033132553101,0.7726501822471619
1667404191.31911397,437474632,1,-0.6347838044166565,-0.0030060596764087677,-0.006042079534381628,0.7726603150367737
1667404191.35907197,437514590,1,-0.6347506642341614,-0.003003844292834401,-0.00602740840986371,0.7726876735687256
1667404191.39903188,437554550,1,-0.6347067356109619,-0.0030176194850355387,-0.006016349419951439,0.7727237939834595
1667404191.43906188,437594580,1,-0.6346507668495178,-0.003046946367248893,-0.0060230642557144165,0.7727696299552917
1667404191.47908998,437634608,1,-0.6345875859260559,-0.003035182598978281,-0.00601169653236866,0.7728216052055359
1667404191.49903202,437654550,1,-0.6345748901367188,-0.003035240340977907,-0.006006429437547922,0.7728320360183716
1667404191.51909304,437674611,1,-0.6345503330230713,-0.0030324552208185196,-0.005986306816339493,0.7728524208068848
1667404191.55908489,437714603,1,-0.6345335841178894,-0.0030279182828962803,-0.005990219302475452,0.7728661298751831
1667404191.59905195,437754570,1,-0.6345174312591553,-0.0030340019147843122,-0.005992446560412645,0.7728793621063232
1667404191.63907504,437794593,1,-0.6344897150993347,-0.0030357057694345713,-0.005980327259749174,0.772902250289917
1667404191.67909598,437834614,1,-0.6344677209854126,-0.0030452152714133263,-0.005952640436589718,0.7729204297065735
1667404191.69905996,437854578,1,-0.6344680190086365,-0.003063363255932927,-0.005953030660748482,0.7729201316833496
1667404191.71908784,437874606,1,-0.6344560384750366,-0.003076486987993121,-0.005962495692074299,0.772929847240448
1667404191.75909090,437914609,1,-0.6344329118728638,-0.0030625059735029936,-0.005955043714493513,0.7729489207267761
1667404191.79909587,437954614,1,-0.6344329714775085,-0.003070702077820897,-0.005950169637799263,0.7729489207267761
1667404191.83904004,437994558,1,-0.6344169974327087,-0.0030661034397780895,-0.005960345733910799,0.7729619741439819
1667404191.87906599,438034584,1,-0.6344042420387268,-0.003058436093851924,-0.005958263762295246,0.7729724645614624
1667404191.89909601,438054614,1,-0.634414792060852,-0.0030645225197076797,-0.0059461393393576145,0.77296382188797
1667404191.91908884,438074607,1,-0.6344076991081238,-0.0030666931997984648,-0.005956388544291258,0.7729695439338684
1667404191.95909691,438114615,1,-0.6343945264816284,-0.0030518840067088604,-0.005947338882833719,0.7729805707931519
1667404191.99909401,438154612,1,-0.6343779563903809,-0.0030413407366722822,-0.005957469344139099,0.7729941010475159
1667404192.03906393,438194582,1,-0.6343684196472168,-0.0030375581700354815,-0.005970208439975977,0.7730017900466919
1667404192.07903790,438234556,1,-0.6343446373939514,-0.0030445267912000418,-0.0059467582032084465,0.7730215191841125
1667404192.09909296,438254611,1,-0.6343342661857605,-0.003046103287488222,-0.005936771631240845,0.7730300426483154
1667404192.11906195,438274580,1,-0.6343154907226562,-0.0030526509508490562,-0.005949253682047129,0.7730453610420227
1667404192.15908599,438314604,1,-0.6343165040016174,-0.0030588475055992603,-0.005938824266195297,0.7730445861816406
1667404192.19907284,438354591,1,-0.6343090534210205,-0.0030678422190248966,-0.005959190893918276,0.7730504870414734
1667404192.23909688,438394615,1,-0.6343069672584534,-0.0030623143538832664,-0.005963986739516258,0.7730522155761719
1667404192.27907991,438434598,1,-0.6342774629592896,-0.0030916761606931686,-0.005967330187559128,0.7730762958526611
1667404192.29909706,438454615,1,-0.6342586278915405,-0.003073207102715969,-0.005972189828753471,0.7730917930603027
1667404192.31906891,438474587,1,-0.6342369914054871,-0.0030556214042007923,-0.005942089017480612,0.7731098532676697
1667404192.35909891,438514617,1,-0.6341978907585144,-0.003088910598307848,-0.005937135312706232,0.7731418013572693
1667404192.39909291,438554611,1,-0.6341854333877563,-0.003081435337662697,-0.005897787865251303,0.7731523513793945
1667404192.43906188,438594580,1,-0.6341612935066223,-0.0030942303128540516,-0.005965774413198233,0.773171603679657
1667404192.47908401,438634602,1,-0.6341065168380737,-0.0031146607361733913,-0.0059823342598974705,0.7732163071632385
1667404192.49913502,438654653,1,-0.6340970396995544,-0.0030819103121757507,-0.005971458740532398,0.7732242345809937
1667404192.51907802,438674596,1,-0.6340807676315308,-0.003050598781555891,-0.0059119039215147495,0.7732381820678711
1667404192.55910301,438714621,1,-0.634052574634552,-0.0030672582797706127,-0.005850979592651129,0.7732617259025574
1667404192.59909391,438754612,1,-0.6340333819389343,-0.0030651637353003025,-0.005829074885696173,0.7732776403427124
1667404192.63909483,438794613,1,-0.6339643001556396,-0.003103114664554596,-0.00597228342667222,0.7733330130577087
1667404192.67910385,438834622,1,-0.6338852643966675,-0.0031218433286994696,-0.006003364454954863,0.7733975052833557
1667404192.69907284,438854591,1,-0.6338549852371216,-0.0031325332820415497,-0.0059745400212705135,0.7734224796295166
1667404192.71904683,438874565,1,-0.6338582038879395,-0.0031304408330470324,-0.0059265499003231525,0.7734202742576599
1667404192.75904489,438914563,1,-0.6339491009712219,-0.003199835540726781,-0.005862442310899496,0.773345947265625
1667404192.79906702,438954585,1,-0.6340500712394714,-0.0031841297168284655,-0.0058705550618469715,0.773263156414032
1667404192.83909798,438994616,1,-0.6340897083282471,-0.003058583475649357,-0.0058842008002102375,0.7732310891151428
1667404192.87909389,439034612,1,-0.634081244468689,-0.0030434199143201113,-0.005923377815634012,0.7732377648353577
1667404192.89906788,439054586,1,-0.6340455412864685,-0.003077675122767687,-0.005970490165054798,0.7732665538787842
1667404192.91910386,439074622,1,-0.6340090036392212,-0.003088221652433276,-0.005975363776087761,0.7732964158058167
1667404192.95904303,439114561,1,-0.6338582038879395,-0.003137808758765459,-0.00590041559189558,0.7734203934669495
1667404192.99908185,439154600,1,-0.6336134672164917,-0.003166672307997942,-0.005840961821377277,0.7736212611198425
1667404193.03906894,439194587,1,-0.6335973739624023,-0.0031488193199038506,-0.005859372206032276,0.7736343741416931
1667404193.07909083,439234609,1,-0.6337233185768127,-0.0030246723908931017,-0.0058448826894164085,0.7735317945480347
1667404193.09907699,439254595,1,-0.6337296366691589,-0.002959174569696188,-0.005770826246589422,0.7735274434089661
1667404193.11911988,439274638,1,-0.6337721347808838,-0.0029525167774409056,-0.005661185830831528,0.7734934687614441
1667404193.15908289,439314601,1,-0.6338707804679871,-0.0030390052124857903,-0.005311917047947645,0.7734147310256958
1667404193.19903684,439354555,1,-0.6336146593093872,-0.00296413479372859,-0.00533187435939908,0.7736247777938843
1667404193.23904300,439394561,1,-0.633383572101593,-0.002908275928348303,-0.005296424031257629,0.7738143801689148
1667404193.27907300,439434591,1,-0.6329414248466492,-0.002862336114048958,-0.0056048245169222355,0.7741740942001343
1667404193.29908895,439454607,1,-0.6328606605529785,-0.002765827812254429,-0.005657169967889786,0.7742400765419006
1667404193.31908894,439474607,1,-0.6327276229858398,-0.002980949357151985,-0.005443261004984379,0.7743495106697083
1667404193.35911393,439514632,1,-0.6325887441635132,-0.003268009517341852,-0.0054296464659273624,0.7744619250297546
1667404193.39911294,439554631,1,-0.6326479911804199,-0.0031612650491297245,-0.005329520907253027,0.7744146585464478
1667404193.43905187,439594570,1,-0.6326571106910706,-0.003290307242423296,-0.005279444623738527,0.7744070291519165
1667404193.47906804,439634586,1,-0.6324209570884705,-0.0029855254106223583,-0.005511399358510971,0.774599552154541
1667404193.49909687,439654615,1,-0.6322563886642456,-0.00293586659245193,-0.005497663281857967,0.7747341394424438
1667404193.51909089,439674609,1,-0.6321318745613098,-0.0029860283248126507,-0.005386002827435732,0.7748363614082336
1667404193.55909300,439714611,1,-0.6317119598388672,-0.0028735576197504997,-0.005525949411094189,0.7751781940460205
1667404193.59909987,439754618,1,-0.6314597725868225,-0.002964582061395049,-0.005414086859673262,0.7753840684890747
1667404193.63908100,439794599,1,-0.631210446357727,-0.0031743324361741543,-0.00518751610070467,0.7755877375602722
1667404193.67903686,439834555,1,-0.6310575008392334,-0.003250859444960952,-0.005327249877154827,0.775710940361023
1667404193.69905186,439854570,1,-0.6309539675712585,-0.002990465145558119,-0.005465988535434008,0.7757952809333801
1667404193.71907187,439874590,1,-0.6310180425643921,-0.0030247438699007034,-0.005592574831098318,0.7757421135902405
1667404193.75908995,439914608,1,-0.6309608221054077,-0.0030481654684990644,-0.005487396847456694,0.7757892608642578
1667404193.79908395,439954602,1,-0.6307022571563721,-0.0030677933245897293,-0.005502830259501934,0.7759993672370911
1667404193.83910799,439994626,1,-0.6304438710212708,-0.0030139281880110502,-0.005310964770615101,0.7762107849121094
1667404193.87907100,440034589,1,-0.6300261616706848,-0.003032081061974168,-0.0052979979664087296,0.7765499353408813
1667404193.89909697,440054615,1,-0.6299213171005249,-0.003049471415579319,-0.005263716448098421,0.7766351103782654
1667404193.91903806,440074556,1,-0.6297904849052429,-0.0028664125129580498,-0.005361561197787523,0.7767412662506104
1667404193.95907187,440114590,1,-0.629582405090332,-0.002968266373500228,-0.005377492867410183,0.7769094109535217
1667404193.99909091,440154609,1,-0.629595160484314,-0.0030752106104046106,-0.005466735456138849,0.7768980264663696
1667404194.03913999,440194658,1,-0.6295157670974731,-0.0029500399250537157,-0.005441316869109869,0.7769630551338196
1667404194.07909894,440234617,1,-0.629381000995636,-0.003026779042556882,-0.0053523448295891285,0.777072548866272
1667404194.09909701,440254615,1,-0.6292811036109924,-0.0032049568835645914,-0.0053140101954340935,0.777152955532074
1667404194.11907291,440274591,1,-0.6291753649711609,-0.003169746370986104,-0.0053133186884224415,0.7772387266159058
1667404194.15906596,440314584,1,-0.6288381814956665,-0.003108228789642453,-0.005402885843068361,0.7775112390518188
1667404194.19909906,440354617,1,-0.6285488605499268,-0.0029364849906414747,-0.005370709113776684,0.7777460217475891
1667404194.23908806,440394606,1,-0.6283711791038513,-0.0031804698519408703,-0.005211874842643738,0.7778897285461426
1667404194.27910900,440434627,1,-0.6279760003089905,-0.0030681102070957422,-0.005432784091681242,0.7782077193260193
1667404194.29906297,440454581,1,-0.6277204751968384,-0.0031099319458007812,-0.005517470650374889,0.7784130573272705
1667404194.31905103,440474569,1,-0.6274659633636475,-0.003154105506837368,-0.005636988207697868,0.7786172032356262
1667404194.35908103,440514599,1,-0.6271291971206665,-0.0032298173755407333,-0.005717173684388399,0.7788875699043274
1667404194.39906597,440554584,1,-0.6270437836647034,-0.003236861666664481,-0.005845162086188793,0.7789553999900818
1667404194.43909287,440594611,1,-0.627082347869873,-0.003246482228860259,-0.0058356081135571,0.7789243459701538
1667404194.47908688,440634605,1,-0.6273550987243652,-0.0033935890533030033,-0.0057701244950294495,0.7787045240402222
1667404194.49904704,440654565,1,-0.6274286508560181,-0.0033470590133219957,-0.005690011195838451,0.7786460518836975
1667404194.51909590,440674614,1,-0.627438485622406,-0.003272776957601309,-0.005608364008367062,0.7786390781402588
1667404194.55904484,440714563,1,-0.6273139119148254,-0.0031900545582175255,-0.005605389829725027,0.7787397503852844
1667404194.59903097,440754549,1,-0.6270315647125244,-0.003108210861682892,-0.005723803769797087,0.7789666056632996
1667404194.63907790,440794596,1,-0.6265541315078735,-0.0030666745733469725,-0.005757713690400124,0.7793505787849426
1667404194.67909598,440834614,1,-0.6262114644050598,-0.003166097914800048,-0.005756355356425047,0.7796255946159363
1667404194.69906306,440854581,1,-0.6261798739433289,-0.0032730537932366133,-0.005698671098798513,0.7796509265899658
1667404194.71906900,440874587,1,-0.6262012720108032,-0.003324572229757905,-0.005658759735524654,0.7796338200569153
1667404194.75910497,440914623,1,-0.626365602016449,-0.003415082348510623,-0.005684599746018648,0.7795012593269348
1667404194.79906893,440954587,1,-0.6265565752983093,-0.003333650529384613,-0.005726414266973734,0.7793477773666382
1667404194.83905387,440994572,1,-0.626801073551178,-0.0032454230822622776,-0.005799752194434404,0.7791509628295898
1667404194.87905884,441034577,1,-0.6268256902694702,-0.003220055950805545,-0.005759608466178179,0.7791315913200378
1667404194.89903784,441054556,1,-0.6267253756523132,-0.0032139949034899473,-0.005742949899286032,0.7792124152183533
1667404194.91908693,441074605,1,-0.6265740394592285,-0.0031954520381987095,-0.005680351983755827,0.7793346643447876
1667404194.95909500,441114613,1,-0.6261507272720337,-0.003208016511052847,-0.005623294040560722,0.7796751856803894
1667404194.99906087,441154579,1,-0.6258769631385803,-0.0032043070532381535,-0.005620892625302076,0.7798949480056763
1667404195.03907299,441194591,1,-0.6258584260940552,-0.003291509347036481,-0.005685936193913221,0.7799090147018433
1667404195.07905197,441234570,1,-0.6260113716125488,-0.003268805332481861,-0.005764861591160297,0.7797858119010925
1667404195.09909391,441254612,1,-0.6261329054832458,-0.0032468417193740606,-0.005801602266728878,0.7796880006790161
1667404195.11908698,441274605,1,-0.6262280941009521,-0.003249094355851412,-0.005810578819364309,0.7796114683151245
1667404195.15908289,441314601,1,-0.626347005367279,-0.0032565605361014605,-0.005685660522431135,0.779516875743866
1667404195.19910097,441354619,1,-0.62632817029953,-0.003298806957900524,-0.005599549505859613,0.7795324325561523
1667404195.23905206,441394570,1,-0.6261726021766663,-0.0032981003168970346,-0.005580991972237825,0.7796574831008911
1667404195.27908087,441434599,1,-0.6259150505065918,-0.003251232672482729,-0.005691838916391134,0.779863715171814
1667404195.29909706,441454615,1,-0.6257957816123962,-0.0032231712248176336,-0.005735034588724375,0.7799592018127441
1667404195.31905603,441474574,1,-0.625679612159729,-0.0032364411745220423,-0.0057753706350922585,0.7800520658493042
1667404195.35908890,441514607,1,-0.6255425214767456,-0.0032556240912526846,-0.005710062105208635,0.7801623940467834
1667404195.39908791,441554606,1,-0.6255806684494019,-0.0033499260898679495,-0.005663086660206318,0.7801317572593689
1667404195.43909597,441594614,1,-0.6257357597351074,-0.0034009816590696573,-0.005640682298690081,0.7800073027610779
1667404195.47907400,441634592,1,-0.6258934736251831,-0.0033868467435240746,-0.005675352178514004,0.7798805832862854
1667404195.49908400,441654602,1,-0.6259535551071167,-0.003363206284120679,-0.005718037951737642,0.779832124710083
1667404195.51903105,441674549,1,-0.6259730458259583,-0.0033275645691901445,-0.0057738046161830425,0.779816210269928
1667404195.55906487,441714583,1,-0.6259075999259949,-0.0033044801093637943,-0.005776653066277504,0.7798688411712646
1667404195.59909201,441754610,1,-0.625739574432373,-0.003310039173811674,-0.0056801545433700085,0.7800043225288391
1667404195.63907599,441794594,1,-0.6255441308021545,-0.003320374060422182,-0.005569364409893751,0.7801618576049805
1667404195.67909598,441834614,1,-0.6254309415817261,-0.003355758497491479,-0.005565911531448364,0.7802524566650391
1667404195.69908190,441854600,1,-0.6254215240478516,-0.003326049540191889,-0.005585179664194584,0.7802599668502808
1667404195.71907306,441874591,1,-0.6254405975341797,-0.0032922548707574606,-0.005655535962432623,0.7802443504333496
1667404195.75902987,441914548,1,-0.62557053565979,-0.0032712360844016075,-0.005682665854692459,0.7801401019096375
1667404195.79905701,441954575,1,-0.625723123550415,-0.0033389278687536716,-0.0056912158615887165,0.7800173163414001
1667404195.83908796,441994606,1,-0.6257943511009216,-0.0033939501736313105,-0.005669318605214357,0.7799600958824158
1667404195.87905002,442034568,1,-0.6257555484771729,-0.003422170877456665,-0.005609485320746899,0.7799915671348572
1667404195.89906502,442054583,1,-0.6256825923919678,-0.0034071567934006453,-0.00560394860804081,0.7800501585006714
1667404195.91906285,442074581,1,-0.6255855560302734,-0.0033846558071672916,-0.00561966747045517,0.780128002166748
1667404195.95906806,442114586,1,-0.6254062056541443,-0.003273406997323036,-0.00566658191382885,0.7802719473838806
1667404195.99909186,442154610,1,-0.6252813339233398,-0.00322978338226676,-0.00563450064510107,0.7803723812103271
1667404196.03908801,442194606,1,-0.6252631545066833,-0.003245655680075288,-0.005622152704745531,0.7803869843482971
1667404196.07908702,442234605,1,-0.6253727674484253,-0.003323544282466173,-0.005587551277130842,0.7802990674972534
1667404196.09903002,442254548,1,-0.6254260540008545,-0.003318552626296878,-0.005534866824746132,0.7802568078041077
1667404196.11908793,442274606,1,-0.6254817247390747,-0.003324987133964896,-0.005556930787861347,0.7802119255065918
1667404196.15908384,442314602,1,-0.6255511045455933,-0.0033358950167894363,-0.00558957876637578,0.7801560163497925
1667404196.19905090,442354569,1,-0.6254773139953613,-0.0033320109359920025,-0.005615543574094772,0.7802150249481201
1667404196.23906898,442394587,1,-0.6253369450569153,-0.0033378461375832558,-0.005576725583523512,0.7803277969360352
1667404196.27908301,442434601,1,-0.625182569026947,-0.003296980867162347,-0.00549674965441227,0.7804522514343262
1667404196.29905391,442454572,1,-0.6251175999641418,-0.003318164264783263,-0.005441809538751841,0.7805045247077942
1667404196.31908393,442474602,1,-0.6250907778739929,-0.0033037657849490643,-0.005414207000285387,0.7805262804031372
1667404196.35908890,442514607,1,-0.6250994801521301,-0.0033284276723861694,-0.005423072725534439,0.7805191278457642
1667404196.39907002,442554588,1,-0.6251869797706604,-0.003296484472230077,-0.005503054242581129,0.7804486155509949
1667404196.43903399,442594552,1,-0.625305712223053,-0.003306678030639887,-0.005511103197932243,0.7803534269332886
1667404196.47906089,442634579,1,-0.6253239512443542,-0.0033824765123426914,-0.005560492631047964,0.7803381681442261
1667404196.49905705,442654575,1,-0.6253032088279724,-0.003398472210392356,-0.005472893826663494,0.7803552746772766
1667404196.51908684,442674605,1,-0.625272274017334,-0.0033992668613791466,-0.005460155662149191,0.7803801894187927
1667404196.55908203,442714600,1,-0.6251574158668518,-0.003351933090016246,-0.005391784943640232,0.7804728746414185
1667404196.59908295,442754601,1,-0.6250097155570984,-0.003368828445672989,-0.005448868498206139,0.7805907130241394
1667404196.63907003,442794588,1,-0.6249465942382812,-0.0033421439584344625,-0.005468473769724369,0.7806411981582642
1667404196.67904091,442834559,1,-0.6249366402626038,-0.00330571411177516,-0.005438356194645166,0.7806494832038879
1667404196.69908690,442854605,1,-0.6249745488166809,-0.003290728898718953,-0.005452824756503105,0.7806191444396973
1667404196.71907401,442874592,1,-0.6250346302986145,-0.0033909783232957125,-0.0054887691512703896,0.780570387840271
1667404196.75908184,442914600,1,-0.625120222568512,-0.00339095713570714,-0.005486328154802322,0.7805018424987793
1667404196.79907584,442954594,1,-0.6251575946807861,-0.003343055257573724,-0.005437743850052357,0.780472457408905
1667404196.83908892,442994607,1,-0.6250954866409302,-0.0033514180686324835,-0.0054862708784639835,0.780521810054779
1667404196.87905884,443034577,1,-0.6249776482582092,-0.0033466159366071224,-0.005520546343177557,0.7806159853935242
1667404196.89907002,443054588,1,-0.6249054670333862,-0.0034412024542689323,-0.005537663120776415,0.7806732058525085
1667404196.91906095,443074579,1,-0.6248102784156799,-0.003399363486096263,-0.005488601513206959,0.7807499170303345
1667404196.95909595,443114614,1,-0.624704897403717,-0.0034066042862832546,-0.005477650556713343,0.7808342576026917
1667404196.99908590,443154604,1,-0.6246770620346069,-0.0034638845827430487,-0.00551181472837925,0.7808560132980347
1667404197.03909898,443194617,1,-0.624719500541687,-0.003391503356397152,-0.005560599267482758,0.7808220982551575
1667404197.07906389,443234582,1,-0.6247795224189758,-0.0033190047834068537,-0.0055180019699037075,0.7807746529579163
1667404197.09908795,443254606,1,-0.6247982978820801,-0.0033597133588045835,-0.00557272182777524,0.7807590961456299
1667404197.11903000,443274548,1,-0.624798059463501,-0.0033650395926088095,-0.005565282888710499,0.780759334564209
1667404197.15905786,443314576,1,-0.6247584819793701,-0.0034474290441721678,-0.005565059371292591,0.7807906270027161
1667404197.19908285,443354601,1,-0.6246335506439209,-0.0033359678927809,-0.005493644624948502,0.7808915376663208
1667404197.23909402,443394612,1,-0.6244685649871826,-0.003438163548707962,-0.005587301682680845,0.7810224294662476
1667404197.27908993,443434608,1,-0.6243654489517212,-0.0035062904935330153,-0.005658991634845734,0.7811039686203003
1667404197.29908800,443454606,1,-0.6243553161621094,-0.003434036625549197,-0.005651856306940317,0.7811124324798584
1667404197.31906986,443474588,1,-0.6243470311164856,-0.0033902062568813562,-0.005630997940897942,0.7811194658279419
1667404197.35904098,443514559,1,-0.6243879795074463,-0.0034055113792419434,-0.005611621309071779,0.781086802482605
1667404197.39906096,443554579,1,-0.6244339942932129,-0.0034493589773774147,-0.005596319679170847,0.781049907207489
1667404197.43908405,443594602,1,-0.624447226524353,-0.003353560110554099,-0.0055206841789186,0.7810403108596802
1667404197.47907686,443634595,1,-0.6243828535079956,-0.003335043555125594,-0.005502787884324789,0.7810919880867004
1667404197.49905801,443654576,1,-0.6243200898170471,-0.003329572733491659,-0.005540119018405676,0.7811418771743774
1667404197.51907086,443674589,1,-0.6242493391036987,-0.003392071695998311,-0.005614935420453548,0.7811976671218872
1667404197.55906105,443714579,1,-0.6241351366043091,-0.0034674087073653936,-0.0056092883460223675,0.7812885642051697
1667404197.59906197,443754580,1,-0.6240320205688477,-0.0034576645120978355,-0.005535146687179804,0.781371533870697
1667404197.63904285,443794561,1,-0.6239915490150452,-0.0034528339747339487,-0.005552086513489485,0.7814037799835205
1667404197.67908883,443834607,1,-0.6240324378013611,-0.0034588659182190895,-0.0056049092672765255,0.7813706994056702
1667404197.69905400,443854572,1,-0.6240557432174683,-0.0034044752828776836,-0.005556090734899044,0.7813526391983032
1667404197.71913099,443874649,1,-0.6240864396095276,-0.0033476329408586025,-0.005506268702447414,0.7813287377357483
1667404197.75909591,443914614,1,-0.624164342880249,-0.0033056254032999277,-0.005490017123520374,0.7812668085098267
1667404197.79903889,443954557,1,-0.6241412162780762,-0.0034108352847397327,-0.0055148485116660595,0.7812846302986145
1667404197.83906388,443994582,1,-0.6240711808204651,-0.003434616606682539,-0.005441073328256607,0.781341016292572
1667404197.87907791,444034596,1,-0.623989462852478,-0.0033845442812889814,-0.005375585053116083,0.7814069390296936
1667404197.89908504,444054603,1,-0.6239550709724426,-0.0034088522661477327,-0.005401792004704475,0.7814341187477112
1667404197.91908383,444074602,1,-0.6239151358604431,-0.003439677180722356,-0.0054502058774232864,0.7814655303955078
1667404197.95909095,444114609,1,-0.6239104270935059,-0.003437560051679611,-0.005449163727462292,0.7814693450927734
1667404197.99907398,444154592,1,-0.6239742040634155,-0.003365590702742338,-0.0053935288451612,0.7814190983772278
1667404198.03906989,444194588,1,-0.6240658760070801,-0.0034360489808022976,-0.005390218924731016,0.7813456058502197
1667404198.07903504,444234553,1,-0.6241217255592346,-0.0034835943952202797,-0.005368261132389307,0.7813009023666382
1667404198.09906602,444254584,1,-0.6241369843482971,-0.003432262921705842,-0.0053354245610535145,0.7812891602516174
1667404198.11908102,444274599,1,-0.6241304278373718,-0.0033885431475937366,-0.00529460096731782,0.7812948822975159
1667404198.15907001,444314588,1,-0.6240814328193665,-0.003394830971956253,-0.0053193639032542706,0.781333863735199
1667404198.19909286,444354611,1,-0.6240023374557495,-0.0034432499669492245,-0.005365782883018255,0.7813965082168579
1667404198.23905301,444394571,1,-0.6239423155784607,-0.0033941033761948347,-0.005274029448628426,0.7814452648162842
1667404198.27902985,444434548,1,-0.6239367127418518,-0.003425167640671134,-0.005197068676352501,0.781450092792511
1667404198.29910588,444454624,1,-0.6239563226699829,-0.0034417000133544207,-0.005193378776311874,0.7814343571662903
1667404198.31906390,444474582,1,-0.6239889860153198,-0.003454890800639987,-0.005226055160164833,0.7814080119132996
1667404198.35908389,444514602,1,-0.6240565776824951,-0.003425652626901865,-0.005214981734752655,0.7813542485237122
1667404198.39909506,444554613,1,-0.6240912079811096,-0.003367101540789008,-0.0051885307766497135,0.7813270092010498
1667404198.43908501,444594603,1,-0.62409508228302,-0.0034151296131312847,-0.005200478248298168,0.7813236117362976
1667404198.47905898,444634577,1,-0.6240177154541016,-0.00350851658731699,-0.005205186549574137,0.7813850045204163
1667404198.49907994,444654598,1,-0.6239684224128723,-0.0034857350401580334,-0.005150099750608206,0.7814248204231262
1667404198.51905799,444674576,1,-0.6239295601844788,-0.0034633895847946405,-0.005123516079038382,0.7814561128616333
1667404198.55909300,444714611,1,-0.6238658428192139,-0.0034679195377975702,-0.005115125328302383,0.7815070152282715
1667404198.59908605,444754604,1,-0.623835563659668,-0.003533968236297369,-0.0051896353252232075,0.7815303802490234
1667404198.63911700,444794635,1,-0.6238439679145813,-0.0034986636601388454,-0.0051630232483148575,0.7815240025520325
1667404198.67904902,444834567,1,-0.6238545775413513,-0.003493686206638813,-0.005127950571477413,0.7815157771110535
1667404198.69908190,444854600,1,-0.6238556504249573,-0.003532211994752288,-0.005148761905729771,0.7815146446228027
1667404198.71907687,444874595,1,-0.6238545775413513,-0.0035616764798760414,-0.005160072818398476,0.7815153002738953
1667404198.75905585,444914574,1,-0.6237795352935791,-0.0035761327017098665,-0.005148901138454676,0.7815752029418945
1667404198.79909086,444954609,1,-0.6236791610717773,-0.003522407729178667,-0.00512671610340476,0.7816557288169861
1667404198.83908606,444994604,1,-0.6235565543174744,-0.0035748700611293316,-0.005165961571037769,0.7817530035972595
1667404198.87910795,445034626,1,-0.6234294176101685,-0.0035836119204759598,-0.005162653513252735,0.7818543314933777
1667404198.89909387,445054612,1,-0.623386561870575,-0.0035656632389873266,-0.005133344326168299,0.7818887829780579
1667404198.91907597,445074594,1,-0.623374342918396,-0.0035462260711938143,-0.005098234862089157,0.7818989157676697
1667404198.95903087,445114549,1,-0.623353898525238,-0.003565778722986579,-0.005099910777062178,0.7819150686264038
1667404198.99905801,445154576,1,-0.62334805727005,-0.0035968602169305086,-0.005115573760122061,0.7819194793701172
1667404199.03908491,445194603,1,-0.6233398914337158,-0.003544576233252883,-0.0051153539679944515,0.7819262742996216
1667404199.07908106,445234599,1,-0.6233193874359131,-0.0035250571090728045,-0.00509756151586771,0.7819427847862244
1667404199.09905696,445254575,1,-0.6232986450195312,-0.0035282408352941275,-0.005110251251608133,0.7819592356681824
1667404199.11908793,445274606,1,-0.6232798099517822,-0.00355303636752069,-0.005118787754327059,0.7819740772247314
1667404199.15906787,445314586,1,-0.6232140064239502,-0.003568588988855481,-0.0051026842556893826,0.7820265889167786
1667404199.19904804,445354566,1,-0.6231951117515564,-0.0035332206171005964,-0.005065995268523693,0.7820420265197754
1667404199.23906398,445394582,1,-0.6232010126113892,-0.003550460794940591,-0.005102845374494791,0.7820369601249695
1667404199.27908492,445434603,1,-0.6232481002807617,-0.003561617573723197,-0.005122946109622717,0.7819992899894714
1667404199.29912090,445454639,1,-0.6232838034629822,-0.003553178394213319,-0.0051081799902021885,0.7819709777832031
1667404199.31904292,445474561,1,-0.6233270168304443,-0.00353056937456131,-0.005076582543551922,0.7819368243217468
1667404199.35906291,445514581,1,-0.6234049797058105,-0.0035733438562601805,-0.005077577196061611,0.7818744778633118
1667404199.39907002,445554588,1,-0.6234373450279236,-0.0036392593756318092,-0.005091839004307985,0.7818482518196106
1667404199.43906093,445594579,1,-0.6234337687492371,-0.0035890829749405384,-0.005078923888504505,0.7818514108657837
1667404199.47908998,445634608,1,-0.6233975291252136,-0.0035711931996047497,-0.005067616701126099,0.7818804383277893
1667404199.49906993,445654588,1,-0.6233734488487244,-0.003582393517717719,-0.005088846664875746,0.7818995118141174
1667404199.51909494,445674613,1,-0.6233717799186707,-0.003599725430831313,-0.005096554756164551,0.7819007039070129
1667404199.55909300,445714611,1,-0.6234006881713867,-0.0035956641659140587,-0.005087271798402071,0.7818777561187744
1667404199.59907484,445754593,1,-0.6234398484230042,-0.0035648075863718987,-0.005051429849117994,0.7818468809127808
1667404199.63907290,445794591,1,-0.6235185861587524,-0.0036096873227506876,-0.0050817131996154785,0.7817836999893188
1667404199.67905688,445834575,1,-0.6235663294792175,-0.0036366896238178015,-0.00511274766176939,0.7817452549934387
1667404199.69909406,445854612,1,-0.623575747013092,-0.0036372023168951273,-0.005104879382997751,0.7817378044128418
1667404199.71909189,445874610,1,-0.6235789060592651,-0.0036133364774286747,-0.005092994309961796,0.7817354798316956
1667404199.75908303,445914601,1,-0.6235509514808655,-0.0036270455457270145,-0.0051034316420555115,0.781757652759552
1667404199.79910088,445954619,1,-0.6235334277153015,-0.003635367611423135,-0.005088805686682463,0.7817716598510742
1667404199.83905292,445994571,1,-0.6234879493713379,-0.003609786042943597,-0.005069427192211151,0.7818081974983215
1667404199.87904596,446034564,1,-0.6234813332557678,-0.003590103704482317,-0.005062840413302183,0.7818136215209961
1667404199.89909601,446054614,1,-0.6235061883926392,-0.0036007112357765436,-0.00507325679063797,0.7817936539649963
1667404199.91905904,446074577,1,-0.6235184669494629,-0.0036074405070394278,-0.005095150787383318,0.7817836999893188
1667404199.95908689,446114605,1,-0.6235342621803284,-0.003597796428948641,-0.005081185605376959,0.7817712426185608
1667404199.99908900,446154607,1,-0.6235433220863342,-0.0035846636164933443,-0.0050796642899513245,0.7817640900611877
1667404200.03909588,446194614,1,-0.6235292553901672,-0.003618375165387988,-0.005077507812529802,0.781775176525116
1667404200.07907796,446234596,1,-0.6234952211380005,-0.0036127506755292416,-0.005085011478513479,0.7818022966384888
1667404200.09908986,446254608,1,-0.6234729290008545,-0.0036037657409906387,-0.005076092202216387,0.7818201184272766
1667404200.11904287,446274561,1,-0.6234526634216309,-0.0035882957745343447,-0.005076000466942787,0.7818363904953003
1667404200.15907884,446314597,1,-0.6234118342399597,-0.003594602458178997,-0.005098271183669567,0.7818687558174133
1667404200.19908690,446354605,1,-0.6234112977981567,-0.0036223353818058968,-0.00513817323371768,0.7818688154220581
1667404200.23908997,446394608,1,-0.6234351396560669,-0.003604891477152705,-0.005115548614412546,0.7818500399589539
1667404200.27906585,446434584,1,-0.6234678030014038,-0.0036296157632023096,-0.005108222831040621,0.7818239331245422
1667404200.29907990,446454598,1,-0.623497724533081,-0.0036385771818459034,-0.0051297470927238464,0.781799852848053
1667404200.31903791,446474556,1,-0.6235049366950989,-0.0036534294486045837,-0.0051499889232218266,0.7817938923835754
1667404200.35906005,446514578,1,-0.6235053539276123,-0.003665395313873887,-0.005168924108147621,0.7817934155464172
1667404200.39908504,446554603,1,-0.6234720945358276,-0.0036548085045069456,-0.0051712654531002045,0.7818199992179871
1667404200.43911195,446594630,1,-0.6234099268913269,-0.003682509297505021,-0.005176076665520668,0.7818693518638611
1667404200.47908998,446634608,1,-0.6233853101730347,-0.003683444345369935,-0.005179608706384897,0.7818889617919922
1667404200.49905992,446654578,1,-0.6233711838722229,-0.003674859879538417,-0.0051711141131818295,0.7819003462791443
1667404200.51909685,446674615,1,-0.6233646273612976,-0.0036540862638503313,-0.005168733187019825,0.7819056510925293
1667404200.55907106,446714589,1,-0.6233775615692139,-0.003641609102487564,-0.005178084131330252,0.7818953394889832
1667404200.59905887,446754577,1,-0.6234041452407837,-0.003651436185464263,-0.005195938982069492,0.7818740010261536
1667404200.63908386,446794602,1,-0.6234238743782043,-0.003655168227851391,-0.005184786394238472,0.7818583250045776
1667404200.67907786,446834596,1,-0.6234248280525208,-0.00365451374091208,-0.005178715568035841,0.7818576097488403
1667404200.69906092,446854579,1,-0.6234040856361389,-0.003650480881333351,-0.0051962691359221935,0.7818740606307983
1667404200.71909094,446874609,1,-0.6233854293823242,-0.0036634602583944798,-0.005191669799387455,0.7818889021873474
1667404200.75906897,446914587,1,-0.6233296394348145,-0.0036665371153503656,-0.005192708224058151,0.7819333076477051
1667404200.79909492,446954613,1,-0.6232792139053345,-0.003647474106401205,-0.005168079864233732,0.7819737792015076
1667404200.83905983,446994578,1,-0.6232346296310425,-0.0036628376692533493,-0.0051819561049342155,0.7820091247558594
1667404200.87908888,447034607,1,-0.6232318878173828,-0.0036646465305238962,-0.0051649524830281734,0.7820114493370056
1667404200.89907193,447054590,1,-0.6232306361198425,-0.0036671359557658434,-0.00515481224283576,0.7820125222206116
1667404200.91909695,447074615,1,-0.6232342720031738,-0.003657142398878932,-0.005124709103256464,0.7820098400115967
1667404200.95907903,447114597,1,-0.6232095956802368,-0.0036769805010408163,-0.005123301409184933,0.7820294499397278
1667404200.99907684,447154595,1,-0.6231718063354492,-0.003685136092826724,-0.005144726950675249,0.782059371471405
1667404201.03906083,447194579,1,-0.6231309175491333,-0.0036852762568742037,-0.005128669552505016,0.7820920348167419
1667404201.07905698,447234575,1,-0.6230723261833191,-0.0036700342316180468,-0.005119244568049908,0.7821388840675354
1667404201.09906888,447254587,1,-0.6230308413505554,-0.003676371183246374,-0.005125175695866346,0.7821718454360962
1667404201.11908484,447274603,1,-0.6230151057243347,-0.0036912194918841124,-0.005124729126691818,0.7821843028068542
1667404201.15910101,447314619,1,-0.6229954957962036,-0.003691470017656684,-0.005115410778671503,0.7821999788284302
1667404201.19907403,447354592,1,-0.6230224967002869,-0.0036728191189467907,-0.00512162409722805,0.782178521156311
1667404201.23903990,447394558,1,-0.6230547428131104,-0.003673189552500844,-0.005124348681420088,0.7821527719497681
1667404201.27905893,447434577,1,-0.6231247186660767,-0.003663555020466447,-0.005132074933499098,0.7820971012115479
1667404201.29908586,447454604,1,-0.6231416463851929,-0.0036543498281389475,-0.005123314447700977,0.7820836901664734
1667404201.31909204,447474610,1,-0.6231415271759033,-0.0036544606555253267,-0.005106931086629629,0.7820838689804077
1667404201.35908794,447514606,1,-0.6231428384780884,-0.0036663508508354425,-0.005132727790623903,0.7820826172828674
1667404201.39909983,447554618,1,-0.6231343150138855,-0.0036761905066668987,-0.005148580297827721,0.7820892333984375
1667404201.43906593,447594584,1,-0.6231309175491333,-0.0036674486473202705,-0.005142664071172476,0.7820920944213867
1667404201.47905898,447634577,1,-0.6231720447540283,-0.0036770738661289215,-0.005131607875227928,0.7820593118667603
1667404201.49907494,447654593,1,-0.6231894493103027,-0.003661684226244688,-0.00512678362429142,0.7820455431938171
1667404201.51907086,447674589,1,-0.623207151889801,-0.003673240542411804,-0.005141278728842735,0.7820312976837158
1667404201.55908990,447714608,1,-0.6232618689537048,-0.0036826240830123425,-0.005144413094967604,0.7819876074790955
1667404201.59907889,447754597,1,-0.6232912540435791,-0.00367675325833261,-0.005145745817571878,0.7819641828536987
1667404201.63911796,447794636,1,-0.6233025789260864,-0.003670763922855258,-0.005169332958757877,0.7819550633430481
1667404201.67905498,447834573,1,-0.6233086585998535,-0.0036563680041581392,-0.005166496615856886,0.7819502949714661
1667404201.69908094,447854599,1,-0.6232926249504089,-0.0036550459917634726,-0.005163896828889847,0.7819631099700928
1667404201.71903300,447874551,1,-0.6232691407203674,-0.0036545083858072758,-0.005173113662749529,0.7819817662239075
1667404201.75905585,447914574,1,-0.6232790946960449,-0.0036709955893456936,-0.005178808234632015,0.781973659992218
1667404201.79908800,447954606,1,-0.6233112215995789,-0.0036810419987887144,-0.005173313431441784,0.7819480895996094
1667404201.83909988,447994618,1,-0.62335604429245,-0.003710954450070858,-0.0051863775588572025,0.7819121479988098
1667404201.87907195,448034590,1,-0.6234090924263,-0.003721104469150305,-0.00518331304192543,0.7818697690963745
1667404201.89908504,448054603,1,-0.6234390735626221,-0.003724931040778756,-0.005200647283345461,0.78184574842453
1667404201.91907406,448074592,1,-0.6234591007232666,-0.0037264758720993996,-0.0052028838545084,0.7818297743797302
1667404201.95907497,448114593,1,-0.6234779953956604,-0.003728759940713644,-0.005205364897847176,0.781814694404602
1667404201.99908495,448154603,1,-0.6234807372093201,-0.0037474629934877157,-0.005200686864554882,0.7818124294281006
1667404202.03908491,448194603,1,-0.6234586238861084,-0.0037489053793251514,-0.005203122738748789,0.7818300724029541
1667404202.07909703,448234615,1,-0.6234357357025146,-0.003740869928151369,-0.005205873865634203,0.7818483114242554
1667404202.09906387,448254582,1,-0.6234365105628967,-0.003741046879440546,-0.005209994036704302,0.7818476557731628
1667404202.11906886,448274587,1,-0.6234296560287476,-0.003733527846634388,-0.005210856441408396,0.7818531394004822
1667404202.15907001,448314588,1,-0.623442530632019,-0.0037171232979744673,-0.005204840563237667,0.7818430066108704
1667404202.19906187,448354580,1,-0.6234572529792786,-0.0037121206987649202,-0.005218734033405781,0.7818312048912048
1667404202.23909688,448394615,1,-0.6234588623046875,-0.003700277302414179,-0.005207585636526346,0.7818300724029541
1667404202.27908301,448434601,1,-0.6234632134437561,-0.0036826482973992825,-0.005189997609704733,0.7818267941474915
1667404202.29904103,448454559,1,-0.6234596371650696,-0.0036957906559109688,-0.0052002971060574055,0.7818294763565063
1667404202.31910586,448474624,1,-0.6234559416770935,-0.003691608551889658,-0.005185179878026247,0.7818325757980347
1667404202.35907102,448514589,1,-0.6234201788902283,-0.0037093183491379023,-0.005180842243134975,0.7818610668182373
1667404202.39903593,448554554,1,-0.6233999133110046,-0.0037294805515557528,-0.005165532696992159,0.7818772196769714
1667404202.43906093,448594579,1,-0.6233647465705872,-0.003743130015209317,-0.005168130621314049,0.7819051146507263
1667404202.47908306,448634601,1,-0.6233360171318054,-0.003754101460799575,-0.005161761771887541,0.7819280028343201
1667404202.49907184,448654590,1,-0.6233281493186951,-0.0037592595908790827,-0.005161716137081385,0.7819343209266663
1667404202.51906896,448674587,1,-0.6233388185501099,-0.0037570639979094267,-0.005167537834495306,0.7819257378578186
1667404202.55909991,448714618,1,-0.6233264803886414,-0.003766868030652404,-0.005174781195819378,0.7819355130195618
1667404202.59907889,448754597,1,-0.6233028769493103,-0.0037695192731916904,-0.005195652600377798,0.7819541692733765
1667404202.63903093,448794549,1,-0.6232534050941467,-0.0037593187298625708,-0.005191891919821501,0.7819936871528625
1667404202.67905903,448834577,1,-0.6231775283813477,-0.003738830564543605,-0.005178067367523909,0.7820543050765991
1667404202.69904089,448854559,1,-0.6231381893157959,-0.0037466464564204216,-0.005181523505598307,0.782085657119751
1667404202.71908188,448874600,1,-0.6231136918067932,-0.00374779524281621,-0.0051710279658436775,0.7821052074432373
1667404202.75909591,448914614,1,-0.6230985522270203,-0.0037435113918036222,-0.005154731217771769,0.7821174263954163
1667404202.79908705,448954605,1,-0.6230916976928711,-0.003721409011632204,-0.005159878637641668,0.7821229100227356
1667404202.83907294,448994591,1,-0.6230819821357727,-0.0037286088336259127,-0.005151556804776192,0.7821306586265564
1667404202.87905002,449034568,1,-0.6230617761611938,-0.003732430748641491,-0.005159240681678057,0.782146692276001
1667404202.89909506,449054613,1,-0.6230524182319641,-0.003727102652192116,-0.0051503912545740604,0.7821542620658875
1667404202.91909385,449074612,1,-0.6230330467224121,-0.003726397408172488,-0.0051484196446835995,0.7821696996688843
1667404202.95908499,449114603,1,-0.6230043768882751,-0.0037362058646976948,-0.0051390002481639385,0.7821925282478333
1667404202.99909592,449154614,1,-0.6229907870292664,-0.003737654536962509,-0.005154370795935392,0.7822032570838928
1667404203.03903985,449194558,1,-0.6229857206344604,-0.003726409515365958,-0.0051734265871346,0.7822072505950928
1667404203.07906795,449234586,1,-0.6229996085166931,-0.0037415167316794395,-0.005169691052287817,0.7821961045265198
1667404203.09907293,449254591,1,-0.6230046153068542,-0.003735938807949424,-0.005173436366021633,0.7821921110153198
1667404203.11906099,449274579,1,-0.623015820980072,-0.0037435556296259165,-0.005174830090254545,0.7821831703186035
1667404203.15908790,449314606,1,-0.6230480074882507,-0.0037331366911530495,-0.00516146793961525,0.7821576595306396
1667404203.19908690,449354605,1,-0.6230747699737549,-0.0037189589347690344,-0.005154671147465706,0.7821364402770996
1667404203.23910499,449394623,1,-0.6230831742286682,-0.0037328184116631746,-0.005171490367501974,0.7821295857429504
1667404203.27907300,449434591,1,-0.6230987310409546,-0.0037302232813090086,-0.005154035519808531,0.7821173071861267
1667404203.29908395,449454602,1,-0.6231001019477844,-0.0037232732865959406,-0.005153527949005365,0.7821162343025208
1667404203.31912184,449474640,1,-0.6230828762054443,-0.003715850878506899,-0.0051528471522033215,0.7821300029754639
1667404203.35906100,449514579,1,-0.6230702996253967,-0.0037384217139333487,-0.005156862083822489,0.7821398973464966
1667404203.39908385,449554602,1,-0.6230656504631042,-0.003731418401002884,-0.005150592420250177,0.7821437120437622
1667404203.43906593,449594584,1,-0.623085081577301,-0.003700541565194726,-0.005149570293724537,0.7821283340454102
1667404203.47910094,449634619,1,-0.623097836971283,-0.003704570699483156,-0.005149374715983868,0.7821182012557983
1667404203.49908590,449654604,1,-0.6230917572975159,-0.003700138069689274,-0.005151033867150545,0.7821230292320251
1667404203.51907897,449674597,1,-0.6230993866920471,-0.003706703195348382,-0.005151321645826101,0.7821169495582581
1667404203.55903006,449714548,1,-0.6230876445770264,-0.0036880045663565397,-0.0051401532255113125,0.7821264266967773
1667404203.59906197,449754580,1,-0.6230882406234741,-0.0036605307832360268,-0.005112917628139257,0.782126247882843
1667404203.63908386,449794602,1,-0.6230520606040955,-0.003662425559014082,-0.005110599100589752,0.7821550965309143
1667404203.67904902,449834567,1,-0.623042643070221,-0.0036673154681921005,-0.005098953377455473,0.7821626663208008
1667404203.69905686,449854575,1,-0.6230385303497314,-0.0036718801129609346,-0.005099648609757423,0.7821658849716187
1667404203.71910691,449874625,1,-0.6230574250221252,-0.003678650828078389,-0.005082957446575165,0.78215092420578
1667404203.75907493,449914593,1,-0.6230757832527161,-0.003673069877550006,-0.005072422791272402,0.7821363806724548
1667404203.79906106,449954579,1,-0.6231039762496948,-0.003668801626190543,-0.0050525967963039875,0.7821140885353088
1667404203.83909798,449994616,1,-0.6231366991996765,-0.003663387382403016,-0.0050298902206122875,0.7820881605148315
1667404203.87908697,450034605,1,-0.6231397390365601,-0.00365299335680902,-0.005028535611927509,0.7820858359336853
1667404203.89903498,450054553,1,-0.6231293678283691,-0.003646022407338023,-0.005028877407312393,0.7820941209793091
1667404203.91910601,450074624,1,-0.6231181025505066,-0.0036462205462157726,-0.005030162166804075,0.7821030616760254
1667404203.95907688,450114595,1,-0.6231099367141724,-0.0036439229734241962,-0.005028568673878908,0.7821096181869507
1667404203.99905992,450154578,1,-0.6231127381324768,-0.00367516721598804,-0.005038874689489603,0.7821071743965149
1667404204.03905892,450194577,1,-0.6231045126914978,-0.003690803423523903,-0.005045657977461815,0.7821136116981506
1667404204.07908392,450234602,1,-0.6231136322021484,-0.0037034517154097557,-0.005051864311099052,0.7821062803268433
1667404204.09903502,450254553,1,-0.6231186389923096,-0.003696095198392868,-0.005051158834248781,0.7821022868156433
1667404204.11909890,450274617,1,-0.6231169700622559,-0.0036890699993819,-0.00504656694829464,0.7821037173271179
1667404204.15909100,450314609,1,-0.6231012344360352,-0.0037249058950692415,-0.005056219175457954,0.7821159958839417
1667404204.19907594,450354594,1,-0.6231114268302917,-0.00371457333676517,-0.005080948583781719,0.7821077704429626
1667404204.23904586,450394564,1,-0.6231562495231628,-0.0036688800901174545,-0.005092084873467684,0.7820721864700317
1667404204.27906489,450434583,1,-0.6231973171234131,-0.0036780324298888445,-0.005002481397241354,0.782039999961853
1667404204.29903793,450454556,1,-0.6231898665428162,-0.003703521331772208,-0.004955463111400604,0.7820460796356201
1667404204.31908488,450474603,1,-0.6231616139411926,-0.0036944178864359856,-0.004985610954463482,0.7820684909820557
1667404204.35909605,450514614,1,-0.6230286359786987,-0.0037324849981814623,-0.005008460488170385,0.7821740508079529
1667404204.39909387,450554612,1,-0.622896671295166,-0.003672901773825288,-0.005091825965791941,0.7822789549827576
1667404204.43907595,450594594,1,-0.6227940917015076,-0.0036778796929866076,-0.005128027871251106,0.7823603749275208
1667404204.47902989,450634548,1,-0.6228113770484924,-0.0037664377596229315,-0.0050565446726977825,0.7823466062545776
1667404204.49908590,450654604,1,-0.622848391532898,-0.003753769677132368,-0.005077836103737354,0.782317042350769
1667404204.51909804,450674616,1,-0.6228970885276794,-0.003756024641916156,-0.005058126989752054,0.7822784185409546
1667404204.55908298,450714601,1,-0.6230377554893494,-0.0037103884387761354,-0.005004354286938906,0.7821669578552246
1667404204.59906197,450754580,1,-0.6230898499488831,-0.003669572761282325,-0.004977188538759947,0.7821258306503296
1667404204.63910985,450794628,1,-0.6230334043502808,-0.00362585810944438,-0.005000656470656395,0.782170832157135
1667404204.67906785,450834586,1,-0.622911274433136,-0.0035797893069684505,-0.005001929588615894,0.7822682857513428
1667404204.69906497,450854583,1,-0.6228466033935547,-0.0035981598775833845,-0.004991492722183466,0.7823197841644287
1667404204.71903801,450874556,1,-0.6227826476097107,-0.0036157649010419846,-0.004976657219231129,0.7823706865310669
1667404204.75909090,450914609,1,-0.6226919293403625,-0.0036795667838305235,-0.004975270479917526,0.7824426293373108
1667404204.79908395,450954602,1,-0.6226864457130432,-0.003686917247250676,-0.004969866015017033,0.7824470400810242
1667404204.83909202,450994610,1,-0.6227777600288391,-0.003645481774583459,-0.004999545402824879,0.7823743224143982
1667404204.87905502,451034573,1,-0.6228675842285156,-0.0036366295535117388,-0.004979530815035105,0.782302975654602
1667404204.89908385,451054602,1,-0.6228925585746765,-0.00363390170969069,-0.004966172389686108,0.7822831869125366
1667404204.91903090,451074549,1,-0.6229111552238464,-0.003623747266829014,-0.004940178710967302,0.7822685837745667
1667404204.95905805,451114576,1,-0.6228387951850891,-0.003611017717048526,-0.004884382709860802,0.7823266386985779
1667404204.99909401,451154612,1,-0.6227030158042908,-0.0036106500774621964,-0.004850413650274277,0.7824349403381348
1667404205.03908205,451194600,1,-0.6225607395172119,-0.0036155320703983307,-0.0048833852633833885,0.7825478911399841
1667404205.07909703,451234615,1,-0.6224986910820007,-0.0035907882265746593,-0.004924417473375797,0.7825971245765686
1667404205.09908485,451254603,1,-0.6224995255470276,-0.0035880031064152718,-0.0049445959739387035,0.7825963497161865
1667404205.11907291,451274591,1,-0.6225281953811646,-0.0036017107777297497,-0.004958857782185078,0.7825733423233032
1667404205.15902901,451314547,1,-0.6226207613945007,-0.0036511928774416447,-0.004940930753946304,0.7824996113777161
1667404205.19912505,451354643,1,-0.6227431893348694,-0.003670757170766592,-0.004906641785055399,0.7824023365974426
1667404205.23909092,451394609,1,-0.6228035688400269,-0.003624293254688382,-0.004912920296192169,0.7823544144630432
1667404205.27911592,451434634,1,-0.6227884292602539,-0.0036198338493704796,-0.004941390827298164,0.7823663353919983
1667404205.29905987,451454578,1,-0.6227592825889587,-0.0036196832079440355,-0.004972635302692652,0.7823893427848816
1667404205.31907892,451474597,1,-0.6227179765701294,-0.003619297407567501,-0.004977980628609657,0.7824221849441528
1667404205.35903692,451514555,1,-0.6226109266281128,-0.0036145462654531,-0.004967574030160904,0.7825074195861816
1667404205.39903903,451554557,1,-0.622545063495636,-0.0036490901838988066,-0.004971566144376993,0.7825596928596497
1667404205.43908095,451594599,1,-0.6225471496582031,-0.0036874962970614433,-0.004975807853043079,0.7825577855110168
1667404205.47909403,451634612,1,-0.6226156949996948,-0.0036711038555949926,-0.00497741112485528,0.7825033068656921
1667404205.49902987,451654548,1,-0.6226692199707031,-0.0036437930539250374,-0.004979331977665424,0.7824608683586121
1667404205.51910591,451674624,1,-0.6227015256881714,-0.0036388773005455732,-0.004988246597349644,0.7824350595474243
1667404205.55906391,451714582,1,-0.6227380633354187,-0.003643560456112027,-0.0049856361001729965,0.7824060320854187
1667404205.59907484,451754593,1,-0.6226881146430969,-0.003645757446065545,-0.0049484968185424805,0.782446026802063
1667404205.63906598,451794584,1,-0.6225754022598267,-0.0036450771149247885,-0.004922583233565092,0.7825358510017395
1667404205.67908692,451834605,1,-0.6224778890609741,-0.0036261705681681633,-0.004946449305862188,0.7826133966445923
1667404205.69906902,451854587,1,-0.6224299073219299,-0.00363302999176085,-0.004969637840986252,0.7826513051986694
1667404205.71909595,451874614,1,-0.6224049925804138,-0.003620853880420327,-0.0049935439601540565,0.7826710343360901
1667404205.75908589,451914604,1,-0.6224254965782166,-0.0036020795814692974,-0.0050307526253163815,0.7826546430587769
1667404205.79907703,451954595,1,-0.6225044131278992,-0.0036485774908214808,-0.005053396802395582,0.7825914621353149
1667404205.83903599,451994554,1,-0.6225839257240295,-0.003672058926895261,-0.005039779003709555,0.7825282216072083
1667404205.87906885,452034587,1,-0.6226393580436707,-0.0036758440546691418,-0.005033139139413834,0.7824841141700745
1667404205.89906597,452054584,1,-0.6226364970207214,-0.0036743429955095053,-0.00503563741222024,0.7824863791465759
1667404205.91908288,452074601,1,-0.6226239204406738,-0.0036745115648955107,-0.005041059572249651,0.7824963331222534
1667404205.95907903,452114597,1,-0.6225484013557434,-0.0036349159199744463,-0.005049168132245541,0.7825565934181213
1667404205.99909306,452154611,1,-0.6224539875984192,-0.0036214631982147694,-0.0050403098575770855,0.7826318144798279
1667404206.03907204,452194590,1,-0.6223916411399841,-0.003657159162685275,-0.005025831982493401,0.7826812863349915
1667404206.07903886,452234557,1,-0.622401773929596,-0.003696828382089734,-0.005042724777013063,0.7826729416847229
1667404206.09909391,452254612,1,-0.6224391460418701,-0.0036946742329746485,-0.005042052827775478,0.7826432585716248
1667404206.11906004,452274578,1,-0.6224731802940369,-0.0037013592664152384,-0.005053938366472721,0.7826160788536072
1667404206.15908289,452314601,1,-0.6225491762161255,-0.0036692589055746794,-0.005078315734863281,0.7825556397438049
1667404206.19910502,452354623,1,-0.622590959072113,-0.0036549651995301247,-0.005087913479655981,0.7825223803520203
1667404206.23908687,452394605,1,-0.6225528717041016,-0.003651181235909462,-0.00508505804464221,0.7825527191162109
1667404206.27906203,452434580,1,-0.6224425435066223,-0.0036442058626562357,-0.005080080591142178,0.7826405167579651
1667404206.29907799,452454596,1,-0.6223848462104797,-0.0036553237587213516,-0.005076812580227852,0.7826863527297974
1667404206.31907201,452474590,1,-0.6223368048667908,-0.0036613824777305126,-0.005070657003670931,0.7827245593070984
1667404206.35908484,452514603,1,-0.6222600936889648,-0.0036679606419056654,-0.005079219583421946,0.7827855348587036
1667404206.39908385,452554602,1,-0.6222364902496338,-0.0036796939093619585,-0.005090928636491299,0.7828040719032288
1667404206.43909883,452594617,1,-0.6222720146179199,-0.0036761926021426916,-0.005101850256323814,0.7827758193016052
1667404206.47904801,452634566,1,-0.622326135635376,-0.003695789724588394,-0.005085449665784836,0.7827328443527222
1667404206.49909091,452654609,1,-0.6223478317260742,-0.003691647434607148,-0.005081159994006157,0.7827156186103821
1667404206.51903200,452674550,1,-0.6223429441452026,-0.0037029015365988016,-0.005067422986030579,0.7827195525169373
1667404206.55905795,452714576,1,-0.6222999095916748,-0.0036966721527278423,-0.005054558627307415,0.7827538251876831
1667404206.59908605,452754604,1,-0.62220299243927,-0.0036761004012078047,-0.005050025414675474,0.7828310132026672
1667404206.63909388,452794612,1,-0.6221181154251099,-0.0036862639244645834,-0.005067063961178064,0.7828983068466187
1667404206.67909503,452834613,1,-0.6220637559890747,-0.003695889376103878,-0.005072521045804024,0.782941460609436
1667404206.69905591,452854574,1,-0.622038722038269,-0.0037117681931704283,-0.005059456918388605,0.782961368560791
1667404206.71905899,452874577,1,-0.6220340132713318,-0.003718908643350005,-0.005042173899710178,0.7829651832580566
1667404206.75902891,452914547,1,-0.6220731735229492,-0.0037352012004703283,-0.005045674275606871,0.7829339504241943
1667404206.79905701,452954575,1,-0.6221439838409424,-0.0037329227197915316,-0.005061481613665819,0.7828775644302368
1667404206.83908486,452994603,1,-0.622162401676178,-0.0036998477298766375,-0.0050984714180231094,0.7828628420829773
1667404206.87907600,453034594,1,-0.6221461296081543,-0.0037084699142724276,-0.0050878687761723995,0.7828758358955383
1667404206.89906287,453054581,1,-0.6221181154251099,-0.00372633570805192,-0.00508493185043335,0.7828980088233948
1667404206.91909194,453074610,1,-0.6220757365226746,-0.0037285219877958298,-0.0050634047947824,0.7829318642616272
1667404206.95907092,453114589,1,-0.6219918131828308,-0.0037334549706429243,-0.005059878807514906,0.7829985022544861
1667404206.99902987,453154548,1,-0.6219642758369446,-0.0037148045375943184,-0.005093499086797237,0.7830201983451843
1667404207.03905892,453194577,1,-0.6219748258590698,-0.0037294086068868637,-0.005137388128787279,0.7830115556716919
1667404207.07908893,453234607,1,-0.6220191717147827,-0.0037310393527150154,-0.005156545899808407,0.7829761505126953
1667404207.09902906,453254547,1,-0.6220618486404419,-0.0037325932644307613,-0.005165784154087305,0.7829421758651733
