timestamp,TimeUS,DesRoll,Roll,DesPitch,Pitch,DesYaw,Yaw,ErrRP,ErrYaw,AEKF
10.49598700,10495987,0.0,-0.09,0.0,0.38,0.0,0.0,1.0,1.0,0
10.59583300,10595833,0.0,-0.09,0.0,0.38,137.14000000000001,137.14000000000001,1.0,0.8,0
10.69591500,10695915,0.0,-0.09,0.0,0.38,137.20000000000002,137.20000000000002,0.8,0.64,0
10.79589400,10795894,0.0,-0.09,0.0,0.38,137.23,137.23,0.8,0.51,0
10.89592500,10895925,0.0,-0.08,0.0,0.38,137.18,137.18,0.64,0.41000000000000003,0
10.99592300,10995923,0.0,-0.08,0.0,0.38,137.22,137.22,0.64,0.33,0
11.09585800,11095858,0.0,-0.08,0.0,0.38,137.24,137.24,0.51,0.26,0
11.19578100,11195781,0.0,-0.07,0.0,0.38,137.26,137.26,0.51,0.21,0
11.29574700,11295747,0.0,-0.07,0.0,0.38,137.23,137.23,0.4,0.17,0
11.39578500,11395785,0.0,-0.06,0.0,0.38,137.28,137.28,0.4,0.14,0
11.49590200,11495902,0.0,-0.06,0.0,0.38,137.32,137.32,0.32,0.11,0
11.59595000,11595950,0.0,-0.06,0.0,0.38,137.02,137.02,0.32,0.1,0
11.69599400,11695994,0.0,-0.07,0.0,0.38,135.5,135.5,0.26,0.14,0
11.79606000,11796060,0.0,-0.07,0.0,0.38,134.46,134.46,0.26,0.16,0
11.89599700,11895997,0.0,-0.07,0.0,0.38,134.66,134.66,0.2,0.13,0
11.99602200,11996022,0.0,-0.07,0.0,0.38,134.9,134.9,0.2,0.11,0
12.09595300,12095953,0.0,-0.07,0.0,0.38,135.17000000000002,135.17000000000002,0.16,0.1,0
12.19587100,12195871,0.0,-0.07,0.0,0.38,135.38,135.38,0.16,0.09,0
12.29583600,12295836,0.0,-0.07,0.0,0.38,135.54,135.54,0.13,0.08,0
12.39597000,12395970,0.0,-0.07,0.0,0.38,135.76,135.76,0.13,0.07,0
12.49617600,12496176,0.0,-0.08,0.03,0.44,0.0,0.0,0.1,0.06,3
12.59609600,12596096,0.0,-0.09,0.01,0.44,0.0,0.0,0.1,0.05,3
12.69603600,12696036,0.0,-0.08,0.0,0.44,0.0,0.0,0.08,0.04,3
12.79605900,12796059,0.0,-0.08,0.0,0.44,0.0,0.0,0.08,0.04,3
12.89605600,12896056,0.0,-0.08,0.0,0.44,0.0,0.0,0.06,0.03,3
12.99604900,12996049,0.0,-0.08,0.0,0.44,0.0,0.0,0.06,0.03,3
13.09592000,13095920,0.0,-0.08,0.0,0.44,0.01,0.01,0.05,0.02,3
13.19587900,13195879,0.0,-0.08,0.0,0.44,0.01,0.01,0.05,0.02,3
13.29615400,13296154,0.0,-0.08,0.0,0.44,0.01,0.01,0.04,0.02,3
13.39624400,13396244,0.0,-0.08,0.0,0.44,0.01,0.01,0.04,0.02,3
13.49604100,13496041,0.0,-0.09,0.0,0.44,0.01,0.01,0.03,0.02,3
13.59606500,13596065,0.0,-0.09,0.0,0.44,0.01,0.01,0.03,0.02,3
13.69606300,13696063,0.0,-0.09,0.0,0.44,0.0,0.0,0.02,0.01,3
13.79607500,13796075,0.0,-0.09,0.0,0.43,0.0,0.0,0.02,0.01,3
13.89609700,13896097,0.0,-0.09,0.0,0.44,0.0,0.0,0.02,0.01,3
13.99602000,13996020,0.0,-0.09,0.0,0.43,137.42000000000002,137.42000000000002,0.02,0.01,3
14.09587800,14095878,0.0,-0.09,0.0,0.43,137.41,137.41,0.01,0.01,3
14.19619800,14196198,0.0,-0.09,0.0,0.43,137.41,137.41,0.01,0.01,3
14.29602200,14296022,0.0,-0.09,0.0,0.43,137.41,137.41,0.01,0.01,3
14.39614300,14396143,0.0,-0.09,0.0,0.43,137.39000000000001,137.39000000000001,0.01,0.01,3
14.49606900,14496069,0.0,-0.09,0.0,0.43,137.35,137.35,0.01,0.06,3
14.59607200,14596072,0.0,-0.1,0.0,0.43,137.03,137.03,0.01,0.1,3
14.69606400,14696064,0.0,-0.1,0.0,0.43,136.25,136.25,0.0,0.09,3
14.79607300,14796073,0.0,-0.11,0.0,0.43,135.36,135.36,0.0,0.08,3
14.89602400,14896024,0.0,-0.11,0.0,0.43,134.67000000000002,134.67000000000002,0.0,0.07,3
14.99589600,14995896,0.0,-0.11,0.0,0.44,134.28,134.28,0.0,0.06,3
15.09614200,15096142,0.0,-0.11,0.0,0.44,134.14000000000001,134.14000000000001,0.0,0.05,3
15.19622300,15196223,0.0,-0.11,0.0,0.44,134.19,134.19,0.0,0.05,3
15.29627700,15296277,0.0,-0.11,0.0,0.44,134.35,134.35,0.0,0.04,3
15.39630600,15396306,0.0,-0.11,0.0,0.44,134.55,134.55,0.0,0.04,3
15.49646500,15496465,0.0,-0.11,0.0,0.44,134.76,134.76,0.0,0.03,3
15.59630300,15596303,0.0,-0.11,0.0,0.44,134.95,134.95,0.0,0.03,3
15.69605600,15696056,0.0,-0.11,0.0,0.45,135.13,135.13,0.0,0.03,3
15.79596100,15795961,0.0,-0.11,0.0,0.45,135.28,135.28,0.0,0.03,3
15.89587700,15895877,0.0,-0.1,0.0,0.45,135.41,135.41,0.0,0.03,3
15.99602400,15996024,0.0,-0.11,0.0,0.45,135.54,135.54,0.0,0.02,3
16.09599600,16095996,0.0,-0.1,0.0,0.44,135.64000000000001,135.64000000000001,0.0,0.02,3
16.19608700,16196087,0.0,-0.1,0.0,0.44,135.72,135.72,0.0,0.01,3
16.29607600,16296076,0.0,-0.1,0.0,0.44,135.8,135.8,0.0,0.01,3
16.39612500,16396125,0.0,-0.1,0.0,0.44,135.87,135.87,0.0,0.01,3
16.49604900,16496049,0.0,-0.1,0.0,0.44,135.94,135.94,0.0,0.01,3
16.59605800,16596058,0.0,-0.1,0.0,0.43,136.01,136.01,0.0,0.01,3
16.69628000,16696280,0.0,-0.1,0.0,0.43,136.07,136.07,0.0,0.01,3
16.79589500,16795895,0.0,-0.1,0.0,0.43,136.12,136.12,0.0,0.01,3
16.89595500,16895955,0.0,-0.1,0.0,0.42,136.17000000000002,136.17000000000002,0.0,0.01,3
16.99604600,16996046,0.0,-0.1,0.0,0.42,136.22,136.22,0.0,0.01,3
17.09608200,17096082,0.0,-0.1,0.0,0.41000000000000003,136.28,136.28,0.0,0.01,3
17.19606800,17196068,0.0,-0.09,0.0,0.41000000000000003,136.35,136.35,0.0,0.01,3
17.29605800,17296058,0.0,-0.1,0.0,0.41000000000000003,136.41,136.41,0.0,0.03,3
17.39610200,17396102,0.0,-0.1,0.0,0.4,136.43,136.43,0.0,0.08,3
17.49599900,17495999,0.0,-0.1,0.0,0.39,136.28,136.28,0.0,0.07,3
17.59628000,17596280,0.0,-0.1,0.0,0.39,136.0,136.0,0.0,0.07,3
17.69589000,17695890,0.0,-0.1,0.0,0.39,135.74,135.74,0.0,0.06,3
17.79595200,17795952,0.0,-0.1,0.0,0.38,135.56,135.56,0.0,0.06,3
17.89599300,17895993,0.0,-0.11,0.0,0.38,135.47,135.47,0.0,0.05,3
17.99636300,17996363,0.0,-0.11,0.0,0.38,135.47,135.47,0.0,0.05,3
18.09640900,18096409,0.0,-0.11,0.0,0.38,135.54,135.54,0.0,0.04,3
18.19605700,18196057,0.0,-0.12,0.0,0.38,135.63,135.63,0.0,0.04,3
18.29608900,18296089,0.0,-0.12,0.0,0.38,135.73,135.73,0.0,0.03,3
18.39611200,18396112,0.0,-0.13,0.0,0.37,135.84,135.84,0.0,0.03,3
18.49595000,18495950,0.0,-0.13,0.0,0.37,135.93,135.93,0.0,0.02,3
18.59589700,18595897,0.0,-0.13,0.0,0.37,136.01,136.01,0.0,0.02,3
18.69620300,18696203,0.0,-0.14,0.0,0.36,136.09,136.09,0.0,0.02,3
18.79600600,18796006,0.0,-0.14,0.0,0.36,136.15,136.15,0.0,0.02,3
18.89602000,18896020,0.0,-0.14,0.0,0.36,136.22,136.22,0.0,0.02,3
18.99606900,18996069,0.0,-0.14,0.0,0.36,136.29,136.29,0.0,0.02,3
19.09604700,19096047,0.0,-0.14,0.0,0.36,136.35,136.35,0.0,0.01,3
19.19606200,19196062,0.0,-0.14,0.0,0.36,136.42000000000002,136.42000000000002,0.0,0.01,3
19.29605600,19296056,0.0,-0.13,0.0,0.36,136.48,136.48,0.0,0.01,3
19.39630600,19396306,0.0,-0.14,0.0,0.36,136.54,136.54,0.0,0.01,3
19.49618800,19496188,0.0,-0.14,0.0,0.36,136.6,136.6,0.0,0.01,3
19.59632400,19596324,0.0,-0.14,0.0,0.36,136.66,136.66,0.0,0.01,3
19.69622900,19696229,0.0,-0.14,0.0,0.36,136.70000000000002,136.70000000000002,0.0,0.01,3
19.79609200,19796092,0.0,-0.14,0.0,0.36,136.74,136.74,0.0,0.01,3
19.89608000,19896080,0.0,-0.13,0.0,0.36,136.77,136.77,0.0,0.01,3
19.99607300,19996073,0.0,-0.13,0.0,0.35000000000000003,136.8,136.8,0.0,0.0,3
20.09606900,20096069,0.0,-0.13,0.0,0.35000000000000003,136.83,136.83,0.0,0.01,3
20.19611900,20196119,0.0,-0.13,0.0,0.35000000000000003,136.84,136.84,0.0,0.07,3
20.29629400,20296294,0.0,-0.13,0.0,0.35000000000000003,136.71,136.71,0.0,0.09,3
20.39623800,20396238,0.0,-0.13,0.0,0.36,136.41,136.41,0.0,0.08,3
20.49619500,20496195,0.0,-0.13,0.0,0.36,136.08,136.08,0.0,0.07,3
20.59620600,20596206,0.0,-0.13,0.0,0.37,135.81,135.81,0.0,0.07,3
20.69601000,20696010,0.0,-0.13,0.0,0.37,135.65,135.65,0.0,0.06,3
20.79605700,20796057,0.0,-0.13,0.0,0.37,135.58,135.58,0.0,0.05,3
20.89605500,20896055,0.0,-0.13,0.0,0.37,135.58,135.58,0.0,0.05,3
20.99607900,20996079,0.0,-0.13,0.0,0.38,135.63,135.63,0.0,0.05,3
21.09606100,21096061,0.0,-0.13,0.0,0.37,135.71,135.71,0.0,0.04,3
21.19596000,21195960,0.0,-0.12,0.0,0.37,135.79,135.79,0.0,0.03,3
21.29587900,21295879,0.0,-0.12,0.0,0.38,135.87,135.87,0.0,0.03,3
21.39627800,21396278,0.0,-0.12,0.0,0.38,135.94,135.94,0.0,0.03,3
21.49619800,21496198,0.0,-0.12,0.0,0.38,136.01,136.01,0.0,0.03,3
21.59602700,21596027,0.0,-0.12,0.0,0.38,136.06,136.06,0.0,0.02,3
21.69606100,21696061,0.0,-0.12,0.0,0.38,136.12,136.12,0.0,0.02,3
21.79606100,21796061,0.0,-0.12,0.0,0.38,136.17000000000002,136.17000000000002,0.0,0.02,3
21.89606200,21896062,0.0,-0.12,0.0,0.38,136.23,136.23,0.0,0.02,3
21.99607100,21996071,0.0,-0.12,0.0,0.38,136.28,136.28,0.0,0.02,3
22.09593300,22095933,0.0,-0.11,0.0,0.38,136.33,136.33,0.0,0.01,3
22.19589400,22195894,0.0,-0.11,0.0,0.38,136.38,136.38,0.0,0.01,3
22.29636300,22296363,0.0,-0.11,0.0,0.38,136.42000000000002,136.42000000000002,0.0,0.01,3
22.39625100,22396251,0.0,-0.11,0.0,0.38,136.44,136.44,0.0,0.01,3
22.49601400,22496014,0.0,-0.11,0.0,0.38,136.47,136.47,0.0,0.01,3
22.59607500,22596075,0.0,-0.11,0.0,0.38,136.51,136.51,0.0,0.01,3
22.69625200,22696252,0.0,-0.11,0.0,0.37,136.54,136.54,0.0,0.01,3
22.79623600,22796236,0.0,-0.11,0.0,0.37,136.59,136.59,0.0,0.01,3
22.89625500,22896255,0.0,-0.11,0.0,0.37,136.63,136.63,0.0,0.01,3
22.99627000,22996270,0.0,-0.11,0.0,0.37,136.68,136.68,0.0,0.06,3
23.09619300,23096193,0.0,-0.11,0.0,0.37,136.63,136.63,0.0,0.09,3
23.19620400,23196204,0.0,-0.11,0.0,0.37,136.43,136.43,0.0,0.08,3
23.29621100,23296211,0.0,-0.11,0.0,0.37,136.16,136.16,0.0,0.07,3
23.39611900,23396119,0.0,-0.11,0.0,0.37,135.95,135.95,0.0,0.07,3
23.49605500,23496055,0.0,-0.11,0.0,0.37,135.81,135.81,0.0,0.06,3
23.59605500,23596055,0.0,-0.11,0.0,0.37,135.76,135.76,0.0,0.06,3
23.69608200,23696082,0.0,-0.11,0.0,0.37,135.76,135.76,0.0,0.05,3
23.79606700,23796067,0.0,-0.11,0.0,0.37,135.8,135.8,0.0,0.04,3
23.89595200,23895952,0.0,-0.11,0.0,0.37,135.86,135.86,0.0,0.04,3
23.99589500,23995895,0.0,-0.11,0.0,0.37,135.93,135.93,0.0,0.04,3
24.09595600,24095956,0.0,-0.11,0.0,0.37,135.99,135.99,0.0,0.03,3
24.19602800,24196028,0.0,-0.11,0.0,0.37,136.05,136.05,0.0,0.03,3
24.29626800,24296268,0.0,-0.11,0.0,0.37,136.12,136.12,0.0,0.02,3
24.39647700,24396477,0.0,-0.11,0.0,0.37,136.17000000000002,136.17000000000002,0.0,0.02,3
24.49605100,24496051,0.0,-0.11,0.0,0.37,136.21,136.21,0.0,0.02,3
24.59612700,24596127,0.0,-0.11,0.0,0.37,136.24,136.24,0.0,0.02,3
24.69606000,24696060,0.0,-0.11,0.0,0.37,136.28,136.28,0.0,0.01,3
24.79595600,24795956,0.0,-0.11,0.0,0.37,136.31,136.31,0.0,0.02,3
24.89587900,24895879,0.0,-0.11,0.0,0.37,136.34,136.34,0.0,0.02,3
24.99595200,24995952,0.0,-0.11,0.0,0.37,136.39000000000001,136.39000000000001,0.0,0.02,3
25.09597600,25095976,0.0,-0.11,0.0,0.37,136.44,136.44,0.0,0.01,3
25.19629000,25196290,0.0,-0.1,0.0,0.37,136.48,136.48,0.0,0.01,3
25.29627100,25296271,0.0,-0.1,0.0,0.37,136.52,136.52,0.0,0.01,3
25.39609100,25396091,0.0,-0.1,0.0,0.37,136.56,136.56,0.0,0.01,3
25.49606300,25496063,0.0,-0.1,0.0,0.37,136.58,136.58,0.0,0.01,3
25.59607700,25596077,0.0,-0.11,0.0,0.38,136.61,136.61,0.0,0.01,3
25.69594600,25695946,0.0,-0.11,0.0,0.38,136.64000000000001,136.64000000000001,0.0,0.01,3
25.79588600,25795886,0.0,-0.11,0.0,0.38,136.67000000000002,136.67000000000002,0.0,0.04,3
25.89596000,25895960,0.0,-0.11,0.0,0.38,136.65,136.65,0.0,0.1,3
25.99601700,25996017,0.0,-0.1,0.0,0.38,136.51,136.51,0.0,0.08,3
26.09628900,26096289,0.0,-0.11,0.0,0.38,136.28,136.28,0.0,0.07,3
26.19607000,26196070,0.0,-0.11,0.0,0.38,136.07,136.07,0.0,0.06,3
26.29623000,26296230,0.0,-0.11,0.0,0.38,135.93,135.93,0.0,0.06,3
26.39629800,26396298,0.0,-0.11,0.0,0.38,135.84,135.84,0.0,0.05,3
26.49629900,26496299,0.0,-0.11,0.0,0.38,135.81,135.81,0.0,0.04,3
26.59625000,26596250,0.0,-0.11,0.0,0.38,135.81,135.81,0.0,0.04,3
26.69613900,26696139,0.0,-0.11,0.0,0.38,135.83,135.83,0.0,0.04,3
26.79619500,26796195,0.0,-0.11,0.0,0.38,135.87,135.87,0.0,0.04,3
26.89616700,26896167,0.0,-0.11,0.0,0.38,135.92000000000002,135.92000000000002,0.0,0.03,3
26.99655300,26996553,0.0,-0.11,0.0,0.38,135.98,135.98,0.0,0.03,3
27.09627800,27096278,0.0,-0.11,0.0,0.38,136.03,136.03,0.0,0.03,3
27.19628700,27196287,0.0,-0.1,0.0,0.38,136.07,136.07,0.0,0.02,3
27.29630200,27296302,0.0,-0.1,0.0,0.38,136.11,136.11,0.0,0.02,3
27.39612300,27396123,0.0,-0.1,0.0,0.38,136.14000000000001,136.14000000000001,0.0,0.02,3
27.49595100,27495951,0.0,-0.1,0.0,0.38,136.17000000000002,136.17000000000002,0.0,0.01,3
27.59589800,27595898,0.0,-0.09,0.0,0.38,136.19,136.19,0.0,0.01,3
27.69596400,27695964,0.0,-0.09,0.0,0.38,136.21,136.21,0.0,0.01,3
27.79601600,27796016,0.0,-0.09,0.0,0.38,136.23,136.23,0.0,0.01,3
27.89629400,27896294,0.0,-0.09,0.0,0.38,136.26,136.26,0.0,0.01,3
27.99627200,27996272,0.0,-0.09,0.0,0.38,136.28,136.28,0.0,0.01,3
28.09626500,28096265,0.0,-0.09,0.0,0.38,136.32,136.32,0.0,0.01,3
28.19628300,28196283,0.0,-0.1,0.0,0.38,136.36,136.36,0.0,0.01,3
28.29604900,28296049,0.0,-0.1,0.0,0.38,136.39000000000001,136.39000000000001,0.0,0.01,3
28.39602700,28396027,0.0,-0.1,0.0,0.38,136.43,136.43,0.0,0.01,3
28.49588100,28495881,0.0,-0.1,0.0,0.39,136.46,136.46,0.0,0.01,3
28.59604800,28596048,0.0,-0.1,0.0,0.39,136.49,136.49,0.0,0.02,3
28.69599900,28695999,0.0,-0.1,0.0,0.39,136.5,136.5,0.0,0.08,3
28.79611000,28796110,0.0,-0.1,0.0,0.39,136.42000000000002,136.42000000000002,0.0,0.1,3
28.89605900,28896059,0.0,-0.09,0.0,0.39,136.24,136.24,0.0,0.09,3
28.99608600,28996086,0.0,-0.09,0.0,0.39,136.04,136.04,0.0,0.08,3
29.09629100,29096291,0.0,-0.09,0.0,0.39,135.88,135.88,0.0,0.07,3
29.19606200,29196062,0.0,-0.08,0.0,0.39,135.79,135.79,0.0,0.06,3
29.29594400,29295944,0.0,-0.08,0.0,0.38,135.74,135.74,0.0,0.06,3
29.39592400,29395924,0.0,-0.08,0.0,0.39,135.74,135.74,0.0,0.05,3
29.49593600,29495936,0.0,-0.08,0.0,0.38,135.76,135.76,0.0,0.04,3
29.59605900,29596059,0.0,-0.08,0.0,0.39,135.79,135.79,0.0,0.04,3
29.69609400,29696094,0.0,-0.09,0.0,0.39,135.83,135.83,0.0,0.04,3
29.79603900,29796039,0.0,-0.09,0.0,0.38,135.87,135.87,0.0,0.03,3
29.89606700,29896067,0.0,-0.09,0.0,0.38,135.91,135.91,0.0,0.03,3
29.99629600,29996296,0.0,-0.09,0.0,0.38,135.95,135.95,0.0,0.03,3
30.09599300,30095993,0.0,-0.08,0.0,0.38,135.98,135.98,0.0,0.02,3
30.19591100,30195911,0.0,-0.08,0.0,0.38,136.01,136.01,0.0,0.02,3
30.29587700,30295877,0.0,-0.08,0.0,0.38,136.03,136.03,0.0,0.02,3
30.39595600,30395956,0.0,-0.09,0.0,0.38,136.06,136.06,0.0,0.02,3
30.49601100,30496011,0.0,-0.08,0.0,0.39,136.09,136.09,0.0,0.02,3
30.59607900,30596079,0.0,-0.09,0.0,0.39,136.13,136.13,0.0,0.02,3
30.69611000,30696110,0.0,-0.09,0.0,0.4,136.16,136.16,0.0,0.01,3
30.79628000,30796280,0.0,-0.09,0.0,0.39,136.19,136.19,0.0,0.01,3
30.89625600,30896256,0.0,-0.09,0.0,0.39,136.21,136.21,0.0,0.01,3
30.99605100,30996051,0.0,-0.1,0.0,0.39,136.23,136.23,0.0,0.01,3
31.09589600,31095896,0.0,-0.1,0.0,0.4,136.25,136.25,0.0,0.0,3
31.19586200,31195862,0.0,-0.1,0.0,0.39,136.26,136.26,0.0,0.01,3
31.29593200,31295932,0.0,-0.1,0.0,0.39,136.28,136.28,0.0,0.01,3
31.39604800,31396048,0.0,-0.1,0.0,0.39,136.3,136.3,0.0,0.01,3
31.49628900,31496289,0.0,-0.11,0.0,0.39,136.31,136.31,0.0,0.06,3
31.59629400,31596294,0.0,-0.11,0.0,0.38,136.27,136.27,0.0,0.1,3
31.69605600,31696056,0.0,-0.1,0.0,0.38,136.15,136.15,0.0,0.08,3
31.79616600,31796166,0.0,-0.11,0.0,0.39,135.98,135.98,0.0,0.06,3
31.89599200,31895992,0.0,-0.11,0.0,0.39,135.85,135.85,0.0,0.05,3
31.99591900,31995919,0.0,-0.11,0.0,0.39,135.76,135.76,0.0,0.04,3
32.09586600,32095866,0.0,-0.11,0.0,0.39,135.72,135.72,0.0,0.04,3
32.19625100,32196251,0.0,-0.11,0.0,0.39,135.71,135.71,0.0,0.03,3
32.29619800,32296198,0.0,-0.11,0.0,0.39,135.72,135.72,0.0,0.03,3
32.39637300,32396373,0.0,-0.11,0.0,0.39,135.75,135.75,0.0,0.02,3
32.49625700,32496257,0.0,-0.11,0.0,0.39,135.79,135.79,0.0,0.02,3
32.59606600,32596066,0.0,-0.11,0.0,0.4,135.82,135.82,0.0,0.02,3
32.69605600,32696056,0.0,-0.1,0.0,0.4,135.84,135.84,0.0,0.02,3
32.79609400,32796094,0.0,-0.1,0.0,0.4,135.86,135.86,0.0,0.02,3
32.89595500,32895955,0.0,-0.11,0.0,0.4,135.89000000000001,135.89000000000001,0.0,0.02,3
32.99587500,32995875,0.0,-0.11,0.0,0.4,135.91,135.91,0.0,0.01,3
33.09593200,33095932,0.0,-0.11,0.0,0.4,135.94,135.94,0.0,0.01,3
33.19599300,33195993,0.0,-0.11,0.0,0.4,135.96,135.96,0.0,0.01,3
33.29629800,33296298,0.0,-0.11,0.0,0.4,135.99,135.99,0.0,0.01,3
33.39630300,33396303,0.0,-0.1,0.0,0.4,136.01,136.01,0.0,0.01,3
33.49605300,33496053,0.0,-0.1,0.0,0.4,136.03,136.03,0.0,0.01,3
33.59606400,33596064,0.0,-0.11,0.0,0.4,136.06,136.06,0.0,0.01,3
33.69599200,33695992,0.0,-0.11,0.0,0.4,136.08,136.08,0.0,0.01,3
33.79593300,33795933,0.0,-0.1,0.0,0.4,136.1,136.1,0.0,0.01,3
33.89587800,33895878,0.0,-0.1,0.0,0.4,136.13,136.13,0.0,0.01,3
33.99594000,33995940,0.0,-0.11,0.0,0.4,136.15,136.15,0.0,0.01,3
34.09600800,34096008,0.0,-0.11,0.0,0.4,136.18,136.18,0.0,0.01,3
34.19628000,34196280,0.0,-0.11,0.0,0.4,136.21,136.21,0.0,0.01,3
34.29627800,34296278,0.0,-0.11,0.0,0.4,136.23,136.23,0.0,0.04,3
34.39607900,34396079,0.0,-0.11,0.0,0.4,136.22,136.22,0.0,0.09,3
34.49608700,34496087,0.0,-0.11,0.0,0.4,136.14000000000001,136.14000000000001,0.0,0.08,3
34.59604800,34596048,0.0,-0.11,0.0,0.4,136.01,136.01,0.0,0.07,3
34.69626600,34696266,0.0,-0.11,0.0,0.4,135.9,135.9,0.0,0.06,3
34.79618400,34796184,0.0,-0.11,0.0,0.4,135.82,135.82,0.0,0.05,3
34.89612400,34896124,0.0,-0.11,0.0,0.41000000000000003,135.77,135.77,0.0,0.04,3
34.99621200,34996212,0.0,-0.12,0.0,0.4,135.77,135.77,0.0,0.04,3
35.09654800,35096548,0.0,-0.12,0.0,0.41000000000000003,135.79,135.79,0.0,0.03,3
35.19654400,35196544,0.0,-0.12,0.0,0.41000000000000003,135.82,135.82,0.0,0.03,3
35.29625300,35296253,0.0,-0.12,0.0,0.41000000000000003,135.85,135.85,0.0,0.02,3
35.39629700,35396297,0.0,-0.12,0.0,0.4,135.89000000000001,135.89000000000001,0.0,0.02,3
35.49625600,35496256,0.0,-0.12,0.0,0.41000000000000003,135.92000000000002,135.92000000000002,0.0,0.02,3
35.59627800,35596278,0.0,-0.12,0.0,0.4,135.95,135.95,0.0,0.02,3
35.69645300,35696453,0.0,-0.12,0.0,0.4,135.98,135.98,0.0,0.02,3
35.79617100,35796171,0.0,-0.12,0.0,0.41000000000000003,136.0,136.0,0.0,0.02,3
35.89620100,35896201,0.0,-0.12,0.0,0.41000000000000003,136.03,136.03,0.0,0.02,3
35.99604300,35996043,0.0,-0.11,0.0,0.41000000000000003,136.06,136.06,0.0,0.02,3
36.09605100,36096051,0.0,-0.12,0.0,0.41000000000000003,136.1,136.1,0.0,0.02,3
36.19605000,36196050,0.0,-0.12,0.0,0.4,136.12,136.12,0.0,0.02,3
36.29605600,36296056,0.0,-0.12,0.0,0.4,136.15,136.15,0.0,0.01,3
36.39607400,36396074,0.0,-0.12,0.0,0.4,136.17000000000002,136.17000000000002,0.0,0.01,3
36.49589900,36495899,0.0,-0.12,0.0,0.4,136.19,136.19,0.0,0.01,3
36.59587800,36595878,0.0,-0.12,0.0,0.4,136.2,136.2,0.0,0.01,3
36.69613900,36696139,0.0,-0.11,0.0,0.4,136.22,136.22,0.0,0.01,3
36.79618700,36796187,0.0,-0.11,0.0,0.4,136.24,136.24,0.0,0.01,3
36.89601100,36896011,0.0,-0.11,0.0,0.4,136.26,136.26,0.0,0.01,3
36.99606900,36996069,0.0,-0.11,0.0,0.4,136.28,136.28,0.0,0.01,3
37.09603900,37096039,0.0,-0.11,0.0,0.4,136.3,136.3,0.0,0.03,3
37.19606700,37196067,0.0,-0.11,0.0,0.4,136.3,136.3,0.0,0.08,3
37.29599500,37295995,0.0,-0.11,0.0,0.4,136.25,136.25,0.0,0.09,3
37.39601300,37396013,0.0,-0.11,0.0,0.41000000000000003,136.15,136.15,0.0,0.08,3
37.49587400,37495874,0.0,-0.11,0.0,0.41000000000000003,136.04,136.04,0.0,0.06,3
37.59614800,37596148,0.0,-0.12,0.0,0.41000000000000003,135.95,135.95,0.0,0.05,3
37.69618600,37696186,0.0,-0.12,0.0,0.41000000000000003,135.89000000000001,135.89000000000001,0.0,0.05,3
37.79601900,37796019,0.0,-0.12,0.0,0.41000000000000003,135.87,135.87,0.0,0.04,3
37.89604700,37896047,0.0,-0.12,0.0,0.41000000000000003,135.87,135.87,0.0,0.03,3
37.99623100,37996231,0.0,-0.12,0.0,0.41000000000000003,135.88,135.88,0.0,0.03,3
38.09628100,38096281,0.0,-0.12,0.0,0.41000000000000003,135.91,135.91,0.0,0.03,3
38.19624400,38196244,0.0,-0.12,0.0,0.41000000000000003,135.94,135.94,0.0,0.03,3
38.29623300,38296233,0.0,-0.12,0.0,0.41000000000000003,135.98,135.98,0.0,0.02,3
38.39617200,38396172,0.0,-0.12,0.0,0.4,136.0,136.0,0.0,0.03,3
38.49614200,38496142,0.0,-0.12,0.0,0.41000000000000003,136.03,136.03,0.0,0.03,3
38.59619900,38596199,0.0,-0.12,0.0,0.41000000000000003,136.06,136.06,0.0,0.02,3
38.69602000,38696020,0.0,-0.12,0.0,0.41000000000000003,136.09,136.09,0.0,0.02,3
38.79606700,38796067,0.0,-0.12,0.0,0.41000000000000003,136.12,136.12,0.0,0.02,3
38.89605100,38896051,0.0,-0.12,0.0,0.42,136.13,136.13,0.0,0.02,3
38.99607800,38996078,0.0,-0.12,0.0,0.41000000000000003,136.15,136.15,0.0,0.01,3
39.09628100,39096281,0.0,-0.12,0.0,0.41000000000000003,136.16,136.16,0.0,0.01,3
39.19628200,39196282,0.0,-0.12,0.0,0.41000000000000003,136.18,136.18,0.0,0.01,3
39.29586900,39295869,0.0,-0.13,0.0,0.41000000000000003,136.19,136.19,0.0,0.01,3
39.39596800,39395968,0.0,-0.13,0.0,0.41000000000000003,136.21,136.21,0.0,0.01,3
39.49600700,39496007,0.0,-0.13,0.0,0.41000000000000003,136.21,136.21,0.0,0.01,3
39.59600800,39596008,0.0,-0.12,0.0,0.41000000000000003,136.23,136.23,0.0,0.01,3
39.69606000,39696060,0.0,-0.13,0.0,0.41000000000000003,136.24,136.24,0.0,0.01,3
39.79604100,39796041,0.0,-0.13,0.0,0.41000000000000003,136.25,136.25,0.0,0.01,3
39.89626400,39896264,0.0,-0.13,0.0,0.42,136.27,136.27,0.0,0.01,3
39.99628700,39996287,0.0,-0.13,0.0,0.42,136.28,136.28,0.0,0.07,3
40.09593300,40095933,0.0,-0.13,0.0,0.42,136.25,136.25,0.0,0.11,3
40.19590100,40195901,0.0,-0.13,0.0,0.41000000000000003,136.15,136.15,0.0,0.09,3
40.29595000,40295950,0.0,-0.12,0.0,0.42,136.03,136.03,0.0,0.07,3
40.39601400,40396014,0.0,-0.13,0.0,0.41000000000000003,135.92000000000002,135.92000000000002,0.0,0.06,3
40.49629700,40496297,0.0,-0.13,0.0,0.41000000000000003,135.85,135.85,0.0,0.05,3
40.59606700,40596067,0.0,-0.13,0.0,0.41000000000000003,135.81,135.81,0.0,0.05,3
40.69604600,40696046,0.0,-0.13,0.0,0.41000000000000003,135.81,135.81,0.0,0.04,3
40.79606400,40796064,0.0,-0.13,0.0,0.41000000000000003,135.82,135.82,0.0,0.03,3
40.89605800,40896058,0.0,-0.13,0.0,0.41000000000000003,135.84,135.84,0.0,0.03,3
40.99596300,40995963,0.0,-0.13,0.0,0.41000000000000003,135.87,135.87,0.0,0.02,3
41.09614200,41096142,0.0,-0.12,0.0,0.41000000000000003,135.89000000000001,135.89000000000001,0.0,0.02,3
41.19614100,41196141,0.0,-0.12,0.0,0.41000000000000003,135.9,135.9,0.0,0.02,3
41.29616400,41296164,0.0,-0.12,0.0,0.41000000000000003,135.92000000000002,135.92000000000002,0.0,0.02,3
41.39655600,41396556,0.0,-0.12,0.0,0.4,135.93,135.93,0.0,0.02,3
41.49606000,41496060,0.0,-0.12,0.0,0.4,135.95,135.95,0.0,0.02,3
41.59605900,41596059,0.0,-0.13,0.0,0.4,135.97,135.97,0.0,0.02,3
41.69606700,41696067,0.0,-0.13,0.0,0.4,135.98,135.98,0.0,0.01,3
41.79607600,41796076,0.0,-0.13,0.0,0.4,135.99,135.99,0.0,0.01,3
41.89595100,41895951,0.0,-0.13,0.0,0.39,136.01,136.01,0.0,0.01,3
41.99588800,41995888,0.0,-0.13,0.0,0.39,136.02,136.02,0.0,0.01,3
42.09595400,42095954,0.0,-0.13,0.0,0.39,136.03,136.03,0.0,0.01,3
42.19599100,42195991,0.0,-0.13,0.0,0.4,136.04,136.04,0.0,0.01,3
42.29629100,42296291,0.0,-0.13,0.0,0.4,136.05,136.05,0.0,0.01,3
42.39629800,42396298,0.0,-0.13,0.0,0.39,136.05,136.05,0.0,0.01,3
42.49625700,42496257,0.0,-0.13,0.0,0.39,136.06,136.06,0.0,0.01,3
42.59629000,42596290,0.0,-0.13,0.0,0.38,136.07,136.07,0.0,0.01,3
42.69606500,42696065,0.0,-0.14,0.0,0.38,136.08,136.08,0.0,0.01,3
42.79595600,42795956,0.0,-0.13,0.0,0.38,136.09,136.09,0.0,0.03,3
42.89587900,42895879,0.0,-0.13,0.0,0.38,136.08,136.08,0.0,0.09,3
42.99596900,42995969,0.0,-0.13,0.0,0.38,136.02,136.02,0.0,0.07,3
43.09598800,43095988,0.0,-0.13,0.0,0.38,135.92000000000002,135.92000000000002,0.0,0.06,3
43.19627900,43196279,0.0,-0.13,0.0,0.38,135.84,135.84,0.0,0.05,3
43.29628400,43296284,0.0,-0.13,0.0,0.37,135.77,135.77,0.0,0.04,3
43.39610300,43396103,0.0,-0.13,0.0,0.38,135.74,135.74,0.0,0.03,3
43.49605000,43496050,0.0,-0.13,0.0,0.38,135.72,135.72,0.0,0.03,3
43.59607600,43596076,0.0,-0.13,0.0,0.38,135.71,135.71,0.0,0.03,3
43.69590500,43695905,0.0,-0.13,0.0,0.38,135.71,135.71,0.0,0.02,3
43.79588600,43795886,0.0,-0.14,0.0,0.38,135.73,135.73,0.0,0.02,3
43.89617100,43896171,0.0,-0.14,0.0,0.38,135.74,135.74,0.0,0.02,3
43.99620800,43996208,0.0,-0.14,0.0,0.38,135.76,135.76,0.0,0.02,3
44.09603400,44096034,0.0,-0.14,0.0,0.38,135.78,135.78,0.0,0.02,3
44.19606800,44196068,0.0,-0.14,0.0,0.38,135.8,135.8,0.0,0.02,3
44.29604900,44296049,0.0,-0.14,0.0,0.38,135.81,135.81,0.0,0.02,3
44.39620200,44396202,0.0,-0.13,0.0,0.38,135.82,135.82,0.0,0.02,3
44.49604700,44496047,0.0,-0.14,0.0,0.38,135.83,135.83,0.0,0.02,3
44.59603300,44596033,0.0,-0.14,0.0,0.38,135.85,135.85,0.0,0.01,3
44.69588400,44695884,0.0,-0.14,0.0,0.39,135.86,135.86,0.0,0.01,3
44.79621000,44796210,0.0,-0.13,0.0,0.39,135.87,135.87,0.0,0.01,3
44.89617000,44896170,0.0,-0.14,0.0,0.39,135.87,135.87,0.0,0.01,3
44.99624000,44996240,0.0,-0.14,0.0,0.39,135.89000000000001,135.89000000000001,0.0,0.01,3
45.09623300,45096233,0.0,-0.14,0.0,0.39,135.9,135.9,0.0,0.01,3
45.19623800,45196238,0.0,-0.14,0.0,0.39,135.91,135.91,0.0,0.01,3
45.29627100,45296271,0.0,-0.14,0.0,0.39,135.92000000000002,135.92000000000002,0.0,0.02,3
45.39626600,45396266,0.0,-0.14,0.0,0.39,135.93,135.93,0.0,0.02,3
45.49623300,45496233,0.0,-0.14,0.0,0.4,135.95,135.95,0.0,0.02,3
45.59615200,45596152,0.0,-0.14,0.0,0.39,135.97,135.97,0.0,0.03,3
45.69651900,45696519,0.0,-0.14,0.0,0.39,135.97,135.97,0.0,0.09,3
45.79620700,45796207,0.0,-0.14,0.0,0.4,135.94,135.94,0.0,0.09,3
45.89629800,45896298,0.0,-0.14,0.0,0.4,135.86,135.86,0.0,0.08,3
45.99629200,45996292,0.0,-0.14,0.0,0.39,135.77,135.77,0.0,0.07,3
46.09607000,46096070,0.0,-0.14,0.0,0.39,135.7,135.7,0.0,0.06,3
46.19609700,46196097,0.0,-0.14,0.0,0.39,135.65,135.65,0.0,0.05,3
46.29605600,46296056,0.0,-0.14,0.0,0.39,135.63,135.63,0.0,0.04,3
46.39602300,46396023,0.0,-0.14,0.0,0.39,135.63,135.63,0.0,0.04,3
46.49588800,46495888,0.0,-0.14,0.0,0.39,135.64000000000001,135.64000000000001,0.0,0.03,3
46.59629300,46596293,0.0,-0.14,0.0,0.39,135.66,135.66,0.0,0.03,3
46.69619800,46696198,0.0,-0.14,0.0,0.39,135.68,135.68,0.0,0.03,3
46.79627800,46796278,0.0,-0.14,0.0,0.39,135.69,135.69,0.0,0.03,3
46.89625300,46896253,0.0,-0.14,0.0,0.39,135.71,135.71,0.0,0.02,3
46.99606800,46996068,0.0,-0.14,0.0,0.39,135.72,135.72,0.0,0.02,3
47.09607700,47096077,0.0,-0.14,0.0,0.39,135.73,135.73,0.0,0.02,3
47.19606200,47196062,0.0,-0.14,0.0,0.39,135.74,135.74,0.0,0.01,3
47.29604500,47296045,0.0,-0.14,0.0,0.39,135.75,135.75,0.0,0.01,3
47.39594600,47395946,0.0,-0.14,0.0,0.39,135.75,135.75,0.0,0.02,3
47.49592900,47495929,0.0,-0.14,0.0,0.39,135.76,135.76,0.0,0.02,3
47.59600400,47596004,0.0,-0.14,0.0,0.39,135.77,135.77,0.0,0.02,3
47.69630900,47696309,0.0,-0.14,0.0,0.39,135.78,135.78,0.0,0.02,3
47.79627300,47796273,0.0,-0.14,0.0,0.39,135.79,135.79,0.0,0.02,3
47.89605000,47896050,0.0,-0.14,0.0,0.39,135.8,135.8,0.0,0.01,3
47.99608400,47996084,0.0,-0.14,0.0,0.39,135.81,135.81,0.0,0.01,3
48.09600100,48096001,0.0,-0.13,0.0,0.39,135.82,135.82,0.0,0.01,3
48.19596100,48195961,0.0,-0.13,0.0,0.39,135.83,135.83,0.0,0.01,3
48.29588300,48295883,0.0,-0.13,0.0,0.39,135.83,135.83,0.0,0.01,3
48.39597000,48395970,0.0,-0.13,0.0,0.39,135.84,135.84,0.0,0.02,3
48.49597700,48495977,0.0,-0.13,0.0,0.4,135.84,135.84,0.0,0.07,3
48.59636200,48596362,0.0,-0.13,0.0,0.39,135.81,135.81,0.0,0.09,3
48.69628400,48696284,0.0,-0.13,0.0,0.39,135.74,135.74,0.0,0.08,3
48.79607600,48796076,0.0,-0.13,0.0,0.4,135.66,135.66,0.0,0.07,3
48.89605500,48896055,0.0,-0.12,0.0,0.4,135.59,135.59,0.0,0.06,3
48.99605500,48996055,0.0,-0.12,0.0,0.4,135.55,135.55,0.0,0.05,3
49.09592000,49095920,0.0,-0.12,0.0,0.39,135.52,135.52,0.0,0.04,3
49.19588300,49195883,0.0,-0.12,0.0,0.39,135.52,135.52,0.0,0.04,3
49.29594400,49295944,0.0,-0.12,0.0,0.39,135.52,135.52,0.0,0.04,3
49.39603700,49396037,0.0,-0.12,0.0,0.39,135.53,135.53,0.0,0.03,3
49.49629400,49496294,0.0,-0.12,0.0,0.39,135.55,135.55,0.0,0.03,3
49.59637200,49596372,0.0,-0.12,0.0,0.39,135.57,135.57,0.0,0.03,3
49.69607100,49696071,0.0,-0.12,0.0,0.4,135.58,135.58,0.0,0.03,3
49.79606600,49796066,0.0,-0.12,0.0,0.4,135.6,135.6,0.0,0.02,3
49.89604200,49896042,0.0,-0.12,0.0,0.4,135.61,135.61,0.0,0.02,3
49.99596200,49995962,0.0,-0.12,0.0,0.4,135.62,135.62,0.0,0.02,3
50.09587800,50095878,0.0,-0.12,0.0,0.4,135.63,135.63,0.0,0.02,3
50.19596700,50195967,0.0,-0.12,0.0,0.4,135.64000000000001,135.64000000000001,0.0,0.02,3
50.29601700,50296017,0.0,-0.12,0.0,0.4,135.66,135.66,0.0,0.03,3
50.39612500,50396125,0.0,-0.11,0.0,0.4,135.67000000000002,135.67000000000002,0.0,0.02,3
50.49612600,50496126,0.0,-0.11,0.0,0.39,135.69,135.69,0.0,0.02,3
50.59607000,50596070,0.0,-0.11,0.0,0.4,135.71,135.71,0.0,0.02,3
50.69641500,50696415,0.0,-0.11,0.0,0.4,135.72,135.72,0.0,0.02,3
50.79605600,50796056,0.0,-0.11,0.0,0.4,135.73,135.73,0.0,0.02,3
50.89594500,50895945,0.0,-0.11,0.0,0.39,135.75,135.75,0.0,0.02,3
50.99588500,50995885,0.0,-0.1,0.0,0.38,135.76,135.76,0.0,0.02,3
51.09594200,51095942,0.0,-0.1,0.0,0.38,135.78,135.78,0.0,0.02,3
51.19601300,51196013,0.0,-0.1,0.0,0.38,135.79,135.79,0.0,0.02,3
51.29602400,51296024,0.0,-0.1,0.0,0.38,135.8,135.8,0.0,0.05,3
51.39611000,51396110,0.0,-0.1,0.0,0.38,135.79,135.79,0.0,0.1,3
51.49605000,51496050,0.0,-0.1,0.0,0.38,135.74,135.74,0.0,0.08,3
51.59627000,51596270,0.0,-0.1,0.0,0.38,135.67000000000002,135.67000000000002,0.0,0.07,3
51.69627900,51696279,0.0,-0.1,0.0,0.38,135.61,135.61,0.0,0.06,3
51.79628900,51796289,0.0,-0.1,0.0,0.37,135.56,135.56,0.0,0.05,3
51.89618600,51896186,0.0,-0.1,0.0,0.37,135.54,135.54,0.0,0.04,3
51.99621200,51996212,0.0,-0.1,0.0,0.37,135.52,135.52,0.0,0.04,3
52.09619500,52096195,0.0,-0.1,0.0,0.37,135.52,135.52,0.0,0.03,3
52.19628800,52196288,0.0,-0.1,0.0,0.37,135.53,135.53,0.0,0.03,3
52.29628000,52296280,0.0,-0.1,0.0,0.37,135.54,135.54,0.0,0.03,3
52.39630200,52396302,0.0,-0.1,0.0,0.37,135.56,135.56,0.0,0.02,3
52.49649200,52496492,0.0,-0.1,0.0,0.37,135.57,135.57,0.0,0.02,3
52.59628900,52596289,0.0,-0.11,0.0,0.37,135.58,135.58,0.0,0.02,3
52.69626500,52696265,0.0,-0.11,0.0,0.37,135.59,135.59,0.0,0.02,3
52.79631800,52796318,0.0,-0.11,0.0,0.37,135.6,135.6,0.0,0.02,3
52.89620400,52896204,0.0,-0.11,0.0,0.37,135.61,135.61,0.0,0.02,3
52.99620300,52996203,0.0,-0.11,0.0,0.37,135.62,135.62,0.0,0.02,3
53.09657000,53096570,0.0,-0.11,0.0,0.37,135.63,135.63,0.0,0.02,3
53.19629400,53196294,0.0,-0.12,0.0,0.37,135.64000000000001,135.64000000000001,0.0,0.02,3
53.29628200,53296282,0.0,-0.11,0.0,0.36,135.65,135.65,0.0,0.02,3
53.39637700,53396377,0.0,-0.11,0.0,0.36,135.66,135.66,0.0,0.02,3
53.49627600,53496276,0.0,-0.11,0.0,0.36,135.68,135.68,0.0,0.02,3
53.59628600,53596286,0.0,-0.11,0.0,0.36,135.69,135.69,0.0,0.02,3
53.69618100,53696181,0.0,-0.11,0.0,0.37,135.7,135.7,0.0,0.02,3
53.79620600,53796206,0.0,-0.11,0.0,0.37,135.72,135.72,0.0,0.02,3
53.89619600,53896196,0.0,-0.11,0.0,0.37,135.73,135.73,0.0,0.02,3
53.99656800,53996568,0.0,-0.11,0.0,0.37,135.75,135.75,0.0,0.02,3
54.09652100,54096521,0.0,-0.11,0.0,0.37,135.76,135.76,0.0,0.03,3
54.19627700,54196277,0.0,-0.11,0.0,0.37,135.76,135.76,0.0,0.08,3
54.29625600,54296256,0.0,-0.11,0.0,0.37,135.74,135.74,0.0,0.08,3
54.39629200,54396292,0.0,-0.11,0.0,0.37,135.68,135.68,0.0,0.06,3
54.49625700,54496257,0.0,-0.11,0.0,0.37,135.62,135.62,0.0,0.05,3
54.59617300,54596173,0.0,-0.11,0.0,0.37,135.57,135.57,0.0,0.05,3
54.69615600,54696156,0.0,-0.11,0.0,0.37,135.54,135.54,0.0,0.04,3
54.79621300,54796213,0.0,-0.1,0.0,0.37,135.53,135.53,0.0,0.04,3
54.89675700,54896757,0.0,-0.1,0.0,0.38,135.53,135.53,0.0,0.03,3
54.99657500,54996575,0.0,-0.1,0.0,0.38,135.53,135.53,0.0,0.03,3
55.09627400,55096274,0.0,-0.1,0.0,0.38,135.54,135.54,0.0,0.03,3
55.19627600,55196276,0.0,-0.1,0.0,0.38,135.55,135.55,0.0,0.03,3
55.29627000,55296270,0.0,-0.1,0.0,0.38,135.57,135.57,0.0,0.02,3
55.39630700,55396307,0.0,-0.1,0.0,0.38,135.59,135.59,0.0,0.02,3
55.49617100,55496171,0.0,-0.1,0.0,0.38,135.59,135.59,0.0,0.02,3
55.59620800,55596208,0.0,-0.11,0.0,0.38,135.61,135.61,0.0,0.02,3
55.69619100,55696191,0.0,-0.11,0.0,0.38,135.62,135.62,0.0,0.02,3
55.79659400,55796594,0.0,-0.11,0.0,0.38,135.63,135.63,0.0,0.02,3
55.89627300,55896273,0.0,-0.11,0.0,0.38,135.64000000000001,135.64000000000001,0.0,0.02,3
55.99627600,55996276,0.0,-0.11,0.0,0.38,135.65,135.65,0.0,0.02,3
56.09627400,56096274,0.0,-0.11,0.0,0.38,135.66,135.66,0.0,0.02,3
56.19630700,56196307,0.0,-0.11,0.0,0.38,135.67000000000002,135.67000000000002,0.0,0.02,3
56.29628600,56296286,0.0,-0.1,0.0,0.38,135.67000000000002,135.67000000000002,0.0,0.02,3
56.39622800,56396228,0.0,-0.1,0.0,0.38,135.69,135.69,0.0,0.02,3
56.49619400,56496194,0.0,-0.1,0.0,0.38,135.69,135.69,0.0,0.02,3
56.59649600,56596496,0.0,-0.1,0.0,0.38,135.7,135.7,0.0,0.02,3
56.69646300,56696463,0.0,-0.1,0.0,0.38,135.71,135.71,0.0,0.02,3
56.79627400,56796274,0.0,-0.1,0.0,0.38,135.72,135.72,0.0,0.02,3
56.89626200,56896262,0.0,-0.1,0.0,0.39,135.72,135.72,0.0,0.02,3
56.99641400,56996414,0.0,-0.11,0.0,0.39,135.73,135.73,0.0,0.08,3
57.09626700,57096267,0.0,-0.11,0.0,0.39,135.71,135.71,0.0,0.1,3
57.19627200,57196272,0.0,-0.11,0.0,0.4,135.65,135.65,0.0,0.08,3
57.29589200,57295892,0.0,-0.11,0.0,0.4,135.59,135.59,0.0,0.07,3
57.39599200,57395992,0.0,-0.11,0.0,0.4,135.53,135.53,0.0,0.06,3
57.49599400,57495994,0.0,-0.11,0.0,0.4,135.5,135.5,0.0,0.05,3
57.59609500,57596095,0.0,-0.11,0.0,0.4,135.48,135.48,0.0,0.05,3
57.69605800,57696058,0.0,-0.11,0.0,0.4,135.48,135.48,0.0,0.04,3
57.79642200,57796422,0.0,-0.11,0.0,0.4,135.49,135.49,0.0,0.04,3
57.89627400,57896274,0.0,-0.11,0.0,0.4,135.49,135.49,0.0,0.03,3
57.99607000,57996070,0.0,-0.11,0.0,0.4,135.51,135.51,0.0,0.03,3
58.09600900,58096009,0.0,-0.11,0.0,0.4,135.52,135.52,0.0,0.03,3
58.19588200,58195882,0.0,-0.11,0.0,0.4,135.54,135.54,0.0,0.03,3
58.29595200,58295952,0.0,-0.11,0.0,0.4,135.55,135.55,0.0,0.03,3
58.39605000,58396050,0.0,-0.11,0.0,0.4,135.56,135.56,0.0,0.03,3
58.49607900,58496079,0.0,-0.11,0.0,0.4,135.58,135.58,0.0,0.03,3
58.59606900,58596069,0.0,-0.11,0.0,0.4,135.59,135.59,0.0,0.03,3
58.69606100,58696061,0.0,-0.11,0.0,0.4,135.6,135.6,0.0,0.03,3
58.79629800,58796298,0.0,-0.11,0.0,0.41000000000000003,135.62,135.62,0.0,0.03,3
58.89599900,58895999,0.0,-0.11,0.0,0.4,135.63,135.63,0.0,0.03,3
58.99595400,58995954,0.0,-0.11,0.0,0.4,135.64000000000001,135.64000000000001,0.0,0.02,3
59.09588500,59095885,0.0,-0.11,0.0,0.4,135.65,135.65,0.0,0.02,3
59.19593800,59195938,0.0,-0.1,0.0,0.4,135.66,135.66,0.0,0.02,3
59.29598000,59295980,0.0,-0.1,0.0,0.39,135.67000000000002,135.67000000000002,0.0,0.02,3
59.39611500,59396115,0.0,-0.1,0.0,0.39,135.67000000000002,135.67000000000002,0.0,0.01,3
59.49605700,59496057,0.0,-0.1,0.0,0.4,135.68,135.68,0.0,0.02,3
59.59631100,59596311,0.0,-0.1,0.0,0.4,135.68,135.68,0.0,0.02,3
59.69627800,59696278,0.0,-0.1,0.0,0.4,135.68,135.68,0.0,0.02,3
59.79606400,59796064,0.0,-0.1,0.0,0.4,135.69,135.69,0.0,0.07,3
59.89623500,59896235,0.0,-0.1,0.0,0.4,135.67000000000002,135.67000000000002,0.0,0.1,3
59.99614900,59996149,0.0,-0.1,0.0,0.4,135.62,135.62,0.0,0.08,3
60.09618300,60096183,0.0,-0.1,0.0,0.4,135.56,135.56,0.0,0.07,3
60.19619000,60196190,0.0,-0.1,0.0,0.4,135.51,135.51,0.0,0.06,3
60.29626100,60296261,0.0,-0.1,0.0,0.41000000000000003,135.47,135.47,0.0,0.05,3
60.39628900,60396289,0.0,-0.1,0.0,0.4,135.45,135.45,0.0,0.04,3
60.49646200,60496462,0.0,-0.1,0.0,0.4,135.45,135.45,0.0,0.04,3
60.59627400,60596274,0.0,-0.1,0.0,0.4,135.45,135.45,0.0,0.04,3
60.69606200,60696062,0.0,-0.1,0.0,0.4,135.46,135.46,0.0,0.03,3
60.79595200,60795952,0.0,-0.1,0.0,0.41000000000000003,135.47,135.47,0.0,0.03,3
60.89587900,60895879,0.0,-0.1,0.0,0.41000000000000003,135.48,135.48,0.0,0.03,3
60.99594700,60995947,0.0,-0.1,0.0,0.41000000000000003,135.49,135.49,0.0,0.03,3
61.09619600,61096196,0.0,-0.1,0.0,0.41000000000000003,135.5,135.5,0.0,0.02,3
61.19627100,61196271,0.0,-0.1,0.0,0.41000000000000003,135.51,135.51,0.0,0.02,3
61.29627700,61296277,0.0,-0.1,0.0,0.41000000000000003,135.52,135.52,0.0,0.02,3
61.39609200,61396092,0.0,-0.11,0.0,0.41000000000000003,135.53,135.53,0.0,0.02,3
61.49606500,61496065,0.0,-0.11,0.0,0.42,135.54,135.54,0.0,0.03,3
61.59607200,61596072,0.0,-0.11,0.0,0.42,135.55,135.55,0.0,0.02,3
61.69594700,61695947,0.0,-0.11,0.0,0.42,135.56,135.56,0.0,0.02,3
61.79588700,61795887,0.0,-0.11,0.0,0.42,135.58,135.58,0.0,0.02,3
61.89594500,61895945,0.0,-0.11,0.0,0.42,135.58,135.58,0.0,0.02,3
61.99599300,61995993,0.0,-0.11,0.0,0.42,135.6,135.6,0.0,0.02,3
62.09629800,62096298,0.0,-0.11,0.0,0.42,135.61,135.61,0.0,0.02,3
62.19626300,62196263,0.0,-0.11,0.0,0.42,135.62,135.62,0.0,0.02,3
62.29604900,62296049,0.0,-0.12,0.0,0.42,135.63,135.63,0.0,0.02,3
62.39610800,62396108,0.0,-0.12,0.0,0.42,135.64000000000001,135.64000000000001,0.0,0.02,3
62.49605500,62496055,0.0,-0.12,0.0,0.43,135.65,135.65,0.0,0.02,3
62.59595000,62595950,0.0,-0.12,0.0,0.43,135.66,135.66,0.0,0.04,3
62.69587500,62695875,0.0,-0.12,0.0,0.43,135.66,135.66,0.0,0.1,3
62.79595100,62795951,0.0,-0.12,0.0,0.43,135.63,135.63,0.0,0.1,3
62.89598800,62895988,0.0,-0.12,0.0,0.43,135.57,135.57,0.0,0.08,3
62.99627500,62996275,0.0,-0.12,0.0,0.43,135.51,135.51,0.0,0.07,3
63.09626800,63096268,0.0,-0.12,0.0,0.44,135.47,135.47,0.0,0.06,3
63.19623300,63196233,0.0,-0.12,0.0,0.43,135.45,135.45,0.0,0.06,3
63.29639800,63296398,0.0,-0.12,0.0,0.44,135.44,135.44,0.0,0.05,3
63.39629400,63396294,0.0,-0.12,0.0,0.44,135.45,135.45,0.0,0.04,3
63.49624400,63496244,0.0,-0.13,0.0,0.44,135.46,135.46,0.0,0.04,3
63.59615100,63596151,0.0,-0.13,0.0,0.44,135.47,135.47,0.0,0.03,3
63.69609600,63696096,0.0,-0.13,0.0,0.44,135.48,135.48,0.0,0.03,3
63.79612700,63796127,0.0,-0.13,0.0,0.44,135.49,135.49,0.0,0.03,3
63.89653300,63896533,0.0,-0.13,0.0,0.45,135.5,135.5,0.0,0.03,3
63.99626300,63996263,0.0,-0.13,0.0,0.45,135.51,135.51,0.0,0.03,3
64.09605100,64096051,0.0,-0.13,0.0,0.45,135.52,135.52,0.0,0.03,3
64.19610000,64196100,0.0,-0.14,0.0,0.45,135.54,135.54,0.0,0.03,3
64.29605000,64296050,0.0,-0.14,0.0,0.45,135.55,135.55,0.0,0.03,3
64.39601900,64396019,0.0,-0.14,0.0,0.45,135.56,135.56,0.0,0.03,3
64.49586600,64495866,0.0,-0.15,0.0,0.45,135.57,135.57,0.0,0.03,3
64.59598900,64595989,0.0,-0.14,0.0,0.45,135.58,135.58,0.0,0.02,3
64.69597500,64695975,0.0,-0.14,0.0,0.45,135.6,135.6,0.0,0.02,3
64.79603900,64796039,0.0,-0.14,0.0,0.45,135.61,135.61,0.0,0.02,3
64.89604700,64896047,0.0,-0.14,0.0,0.45,135.62,135.62,0.0,0.02,3
64.99605500,64996055,0.0,-0.14,0.0,0.45,135.63,135.63,0.0,0.03,3
65.09626800,65096268,0.0,-0.14,0.0,0.45,135.64000000000001,135.64000000000001,0.0,0.02,3
65.19605600,65196056,0.0,-0.13,0.0,0.45,135.65,135.65,0.0,0.03,3
65.29594300,65295943,0.0,-0.13,0.0,0.45,135.66,135.66,0.0,0.02,3
65.39594700,65395947,0.0,-0.13,0.0,0.45,135.67000000000002,135.67000000000002,0.0,0.03,3
65.49592900,65495929,0.0,-0.13,0.0,0.45,135.68,135.68,0.0,0.09,3
65.59601000,65596010,0.0,-0.13,0.0,0.46,135.65,135.65,0.0,0.1,3
65.69602500,65696025,0.0,-0.13,0.0,0.46,135.6,135.6,0.0,0.09,3
65.79606500,65796065,0.0,-0.12,0.0,0.46,135.54,135.54,0.0,0.08,3
65.89605700,65896057,0.0,-0.12,0.0,0.46,135.5,135.5,0.0,0.07,3
65.99629400,65996294,0.0,-0.12,0.0,0.46,135.46,135.46,0.0,0.06,3
66.09627100,66096271,0.0,-0.13,0.0,0.46,135.44,135.44,0.0,0.05,3
66.19627900,66196279,0.0,-0.12,0.0,0.46,135.44,135.44,0.0,0.04,3
66.29615700,66296157,0.0,-0.12,0.0,0.46,135.44,135.44,0.0,0.04,3
66.39633700,66396337,0.0,-0.12,0.0,0.46,135.45,135.45,0.0,0.04,3
66.49619000,66496190,0.0,-0.12,0.0,0.46,135.46,135.46,0.0,0.03,3
66.59629700,66596297,0.0,-0.12,0.0,0.46,135.48,135.48,0.0,0.03,3
66.69625500,66696255,0.0,-0.12,0.0,0.46,135.49,135.49,0.0,0.03,3
66.79626300,66796263,0.0,-0.12,0.0,0.46,135.51,135.51,0.0,0.03,3
66.89650100,66896501,0.0,-0.12,0.0,0.46,135.52,135.52,0.0,0.03,3
66.99627000,66996270,0.0,-0.12,0.0,0.45,135.53,135.53,0.0,0.03,3
67.09625100,67096251,0.0,-0.12,0.0,0.45,135.55,135.55,0.0,0.04,3
67.19618100,67196181,0.0,-0.11,0.0,0.45,135.56,135.56,0.0,0.03,3
67.29621000,67296210,0.0,-0.11,0.0,0.45,135.58,135.58,0.0,0.03,3
67.39624500,67396245,0.0,-0.11,0.0,0.45,135.6,135.6,0.0,0.03,3
67.49635900,67496359,0.0,-0.11,0.0,0.45,135.61,135.61,0.0,0.02,3
67.59628600,67596286,0.0,-0.11,0.0,0.45,135.63,135.63,0.0,0.02,3
67.69627100,67696271,0.0,-0.11,0.0,0.45,135.63,135.63,0.0,0.02,3
67.79649500,67796495,0.0,-0.11,0.0,0.45,135.64000000000001,135.64000000000001,0.0,0.02,3
67.89626100,67896261,0.0,-0.11,0.0,0.45,135.64000000000001,135.64000000000001,0.0,0.02,3
67.99626800,67996268,0.0,-0.11,0.0,0.45,135.65,135.65,0.0,0.02,3
68.09588600,68095886,0.0,-0.11,0.0,0.45,135.66,135.66,0.0,0.02,3
68.19594200,68195942,0.0,-0.11,0.0,0.45,135.67000000000002,135.67000000000002,0.0,0.02,3
68.29600900,68296009,0.0,-0.11,0.0,0.45,135.69,135.69,0.0,0.06,3
68.39610400,68396104,0.0,-0.1,0.0,0.45,135.68,135.68,0.0,0.1,3
68.49605700,68496057,0.0,-0.1,0.0,0.45,135.65,135.65,0.0,0.09,3
68.59606400,68596064,0.0,-0.1,0.0,0.44,135.6,135.6,0.0,0.08,3
68.69626600,68696266,0.0,-0.1,0.0,0.44,135.56,135.56,0.0,0.07,3
68.79629000,68796290,0.0,-0.1,0.0,0.44,135.53,135.53,0.0,0.06,3
68.89624300,68896243,0.0,-0.09,0.0,0.44,135.53,135.53,0.0,0.05,3
68.99588600,68995886,0.0,-0.09,0.0,0.44,135.53,135.53,0.0,0.05,3
69.09592700,69095927,0.0,-0.09,0.0,0.44,135.54,135.54,0.0,0.04,3
69.19599100,69195991,0.0,-0.1,0.0,0.44,135.55,135.55,0.0,0.04,3
69.29603500,69296035,0.0,-0.09,0.0,0.44,135.57,135.57,0.0,0.04,3
69.39609500,69396095,0.0,-0.09,0.0,0.44,135.58,135.58,0.0,0.03,3
69.49605000,69496050,0.0,-0.08,0.0,0.44,135.59,135.59,0.0,0.03,3
69.59622700,69596227,0.0,-0.08,0.0,0.45,135.6,135.6,0.0,0.03,3
69.69599700,69695997,0.0,-0.08,0.0,0.44,135.62,135.62,0.0,0.03,3
69.79627900,69796279,0.0,-0.08,0.0,0.44,135.63,135.63,0.0,0.03,3
69.89586400,69895864,0.0,-0.08,0.0,0.44,135.64000000000001,135.64000000000001,0.0,0.03,3
69.99595600,69995956,0.0,-0.08,0.0,0.44,135.65,135.65,0.0,0.03,3
70.09599700,70095997,0.0,-0.08,0.0,0.44,135.66,135.66,0.0,0.03,3
70.19602900,70196029,0.0,-0.08,0.0,0.45,135.67000000000002,135.67000000000002,0.0,0.02,3
70.29606600,70296066,0.0,-0.07,0.0,0.45,135.68,135.68,0.0,0.02,3
70.39609900,70396099,0.0,-0.07,0.0,0.44,135.69,135.69,0.0,0.02,3
70.49606700,70496067,0.0,-0.07,0.0,0.45,135.7,135.7,0.0,0.02,3
70.59605500,70596055,0.0,-0.07,0.0,0.45,135.71,135.71,0.0,0.02,3
70.69626300,70696263,0.0,-0.06,0.0,0.44,135.72,135.72,0.0,0.01,3
70.79593000,70795930,0.0,-0.06,0.0,0.44,135.72,135.72,0.0,0.02,3
70.89592800,70895928,0.0,-0.06,0.0,0.45,135.73,135.73,0.0,0.02,3
70.99599900,70995999,0.0,-0.06,0.0,0.45,135.74,135.74,0.0,0.02,3
71.09608400,71096084,0.0,-0.06,0.0,0.44,135.75,135.75,0.0,0.03,3
71.19607300,71196073,0.0,-0.06,0.0,0.45,135.75,135.75,0.0,0.09,3
71.29604600,71296046,0.0,-0.06,0.0,0.45,135.73,135.73,0.0,0.08,3
71.39610200,71396102,0.0,-0.06,0.0,0.45,135.69,135.69,0.0,0.06,3
71.49599500,71495995,0.0,-0.06,0.0,0.45,135.65,135.65,0.0,0.05,3
71.59594700,71595947,0.0,-0.05,0.0,0.44,135.62,135.62,0.0,0.05,3
71.69588400,71695884,0.0,-0.05,0.0,0.44,135.61,135.61,0.0,0.04,3
71.79619900,71796199,0.0,-0.05,0.0,0.44,135.6,135.6,0.0,0.04,3
71.89620500,71896205,0.0,-0.05,0.0,0.44,135.61,135.61,0.0,0.03,3
71.99603600,71996036,0.0,-0.05,0.0,0.44,135.62,135.62,0.0,0.03,3
72.09606100,72096061,0.0,-0.05,0.0,0.44,135.63,135.63,0.0,0.03,3
72.19605300,72196053,0.0,-0.05,0.0,0.45,135.64000000000001,135.64000000000001,0.0,0.02,3
72.29604300,72296043,0.0,-0.06,0.0,0.44,135.65,135.65,0.0,0.02,3
72.39607800,72396078,0.0,-0.05,0.0,0.44,135.66,135.66,0.0,0.02,3
72.49592100,72495921,0.0,-0.05,0.0,0.44,135.67000000000002,135.67000000000002,0.0,0.02,3
72.59587700,72595877,0.0,-0.06,0.0,0.44,135.67000000000002,135.67000000000002,0.0,0.02,3
72.69617600,72696176,0.0,-0.05,0.0,0.44,135.68,135.68,0.0,0.02,3
72.79622400,72796224,0.0,-0.05,0.0,0.44,135.69,135.69,0.0,0.02,3
72.89609200,72896092,0.0,-0.05,0.0,0.44,135.7,135.7,0.0,0.02,3
72.99608900,72996089,0.0,-0.05,0.0,0.45,135.71,135.71,0.0,0.02,3
73.09606300,73096063,0.0,-0.05,0.0,0.45,135.72,135.72,0.0,0.02,3
73.19609200,73196092,0.0,-0.05,0.0,0.45,135.73,135.73,0.0,0.02,3
73.29599600,73295996,0.0,-0.05,0.0,0.45,135.74,135.74,0.0,0.02,3
73.39603100,73396031,0.0,-0.05,0.0,0.45,135.75,135.75,0.0,0.02,3
73.49587900,73495879,0.0,-0.05,0.0,0.45,135.76,135.76,0.0,0.02,3
73.59620200,73596202,0.0,-0.05,0.0,0.45,135.77,135.77,0.0,0.02,3
73.69600300,73696003,0.0,-0.06,0.0,0.45,135.78,135.78,0.0,0.02,3
73.79602400,73796024,0.0,-0.06,0.0,0.45,135.79,135.79,0.0,0.02,3
73.89604900,73896049,0.0,-0.06,0.0,0.45,135.79,135.79,0.0,0.03,3
73.99605200,73996052,0.0,-0.06,0.0,0.45,135.79,135.79,0.0,0.09,3
74.09605800,74096058,0.0,-0.06,0.0,0.45,135.77,135.77,0.0,0.1,3
74.19607400,74196074,0.0,-0.06,0.0,0.45,135.72,135.72,0.0,0.09,3
74.29592600,74295926,0.0,-0.06,0.0,0.45,135.67000000000002,135.67000000000002,0.0,0.07,3
74.39594700,74395947,0.0,-0.06,0.0,0.45,135.63,135.63,0.0,0.06,3
74.49615600,74496156,0.0,-0.07,0.0,0.45,135.61,135.61,0.0,0.05,3
74.59629200,74596292,0.0,-0.07,0.0,0.45,135.6,135.6,0.0,0.04,3
74.69629700,74696297,0.0,-0.07,0.0,0.45,135.6,135.6,0.0,0.04,3
74.79627600,74796276,0.0,-0.07,0.0,0.45,135.6,135.6,0.0,0.04,3
74.89604500,74896045,0.0,-0.07,0.0,0.45,135.62,135.62,0.0,0.04,3
74.99607600,74996076,0.0,-0.07,0.0,0.45,135.63,135.63,0.0,0.04,3
75.09604900,75096049,0.0,-0.08,0.0,0.45,135.65,135.65,0.0,0.03,3
75.19594800,75195948,0.0,-0.08,0.0,0.45,135.67000000000002,135.67000000000002,0.0,0.03,3
75.29588600,75295886,0.0,-0.08,0.0,0.45,135.68,135.68,0.0,0.03,3
75.39627800,75396278,0.0,-0.08,0.0,0.45,135.69,135.69,0.0,0.02,3
75.49620700,75496207,0.0,-0.08,0.0,0.44,135.7,135.7,0.0,0.02,3
75.59628100,75596281,0.0,-0.08,0.0,0.45,135.71,135.71,0.0,0.02,3
75.69627900,75696279,0.0,-0.08,0.0,0.45,135.71,135.71,0.0,0.02,3
75.79607200,75796072,0.0,-0.08,0.0,0.45,135.72,135.72,0.0,0.02,3
75.89612600,75896126,0.0,-0.08,0.0,0.45,135.72,135.72,0.0,0.02,3
75.99620800,75996208,0.0,-0.09,0.0,0.45,135.73,135.73,0.0,0.02,3
76.09594500,76095945,0.0,-0.09,0.0,0.44,135.74,135.74,0.0,0.02,3
76.19589600,76195896,0.0,-0.09,0.0,0.44,135.74,135.74,0.0,0.02,3
76.29594900,76295949,0.0,-0.1,0.0,0.44,135.75,135.75,0.0,0.01,3
76.39602600,76396026,0.0,-0.1,0.0,0.44,135.76,135.76,0.0,0.01,3
76.49629200,76496292,0.0,-0.1,0.0,0.45,135.77,135.77,0.0,0.02,3
76.59627400,76596274,0.0,-0.1,0.0,0.45,135.78,135.78,0.0,0.02,3
76.69603800,76696038,0.0,-0.1,0.0,0.45,135.79,135.79,0.0,0.02,3
76.79607000,76796070,0.0,-0.1,0.0,0.45,135.8,135.8,0.0,0.06,3
76.89605400,76896054,0.0,-0.1,0.0,0.44,135.79,135.79,0.0,0.09,3
76.99595600,76995956,0.0,-0.1,0.0,0.44,135.76,135.76,0.0,0.08,3
77.09588000,77095880,0.0,-0.1,0.0,0.44,135.72,135.72,0.0,0.07,3
77.19596500,77195965,0.0,-0.1,0.0,0.44,135.69,135.69,0.0,0.06,3
77.29600300,77296003,0.0,-0.1,0.0,0.44,135.67000000000002,135.67000000000002,0.0,0.05,3
77.39630800,77396308,0.0,-0.1,0.0,0.44,135.66,135.66,0.0,0.04,3
77.49626800,77496268,0.0,-0.1,0.0,0.44,135.66,135.66,0.0,0.03,3
77.59623600,77596236,0.0,-0.1,0.0,0.44,135.66,135.66,0.0,0.03,3
77.69624000,77696240,0.0,-0.1,0.0,0.43,135.68,135.68,0.0,0.02,3
77.79625200,77796252,0.0,-0.1,0.0,0.43,135.68,135.68,0.0,0.02,3
77.89624800,77896248,0.0,-0.1,0.0,0.43,135.69,135.69,0.0,0.02,3
77.99622400,77996224,0.0,-0.11,0.0,0.43,135.7,135.7,0.0,0.02,3
78.09612700,78096127,0.0,-0.11,0.0,0.43,135.71,135.71,0.0,0.02,3
78.19618900,78196189,0.0,-0.11,0.0,0.43,135.72,135.72,0.0,0.01,3
78.29655900,78296559,0.0,-0.11,0.0,0.43,135.72,135.72,0.0,0.01,3
78.39634800,78396348,0.0,-0.11,0.0,0.43,135.73,135.73,0.0,0.02,3
78.49604900,78496049,0.0,-0.11,0.0,0.43,135.74,135.74,0.0,0.01,3
78.59611300,78596113,0.0,-0.11,0.0,0.43,135.74,135.74,0.0,0.01,3
78.69605200,78696052,0.0,-0.11,0.0,0.43,135.75,135.75,0.0,0.01,3
78.79595700,78795957,0.0,-0.11,0.0,0.44,135.76,135.76,0.0,0.01,3
78.89588600,78895886,0.0,-0.11,0.0,0.44,135.77,135.77,0.0,0.01,3
78.99594700,78995947,0.0,-0.11,0.0,0.43,135.78,135.78,0.0,0.01,3
79.09597100,79095971,0.0,-0.11,0.0,0.43,135.78,135.78,0.0,0.01,3
79.19600800,79196008,0.0,-0.11,0.0,0.43,135.79,135.79,0.0,0.01,3
79.29626600,79296266,0.0,-0.11,0.0,0.43,135.8,135.8,0.0,0.01,3
79.39609200,79396092,0.0,-0.11,0.0,0.43,135.8,135.8,0.0,0.01,3
79.49605900,79496059,0.0,-0.11,0.0,0.43,135.8,135.8,0.0,0.01,3
79.59610500,79596105,0.0,-0.11,0.0,0.43,135.81,135.81,0.0,0.05,3
79.69590000,79695900,0.0,-0.11,0.0,0.43,135.81,135.81,0.0,0.1,3
79.79588500,79795885,0.0,-0.11,0.0,0.43,135.78,135.78,0.0,0.09,3
79.89626300,79896263,0.0,-0.11,0.0,0.43,135.74,135.74,0.0,0.08,3
79.99620500,79996205,0.0,-0.11,0.0,0.43,135.7,135.7,0.0,0.06,3
80.09602000,80096020,0.0,-0.11,0.0,0.43,135.66,135.66,0.0,0.05,3
80.19605900,80196059,0.0,-0.11,0.0,0.44,135.64000000000001,135.64000000000001,0.0,0.05,3
80.29606300,80296063,0.0,-0.12,0.0,0.44,135.63,135.63,0.0,0.04,3
80.39612000,80396120,0.0,-0.11,0.0,0.44,135.64000000000001,135.64000000000001,0.0,0.04,3
80.49599200,80495992,0.0,-0.11,0.0,0.43,135.65,135.65,0.0,0.04,3
80.59594800,80595948,0.0,-0.11,0.0,0.44,135.66,135.66,0.0,0.03,3
80.69587400,80695874,0.0,-0.11,0.0,0.44,135.67000000000002,135.67000000000002,0.0,0.03,3
80.79617000,80796170,0.0,-0.11,0.0,0.44,135.68,135.68,0.0,0.03,3
80.89618900,80896189,0.0,-0.12,0.0,0.45,135.7,135.7,0.0,0.03,3
80.99601400,80996014,0.0,-0.12,0.0,0.44,135.71,135.71,0.0,0.03,3
81.09605300,81096053,0.0,-0.11,0.0,0.44,135.72,135.72,0.0,0.02,3
81.19606600,81196066,0.0,-0.11,0.0,0.44,135.72,135.72,0.0,0.02,3
81.29608300,81296083,0.0,-0.12,0.0,0.44,135.73,135.73,0.0,0.01,3
81.39612000,81396120,0.0,-0.12,0.0,0.44,135.74,135.74,0.0,0.01,3
81.49590100,81495901,0.0,-0.12,0.0,0.44,135.74,135.74,0.0,0.02,3
81.59588100,81595881,0.0,-0.12,0.0,0.44,135.75,135.75,0.0,0.01,3
81.69615200,81696152,0.0,-0.12,0.0,0.44,135.76,135.76,0.0,0.01,3
81.79620600,81796206,0.0,-0.12,0.0,0.44,135.77,135.77,0.0,0.01,3
81.89606200,81896062,0.0,-0.12,0.0,0.44,135.77,135.77,0.0,0.01,3
81.99607000,81996070,0.0,-0.13,0.0,0.44,135.78,135.78,0.0,0.01,3
82.09604800,82096048,0.0,-0.12,0.0,0.44,135.79,135.79,0.0,0.01,3
82.19616500,82196165,0.0,-0.12,0.0,0.44,135.8,135.8,0.0,0.01,3
82.29605900,82296059,0.0,-0.12,0.0,0.44,135.81,135.81,0.0,0.01,3
82.39602900,82396029,0.0,-0.12,0.0,0.44,135.81,135.81,0.0,0.03,3
82.49586700,82495867,0.0,-0.12,0.0,0.45,135.81,135.81,0.0,0.08,3
82.59595700,82595957,0.0,-0.11,0.0,0.45,135.79,135.79,0.0,0.09,3
82.69599000,82695990,0.0,-0.11,0.0,0.45,135.74,135.74,0.0,0.07,3
82.79628900,82796289,0.0,-0.11,0.0,0.45,135.7,135.7,0.0,0.06,3
82.89628200,82896282,0.0,-0.11,0.0,0.45,135.67000000000002,135.67000000000002,0.0,0.06,3
82.99624000,82996240,0.0,-0.1,0.0,0.45,135.65,135.65,0.0,0.05,3
83.09626500,83096265,0.0,-0.1,0.0,0.45,135.65,135.65,0.0,0.04,3
83.19625000,83196250,0.0,-0.1,0.0,0.44,135.65,135.65,0.0,0.03,3
83.29624600,83296246,0.0,-0.1,0.0,0.44,135.66,135.66,0.0,0.03,3
83.39619000,83396190,0.0,-0.1,0.0,0.45,135.66,135.66,0.0,0.03,3
83.49610800,83496108,0.0,-0.1,0.0,0.45,135.67000000000002,135.67000000000002,0.0,0.02,3
83.59617500,83596175,0.0,-0.1,0.0,0.45,135.68,135.68,0.0,0.02,3
83.69654100,83696541,0.0,-0.1,0.0,0.45,135.68,135.68,0.0,0.02,3
83.79606700,83796067,0.0,-0.1,0.0,0.44,135.69,135.69,0.0,0.02,3
83.89604800,83896048,0.0,-0.09,0.0,0.45,135.7,135.7,0.0,0.02,3
83.99608400,83996084,0.0,-0.09,0.0,0.44,135.71,135.71,0.0,0.01,3
84.09604500,84096045,0.0,-0.1,0.0,0.45,135.71,135.71,0.0,0.01,3
84.19595900,84195959,0.0,-0.1,0.0,0.45,135.72,135.72,0.0,0.01,3
84.29589400,84295894,0.0,-0.1,0.0,0.45,135.72,135.72,0.0,0.01,3
84.39597900,84395979,0.0,-0.1,0.0,0.45,135.73,135.73,0.0,0.01,3
84.49597900,84495979,0.0,-0.1,0.0,0.45,135.73,135.73,0.0,0.01,3
84.59635400,84596354,0.0,-0.1,0.0,0.45,135.74,135.74,0.0,0.01,3
84.69625500,84696255,0.0,-0.1,0.0,0.45,135.75,135.75,0.0,0.01,3
84.79607100,84796071,0.0,-0.1,0.0,0.45,135.75,135.75,0.0,0.01,3
84.89606800,84896068,0.0,-0.09,0.0,0.44,135.75,135.75,0.0,0.01,3
84.99606100,84996061,0.0,-0.09,0.0,0.44,135.76,135.76,0.0,0.01,3
85.09595000,85095950,0.0,-0.08,0.0,0.44,135.76,135.76,0.0,0.0,3
85.19588700,85195887,0.0,-0.08,0.0,0.44,135.77,135.77,0.0,0.0,3
85.29592800,85295928,0.0,-0.08,0.0,0.44,135.77,135.77,0.0,0.05,3
85.39604300,85396043,0.0,-0.09,0.0,0.44,135.76,135.76,0.0,0.09,3
85.49628100,85496281,0.0,-0.09,0.0,0.44,135.73,135.73,0.0,0.07,3
85.59627400,85596274,0.0,-0.09,0.0,0.44,135.69,135.69,0.0,0.06,3
85.69627500,85696275,0.0,-0.09,0.0,0.43,135.65,135.65,0.0,0.05,3
85.79630700,85796307,0.0,-0.09,0.0,0.43,135.62,135.62,0.0,0.04,3
85.89605900,85896059,0.0,-0.09,0.0,0.43,135.61,135.61,0.0,0.03,3
85.99594100,85995941,0.0,-0.08,0.0,0.43,135.6,135.6,0.0,0.03,3
86.09586900,86095869,0.0,-0.08,0.0,0.43,135.6,135.6,0.0,0.03,3
86.19595600,86195956,0.0,-0.08,0.0,0.43,135.61,135.61,0.0,0.03,3
86.29599900,86295999,0.0,-0.08,0.0,0.43,135.61,135.61,0.0,0.02,3
86.39615700,86396157,0.0,-0.08,0.0,0.42,135.63,135.63,0.0,0.03,3
86.49604500,86496045,0.0,-0.08,0.0,0.42,135.63,135.63,0.0,0.02,3
86.59605800,86596058,0.0,-0.08,0.0,0.42,135.65,135.65,0.0,0.02,3
86.69627500,86696275,0.0,-0.08,0.0,0.42,135.65,135.65,0.0,0.01,3
86.79606600,86796066,0.0,-0.07,0.0,0.42,135.66,135.66,0.0,0.01,3
86.89593300,86895933,0.0,-0.08,0.0,0.42,135.66,135.66,0.0,0.02,3
86.99587800,86995878,0.0,-0.08,0.0,0.42,135.66,135.66,0.0,0.01,3
87.09591700,87095917,0.0,-0.08,0.0,0.42,135.66,135.66,0.0,0.01,3
87.19599500,87195995,0.0,-0.08,0.0,0.42,135.66,135.66,0.0,0.01,3
87.29609500,87296095,0.0,-0.08,0.0,0.41000000000000003,135.66,135.66,0.0,0.01,3
87.39610800,87396108,0.0,-0.08,0.0,0.41000000000000003,135.67000000000002,135.67000000000002,0.0,0.02,3
87.49606200,87496062,0.0,-0.08,0.0,0.41000000000000003,135.68,135.68,0.0,0.01,3
87.59627600,87596276,0.0,-0.08,0.0,0.41000000000000003,135.68,135.68,0.0,0.01,3
87.69599700,87695997,0.0,-0.08,0.0,0.41000000000000003,135.69,135.69,0.0,0.01,3
87.79595000,87795950,0.0,-0.08,0.0,0.41000000000000003,135.7,135.7,0.0,0.01,3
87.89588500,87895885,0.0,-0.08,0.0,0.41000000000000003,135.7,135.7,0.0,0.01,3
87.99594700,87995947,0.0,-0.08,0.0,0.41000000000000003,135.7,135.7,0.0,0.01,3
88.09603300,88096033,0.0,-0.08,0.0,0.41000000000000003,135.71,135.71,0.0,0.04,3
88.19610200,88196102,0.0,-0.08,0.0,0.41000000000000003,135.7,135.7,0.0,0.09,3
88.29608200,88296082,0.0,-0.08,0.0,0.41000000000000003,135.67000000000002,135.67000000000002,0.0,0.07,3
88.39637200,88396372,0.0,-0.08,0.0,0.41000000000000003,135.63,135.63,0.0,0.07,3
88.49641700,88496417,0.0,-0.08,0.0,0.41000000000000003,135.59,135.59,0.0,0.06,3
88.59605400,88596054,0.0,-0.08,0.0,0.41000000000000003,135.57,135.57,0.0,0.05,3
88.69587200,88695872,0.0,-0.08,0.0,0.41000000000000003,135.56,135.56,0.0,0.04,3
88.79587700,88795877,0.0,-0.08,0.0,0.41000000000000003,135.55,135.55,0.0,0.04,3
88.89593500,88895935,0.0,-0.08,0.0,0.41000000000000003,135.56,135.56,0.0,0.03,3
88.99600400,88996004,0.0,-0.07,0.0,0.41000000000000003,135.57,135.57,0.0,0.03,3
89.09608900,89096089,0.0,-0.08,0.0,0.41000000000000003,135.57,135.57,0.0,0.02,3
89.19606100,89196061,0.0,-0.08,0.0,0.41000000000000003,135.58,135.58,0.0,0.02,3
89.29605200,89296052,0.0,-0.08,0.0,0.42,135.59,135.59,0.0,0.02,3
89.39610600,89396106,0.0,-0.08,0.0,0.42,135.6,135.6,0.0,0.02,3
89.49599000,89495990,0.0,-0.08,0.0,0.42,135.6,135.6,0.0,0.02,3
89.59631500,89596315,0.0,-0.08,0.0,0.42,135.61,135.61,0.0,0.02,3
89.69588000,89695880,0.0,-0.08,0.0,0.42,135.62,135.62,0.0,0.02,3
89.79597900,89795979,0.0,-0.08,0.0,0.42,135.63,135.63,0.0,0.02,3
89.89601600,89896016,0.0,-0.08,0.0,0.43,135.64000000000001,135.64000000000001,0.0,0.02,3
89.99610000,89996100,0.0,-0.08,0.0,0.43,135.64000000000001,135.64000000000001,0.0,0.01,3
90.09605500,90096055,0.0,-0.08,0.0,0.43,135.65,135.65,0.0,0.02,3
90.19607500,90196075,0.0,-0.08,0.0,0.43,135.65,135.65,0.0,0.02,3
90.29612200,90296122,0.0,-0.08,0.0,0.44,135.65,135.65,0.0,0.01,3
90.39608300,90396083,0.0,-0.08,0.0,0.44,135.66,135.66,0.0,0.01,3
90.49626300,90496263,0.0,-0.09,0.0,0.44,135.66,135.66,0.0,0.01,3
90.59589400,90595894,0.0,-0.09,0.0,0.44,135.67000000000002,135.67000000000002,0.0,0.01,3
90.69599600,90695996,0.0,-0.08,0.0,0.44,135.68,135.68,0.0,0.01,3
90.79603800,90796038,0.0,-0.09,0.0,0.45,135.68,135.68,0.0,0.01,3
90.89609300,90896093,0.0,-0.09,0.0,0.45,135.69,135.69,0.0,0.03,3
90.99605700,90996057,0.0,-0.08,0.0,0.44,135.69,135.69,0.0,0.08,3
91.09624200,91096242,0.0,-0.08,0.0,0.44,135.67000000000002,135.67000000000002,0.0,0.09,3
91.19625600,91196256,0.0,-0.08,0.0,0.44,135.64000000000001,135.64000000000001,0.0,0.07,3
91.29626800,91296268,0.0,-0.08,0.0,0.44,135.6,135.6,0.0,0.06,3
91.39651900,91396519,0.0,-0.08,0.0,0.44,135.57,135.57,0.0,0.05,3
91.49587300,91495873,0.0,-0.08,0.0,0.44,135.55,135.55,0.0,0.04,3
91.59595900,91595959,0.0,-0.07,0.0,0.44,135.53,135.53,0.0,0.03,3
91.69599800,91695998,0.0,-0.07,0.0,0.45,135.53,135.53,0.0,0.03,3
91.79609800,91796098,0.0,-0.07,0.0,0.45,135.54,135.54,0.0,0.03,3
91.89605900,91896059,0.0,-0.07,0.0,0.45,135.54,135.54,0.0,0.03,3
91.99605700,91996057,0.0,-0.07,0.0,0.45,135.55,135.55,0.0,0.02,3
92.09605200,92096052,0.0,-0.08,0.0,0.45,135.56,135.56,0.0,0.02,3
92.19605800,92196058,0.0,-0.08,0.0,0.45,135.56,135.56,0.0,0.01,3
92.29627400,92296274,0.0,-0.08,0.0,0.45,135.57,135.57,0.0,0.01,3
92.39622300,92396223,0.0,-0.08,0.0,0.45,135.58,135.58,0.0,0.01,3
92.49620400,92496204,0.0,-0.09,0.0,0.45,135.58,135.58,0.0,0.01,3
92.59619800,92596198,0.0,-0.09,0.0,0.44,135.59,135.59,0.0,0.01,3
92.69609500,92696095,0.0,-0.09,0.0,0.44,135.59,135.59,0.0,0.01,3
92.79609200,92796092,0.0,-0.09,0.0,0.44,135.59,135.59,0.0,0.01,3
92.89605500,92896055,0.0,-0.09,0.0,0.44,135.59,135.59,0.0,0.01,3
92.99606600,92996066,0.0,-0.09,0.0,0.44,135.6,135.6,0.0,0.01,3
93.09599400,93095994,0.0,-0.1,0.0,0.44,135.61,135.61,0.0,0.01,3
93.19627000,93196270,0.0,-0.09,0.0,0.45,135.62,135.62,0.0,0.01,3
93.29617000,93296170,0.0,-0.09,0.0,0.45,135.62,135.62,0.0,0.01,3
93.39597800,93395978,0.0,-0.1,0.0,0.45,135.63,135.63,0.0,0.01,3
93.49599200,93495992,0.0,-0.1,0.0,0.44,135.64000000000001,135.64000000000001,0.0,0.02,3
93.59603200,93596032,0.0,-0.1,0.0,0.44,135.64000000000001,135.64000000000001,0.0,0.01,3
93.69607400,93696074,0.0,-0.1,0.0,0.44,135.65,135.65,0.0,0.01,3
93.79607100,93796071,0.0,-0.1,0.0,0.44,135.66,135.66,0.0,0.06,3
93.89629400,93896294,0.0,-0.1,0.0,0.44,135.65,135.65,0.0,0.09,3
93.99629300,93996293,0.0,-0.11,0.0,0.44,135.63,135.63,0.0,0.08,3
94.09627200,94096272,0.0,-0.1,0.0,0.44,135.6,135.6,0.0,0.07,3
94.19623400,94196234,0.0,-0.1,0.0,0.44,135.57,135.57,0.0,0.06,3
94.29615500,94296155,0.0,-0.1,0.0,0.44,135.54,135.54,0.0,0.05,3
94.39624500,94396245,0.0,-0.1,0.0,0.44,135.53,135.53,0.0,0.04,3
94.49627100,94496271,0.0,-0.1,0.0,0.43,135.53,135.53,0.0,0.04,3
94.59630800,94596308,0.0,-0.1,0.0,0.43,135.53,135.53,0.0,0.03,3
94.69625700,94696257,0.0,-0.1,0.0,0.43,135.53,135.53,0.0,0.03,3
94.79641200,94796412,0.0,-0.1,0.0,0.43,135.54,135.54,0.0,0.03,3
94.89604700,94896047,0.0,-0.1,0.0,0.42,135.54,135.54,0.0,0.03,3
94.99595700,94995957,0.0,-0.1,0.0,0.42,135.55,135.55,0.0,0.02,3
95.09588500,95095885,0.0,-0.1,0.0,0.42,135.56,135.56,0.0,0.02,3
95.19596700,95195967,0.0,-0.1,0.0,0.41000000000000003,135.56,135.56,0.0,0.03,3
95.29599100,95295991,0.0,-0.1,0.0,0.41000000000000003,135.57,135.57,0.0,0.03,3
95.39612500,95396125,0.0,-0.1,0.0,0.41000000000000003,135.58,135.58,0.0,0.02,3
95.49608100,95496081,0.0,-0.1,0.0,0.41000000000000003,135.59,135.59,0.0,0.02,3
95.59605300,95596053,0.0,-0.1,0.0,0.41000000000000003,135.6,135.6,0.0,0.02,3
95.69626300,95696263,0.0,-0.1,0.0,0.4,135.61,135.61,0.0,0.02,3
95.79628600,95796286,0.0,-0.1,0.0,0.4,135.62,135.62,0.0,0.02,3
95.89626500,95896265,0.0,-0.1,0.0,0.4,135.63,135.63,0.0,0.02,3
95.99590400,95995904,0.0,-0.1,0.0,0.4,135.63,135.63,0.0,0.02,3
96.09593200,96095932,0.0,-0.1,0.0,0.4,135.64000000000001,135.64000000000001,0.0,0.02,3
96.19599100,96195991,0.0,-0.1,0.0,0.4,135.64000000000001,135.64000000000001,0.0,0.02,3
96.29608700,96296087,0.0,-0.1,0.0,0.4,135.65,135.65,0.0,0.02,3
96.39610000,96396100,0.0,-0.11,0.0,0.4,135.65,135.65,0.0,0.02,3
96.49605300,96496053,0.0,-0.1,0.0,0.39,135.67000000000002,135.67000000000002,0.0,0.02,3
96.59629300,96596293,0.0,-0.1,0.0,0.39,135.68,135.68,0.0,0.05,3
96.69628100,96696281,0.0,-0.1,0.0,0.39,135.68,135.68,0.0,0.1,3
96.79629800,96796298,0.0,-0.1,0.0,0.39,135.65,135.65,0.0,0.08,3
96.89589400,96895894,0.0,-0.1,0.0,0.39,135.62,135.62,0.0,0.07,3
96.99594900,96995949,0.0,-0.09,0.0,0.38,135.6,135.6,0.0,0.06,3
97.09598600,97095986,0.0,-0.1,0.0,0.38,135.58,135.58,0.0,0.05,3
97.19610200,97196102,0.0,-0.09,0.0,0.37,135.57,135.57,0.0,0.04,3
97.29604200,97296042,0.0,-0.09,0.0,0.37,135.57,135.57,0.0,0.03,3
97.39608700,97396087,0.0,-0.09,0.0,0.37,135.57,135.57,0.0,0.03,3
97.49605900,97496059,0.0,-0.09,0.0,0.37,135.58,135.58,0.0,0.03,3
97.59605400,97596054,0.0,-0.09,0.0,0.37,135.59,135.59,0.0,0.03,3
97.69626600,97696266,0.0,-0.09,0.0,0.36,135.59,135.59,0.0,0.03,3
97.79589400,97795894,0.0,-0.09,0.0,0.36,135.6,135.6,0.0,0.03,3
97.89596200,97895962,0.0,-0.09,0.0,0.36,135.61,135.61,0.0,0.03,3
97.99601200,97996012,0.0,-0.09,0.0,0.36,135.62,135.62,0.0,0.02,3
98.09608400,98096084,0.0,-0.09,0.0,0.35000000000000003,135.63,135.63,0.0,0.02,3
98.19606900,98196069,0.0,-0.09,0.0,0.35000000000000003,135.63,135.63,0.0,0.02,3
98.29605100,98296051,0.0,-0.09,0.0,0.35000000000000003,135.64000000000001,135.64000000000001,0.0,0.02,3
98.39609500,98396095,0.0,-0.09,0.0,0.36,135.65,135.65,0.0,0.02,3
