timestamp,TimeUS,C,Q1,Q2,Q3,Q4
11.49545600,11495456,2,1.0,0.0,0.0,0.0
11.59552700,11595527,2,1.0,0.0,0.0,0.0
11.69546600,11695466,2,1.0,0.0,0.0,0.0
11.79550900,11795509,2,1.0,0.0,0.0,0.0
11.89548400,11895484,2,1.0,0.0,0.0,0.0
11.99548700,11995487,2,1.0,0.0,0.0,0.0
12.09548800,12095488,2,1.0,0.0,0.0,0.0
12.19548100,12195481,2,1.0,0.0,0.0,0.0
12.29548800,12295488,2,1.0,0.0,0.0,0.0
12.39547800,12395478,2,1.0,0.0,0.0,0.0
12.49550500,12495505,2,0.9999906420707703,-0.0010643820278346539,0.00418976042419672,-1.644965959712863e-05
12.59547100,12595471,2,0.999990701675415,-0.001071476610377431,0.0041775149293243885,-3.729636955540627e-05
12.69551200,12695512,2,0.999990701675415,-0.0010734164388850331,0.00418104836717248,-8.155252544383984e-06
12.79548700,12795487,2,0.999990701675415,-0.0011120275594294071,0.004168829880654812,-2.7045740353059955e-05
12.89548300,12895483,2,0.9999909996986389,-0.001119221094995737,0.004092399030923843,-2.3770753614371642e-05
12.99548200,12995482,2,0.9999909400939941,-0.0011757907923310995,0.004097693134099245,-4.5746714022243395e-05
13.09548500,13095485,2,0.9999909400939941,-0.0011891555041074753,0.004091230686753988,-2.4242346626124345e-05
13.19548300,13195483,2,0.9999911189079285,-0.00116502377204597,0.004054404329508543,-1.53435357788112e-05
13.29544800,13295448,2,0.9999911189079285,-0.001156203681603074,0.00405097845941782,2.308675720996689e-05
13.39548100,13395481,2,0.9999916553497314,-0.0011506068985909224,0.003922890406101942,2.7142144972458482e-05
13.49546500,13495465,2,0.9999919533729553,-0.0011178974527865648,0.003859966527670622,5.3264629968907684e-05
13.59550600,13595506,2,0.9999918937683105,-0.0011248800437897444,0.0038639786653220654,7.13021436240524e-05
13.69548400,13695484,2,0.9999921321868896,-0.0011457873042672873,0.0037928803358227015,7.066476973704994e-05
13.79547100,13795471,2,0.9999926090240479,-0.001096463529393077,0.0036781334783881903,6.0594418755499646e-05
13.89547800,13895478,2,0.9999929666519165,-0.0011005435371771455,0.0035773981362581253,0.00011191859084647149
13.99547700,13995477,2,0.362723708152771,-0.0036342586390674114,0.0002399520599283278,0.9318895936012268
14.09547200,14095472,2,0.36275771260261536,-0.003615203546360135,0.00019334268290549517,0.9318764805793762
14.19545000,14195450,2,0.36277347803115845,-0.003598542418330908,0.00017549887706991285,0.9318704009056091
14.29549200,14295492,2,0.3627706468105316,-0.0035690299700945616,0.00018750730669125915,0.9318715929985046
14.39547100,14395471,2,0.36298927664756775,-0.003509118454530835,0.0001363910996587947,0.9317867159843445
14.49550300,14495503,2,0.36329731345176697,-0.00349122635088861,7.287695189006627e-05,0.9316667318344116
14.59547900,14595479,2,0.3657173216342926,-0.0034689789172261953,7.098825881257653e-05,0.9307194948196411
14.69547400,14695474,2,0.37180647253990173,-0.003410853911191225,2.767373553069774e-05,0.9283040165901184
14.79547600,14795476,2,0.37909117341041565,-0.0034277737140655518,2.716188828344457e-05,0.9253529906272888
14.89547700,14895477,2,0.38471150398254395,-0.003428817493841052,3.418485675865668e-06,0.9230304956436157
14.99547500,14995475,2,0.38801485300064087,-0.003487651003524661,-4.564635673887096e-06,0.9216465353965759
15.09546900,15095469,2,0.3891964852809906,-0.003484125016257167,-2.0231786038493738e-05,0.9211481809616089
15.19549900,15195499,2,0.38878971338272095,-0.0034823536407202482,-9.619131560612004e-06,0.9213199615478516
15.29546000,15295460,2,0.38752174377441406,-0.003530296729877591,-1.309798244619742e-05,0.92185378074646
15.39550900,15395509,2,0.3858858048915863,-0.0035583393182605505,8.592659810346959e-07,0.9225397109985352
15.49548300,15495483,2,0.38419824838638306,-0.003538074204698205,9.13377880351618e-06,0.9232438206672668
15.59548800,15595488,2,0.3826551139354706,-0.003502622712403536,1.9486404198687524e-05,0.9238846302032471
15.69547700,15695477,2,0.38126835227012634,-0.0034759880509227514,7.314453978324309e-05,0.924457848072052
15.79547300,15795473,2,0.3800376355648041,-0.003521770006045699,0.00011345087841618806,0.9249643087387085
15.89547500,15895475,2,0.37895137071609497,-0.003486389759927988,0.00012605309893842787,0.9254100322723389
15.99545900,15995459,2,0.37797555327415466,-0.0034629732836037874,0.00017877986829262227,0.9258090853691101
16.09551300,16095513,2,0.37716394662857056,-0.0034581334330141544,0.0002766759425867349,0.9261400103569031
16.19545900,16195459,2,0.3764677345752716,-0.0034499242901802063,0.0003089428646489978,0.9264232516288757
16.29551500,16295515,2,0.37585586309432983,-0.0034781729336827993,0.00034935137955471873,0.92667156457901
16.39548700,16395487,2,0.37532860040664673,-0.0035119433887302876,0.00039477559039369226,0.9268850684165955
16.49548100,16495481,2,0.37473440170288086,-0.0035523513797670603,0.0004454358131624758,0.9271252751350403
16.59549300,16595493,2,0.37419283390045166,-0.0035863793455064297,0.0005059646791778505,0.9273438453674316
16.69548500,16695485,2,0.3736988306045532,-0.003527725813910365,0.0004733606765512377,0.9275432825088501
16.79547500,16795475,2,0.3733060359954834,-0.0035731582902371883,0.00043213579920120537,0.9277012944221497
16.89546200,16895462,2,0.3729437589645386,-0.003630906343460083,0.00045951365609653294,0.9278467297554016
16.99550400,16995504,2,0.37254855036735535,-0.0036649792455136776,0.0004720670112874359,0.9280053377151489
17.09546000,17095460,2,0.3720870316028595,-0.003651428036391735,0.000501626287586987,0.9281905293464661
17.19550400,17195504,2,0.3715633451938629,-0.0035873998422175646,0.0005221422761678696,0.9284005165100098
17.29550000,17295500,2,0.37101292610168457,-0.003593916306272149,0.0005820264923386276,0.9286205768585205
17.39548600,17395486,2,0.37086573243141174,-0.003561969380825758,0.0006450910004787147,0.9286794662475586
17.49548200,17495482,2,0.37216928601264954,-0.0036015769001096487,0.0006393090006895363,0.9281576871871948
17.59548500,17595485,2,0.37443140149116516,-0.003584938356652856,0.0006408678600564599,0.9272474646568298
17.69548700,17695487,2,0.3765660524368286,-0.0035680816508829594,0.0007699861307628453,0.9263826012611389
17.79544900,17795449,2,0.37805867195129395,-0.0035433729644864798,0.0008761368226259947,0.9257744550704956
17.89550800,17895508,2,0.3788342773914337,-0.0035127101000398397,0.0008482284611091018,0.9254574775695801
17.99546400,17995464,2,0.3788410425186157,-0.0034596931654959917,0.0008184733451344073,0.9254549145698547
18.09550300,18095503,2,0.3783082067966461,-0.003455045400187373,0.0008291861740872264,0.9256728887557983
18.19547400,18195474,2,0.3774861693382263,-0.003453129669651389,0.000825137656647712,0.926008403301239
18.29548700,18295487,2,0.3766903281211853,-0.003438859712332487,0.0008427891880273819,0.9263324737548828
18.39548200,18395482,2,0.37583497166633606,-0.0033587771467864513,0.00090075220214203,0.9266800880432129
18.49547300,18495473,2,0.3751413822174072,-0.003279018448665738,0.0008524823351763189,0.9269614219665527
18.59548000,18595480,2,0.3744610846042633,-0.00333367008715868,0.0008339830674231052,0.9272362589836121
18.69546600,18695466,2,0.3739489018917084,-0.003305479185655713,0.0007864174549467862,0.9274430871009827
18.79551400,18795514,2,0.3734121322631836,-0.0032583391293883324,0.0007961154915392399,0.9276595115661621
18.89547800,18895478,2,0.37287619709968567,-0.003272901987656951,0.0007338302093558013,0.9278750419616699
18.99550300,18995503,2,0.3723578155040741,-0.0032055017072707415,0.00074894999852404,0.9280834197998047
19.09547500,19095475,2,0.37184667587280273,-0.003170906100422144,0.0007338050636462867,0.928288459777832
19.19547100,19195471,2,0.37133824825286865,-0.0031451121903955936,0.000738253933377564,0.92849200963974
19.29548100,19295481,2,0.3708733320236206,-0.003141020657494664,0.0007087592966854572,0.9286778569221497
19.39547800,19395478,2,0.37034618854522705,-0.0031275448855012655,0.0007403693161904812,0.9288882613182068
19.49547300,19495473,2,0.3698958456516266,-0.0031774567905813456,0.0006923953187651932,0.9290675520896912
19.59546700,19595467,2,0.369472861289978,-0.0031568738631904125,0.0006640499923378229,0.9292359352111816
19.69549000,19695490,2,0.3690374195575714,-0.0032168375328183174,0.0006884991889819503,0.9294087290763855
19.79545600,19795456,2,0.3687375783920288,-0.0032351603731513023,0.0006591381970793009,0.9295276999473572
19.89550700,19895507,2,0.3685222268104553,-0.003237313823774457,0.0005797502235509455,0.9296131134033203
19.99548400,19995484,2,0.36833304166793823,-0.003203974338248372,0.0005828790017403662,0.9296882152557373
20.09547100,20095471,2,0.36810123920440674,-0.0031596021726727486,0.0005434241029433906,0.9297801852226257
20.19547500,20195475,2,0.3680824041366577,-0.003146236529573798,0.0005066500161774457,0.9297876954078674
20.29548700,20295487,2,0.3690919578075409,-0.0031276834197342396,0.0004533024039119482,0.9293875098228455
20.39547700,20395477,2,0.37149420380592346,-0.003107573837041855,0.00047471336438320577,0.9284299612045288
20.49545200,20495452,2,0.37425312399864197,-0.003161968430504203,0.00046098127495497465,0.9273210763931274
20.59550200,20595502,2,0.37642353773117065,-0.0031553993467241526,0.0004254661616869271,0.9264422059059143
20.69547200,20695472,2,0.37782883644104004,-0.003095407970249653,0.000432462285971269,0.9258701801300049
20.79550300,20795503,2,0.37843188643455505,-0.0030846416484564543,0.00041382250492461026,0.925623893737793
20.89548500,20895485,2,0.3784363865852356,-0.0030792690813541412,0.000390941888326779,0.9256221055984497
20.99547400,20995474,2,0.37802019715309143,-0.003092546947300434,0.0004102891543880105,0.9257920980453491
21.09547500,21095475,2,0.377370685338974,-0.003154032165184617,0.00041062396485358477,0.9260568022727966
21.19547500,21195475,2,0.3766671121120453,-0.0031493741553276777,0.0003623889060690999,0.9263432621955872
21.29547500,21295475,2,0.37601521611213684,-0.0031610738951712847,0.00035929138539358974,0.9266080260276794
21.39546100,21395461,2,0.3754532039165497,-0.003201010636985302,0.000346802466083318,0.9268357753753662
21.49548100,21495481,2,0.3749835789203644,-0.0032541342079639435,0.0003870913351420313,0.9270256757736206
21.59548500,21595485,2,0.374524861574173,-0.0033095483668148518,0.00041008120751939714,0.9272108674049377
21.69550600,21695506,2,0.3740744888782501,-0.0032854180317372084,0.00034783221781253815,0.9273927807807922
21.79547300,21795473,2,0.3736269474029541,-0.003274699440225959,0.00035143966670148075,0.9275732040405273
21.89547700,21895477,2,0.37317052483558655,-0.003233464900404215,0.00042865535942837596,0.9277570247650146
21.99548100,21995481,2,0.37272384762763977,-0.0032648087944835424,0.0004264413728378713,0.9279364943504333
22.09547200,22095472,2,0.3723126947879791,-0.0032524699345231056,0.00044723795144818723,0.9281015396118164
22.19547900,22195479,2,0.37198102474212646,-0.0032993678469210863,0.0004685405292548239,0.928234338760376
22.29545600,22295456,2,0.3717000186443329,-0.003314287168905139,0.0005251938127912581,0.9283468127250671
22.39550300,22395503,2,0.37147635221481323,-0.0033689988777041435,0.0005132358055561781,0.9284361600875854
22.49547000,22495470,2,0.37123793363571167,-0.003367793280631304,0.0004994282498955727,0.9285315275192261
22.59550400,22595504,2,0.37098783254623413,-0.003370508551597595,0.0005083917058072984,0.9286314845085144
22.69547800,22695478,2,0.3707089424133301,-0.0033270695712417364,0.000537075859028846,0.9287430047988892
22.79544200,22795442,2,0.37040382623672485,-0.003327328711748123,0.0005211587995290756,0.9288647174835205
22.89548100,22895481,2,0.3700515925884247,-0.003328086109831929,0.000537784188054502,0.9290050864219666
22.99549000,22995490,2,0.36963996291160583,-0.0032776049338281155,0.0005504504661075771,0.9291691184043884
23.09551000,23095510,2,0.3699052333831787,-0.0032620143610984087,0.0005584704922512174,0.929063618183136
23.19545700,23195457,2,0.3714621067047119,-0.0032137224916368723,0.0005607493803836405,0.9284423589706421
23.29550400,23295504,2,0.37360769510269165,-0.003273652633652091,0.0005693663842976093,0.9275808334350586
23.39546400,23395464,2,0.3754100799560547,-0.0032807616516947746,0.0005882346304133534,0.926852822303772
23.49550000,23495500,2,0.3765842616558075,-0.0032886273693293333,0.0006046704365871847,0.9263763427734375
23.59547500,23595475,2,0.37709513306617737,-0.003280240809544921,0.0005985231255181134,0.9261685013771057
23.69547700,23695477,2,0.37705665826797485,-0.0033324528485536575,0.0005928501486778259,0.9261839985847473
23.79547900,23795479,2,0.37674716114997864,-0.0033372787293046713,0.0006245936383493245,0.9263098835945129
23.89548500,23895485,2,0.3762829005718231,-0.0032533016055822372,0.0006266326527111232,0.9264988899230957
23.99548800,23995488,2,0.3757272958755493,-0.0032388751860708,0.0006618552724830806,0.926724374294281
24.09546400,24095464,2,0.375196635723114,-0.003306920640170574,0.0006912573589943349,0.926939070224762
24.19550900,24195509,2,0.37469515204429626,-0.0032837698236107826,0.0007328289211727679,0.9271419644355774
24.29547400,24295474,2,0.37424561381340027,-0.003260778496041894,0.0007376642897725105,0.927323579788208
24.39550500,24395505,2,0.3738263249397278,-0.0032767329830676317,0.0007799752056598663,0.927492618560791
24.49547900,24495479,2,0.37349191308021545,-0.003265887964516878,0.0007969899452291429,0.9276273250579834
24.59547300,24595473,2,0.3731802999973297,-0.003276773961260915,0.0008183399913832545,0.927752673625946
24.69548400,24695484,2,0.3729036748409271,-0.003332941560074687,0.0008440787205472589,0.9278637170791626
24.79548500,24795485,2,0.37262028455734253,-0.003387924749404192,0.0008532806532457471,0.9279773235321045
24.89548700,24895487,2,0.37232547998428345,-0.003396130632609129,0.000859273539390415,0.9280956387519836
24.99545400,24995454,2,0.3720106780529022,-0.003461339045315981,0.0007794955745339394,0.9282216429710388
25.09552000,25095520,2,0.37163928151130676,-0.0034856675192713737,0.0007713136146776378,0.9283703565597534
25.19546400,25195464,2,0.3712692856788635,-0.0034570861607789993,0.0008523249998688698,0.9285184144973755
25.29551200,25295512,2,0.3709220588207245,-0.0034459365997463465,0.0008244109922088683,0.9286572337150574
25.39547900,25395479,2,0.370664119720459,-0.003459665924310684,0.0007913996232673526,0.9287601709365845
25.49547100,25495471,2,0.37047696113586426,-0.003466859692707658,0.0007952816667966545,0.928834855556488
25.59547900,25595479,2,0.3702579140663147,-0.0034347374457865953,0.0007112942985258996,0.9289223551750183
25.69547800,25695478,2,0.36997246742248535,-0.0034361048601567745,0.0006426527979783714,0.9290361404418945
25.79547200,25795472,2,0.36962756514549255,-0.003407169133424759,0.0006379398400895298,0.9291735291481018
25.89546500,25895465,2,0.3697880208492279,-0.003442006418481469,0.000665325322188437,0.929109513759613
25.99549000,25995490,2,0.37093958258628845,-0.003471161937341094,0.0006833702209405601,0.9286502599716187
26.09546100,26095461,2,0.37270256876945496,-0.0034164709504693747,0.00071299122646451,0.9279443025588989
26.19550400,26195504,2,0.3744048774242401,-0.0034018943551927805,0.0006818802212364972,0.9272588491439819
26.29547800,26295478,2,0.37563556432724,-0.0034125305246561766,0.0006998355966061354,0.9267609119415283
26.39547700,26395477,2,0.3763258755207062,-0.0034055705182254314,0.0006963079795241356,0.9264808297157288
26.49547500,26495475,2,0.376627653837204,-0.003435640363022685,0.0007013719878159463,0.9263581037521362
26.59547400,26595474,2,0.3765782415866852,-0.0034065083600580692,0.000738810864277184,0.9263782501220703
26.69547900,26695479,2,0.37640509009361267,-0.003484688000753522,0.0007119105430319905,0.9264483451843262
26.79545900,26795459,2,0.3761231005191803,-0.0034291718620806932,0.0006966895307414234,0.9265630841255188
26.89552000,26895520,2,0.3757227063179016,-0.003448902163654566,0.0006844760500825942,0.926725447177887
26.99546500,26995465,2,0.3753400444984436,-0.003458361839875579,0.000663919432554394,0.9268804788589478
27.09550800,27095508,2,0.3749065101146698,-0.003485640976577997,0.0006189714767970145,0.9270558953285217
27.19547600,27195476,2,0.37454938888549805,-0.003466756548732519,0.0005595670663751662,0.9272003173828125
27.29547500,27295475,2,0.374203622341156,-0.003488097107037902,0.0005591134540736675,0.9273398518562317
27.39548500,27395485,2,0.37392380833625793,-0.003542907303199172,0.0005283529171720147,0.9274525046348572
27.49547100,27495471,2,0.373735636472702,-0.0035894131287932396,0.000527937721926719,0.9275281429290771
27.59547600,27595476,2,0.3735678195953369,-0.003638025838881731,0.0005643695476464927,0.9275955557823181
27.69546900,27695469,2,0.3733738362789154,-0.003627300960943103,0.0005082967691123486,0.9276737570762634
27.79550000,27795500,2,0.37318041920661926,-0.003659164533019066,0.0005022435798309743,0.9277514219284058
27.89546500,27895465,2,0.37290459871292114,-0.0036990605294704437,0.0005320729687809944,0.9278621673583984
27.99550500,27995505,2,0.37263429164886475,-0.0037218057550489902,0.000516977277584374,0.9279706478118896
28.09548000,28095480,2,0.3723353147506714,-0.0037682668771594763,0.0005099769914522767,0.9280904531478882
28.19547400,28195474,2,0.3720347285270691,-0.003759862156584859,0.0005028243758715689,0.9282110929489136
28.29547500,28295475,2,0.37173742055892944,-0.003702562302350998,0.00047520484076812863,0.9283304214477539
28.39547500,28395475,2,0.3714510202407837,-0.003717192215844989,0.000476410350529477,0.9284449815750122
28.49547700,28495477,2,0.37118464708328247,-0.0037311657797545195,0.00045633880654349923,0.9285514950752258
28.59547000,28595470,2,0.3709523677825928,-0.003756658174097538,0.0004322952008806169,0.9286441802978516
28.69547800,28695478,2,0.3709140419960022,-0.00371596054174006,0.0004060205537825823,0.9286596775054932
28.79547000,28795470,2,0.37159091234207153,-0.003736853366717696,0.0003814763331320137,0.9283889532089233
28.89550000,28895500,2,0.3730678856372833,-0.0037329401820898056,0.0003314641071483493,0.927796483039856
28.99547600,28995476,2,0.3746786415576935,-0.0037354379892349243,0.00035225015017203987,0.9271471500396729
29.09547400,29095474,2,0.3759436309337616,-0.00376825756393373,0.0003112317353952676,0.9266348481178284
29.19547200,29195472,2,0.37670230865478516,-0.003749503754079342,0.0002583521418273449,0.9263267517089844
29.29547400,29295474,2,0.3770948052406311,-0.003705978859215975,0.00021982620819471776,0.9261672496795654
29.39547900,29395479,2,0.3771042227745056,-0.003654682543128729,0.00019389798399060965,0.9261636137962341
29.49545100,29495451,2,0.3769039511680603,-0.003634306602180004,0.00019498892652336508,0.9262452125549316
29.59548500,29595485,2,0.37665823101997375,-0.003618852701038122,0.00015734211774542928,0.9263452291488647
29.69546900,29695469,2,0.3763098418712616,-0.0036915012169629335,0.00017739151371642947,0.9264864921569824
29.79548100,29795481,2,0.37594398856163025,-0.003660787595435977,0.00013177920482121408,0.9266351461410522
29.89547100,29895471,2,0.37561872601509094,-0.0036357445642352104,0.00013499139458872378,0.9267671704292297
29.99547600,29995476,2,0.3753216564655304,-0.003641716670244932,0.00011919501412194222,0.9268874526023865
30.09546700,30095467,2,0.3750672936439514,-0.0036503036972135305,9.692649473436177e-05,0.9269903898239136
30.19546100,30195461,2,0.374799907207489,-0.0036345634143799543,8.554393571102992e-05,0.9270985722541809
30.29546300,30295463,2,0.3745473623275757,-0.0036676935851573944,8.260058530140668e-05,0.9272005558013916
30.39545200,30395452,2,0.37429872155189514,-0.0036544904578477144,7.077780901454389e-05,0.9273009896278381
30.49549100,30495491,2,0.37403038144111633,-0.003586833132430911,7.251845818245783e-05,0.9274095296859741
30.59545400,30595454,2,0.37373024225234985,-0.003604562021791935,2.6392443032818846e-05,0.9275304675102234
30.69549900,30695499,2,0.373515784740448,-0.0035864764358848333,4.355770943220705e-05,0.9276168942451477
30.79546600,30795466,2,0.3732968866825104,-0.0035765408538281918,-4.973263912688708e-06,0.9277050495147705
30.89546000,30895460,2,0.3730977773666382,-0.003592731663957238,-1.8385779185337014e-05,0.9277850985527039
30.99546300,30995463,2,0.3729149401187897,-0.0035918676294386387,-3.785975422943011e-05,0.9278585910797119
31.09546500,31095465,2,0.37276068329811096,-0.003554933238774538,-4.3137220927746966e-05,0.9279206991195679
31.19546000,31195460,2,0.37261661887168884,-0.003524870378896594,-7.213485514512286e-05,0.9279786944389343
31.29545500,31295455,2,0.3724783658981323,-0.0034869315568357706,-7.932497101137415e-05,0.9280343055725098
31.39548300,31395483,2,0.37232840061187744,-0.00347311794757843,-9.092132677324116e-05,0.9280945658683777
31.49545600,31495456,2,0.3722066879272461,-0.003501140745356679,-7.988630386535078e-05,0.9281432628631592
31.59549800,31595498,2,0.37252748012542725,-0.0034748392645269632,-8.580602298025042e-05,0.9280146360397339
31.69546600,31695466,2,0.37357819080352783,-0.003500620136037469,-7.113343599485233e-05,0.9275920987129211
31.79547300,31795473,2,0.3748447000980377,-0.0034512344282120466,-5.595449692918919e-05,0.9270811676979065
31.89546100,31895461,2,0.37587881088256836,-0.0034445852506905794,-8.137292024912313e-05,0.9266624450683594
31.99546600,31995466,2,0.37655389308929443,-0.0034423223696649075,-7.787419599480927e-05,0.9263883233070374
32.09546000,32095460,2,0.376889169216156,-0.003415898187085986,-9.266322740586475e-05,0.9262520670890808
32.19545600,32195456,2,0.3769214153289795,-0.0034452592954039574,-0.00013738207053393126,0.9262388348579407
32.29547400,32295474,2,0.3767942190170288,-0.0034276184160262346,-0.00010617289080983028,0.9262906312942505
32.39546300,32395463,2,0.37652409076690674,-0.0033979429863393307,-0.00010873152496060356,0.9264006018638611
32.49549400,32495494,2,0.37623846530914307,-0.0033488725312054157,-0.0001722216111375019,0.9265167713165283
32.59547100,32595471,2,0.3759724795818329,-0.003350198268890381,-0.00013910874258726835,0.9266247749328613
32.69546100,32695461,2,0.37576138973236084,-0.0033756988123059273,-0.00021468343038577586,0.9267102479934692
32.79546600,32795466,2,0.3755461573600769,-0.0034290810581296682,-0.00025036948500201106,0.9267973303794861
32.89548200,32895482,2,0.3753066062927246,-0.0033913401421159506,-0.00026139066903851926,0.92689448595047
32.99546300,32995463,2,0.3750637471675873,-0.003368296194821596,-0.0002698918979149312,0.9269928932189941
33.09545000,33095450,2,0.37482163310050964,-0.0033523954916745424,-0.0003209426358807832,0.9270908236503601
33.19546100,33195461,2,0.37457841634750366,-0.003372865030542016,-0.0002966983010992408,0.92718905210495
33.29545200,33295452,2,0.37438955903053284,-0.003414737991988659,-0.000255967810517177,0.9272651672363281
33.39549400,33395494,2,0.3742513060569763,-0.0034296137746423483,-0.00025730987545102835,0.9273209571838379
33.49546400,33495464,2,0.374054878950119,-0.003448263043537736,-0.0003103684284724295,0.9274001121520996
33.59546200,33595462,2,0.373896062374115,-0.0034289078321307898,-0.00032032225863076746,0.9274641871452332
33.69546700,33695467,2,0.3737308382987976,-0.003441829467192292,-0.00030694299493916333,0.9275307655334473
33.79546300,33795463,2,0.37360307574272156,-0.003474667901173234,-0.000346851913491264,0.9275820851325989
33.89546200,33895462,2,0.3733837902545929,-0.003479229984804988,-0.00031451191171072423,0.9276703596115112
33.99544600,33995446,2,0.3731374442577362,-0.0034921567421406507,-0.0002929327602032572,0.9277694225311279
34.09550900,34095509,2,0.37288010120391846,-0.003467734670266509,-0.0002614359254948795,0.9278730154037476
34.19546300,34195463,2,0.37265416979789734,-0.0034932075068354607,-0.0002713267458602786,0.9279636740684509
34.29549200,34295492,2,0.3724331855773926,-0.003470392432063818,-0.0003359610855113715,0.9280524849891663
34.39546200,34395462,2,0.37245407700538635,-0.003366645658388734,-0.0003367647877894342,0.9280444383621216
34.49546000,34495460,2,0.3731161952018738,-0.0033827556762844324,-0.0002865663554985076,0.927778422832489
34.59546500,34595465,2,0.37414535880088806,-0.0034108192194253206,-0.0002687249216251075,0.9273637533187866
34.69546100,34695461,2,0.37509459257125854,-0.0034298545215278864,-0.00024414691142737865,0.9269801378250122
34.79546700,34795467,2,0.3757847845554352,-0.003428148105740547,-0.0002497177920304239,0.9267005920410156
34.89543900,34895439,2,0.3760918080806732,-0.0033897235989570618,-0.0002155318798031658,0.9265761971473694
34.99548000,34995480,2,0.3761618435382843,-0.003418141044676304,-0.00023871101438999176,0.926547646522522
35.09547100,35095471,2,0.37603646516799927,-0.0034258319064974785,-0.0001838367315940559,0.9265984892845154
35.19550000,35195500,2,0.375796914100647,-0.003394011640921235,-0.00016157195204868913,0.9266958236694336
35.29546300,35295463,2,0.3755045533180237,-0.0034179529175162315,-0.00011488141171867028,0.9268142580986023
35.39546700,35395467,2,0.37522754073143005,-0.0034297998063266277,-7.4263836722821e-05,0.9269263744354248
35.49547500,35495475,2,0.37498795986175537,-0.003446357324719429,-7.034157897578552e-05,0.9270232915878296
35.59547400,35595474,2,0.37475359439849854,-0.0034567355178296566,-2.3030570446280763e-05,0.9271180033683777
35.69549300,35695493,2,0.3745150864124298,-0.003451091004535556,3.1609146390110254e-05,0.9272143840789795
35.79545000,35795450,2,0.3742912709712982,-0.0034268046729266644,4.005848313681781e-05,0.9273048639297485
35.89548800,35895488,2,0.37406405806541443,-0.0034301404375582933,7.923142402432859e-05,0.9273965358734131
35.99546600,35995466,2,0.37382808327674866,-0.0034086164087057114,9.833870717557147e-05,0.9274917244911194
36.09548900,36095489,2,0.3736414313316345,-0.003475661389529705,7.876048766775057e-05,0.9275667071342468
36.19546700,36195467,2,0.37335631251335144,-0.0035267239436507225,0.00010927231051027775,0.9276813268661499
36.29547200,36295472,2,0.37317875027656555,-0.0035214361269026995,0.00011857148638227955,0.9277527928352356
36.39547300,36395473,2,0.3729804754257202,-0.003484191372990608,0.00012791222252417356,0.9278326630592346
36.49547700,36495477,2,0.3728781044483185,-0.0035241812001913786,0.00013707314792554826,0.9278736114501953
36.59547100,36595471,2,0.3727492690086365,-0.003512709867209196,0.00014044737326912582,0.9279254674911499
36.69544100,36695441,2,0.37262746691703796,-0.0034575797617435455,0.0001527282438473776,0.9279745817184448
36.79550800,36795508,2,0.3724484443664551,-0.003478833707049489,0.00013510340068023652,0.9280463457107544
36.89547400,36895474,2,0.37228813767433167,-0.0034738315735012293,0.00015470893413294107,0.9281107187271118
36.99549200,36995492,2,0.37213221192359924,-0.003481902414932847,0.00019438554591033608,0.9281731843948364
37.09547700,37095477,2,0.37193673849105835,-0.0034906414803117514,0.0002605806803330779,0.9282515048980713
37.19545900,37195459,2,0.3719279170036316,-0.0034890288952738047,0.0002685382787603885,0.928255021572113
37.29546200,37295462,2,0.37230053544044495,-0.003514517331495881,0.0002685394720174372,0.9281055331230164
37.39546800,37395468,2,0.37314656376838684,-0.003565131686627865,0.0002806198608595878,0.9277655482292175
37.49546800,37495468,2,0.37408149242401123,-0.0035329803358763456,0.0003108437522314489,0.9273890852928162
37.59543800,37595438,2,0.37477388978004456,-0.003502835985273123,0.00036391420871950686,0.9271095395088196
37.69549800,37695498,2,0.37518149614334106,-0.0034936978481709957,0.00033861875999718904,0.9269447326660156
37.79545800,37795458,2,0.375358909368515,-0.0034871180541813374,0.0003437206905800849,0.9268729090690613
37.89548900,37895489,2,0.3753484785556793,-0.003484491491690278,0.0003113085404038429,0.9268771409988403
37.99546800,37995468,2,0.3752105236053467,-0.003494691103696823,0.0002629173395689577,0.9269329905509949
38.09545800,38095458,2,0.3750133514404297,-0.0035240985453128815,0.0002655434363987297,0.9270126819610596
38.19546600,38195466,2,0.3748272657394409,-0.003595618298277259,0.00023345599765889347,0.927087664604187
38.29547300,38295473,2,0.37462079524993896,-0.0035766391083598137,0.00020244729239493608,0.9271711707115173
38.39547300,38395473,2,0.3744491934776306,-0.0036124743055552244,0.0002507451572455466,0.9272403717041016
38.49544300,38495443,2,0.3742174506187439,-0.0036201055627316236,0.00023977039381861687,0.9273338913917542
38.59549100,38595491,2,0.3739885687828064,-0.0036253025755286217,0.00029103169799782336,0.9274261593818665
38.69547300,38695473,2,0.3737761676311493,-0.0036434726789593697,0.0003010941145475954,0.9275117516517639
38.79549200,38795492,2,0.3735973536968231,-0.0035979149397462606,0.00031094218138605356,0.9275839328765869
38.89546000,38895460,2,0.37348347902297974,-0.0036336032208055258,0.0002642124018166214,0.9276296496391296
38.99547200,38995472,2,0.3734283149242401,-0.003657184774056077,0.00031903607305139303,0.9276517629623413
39.09547600,39095476,2,0.3733285665512085,-0.003612911095842719,0.0003423368325456977,0.9276921153068542
39.19547000,39195470,2,0.3732537031173706,-0.0036890606861561537,0.0003425034519750625,0.9277219176292419
39.29546200,39295462,2,0.373137503862381,-0.003670863341540098,0.00032628970802761614,0.9277687072753906
39.39544300,39395443,2,0.37300050258636475,-0.0036227696109563112,0.00034636829514056444,0.9278240203857422
39.49548100,39495481,2,0.3729308843612671,-0.003641321789473295,0.00033719048951752484,0.9278519153594971
39.59546200,39595462,2,0.37288394570350647,-0.0036522401496767998,0.0003869565261993557,0.9278707504272461
39.69549300,39695493,2,0.3727782666683197,-0.003631001338362694,0.0004020342603325844,0.927913248538971
39.79546500,39795465,2,0.3726647198200226,-0.0036101783625781536,0.0004231020575389266,0.9279589653015137
39.89546800,39895468,2,0.3725651800632477,-0.0036067308392375708,0.0004299150314182043,0.9279989004135132
39.99549000,39995490,2,0.3724995255470276,-0.0036495330277830362,0.0004134536429774016,0.9280251264572144
40.09546000,40095460,2,0.3727606534957886,-0.00362822855822742,0.00043573175207711756,0.9279203414916992
40.19546100,40195461,2,0.3735659718513489,-0.0036537195555865765,0.00047819886822253466,0.9275962710380554
40.29544500,40295445,2,0.3745647370815277,-0.003665960393846035,0.0005491286283358932,0.9271933436393738
40.39549100,40395491,2,0.3754279911518097,-0.00370767735876143,0.0005475052166730165,0.9268440008163452
40.49545300,40495453,2,0.3760192394256592,-0.003704731585457921,0.0005233202246017754,0.9266043305397034
40.59549300,40595493,2,0.37627461552619934,-0.003718859050422907,0.0004945991677232087,0.9265006184577942
40.69546500,40695465,2,0.376364141702652,-0.0037768229376524687,0.0005077840178273618,0.9264639616012573
40.79546700,40795467,2,0.3762662708759308,-0.003845465136691928,0.0004572343605104834,0.9265034794807434
40.89547400,40895474,2,0.3760657012462616,-0.0038967838045209646,0.00044236244866624475,0.9265847206115723
40.99546500,40995465,2,0.3759126365184784,-0.0038553024642169476,0.0004607558366842568,0.9266469478607178
41.09546700,41095467,2,0.3757269084453583,-0.0038590142503380775,0.0004700984572991729,0.9267222881317139
41.19543900,41195439,2,0.3756139278411865,-0.0038392734713852406,0.0004893516888841987,0.9267681241035461
41.29549100,41295491,2,0.37547820806503296,-0.003898987313732505,0.0005374731263145804,0.92682284116745
41.39547000,41395470,2,0.3753623068332672,-0.0038920999504625797,0.0005589267238974571,0.926869809627533
41.49550400,41495504,2,0.37525928020477295,-0.0038222186267375946,0.0005735797458328307,0.9269118309020996
41.59546400,41595464,2,0.37515759468078613,-0.0038043910171836615,0.0005116823595017195,0.9269530773162842
41.69546800,41695468,2,0.37503209710121155,-0.0037736278027296066,0.0005356530891731381,0.9270039796829224
41.79547700,41795477,2,0.3749202489852905,-0.003747066482901573,0.0005813586176373065,0.9270493388175964
41.89545900,41895459,2,0.37483829259872437,-0.003722217632457614,0.0005652543623000383,0.9270825386047363
41.99546600,41995466,2,0.37469807267189026,-0.003701501525938511,0.0006131092086434364,0.9271392822265625
42.09544500,42095445,2,0.3745850622653961,-0.0036280755884945393,0.0006032873643562198,0.9271852374076843
42.19548800,42195488,2,0.37445393204689026,-0.0036166065838187933,0.0006327948649413884,0.9272382259368896
42.29545800,42295458,2,0.374335914850235,-0.0036467048339545727,0.0006414118106476963,0.9272857904434204
42.39549600,42395496,2,0.37430882453918457,-0.0036905365996062756,0.0006737627554684877,0.92729651927948
42.49546200,42495462,2,0.3742588460445404,-0.003697108943015337,0.0006932099349796772,0.9273166656494141
42.59546800,42595468,2,0.37418583035469055,-0.0037512448616325855,0.0007008195971138775,0.927345871925354
42.69547800,42695478,2,0.37416988611221313,-0.0036936188116669655,0.0006880826549604535,0.9273525476455688
42.79546400,42795464,2,0.3741230368614197,-0.003694734536111355,0.0006237791385501623,0.9273715019226074
42.89546100,42895461,2,0.3742445409297943,-0.003683854592964053,0.0005916457739658654,0.9273225665092468
42.99545500,42995455,2,0.37477609515190125,-0.003706919262185693,0.0005772992153652012,0.9271077513694763
43.09552200,43095522,2,0.37555745244026184,-0.003679611487314105,0.0005444163689389825,0.9267916679382324
43.19546400,43195464,2,0.3762512803077698,-0.0036918348632752895,0.0005300736520439386,0.9265101552009583
43.29549400,43295494,2,0.3767639696598053,-0.0036878895480185747,0.0005308630643412471,0.9263017773628235
43.39547300,43395473,2,0.3770597577095032,-0.003727889619767666,0.0005285867373459041,0.9261812567710876
43.49544100,43495441,2,0.37722840905189514,-0.0036946558393538,0.0005577374249696732,0.926112711429596
43.59546500,43595465,2,0.37725359201431274,-0.003707387950271368,0.000567535636946559,0.9261023998260498
43.69546700,43695467,2,0.3772205114364624,-0.0037009897641837597,0.0005470447358675301,0.9261159300804138
43.79546200,43795462,2,0.3770945966243744,-0.003661106573417783,0.0005814368487335742,0.9261673092842102
43.89544100,43895441,2,0.37700510025024414,-0.0036035210359841585,0.0006386031163856387,0.9262039661407471
43.99550200,43995502,2,0.3768690526485443,-0.0035423417575657368,0.0006268764846026897,0.9262595772743225
44.09545700,44095457,2,0.3767244517803192,-0.003506810637190938,0.0005754479207098484,0.9263185262680054
44.19549300,44195493,2,0.37663140892982483,-0.0034876149147748947,0.0005804930697195232,0.9263564348220825
44.29546500,44295465,2,0.3765178918838501,-0.003511065850034356,0.0005742704961448908,0.9264025092124939
44.39547000,44395470,2,0.37641122937202454,-0.0034766478929668665,0.0005515844677574933,0.9264460206031799
44.49546200,44495462,2,0.3762703835964203,-0.0034779664129018784,0.0004920840146951377,0.9265032410621643
44.59546600,44595466,2,0.37614569067955017,-0.0034823548048734665,0.0004773821565322578,0.9265538454055786
44.69547500,44695475,2,0.3760881721973419,-0.003501438070088625,0.00046785728773102164,0.9265771508216858
44.79545500,44795455,2,0.3759969472885132,-0.0034819995053112507,0.00048621217138133943,0.9266142249107361
44.89549100,44895491,2,0.3759039342403412,-0.0035109815653413534,0.0005318552139215171,0.9266518354415894
44.99546600,44995466,2,0.3758751153945923,-0.0035322667099535465,0.0005169394426047802,0.9266634583473206
45.09549400,45095494,2,0.3758443295955658,-0.003545207902789116,0.0005561337457038462,0.9266758561134338
45.19546100,45195461,2,0.37581974267959595,-0.0035599558614194393,0.0005902177072130144,0.9266857504844666
45.29546300,45295463,2,0.3757164180278778,-0.0035694220568984747,0.0005814730538986623,0.9267276525497437
45.39546600,45395466,2,0.37561148405075073,-0.0035685752518475056,0.0005578234558925033,0.9267702102661133
45.49545900,45495459,2,0.3754751682281494,-0.0036303368397057056,0.0005804115789942443,0.9268251657485962
45.59546500,45595465,2,0.3753499686717987,-0.0036328458227217197,0.0005661939503625035,0.9268758893013
45.69546800,45695468,2,0.37531426548957825,-0.0036023526918143034,0.000564102956559509,0.9268904328346252
45.79548800,45795488,2,0.3755399286746979,-0.0035857781767845154,0.0005565277533605695,0.9267991185188293
45.89545600,45895456,2,0.3762224316596985,-0.0035696004051715136,0.0005837242933921516,0.9265223145484924
45.99550100,45995501,2,0.37687948346138,-0.003573022084310651,0.0006015289109200239,0.9262552261352539
46.09546600,46095466,2,0.3774575889110565,-0.0034974415320903063,0.0005952613428235054,0.926020085811615
46.19546000,46195460,2,0.37786680459976196,-0.0035112921614199877,0.0005970565252937376,0.9258531332015991
46.29546700,46295467,2,0.37802794575691223,-0.0034832870587706566,0.0006424401071853936,0.9257873892784119
46.39546400,46395464,2,0.37802746891975403,-0.003453086828812957,0.0006559891626238823,0.9257876873016357
46.49547100,46495471,2,0.3779207170009613,-0.0034452860709279776,0.0007187304436229169,0.9258312582969666
46.59544600,46595446,2,0.37778449058532715,-0.0034615476615726948,0.0007540007936768234,0.9258868098258972
46.69549800,46695498,2,0.3776482343673706,-0.0034702871926128864,0.0007770411320962012,0.9259423017501831
46.79546500,46795465,2,0.37746983766555786,-0.0034839045256376266,0.0007636633235961199,0.9260150194168091
46.89548900,46895489,2,0.37734097242355347,-0.0034815226681530476,0.000727709848433733,0.926067590713501
46.99546900,46995469,2,0.377200186252594,-0.003463681787252426,0.0007048600818961859,0.9261249899864197
47.09546600,47095466,2,0.3771342635154724,-0.0034747447352856398,0.0006850679055787623,0.9261518120765686
47.19546300,47195463,2,0.377035528421402,-0.0034332408104091883,0.0006912921089679003,0.9261921644210815
47.29546700,47295467,2,0.3769807815551758,-0.0034196677152067423,0.0006825638120062649,0.9262145161628723
47.39546900,47395469,2,0.3768939971923828,-0.003400701330974698,0.0006805338198319077,0.9262499213218689
47.49544600,47495446,2,0.37681910395622253,-0.0033273273147642612,0.0007263830630108714,0.9262806177139282
47.59549800,47595498,2,0.37672051787376404,-0.0033189288806170225,0.0007103506941348314,0.9263207316398621
47.69545700,47695457,2,0.3766375780105591,-0.0033386461436748505,0.0006802277639508247,0.9263544082641602
47.79548900,47795489,2,0.37649261951446533,-0.003354414366185665,0.0006827833713032305,0.9264132976531982
47.89546100,47895461,2,0.3764423429965973,-0.003363583702594042,0.0006613990990445018,0.9264336824417114
47.99546800,47995468,2,0.3763722777366638,-0.0034142148215323687,0.0006836113170720637,0.9264619946479797
48.09547100,48095471,2,0.3763071894645691,-0.0034400534350425005,0.000664570601657033,0.9264883399009705
48.19546100,48195461,2,0.3763003349304199,-0.0034048825036734343,0.0006389153422787786,0.9264912605285645
48.29546500,48295465,2,0.3762630224227905,-0.0033762254752218723,0.0006423952290788293,0.926506519317627
48.39543800,48395438,2,0.37622249126434326,-0.003338450565934181,0.0006652872543781996,0.9265230894088745
48.49550200,48495502,2,0.3762243092060089,-0.0033299352508038282,0.0006373368669301271,0.926522433757782
48.59545900,48595459,2,0.37646692991256714,-0.0033224651124328375,0.0006582302157767117,0.9264238476753235
48.69549400,48695494,2,0.3770505487918854,-0.0032778633758425713,0.0006091097602620721,0.9261866807937622
48.79546500,48795465,2,0.37772801518440247,-0.0032686188351362944,0.0006182036595419049,0.9259105920791626
48.89546500,48895465,2,0.37822744250297546,-0.0032699790317565203,0.0006163287907838821,0.9257067441940308
48.99547100,48995471,2,0.37859854102134705,-0.0032853467855602503,0.0005680830217897892,0.9255549907684326
49.09546500,49095465,2,0.37881705164909363,-0.0032175956293940544,0.0005824103718623519,0.9254658222198486
49.19546000,49195460,2,0.37890586256980896,-0.0032719371374696493,0.0005999940331093967,0.9254292249679565
49.29543900,49295439,2,0.3788490891456604,-0.0032919689547270536,0.0005893743946217,0.9254524111747742
49.39547300,49395473,2,0.37875834107398987,-0.0033071369398385286,0.0005828735884279013,0.9254895448684692
49.49544800,49495448,2,0.3786426782608032,-0.003322723787277937,0.0005929295439273119,0.9255368113517761
49.59549700,49595497,2,0.37848737835884094,-0.0032728358637541533,0.0005830926238559186,0.9256004691123962
49.69546800,49695468,2,0.37834522128105164,-0.0032610432244837284,0.0005581728182733059,0.925658643245697
49.79545900,49795459,2,0.37819698452949524,-0.00327413366176188,0.0005989559576846659,0.925719141960144
49.89547300,49895473,2,0.37808454036712646,-0.0032807663083076477,0.0005607468774542212,0.9257650971412659
49.99546800,49995468,2,0.3780546486377716,-0.003288776846602559,0.0005568756023421884,0.9257772564888
50.09546400,50095464,2,0.3780004382133484,-0.003279341384768486,0.0005159913562238216,0.9257994890213013
50.19545600,50195456,2,0.377940833568573,-0.003281037788838148,0.0004693440569099039,0.9258238077163696
50.29546700,50295467,2,0.37778109312057495,-0.003212549490854144,0.0003823212464340031,0.9258893132209778
50.39545100,50395451,2,0.37762412428855896,-0.003277135081589222,0.0003620529896579683,0.9259530901908875
50.49549100,50495491,2,0.37746965885162354,-0.0032531856559216976,0.00031513802241533995,0.9260162115097046
50.59546500,50595465,2,0.3773512840270996,-0.0032437583431601524,0.0002609386865515262,0.9260644912719727
50.69546400,50695464,2,0.377216637134552,-0.003280449891462922,0.0002414396294625476,0.9261192083358765
50.79546400,50795464,2,0.3771301805973053,-0.003324700752273202,0.00023701819009147584,0.9261542558670044
50.89546400,50895464,2,0.3770248591899872,-0.003345790784806013,0.0002471324987709522,0.9261970520019531
50.99546500,50995465,2,0.37690287828445435,-0.003328139428049326,0.0002462042903061956,0.9262467622756958
51.09544400,51095444,2,0.37678179144859314,-0.003373378189280629,0.00024374686472583562,0.9262958765029907
51.19548900,51195489,2,0.3766833543777466,-0.0033610244281589985,0.00021454165107570589,0.9263359308242798
51.29546600,51295466,2,0.3766134977340698,-0.0033390726894140244,0.00022812516544945538,0.9263644218444824
51.39550200,51395502,2,0.3766349256038666,-0.0033497768454253674,0.00019090418936684728,0.9263557195663452
51.49546100,51495461,2,0.37693917751312256,-0.0032793800346553326,0.00019422605691943318,0.9262321591377258
51.59546100,51595461,2,0.3774621784687042,-0.0032055038027465343,0.00014890484453644603,0.9260194301605225
51.69546800,51695468,2,0.3779952824115753,-0.003224350744858384,0.00014901370741426945,0.9258018732070923
51.79547100,51795471,2,0.378389447927475,-0.003181378822773695,0.00011229699885006994,0.9256410002708435
51.89546400,51895464,2,0.37858662009239197,-0.003210456110537052,8.18775370134972e-05,0.9255602955818176
51.99546100,51995461,2,0.37866753339767456,-0.003257787087932229,0.0001092154998332262,0.925527036190033
52.09547300,52095473,2,0.37863966822624207,-0.0032436312176287174,0.00011928661115234718,0.9255384802818298
52.19546400,52195464,2,0.3785962462425232,-0.0032785048242658377,0.00012099071318516508,0.9255561232566833
52.29549300,52295493,2,0.3784984350204468,-0.003298057708889246,0.00011704941425705329,0.9255960583686829
52.39546400,52395464,2,0.37843331694602966,-0.003247227054089308,0.00010675354860723019,0.9256228804588318
52.49546800,52495468,2,0.3782864212989807,-0.003248329274356365,0.0001391794066876173,0.9256829023361206
52.59546400,52595464,2,0.3781404495239258,-0.003235205076634884,0.00015205123054329306,0.9257425665855408
52.69547700,52695477,2,0.3780892789363861,-0.0032081049866974354,0.00020241076708771288,0.9257635474205017
52.79547900,52795479,2,0.37800076603889465,-0.0032396852038800716,0.00018805677245836705,0.9257996082305908
52.89546700,52895467,2,0.37791091203689575,-0.003256644820794463,0.00020957167726010084,0.9258362054824829
52.99549800,52995498,2,0.3778313994407654,-0.0032520010136067867,0.00018026615725830197,0.9258686900138855
53.09548200,53095482,2,0.3777439296245575,-0.003263547783717513,0.00017641540034674108,0.9259043335914612
53.19549100,53195491,2,0.37771204113960266,-0.003294166177511215,0.00017037031648214906,0.9259172677993774
53.29546600,53295466,2,0.37766194343566895,-0.0032638050615787506,0.00025280145928263664,0.9259377717971802
53.39547900,53395479,2,0.3775714635848999,-0.0033017355017364025,0.00028399593429639935,0.9259744882583618
53.49547600,53495476,2,0.3774658143520355,-0.0033163363113999367,0.00028173497412353754,0.9260175228118896
53.59547600,53595476,2,0.37732309103012085,-0.003315083682537079,0.00026215764228254557,0.9260756969451904
53.69547100,53695471,2,0.3771965205669403,-0.003384934738278389,0.00031506241066381335,0.926127016544342
53.79544300,53795443,2,0.3771143853664398,-0.0033925550524145365,0.0003076024877373129,0.9261603951454163
53.89548900,53895489,2,0.3769758641719818,-0.0034058070741593838,0.0002954130759462714,0.9262167811393738
53.99546700,53995467,2,0.3768748641014099,-0.003419050946831703,0.00026505489950068295,0.926257848739624
54.09549200,54095492,2,0.3767504096031189,-0.0034659630618989468,0.000248365307925269,0.926308274269104
54.19546300,54195463,2,0.3767382502555847,-0.0035414001904428005,0.0002490258775651455,0.9263129234313965
54.29547600,54295476,2,0.37700292468070984,-0.003617498790845275,0.00025913905119523406,0.9262049794197083
54.39547400,54395474,2,0.3774610161781311,-0.0036161483731120825,0.00021970794477965683,0.9260184168815613
54.49548100,54495481,2,0.37791916728019714,-0.0036614954005926847,0.00018190377159044147,0.9258313179016113
54.59546700,54595467,2,0.37830400466918945,-0.0036825481802225113,0.00021514348918572068,0.9256740808486938
54.69544800,54695448,2,0.37851399183273315,-0.0037819354329258204,0.0001923460076795891,0.9255878329277039
54.79552500,54795525,2,0.3785378336906433,-0.0038013141602277756,0.00014073234342504293,0.9255779981613159
54.89545100,54895451,2,0.3784428834915161,-0.003760425839573145,0.0001364062773063779,0.925616979598999
54.99549600,54995496,2,0.37840715050697327,-0.0037647709250450134,0.00018533345428295434,0.925631582736969
55.09547700,55095477,2,0.37827539443969727,-0.0037323704455047846,0.00018295108748134226,0.9256855845451355
55.19547400,55195474,2,0.37818434834480286,-0.003713263664394617,0.00022271736816037446,0.9257228374481201
55.29548100,55295481,2,0.37808966636657715,-0.003715301863849163,0.0002138451236533001,0.9257615208625793
55.39547900,55395479,2,0.37796956300735474,-0.003743937937542796,0.0002697677700780332,0.9258103966712952
55.49547300,55495473,2,0.37786969542503357,-0.00376437627710402,0.00023820356000214815,0.9258511066436768
55.59543800,55595438,2,0.3778010904788971,-0.003787136636674404,0.0002714928996283561,0.9258790016174316
55.69549400,55695494,2,0.37766972184181213,-0.003873561741784215,0.0003027345519512892,0.9259322285652161
55.79545100,55795451,2,0.37757769227027893,-0.0039033391512930393,0.00033600127790123224,0.9259696006774902
55.89548900,55895489,2,0.3775116503238678,-0.003935131710022688,0.00034928106470033526,0.9259964227676392
55.99546500,55995465,2,0.37741804122924805,-0.003924492746591568,0.00032426099642179906,0.9260346293449402
56.09546500,56095465,2,0.37738358974456787,-0.003946773707866669,0.00032602541614323854,0.9260485768318176
56.19547700,56195477,2,0.37726742029190063,-0.003974460531026125,0.0003308317100163549,0.9260957837104797
56.29547100,56295471,2,0.37714284658432007,-0.0039797029457986355,0.00033461922430433333,0.9261465072631836
56.39546800,56395468,2,0.37706664204597473,-0.0040147872641682625,0.0003348825848661363,0.9261773824691772
56.49543600,56495436,2,0.37697264552116394,-0.00404767831787467,0.0003083147166762501,0.9262154698371887
56.59549300,56595493,2,0.3769942820072174,-0.004045257344841957,0.0003118587483186275,0.9262067079544067
56.69546500,56695465,2,0.37696316838264465,-0.004039963707327843,0.00034924971987493336,0.9262193441390991
56.79549600,56795496,2,0.3768514096736908,-0.00402426440268755,0.0003425035683903843,0.9262649416923523
56.89546100,56895461,2,0.3768041133880615,-0.004005416762083769,0.0003524278290569782,0.9262842535972595
56.99546900,56995469,2,0.376770943403244,-0.0040306453593075275,0.00030446393066085875,0.926297664642334
57.09546800,57095468,2,0.3769893944263458,-0.0039773727767169476,0.0003105517535004765,0.9262089729309082
57.19546300,57195463,2,0.3774797022342682,-0.004009939730167389,0.0003366176679264754,0.9260091185569763
57.29547700,57295477,2,0.37798061966896057,-0.004033346194773912,0.00034115256858058274,0.9258046746253967
57.39545600,57395456,2,0.3783808648586273,-0.004029692616313696,0.00036777480272576213,0.9256411790847778
57.49548800,57495488,2,0.3786388635635376,-0.004053800366818905,0.0003515604475978762,0.9255355596542358
57.59545400,57595454,2,0.37877389788627625,-0.004043070133775473,0.000410461361752823,0.925480306148529
57.69550000,57695500,2,0.37881794571876526,-0.004014966543763876,0.0004129562876187265,0.9254624247550964
57.79546300,57795463,2,0.3787287175655365,-0.0040346356108784676,0.00039737290353514254,0.9254988431930542
57.89546800,57895468,2,0.37867850065231323,-0.004050786141306162,0.00037891700048930943,0.9255193471908569
57.99546900,57995469,2,0.37856829166412354,-0.0040987110696733,0.00040841574082151055,0.925564169883728
58.09546600,58095466,2,0.3784482479095459,-0.004158370196819305,0.0004146588034927845,0.9256130456924438
58.19546200,58195462,2,0.3783673048019409,-0.004205516539514065,0.00041483566747047007,0.9256458878517151
58.29544800,58295448,2,0.3782818615436554,-0.00426127715036273,0.0004062179068569094,0.9256805777549744
58.39548400,58395484,2,0.3781726658344269,-0.0042386408895254135,0.00038640163256786764,0.9257252812385559
58.49545500,58495455,2,0.37806573510169983,-0.004222002811729908,0.0003883002791553736,0.925769031047821
58.59549000,58595490,2,0.3779526650905609,-0.004226128105074167,0.0003696518833748996,0.925815224647522
58.69546600,58695466,2,0.3778242766857147,-0.004235326778143644,0.00034736370434984565,0.9258675575256348
58.79546400,58795464,2,0.37773266434669495,-0.004295132122933865,0.0003159428888466209,0.9259046912193298
58.89545900,58895459,2,0.3776382803916931,-0.004279986023902893,0.00035351113183423877,0.9259432554244995
58.99546700,58995467,2,0.37754058837890625,-0.004284320864826441,0.0003159591869916767,0.9259830713272095
59.09546800,59095468,2,0.37747249007225037,-0.004264173097908497,0.00025255262153223157,0.9260109663009644
59.19544200,59195442,2,0.37735506892204285,-0.00424729660153389,0.00028360210126265883,0.9260588884353638
59.29549500,59295495,2,0.3772534728050232,-0.004259051289409399,0.0003001994045916945,0.9261001944541931
59.39545500,59395455,2,0.37717652320861816,-0.004175111651420593,0.0003125709481537342,0.9261319041252136
59.49548900,59495489,2,0.3771428167819977,-0.0042105671018362045,0.0002922590938396752,0.9261454939842224
59.59546200,59595462,2,0.37713873386383057,-0.004190580453723669,0.00027968178619630635,0.9261472821235657
59.69547000,59695470,2,0.37712326645851135,-0.004170625936239958,0.00021285358525346965,0.9261536598205566
59.79546300,59795463,2,0.37709328532218933,-0.004213148728013039,0.00018808309687301517,0.9261656999588013
59.89546100,59895461,2,0.37718790769577026,-0.004151093773543835,0.0001469039125367999,0.9261274337768555
59.99546500,59995465,2,0.3775638937950134,-0.004102530889213085,8.89689035830088e-05,0.925974428653717
60.09546000,60095460,2,0.37806904315948486,-0.00409066304564476,0.0001029123377520591,0.9257683753967285
60.19546400,60195464,2,0.3785199820995331,-0.004081326071172953,8.168834028765559e-05,0.9255841374397278
60.29545700,60295457,2,0.37882858514785767,-0.004107917658984661,0.00011745166557375342,0.9254577159881592
60.39550300,60395503,2,0.37900564074516296,-0.004133883863687515,0.00012375313963275403,0.9253851175308228
60.49546500,60495465,2,0.37906306982040405,-0.004089143127202988,0.00010615713108563796,0.9253618121147156
60.59546000,60595460,2,0.37908056378364563,-0.003999995067715645,0.0001228384644491598,0.9253550171852112
60.69546500,60695465,2,0.3790081739425659,-0.004021685570478439,9.210599819198251e-05,0.9253845810890198
60.79546500,60795465,2,0.3788842558860779,-0.004007894080132246,7.345928315771744e-05,0.9254353642463684
60.89546800,60895468,2,0.3788270652294159,-0.003976216074079275,8.342401270056143e-05,0.9254589676856995
60.99544400,60995444,2,0.3787651062011719,-0.0039246841333806515,0.00010349494550609961,0.9254845380783081
61.09549600,61095496,2,0.37872061133384705,-0.0038408434484153986,3.660390211734921e-05,0.9255030751228333
61.19546000,61195460,2,0.37862056493759155,-0.0037957930471748114,2.104844134009909e-05,0.9255442023277283
61.29550100,61295501,2,0.3785557746887207,-0.0037937622983008623,-1.0522240700083785e-05,0.9255707263946533
61.39546900,61395469,2,0.37849482893943787,-0.0038005949463695288,2.6324893042328767e-05,0.9255955815315247
61.49546100,61495461,2,0.3784037232398987,-0.003769334638491273,1.477990736020729e-05,0.9256330132484436
61.59546700,61595467,2,0.3783222436904907,-0.0037930235266685486,1.87517907761503e-05,0.9256662130355835
61.69547800,61695478,2,0.37821006774902344,-0.0037719544488936663,3.324034423712874e-06,0.9257121086120605
61.79547100,61795471,2,0.37810271978378296,-0.003774828976020217,4.495750181376934e-05,0.9257559776306152
61.89544800,61895448,2,0.378028929233551,-0.0037052819970995188,5.280885307001881e-05,0.9257863759994507
61.99549300,61995493,2,0.37791961431503296,-0.0036885845474898815,3.707371070049703e-05,0.9258310794830322
62.09547700,62095477,2,0.37780025601387024,-0.0036723357625305653,3.5757984733209014e-05,0.9258798360824585
62.19549800,62195498,2,0.3776954114437103,-0.0036507707554847,-1.0508193554414902e-05,0.925922691822052
62.29546900,62295469,2,0.37759777903556824,-0.003628215752542019,-5.476340083987452e-05,0.9259626269340515
62.39546300,62395463,2,0.37752068042755127,-0.003618899267166853,-7.509919669246301e-05,0.9259940981864929
62.49546400,62495464,2,0.3774194121360779,-0.0035488998983055353,-6.937311991350725e-05,0.9260356426239014
62.59546400,62595464,2,0.37733176350593567,-0.003518377896398306,-0.00010984007531078532,0.9260714650154114
62.69546500,62695465,2,0.37729305028915405,-0.003510721493512392,-7.745536277070642e-05,0.9260872602462769
62.79545300,62795453,2,0.37751445174217224,-0.0035025812685489655,-2.438948467897717e-05,0.9259970784187317
62.89549100,62895491,2,0.3779553174972534,-0.003476861398667097,9.258826139557641e-06,0.9258173108100891
62.99546100,62995461,2,0.3784044086933136,-0.003514464944601059,-4.674088813771959e-06,0.9256336688995361
63.09549400,63095494,2,0.378741979598999,-0.003535069525241852,3.052597094210796e-06,0.9254955649375916
63.19545900,63195459,2,0.37894630432128906,-0.00355500727891922,-1.4994604953244561e-06,0.9254118204116821
63.29546500,63295465,2,0.3790251314640045,-0.003574723144993186,-1.2621133464563172e-05,0.9253794550895691
63.39546700,63395467,2,0.3789948523044586,-0.0036098724231123924,-7.67504570831079e-06,0.9253917336463928
63.49546800,63495468,2,0.37888649106025696,-0.0036435588262975216,-3.2805746741360053e-05,0.9254359602928162
63.59546100,63595461,2,0.37875616550445557,-0.0036459460388869047,-3.0899907869752496e-05,0.9254893064498901
63.69544200,63695442,2,0.37859684228897095,-0.0036450126208364964,-3.9683236536802724e-05,0.9255545139312744
63.79550400,63795504,2,0.37843284010887146,-0.0037227037828415632,-2.6995456209988333e-05,0.9256212711334229
63.89544700,63895447,2,0.37832456827163696,-0.003775577060878277,-4.474342495086603e-05,0.9256653189659119
63.99550400,63995504,2,0.3782323896884918,-0.0037896311841905117,-3.6295983591116965e-05,0.9257029294967651
64.09546400,64095464,2,0.37811148166656494,-0.0038050224538892508,-1.767180765455123e-05,0.9257522225379944
64.19546500,64195465,2,0.3779955804347992,-0.0037826932966709137,-5.411496658780379e-06,0.9257996678352356
64.29546500,64295465,2,0.37788525223731995,-0.003817667020484805,-1.815672703742166e-06,0.9258445501327515
64.39546500,64395465,2,0.3777533769607544,-0.0038271714001893997,-2.9320492103579454e-05,0.9258983731269836
64.49546600,64495466,2,0.3776388466358185,-0.0038031397853046656,-6.334618956316262e-05,0.9259451627731323
64.59544400,64595444,2,0.37753039598464966,-0.0037808013148605824,-4.201910269330256e-05,0.9259894490242004
64.69549300,64695493,2,0.37744349241256714,-0.0037813379894942045,-6.420473073376343e-05,0.9260249137878418
64.79547100,64795471,2,0.37733298540115356,-0.00376710738055408,-8.92822426976636e-05,0.926069974899292
64.89549500,64895495,2,0.37724918127059937,-0.0037575564347207546,-3.901006857631728e-05,0.9261041879653931
64.99546300,64995463,2,0.3771364092826843,-0.0037321082782000303,-1.81071663973853e-05,0.9261502027511597
65.09547600,65095476,2,0.37705010175704956,-0.0037169079296290874,3.0463517759926617e-05,0.9261854290962219
65.19545800,65195458,2,0.37689968943595886,-0.003704122733324766,4.309232463128865e-05,0.9262466430664062
65.29546300,65295463,2,0.3767737150192261,-0.0036977443378418684,3.433590245549567e-05,0.9262979626655579
65.39546800,65395468,2,0.3766227066516876,-0.0036131995730102062,6.597348692594096e-05,0.9263597130775452
65.49543600,65495436,2,0.37657442688941956,-0.003615051507949829,7.358712173299864e-05,0.9263793230056763
65.59548500,65595485,2,0.37676483392715454,-0.003635637229308486,5.6337605201406404e-05,0.9263017773628235
65.69548400,65695484,2,0.37721243500709534,-0.0035995584912598133,8.705996151547879e-05,0.9261197447776794
65.79549800,65795498,2,0.3776436448097229,-0.003619068767875433,9.125491487793624e-05,0.925943911075592
65.89546200,65895462,2,0.37803709506988525,-0.003628411330282688,0.00011770642595365644,0.9257833361625671
65.99546200,65995462,2,0.378240704536438,-0.003621467621996999,0.00016783479077275842,0.9257001876831055
66.09546300,66095463,2,0.37836211919784546,-0.003619277151301503,0.00019624987908173352,0.9256505966186523
66.19546000,66195460,2,0.3783608078956604,-0.003564578015357256,0.00022575260663870722,0.9256513118743896
66.29546300,66295463,2,0.3783653676509857,-0.003577202558517456,0.0002505732700228691,0.9256494045257568
66.39544300,66395443,2,0.37833496928215027,-0.0035244219470769167,0.00024279358331114054,0.9256620407104492
66.49549700,66495497,2,0.3782881796360016,-0.003533028531819582,0.0003090481332037598,0.9256811141967773
66.59544300,66595443,2,0.3781888484954834,-0.003487792331725359,0.00032188158365897834,0.9257218241691589
66.69549000,66695490,2,0.37805840373039246,-0.0035192936193197966,0.0003124584909528494,0.9257749915122986
66.79546600,66795466,2,0.3780100345611572,-0.00352711183950305,0.0003021962766069919,0.9257947206497192
66.89546300,66895463,2,0.3778819739818573,-0.0035499727819114923,0.00028225567075423896,0.9258469343185425
66.99546400,66995464,2,0.3777570426464081,-0.0035225762985646725,0.0003224668907932937,0.925898015499115
67.09546500,67095465,2,0.3776160180568695,-0.003596946829929948,0.00033703629742376506,0.9259552359580994
67.19546100,67195461,2,0.3774251341819763,-0.0036173900589346886,0.00029792910208925605,0.9260329604148865
67.29546800,67295468,2,0.3773168623447418,-0.0036172205582261086,0.0003153096477035433,0.926077127456665
67.39549600,67395496,2,0.37721750140190125,-0.003609756240621209,0.00029521368560381234,0.9261175990104675
67.49544600,67495446,2,0.3771034777164459,-0.00360236968845129,0.0002960509154945612,0.9261640906333923
67.59548800,67595488,2,0.3770212233066559,-0.003624250181019306,0.0002989453496411443,0.9261974692344666
67.69546600,67695466,2,0.3769213855266571,-0.0037176155019551516,0.0003035898262169212,0.9262377619743347
67.79546300,67795463,2,0.37688153982162476,-0.003696983214467764,0.0003110780380666256,0.9262540340423584
67.89546700,67895467,2,0.3768080174922943,-0.0036863500718027353,0.0002572371740825474,0.9262840151786804
67.99546100,67995461,2,0.37678027153015137,-0.003753890749067068,0.0002619411388877779,0.9262950420379639
68.09546600,68095466,2,0.3766893744468689,-0.0038124832790344954,0.00030046465690247715,0.9263317584991455
68.19544300,68195443,2,0.3765735924243927,-0.003867997322231531,0.0003180152561981231,0.9263785481452942
68.29548600,68295486,2,0.3764873743057251,-0.0038781561888754368,0.0003268069413024932,0.9264135956764221
68.39544700,68395447,2,0.3764995038509369,-0.0039018632378429174,0.00031144681270234287,0.9264085292816162
68.49549100,68495491,2,0.37672510743141174,-0.0039048746693879366,0.00029414796154014766,0.9263167977333069
