timestamp,TimeUS,C,Roll,Pitch,Yaw,VN,VE,VD,dPD,PN,PE,PD,GX,GY,GZ,OH
11.49545600,11495456,2,0.0,0.0,0.0,0.0,0.0,0.0,0.0,0.0,0.0,0.0,0.0,0.0,0.0,0.0
11.59552700,11595527,2,0.0,0.0,0.0,0.0,0.0,0.0,0.0,0.0,0.0,0.0,0.0,0.0,0.0,0.0
11.69546600,11695466,2,0.0,0.0,0.0,0.0,0.0,0.0,0.0,0.0,0.0,0.0,0.0,0.0,0.0,0.0
11.79550900,11795509,2,0.0,0.0,0.0,0.0,0.0,0.0,0.0,0.0,0.0,0.0,0.0,0.0,0.0,0.0
11.89548400,11895484,2,0.0,0.0,0.0,0.0,0.0,0.0,0.0,0.0,0.0,0.0,0.0,0.0,0.0,0.0
11.99548700,11995487,2,0.0,0.0,0.0,0.0,0.0,0.0,0.0,0.0,0.0,0.0,0.0,0.0,0.0,0.0
12.09548800,12095488,2,0.0,0.0,0.0,0.0,0.0,0.0,0.0,0.0,0.0,0.0,0.0,0.0,0.0,0.0
12.19548100,12195481,2,0.0,0.0,0.0,0.0,0.0,0.0,0.0,0.0,0.0,0.0,0.0,0.0,0.0,0.0
12.29548800,12295488,2,0.0,0.0,0.0,0.0,0.0,0.0,0.0,0.0,0.0,0.0,0.0,0.0,0.0,0.0
12.39547800,12395478,2,0.0,0.0,0.0,0.0,0.0,0.0,0.0,0.0,0.0,0.0,0.0,0.0,0.0,0.0
12.49550500,12495505,2,-0.12,0.48,359.99,-0.0013619865057989955,0.00016770271759014577,0.01500620599836111,0.003934735432267189,0.0,0.0,0.000579823914449662,0.0,0.0,0.0,0.0
12.59547100,12595471,2,-0.12,0.47000000000000003,359.99,-0.0029216844122856855,-0.0001952378370333463,0.057925689965486526,0.03368228301405907,0.0,0.0,0.0045651099644601345,0.0,0.0,0.0,0.0
12.69551200,12695512,2,-0.12,0.47000000000000003,359.99,-0.0037075846921652555,-0.0005355983157642186,0.10495362430810928,-0.25004756450653076,0.0,0.0,-0.026646418496966362,0.0,0.0,0.0,0.0
12.79548700,12795487,2,-0.12,0.47000000000000003,359.99,-0.004921664483845234,-0.0017199462745338678,0.1379031091928482,-0.27017781138420105,0.0,0.0,-0.04339209571480751,0.0,0.0,0.0,0.0
12.89548300,12895483,2,-0.12,0.46,359.99,-0.006521210074424744,-0.0017885426059365273,0.16091875731945038,-0.1043396145105362,0.0,0.0,-0.04883258044719696,0.0,0.0,0.0,0.0
12.99548200,12995482,2,-0.13,0.46,359.99,-0.007290001958608627,-0.0017056178767234087,0.1763019859790802,-0.06273939460515976,0.0,0.0,-0.05753631144762039,0.0,0.0,0.0,0.0
13.09548500,13095485,2,-0.13,0.46,359.99,-0.008242440409958363,-0.0016219902317970991,0.18722525238990784,-0.011016996577382088,0.0,0.0,-0.05733541399240494,0.0,0.0,0.0,0.0
13.19548300,13195483,2,-0.13,0.46,359.99,-0.009837266989052296,-0.0020697866566479206,0.1951318085193634,0.09082281589508057,0.0,0.0,-0.050413791090250015,0.0,0.0,0.0,0.0
13.29544800,13295448,2,-0.13,0.46,0.0,-0.010918663814663887,-0.0026437160558998585,0.19974485039710999,0.10748191922903061,0.0,0.0,-0.043264999985694885,0.0,0.0,0.0,0.0
13.39548100,13395481,2,-0.13,0.44,0.0,-0.011629908345639706,-0.003508572233840823,0.199888676404953,0.027969760820269585,0.0,0.0,-0.044978655874729156,0.0,0.0,0.0,0.0
13.49546500,13495465,2,-0.12,0.44,0.0,-0.011112358421087265,-0.004211324732750654,0.19891531765460968,-0.022827737033367157,0.0,0.0,-0.045127566903829575,0.0,0.0,0.0,0.0
13.59550600,13595506,2,-0.12,0.44,0.0,-0.011396066285669804,-0.0042869639582931995,0.19806785881519318,0.04114257171750069,0.0,0.0,-0.03933410719037056,0.0,0.0,0.0,0.0
13.69548400,13695484,2,-0.13,0.43,0.0,-0.010711926966905594,-0.003779049264267087,0.19689816236495972,0.07421693205833435,0.0,0.0,-0.03362707048654556,0.0,0.0,0.0,0.0
13.79547100,13795471,2,-0.12,0.42,0.0,-0.010358153842389584,-0.003668752498924732,0.19460222125053406,0.06412152945995331,0.0,0.0,-0.02800728566944599,0.0,0.0,0.0,0.0
13.89547800,13895478,2,-0.12,0.4,0.01,-0.009161852300167084,-0.0033696070313453674,0.19287732243537903,0.06803502142429352,0.0,0.0,-0.02121696062386036,0.0,0.0,0.0,0.0
13.99547700,13995477,2,-0.12,0.39,137.46,-0.008035210892558098,-0.002838228130713105,0.18881946802139282,0.05521673336625099,0.0,0.0,-0.016401709988713264,0.0,0.0,0.0,0.0
14.09547200,14095472,2,-0.12,0.39,137.45000000000002,-0.006373639218509197,-0.0030474504455924034,0.18277011811733246,0.014924824237823486,0.0,0.0,-0.015050685964524746,0.0,0.0,0.0,0.0
14.19545000,14195450,2,-0.13,0.39,137.45000000000002,-0.004292000085115433,-0.0029769446700811386,0.17738065123558044,-0.011037587188184261,0.0,0.0,-0.014921305701136589,0.0,0.0,0.0,0.0
14.29549200,14295492,2,-0.12,0.38,137.45000000000002,-0.0027114693075418472,-0.0030846227891743183,0.1714918464422226,-0.022779976949095726,0.0,0.0,-0.016212383285164833,0.0,0.0,0.0,0.0
14.39547100,14395471,2,-0.13,0.38,137.43,-0.0016615376807749271,-0.002481921575963497,0.1686074435710907,0.01824335753917694,0.0,0.0,-0.011793497949838638,0.0,0.0,0.0,0.0
14.49550300,14495503,2,-0.13,0.37,137.39000000000001,-0.0010088580893352628,-0.0020082045812159777,0.16713610291481018,0.08523695170879364,0.0,0.0,-0.0030600731261074543,0.0,0.0,0.0,0.0
14.59547900,14595479,2,-0.13,0.37,137.09,0.00011906402505701408,-0.000718091381713748,0.16350392997264862,0.07760416716337204,0.0,0.0,0.0019681949634104967,0.0,0.0,0.04,0.0
14.69547400,14695474,2,-0.14,0.36,136.34,0.0015360121615231037,0.0011777686886489391,0.15981268882751465,0.04582630842924118,0.0,0.0,0.006174936890602112,0.0,0.0,0.08,0.0
14.79547600,14795476,2,-0.14,0.36,135.44,0.001748289680108428,0.0032822382636368275,0.15624436736106873,0.04793485999107361,0.0,0.0,0.011666931211948395,0.0,0.0,0.07,0.0
14.89547700,14895477,2,-0.15,0.36,134.74,0.0030755503103137016,0.0053399791941046715,0.15111315250396729,0.028669502586126328,0.0,0.0,0.01392754539847374,0.0,0.0,0.06,0.0
14.99547500,14995475,2,-0.15,0.36,134.33,0.004220305010676384,0.006746834143996239,0.14599542319774628,0.014710219576954842,0.0,0.0,0.016617784276604652,0.0,0.0,0.05,0.0
15.09546900,15095469,2,-0.15,0.36,134.19,0.005255511961877346,0.008372820913791656,0.13956938683986664,-0.0026677448768168688,0.0,0.0,0.015622740611433983,0.0,0.0,0.04,0.0
15.19549900,15195499,2,-0.15,0.36,134.24,0.00609950115904212,0.009073150344192982,0.13074234127998352,-0.05462861433625221,0.0,0.0,0.010361404158174992,0.0,0.0,0.03,0.0
15.29546000,15295460,2,-0.15,0.37,134.39000000000001,0.006139097269624472,0.010305134579539299,0.12067639827728271,-0.09849828481674194,0.0,0.0,0.0019877117592841387,0.0,0.0,0.01,0.0
15.39550900,15395509,2,-0.15,0.37,134.6,0.006374521646648645,0.01040420401841402,0.10959118604660034,-0.1511320322751999,0.0,0.0,-0.012310531921684742,0.0,0.0,0.01,0.0
15.49548300,15495483,2,-0.15,0.37,134.81,0.005876409821212292,0.00994525384157896,0.09498567879199982,-0.21500638127326965,0.0,0.0,-0.03192522004246712,0.0,0.0,0.0,0.0
15.59548800,15595488,2,-0.15,0.37,135.0,0.005768232047557831,0.010622294619679451,0.08492667227983475,-0.1990162581205368,0.0,0.0,-0.04480439051985741,0.0,0.0,-0.01,0.0
15.69547700,15695477,2,-0.14,0.37,135.17000000000002,0.0056530325673520565,0.010352003388106823,0.07735048979520798,-0.12571750581264496,0.0,0.0,-0.05551266670227051,0.0,0.0,-0.02,0.0
15.79547300,15795473,2,-0.14,0.37,135.32,0.00516032287850976,0.010174738243222237,0.07009832561016083,-0.08435764163732529,0.0,0.0,-0.06488130986690521,0.0,0.0,-0.03,0.0
15.89547500,15895475,2,-0.13,0.37,135.46,0.004491800907999277,0.010168717242777348,0.06300318241119385,-0.08330119401216507,0.0,0.0,-0.07450935989618301,0.0,0.0,-0.05,0.0
15.99545900,15995459,2,-0.13,0.37,135.58,0.004072645679116249,0.00947654340416193,0.05505121499300003,-0.09106175601482391,0.0,0.0,-0.08433090150356293,-0.01,0.0,-0.06,0.0
16.09551300,16095513,2,-0.12,0.37,135.68,0.0033348286524415016,0.00837396364659071,0.048316389322280884,-0.09130948036909103,0.0,0.0,-0.09364975243806839,-0.01,0.0,-0.06,0.0
16.19545900,16195459,2,-0.11,0.37,135.76,0.002460522809997201,0.008124956861138344,0.03971681743860245,-0.1128699779510498,0.0,0.0,-0.10557329654693604,-0.01,0.0,-0.08,0.0
16.29551500,16295515,2,-0.11,0.38,135.84,0.0017714932328090072,0.007818278856575489,0.030989523977041245,-0.13380323350429535,0.0,0.0,-0.1182437390089035,-0.01,0.0,-0.08,0.0
16.39548700,16395487,2,-0.1,0.38,135.91,0.0005419855588115752,0.006386470980942249,0.024181995540857315,-0.11281466484069824,0.0,0.0,-0.12871892750263214,-0.01,0.0,-0.1,0.0
16.49548100,16495481,2,-0.1,0.39,135.98,-7.072078005876392e-05,0.004689847584813833,0.01948598027229309,-0.08139015734195709,0.0,0.0,-0.1366976499557495,-0.01,0.0,-0.11,0.0
16.59549300,16595493,2,-0.1,0.4,136.05,-0.00022927290410734713,0.0024717978667467833,0.016155073419213295,-0.047832682728767395,0.0,0.0,-0.14186522364616394,-0.01,0.0,-0.11,0.0
16.69548500,16695485,2,-0.1,0.39,136.11,-0.0003576841263566166,0.0010104005923494697,0.007682462688535452,-0.09319011121988297,0.0,0.0,-0.15396323800086975,-0.01,0.0,-0.12,0.0
16.79547500,16795475,2,-0.1,0.39,136.16,-0.0008312007412314415,0.0007006012019701302,-0.00303660542704165,-0.1754630208015442,0.0,0.0,-0.170798197388649,-0.01,0.0,-0.12,0.0
16.89546200,16895462,2,-0.1,0.4,136.2,-0.00035792894777841866,0.0003825461317319423,-0.013544782996177673,-0.20395494997501373,0.0,0.0,-0.18908071517944336,-0.01,0.0,-0.13,0.0
16.99550400,16995504,2,-0.1,0.4,136.25,0.0012591062113642693,-0.0004528799618128687,-0.0244075208902359,-0.21295645833015442,0.0,0.0,-0.2083899825811386,-0.01,0.0,-0.14,0.0
17.09546000,17095460,2,-0.1,0.4,136.31,0.0018417102983221412,-0.0004951701266691089,-0.036370232701301575,-0.22011594474315643,0.0,0.0,-0.229026660323143,-0.01,0.0,-0.16,0.0
17.19550400,17195504,2,-0.09,0.4,136.37,0.0023829559795558453,-0.00011187245399923995,-0.0473095141351223,-0.2174971103668213,0.0,0.0,-0.2493133246898651,-0.01,0.0,-0.17,0.0
17.29550000,17295500,2,-0.09,0.4,136.44,0.002559063956141472,-4.866476956522092e-05,-0.05536237359046936,-0.16961053013801575,0.0,0.0,-0.2646535038948059,-0.01,0.0,-0.17,0.0
17.39548600,17395486,2,-0.08,0.4,136.46,0.0028126516845077276,-0.00018078568973578513,-0.058901093900203705,-0.08176185935735703,0.0,0.0,-0.27276670932769775,-0.01,0.0,-0.11,0.0
17.49548200,17495482,2,-0.08,0.41000000000000003,136.3,0.0029620996210724115,-0.0007863364298827946,-0.06178542971611023,-0.04245790094137192,0.0,0.0,-0.28017470240592957,-0.02,0.0,0.06,0.0
17.59548500,17595485,2,-0.08,0.4,136.02,0.00301693775691092,-0.001874141744337976,-0.06811242550611496,-0.09839548915624619,0.0,0.0,-0.29331132769584656,-0.02,0.0,0.09,0.0
17.69548700,17695487,2,-0.07,0.41000000000000003,135.75,0.0026968831662088633,-0.002695100847631693,-0.07301877439022064,-0.13105781376361847,0.0,0.0,-0.3057277798652649,-0.02,0.0,0.06,0.0
17.79544900,17795449,2,-0.06,0.41000000000000003,135.57,0.0022145642433315516,-0.004575325641781092,-0.07714489102363586,-0.11073145270347595,0.0,0.0,-0.3162822723388672,-0.02,0.0,0.04,0.0
17.89550800,17895508,2,-0.06,0.4,135.47,0.0014203808968886733,-0.005856319330632687,-0.07986122369766235,-0.08019085973501205,0.0,0.0,-0.3238583505153656,-0.02,0.0,0.01,0.0
17.99546400,17995464,2,-0.06,0.4,135.47,0.0006255113403312862,-0.005909394938498735,-0.08042041957378387,-0.043960172683000565,0.0,0.0,-0.3289565443992615,-0.02,0.0,0.0,0.0
18.09550300,18095503,2,-0.06,0.4,135.54,9.965609933715314e-05,-0.005947573576122522,-0.08268249779939651,-0.04509596899151802,0.0,0.0,-0.33523550629615784,-0.02,0.0,-0.02,0.0
18.19547400,18195474,2,-0.06,0.4,135.64000000000001,-0.00029303840710781515,-0.006628016941249371,-0.08470228314399719,-0.062466077506542206,0.0,0.0,-0.34223461151123047,-0.02,0.0,-0.03,0.0
18.29548700,18295487,2,-0.05,0.4,135.74,-0.0010816430440172553,-0.00682049710303545,-0.08302300423383713,-0.02230813167989254,0.0,0.0,-0.3435329496860504,-0.02,0.0,-0.05,0.0
18.39548200,18395482,2,-0.04,0.39,135.84,-0.0014039177913218737,-0.007544607389718294,-0.08007895946502686,0.03230467066168785,0.0,0.0,-0.3417043685913086,-0.01,0.0,-0.06,0.0
18.49547300,18495473,2,-0.05,0.38,135.93,-0.002464141696691513,-0.008479294367134571,-0.0807664692401886,-0.004745532758533955,0.0,0.0,-0.34523195028305054,-0.01,0.0,-0.07,0.0
18.59548000,18595480,2,-0.05,0.39,136.01,-0.0037090012338012457,-0.00880233384668827,-0.08358699083328247,-0.07143879681825638,0.0,0.0,-0.3526884913444519,-0.01,0.0,-0.08,0.0
18.69546600,18695466,2,-0.05,0.38,136.08,-0.004286553245037794,-0.00995825044810772,-0.08176226913928986,-0.050413861870765686,0.0,0.0,-0.3548368513584137,-0.01,0.0,-0.09,0.0
18.79551400,18795514,2,-0.05,0.38,136.14000000000001,-0.004896258935332298,-0.010517429560422897,-0.0796109288930893,0.007846823893487453,0.0,0.0,-0.35417884588241577,-0.01,0.0,-0.11,0.0
18.89547800,18895478,2,-0.06,0.37,136.21,-0.006350864190608263,-0.009996805340051651,-0.0803058072924614,-0.015473082661628723,0.0,0.0,-0.3580333888530731,-0.01,0.0,-0.12,0.0
18.99550300,18995503,2,-0.05,0.37,136.27,-0.0069840941578149796,-0.010110538452863693,-0.07894347608089447,-0.010854712687432766,0.0,0.0,-0.3578331768512726,-0.01,0.0,-0.12,0.0
19.09547500,19095475,2,-0.05,0.36,136.34,-0.007187941577285528,-0.010737014934420586,-0.07650912553071976,0.014486015774309635,0.0,0.0,-0.3571784496307373,-0.01,0.0,-0.14,0.0
19.19547100,19195471,2,-0.05,0.36,136.4,-0.006919001694768667,-0.010738642886281013,-0.07687344402074814,-0.009597660042345524,0.0,0.0,-0.3595772087574005,-0.01,0.0,-0.15,0.0
19.29548100,19295481,2,-0.05,0.36,136.46,-0.007830063812434673,-0.009915723465383053,-0.07718030363321304,-0.03400891274213791,0.0,0.0,-0.3627637028694153,-0.01,0.0,-0.16,0.0
19.39547800,19395478,2,-0.05,0.36,136.52,-0.008496184833347797,-0.00866222009062767,-0.07846100628376007,-0.0623694583773613,0.0,0.0,-0.36915329098701477,-0.01,0.0,-0.17,0.0
19.49547300,19495473,2,-0.06,0.36,136.58,-0.008820723742246628,-0.008440274745225906,-0.08133689314126968,-0.1005515456199646,0.0,0.0,-0.3785266578197479,-0.01,0.0,-0.17,0.0
19.59546700,19595467,2,-0.06,0.36,136.63,-0.00927103403955698,-0.008184880018234253,-0.08548878133296967,-0.13435553014278412,0.0,0.0,-0.3907638192176819,-0.01,0.0,-0.18,0.0
19.69549000,19695490,2,-0.06,0.37,136.68,-0.009189750999212265,-0.00721886707469821,-0.08862332999706268,-0.13234995305538177,0.0,0.0,-0.4015238583087921,0.0,0.0,-0.17,0.0
19.79545600,19795456,2,-0.06,0.37,136.72,-0.008567756973206997,-0.00666872039437294,-0.08900640904903412,-0.08094748854637146,0.0,0.0,-0.40775540471076965,0.0,0.0,-0.18,0.0
19.89550700,19895507,2,-0.07,0.36,136.75,-0.008155587129294872,-0.00561822485178709,-0.08866280317306519,-0.022330570966005325,0.0,0.0,-0.41004782915115356,0.0,0.0,-0.18,0.0
19.99548400,19995484,2,-0.07,0.36,136.77,-0.00792858749628067,-0.004246561322361231,-0.08561727404594421,0.03050193190574646,0.0,0.0,-0.40803614258766174,0.0,0.0,-0.19,0.0
20.09547100,20095471,2,-0.07,0.35000000000000003,136.8,-0.007885785773396492,-0.003421613248065114,-0.08479996025562286,0.025575928390026093,0.0,0.0,-0.40881845355033875,0.0,0.0,-0.19,0.0
20.19547500,20195475,2,-0.07,0.35000000000000003,136.8,-0.007951982319355011,-0.0023067817091941833,-0.08480946719646454,-0.02581821195781231,0.0,0.0,-0.41316142678260803,0.0,0.0,-0.16,0.0
20.29548700,20295487,2,-0.08,0.35000000000000003,136.68,-0.008508892729878426,-0.0012303912080824375,-0.08438832312822342,-0.041569631546735764,0.0,0.0,-0.4165138304233551,0.0,0.0,0.0,0.0
20.39547700,20395477,2,-0.08,0.35000000000000003,136.38,-0.008860011585056782,-0.0006775569054298103,-0.08270543813705444,-0.004647217225283384,0.0,0.0,-0.4157979488372803,0.0,0.0,0.08,0.0
20.49545200,20495452,2,-0.08,0.35000000000000003,136.04,-0.009598540142178535,0.0006034278776496649,-0.08089585602283478,0.019253507256507874,0.0,0.0,-0.41488730907440186,0.0,0.0,0.07,0.0
20.59550200,20595502,2,-0.09,0.35000000000000003,135.77,-0.009326200000941753,0.001603419310413301,-0.07828032225370407,0.03731458634138107,0.0,0.0,-0.41142427921295166,0.0,0.0,0.06,0.0
20.69547200,20695472,2,-0.08,0.34,135.6,-0.008879994973540306,0.001853735069744289,-0.07613378763198853,0.03219611197710037,0.0,0.0,-0.41004249453544617,0.0,0.0,0.04,0.0
20.79550300,20795503,2,-0.08,0.34,135.52,-0.00871999654918909,0.00204176246188581,-0.07120692729949951,0.05369027704000473,0.0,0.0,-0.4039199948310852,0.0,0.0,0.03,0.0
20.89548500,20895485,2,-0.09,0.34,135.52,-0.008492459543049335,0.002137785544618964,-0.0695384293794632,0.0506218746304512,0.0,0.0,-0.40109744668006897,0.0,0.0,0.02,0.0
20.99547400,20995474,2,-0.09,0.34,135.57,-0.008466817438602448,0.003182926680892706,-0.06647295504808426,0.040259625762701035,0.0,0.0,-0.39679113030433655,0.0,0.0,0.0,0.0
21.09547500,21095475,2,-0.09,0.35000000000000003,135.65,-0.00871917512267828,0.005358236376196146,-0.06556026637554169,0.00827293936163187,0.0,0.0,-0.39757460355758667,0.0,0.0,0.0,0.0
21.19547500,21195475,2,-0.09,0.34,135.74,-0.008548634126782417,0.0049533904530107975,-0.061733391135931015,0.004112441558390856,0.0,0.0,-0.39528074860572815,0.0,0.0,-0.01,0.0
21.29547500,21295475,2,-0.09,0.35000000000000003,135.82,-0.00839014071971178,0.004911175929009914,-0.05771555379033089,0.05099138617515564,0.0,0.0,-0.3894447088241577,0.0,0.0,-0.02,0.0
21.39546100,21395461,2,-0.1,0.35000000000000003,135.89000000000001,-0.00822801236063242,0.004548181314021349,-0.05537598207592964,0.05020804703235626,0.0,0.0,-0.38618114590644836,0.0,0.0,-0.02,0.0
21.49548100,21495481,2,-0.09,0.36,135.95,-0.008396576158702374,0.004984236788004637,-0.053912073373794556,0.027346355840563774,0.0,0.0,-0.3837188184261322,0.0,0.0,-0.03,0.0
21.59548500,21595485,2,-0.09,0.36,136.0,-0.00803563091903925,0.005562329199165106,-0.054357483983039856,-0.006654220633208752,0.0,0.0,-0.3850120007991791,0.0,0.0,-0.04,0.0
21.69550600,21695506,2,-0.1,0.36,136.06,-0.00814809836447239,0.0046316045336425304,-0.052348509430885315,-0.0012999987229704857,0.0,0.0,-0.3831869661808014,0.0,0.0,-0.05,0.0
21.79547300,21795473,2,-0.1,0.36,136.12,-0.007919427007436752,0.005374026484787464,-0.049252841621637344,0.04519423842430115,0.0,0.0,-0.3780190646648407,0.0,0.0,-0.06,0.0
21.89547700,21895477,2,-0.09,0.36,136.17000000000002,-0.008035879582166672,0.004789846483618021,-0.04571719467639923,0.06671740114688873,0.0,0.0,-0.37249794602394104,0.0,0.0,-0.07,0.0
21.99548100,21995481,2,-0.09,0.36,136.23,-0.00874088890850544,0.0043775117956101894,-0.04390047490596771,0.03278828412294388,0.0,0.0,-0.37131190299987793,0.0,0.0,-0.07,0.0
22.09547200,22095472,2,-0.09,0.36,136.28,-0.008581575006246567,0.004458926152437925,-0.042524125427007675,-0.00966983288526535,0.0,0.0,-0.37216565012931824,0.0,0.0,-0.08,0.0
22.19547900,22195479,2,-0.09,0.37,136.32,-0.008988294750452042,0.00510874018073082,-0.0401809923350811,0.0031974129378795624,0.0,0.0,-0.3700789213180542,0.0,0.0,-0.08,0.0
22.29545600,22295456,2,-0.08,0.37,136.35,-0.008805333636701107,0.0051387301646173,-0.03914676606655121,0.020555546507239342,0.0,0.0,-0.3680947721004486,0.0,0.0,-0.08,0.0
22.39550300,22395503,2,-0.08,0.38,136.38,-0.008088893257081509,0.005880434066057205,-0.03712879493832588,0.03889044374227524,0.0,0.0,-0.3637177646160126,0.0,0.0,-0.08,0.0
22.49547000,22495470,2,-0.09,0.37,136.41,-0.007723051588982344,0.00636200001463294,-0.03618362545967102,0.03706328943371773,0.0,0.0,-0.36133769154548645,0.0,0.0,-0.09,0.0
22.59550400,22595504,2,-0.08,0.38,136.44,-0.007546613458544016,0.006008822470903397,-0.033112164586782455,0.044352661818265915,0.0,0.0,-0.3563615679740906,0.0,0.0,-0.1,0.0
22.69547800,22695478,2,-0.08,0.37,136.48,-0.008098467253148556,0.006025559268891811,-0.031561706215143204,0.04070590063929558,0.0,0.0,-0.35340428352355957,0.0,0.0,-0.1,0.0
22.79544200,22795442,2,-0.08,0.37,136.51,-0.007544004824012518,0.005774124525487423,-0.028615860268473625,0.04304811358451843,0.0,0.0,-0.3484273850917816,0.0,0.0,-0.11,0.0
22.89548100,22895481,2,-0.08,0.37,136.56,-0.007276197429746389,0.005695213098078966,-0.02495085820555687,0.07646248489618301,0.0,0.0,-0.34051769971847534,0.0,0.0,-0.11,0.0
22.99549000,22995490,2,-0.08,0.37,136.61,-0.007117799948900938,0.004232379607856274,-0.02161436714231968,0.06927049160003662,0.0,0.0,-0.33569905161857605,0.0,0.0,-0.12,0.0
23.09551000,23095510,2,-0.07,0.37,136.57,-0.007178374100476503,0.004074135795235634,-0.02104511298239231,0.025748472660779953,0.0,0.0,-0.3338181674480438,0.0,0.0,-0.03,0.0
23.19545700,23195457,2,-0.07,0.36,136.38,-0.0074636791832745075,0.003947882913053036,-0.01990458555519581,-0.005600691772997379,0.0,0.0,-0.3340505063533783,0.0,-0.01,0.04,0.0
23.29550400,23295504,2,-0.07,0.37,136.12,-0.007357418071478605,0.0035361575428396463,-0.019505508244037628,-0.013706191442906857,0.0,0.0,-0.334106981754303,0.0,-0.01,0.03,0.0
23.39546400,23395464,2,-0.07,0.37,135.9,-0.007413751445710659,0.0030332314781844616,-0.01911346986889839,-0.014835932292044163,0.0,0.0,-0.3348883092403412,0.0,-0.01,0.02,0.0
23.49550000,23495500,2,-0.07,0.37,135.75,-0.007807346526533365,0.002972202841192484,-0.019274631515145302,-0.024839330464601517,0.0,0.0,-0.3368803560733795,0.0,-0.01,0.01,0.0
23.59547500,23595475,2,-0.07,0.37,135.69,-0.008724972605705261,0.003113218815997243,-0.01851312816143036,-0.026722395792603493,0.0,0.0,-0.3388853669166565,0.0,-0.01,0.0,0.0
23.69547700,23695477,2,-0.08,0.37,135.69,-0.008805368095636368,0.0029689730145037174,-0.018116625025868416,-0.02187301218509674,0.0,0.0,-0.3406621813774109,0.0,-0.01,0.0,0.0
23.79547900,23795479,2,-0.07,0.38,135.73,-0.00910176895558834,0.0010624859714880586,-0.017419083043932915,-0.004608782473951578,0.0,0.0,-0.34068164229393005,0.0,-0.01,0.0,0.0
23.89548500,23895485,2,-0.07,0.37,135.79,-0.009227369911968708,0.00014296974404715002,-0.01885570026934147,-0.01683964766561985,0.0,0.0,-0.34324827790260315,0.0,-0.01,-0.01,0.0
23.99548800,23995488,2,-0.06,0.37,135.86,-0.009337478317320347,-0.00010787368228193372,-0.019076477736234665,-0.032176099717617035,0.0,0.0,-0.3459336757659912,0.0,-0.01,-0.01,0.0
24.09546400,24095464,2,-0.06,0.38,135.92000000000002,-0.010257176123559475,-0.0011776309693232179,-0.019372273236513138,-0.014358344487845898,0.0,0.0,-0.3467000126838684,0.0,-0.01,-0.02,0.0
24.19550900,24195509,2,-0.06,0.38,135.98,-0.010578518733382225,-0.0008227708749473095,-0.018594911321997643,0.002439746866002679,0.0,0.0,-0.3466688096523285,0.0,-0.01,-0.03,0.0
24.29547400,24295474,2,-0.06,0.37,136.04,-0.010996369644999504,-0.00154917745385319,-0.017992552369832993,0.008597328327596188,0.0,0.0,-0.34631624817848206,0.0,-0.01,-0.03,0.0
24.39550500,24395505,2,-0.05,0.38,136.09,-0.010890809819102287,-0.0019413521513342857,-0.016782809048891068,0.016763435676693916,0.0,0.0,-0.3449501395225525,0.0,-0.01,-0.04,0.0
24.49547900,24495479,2,-0.05,0.38,136.13,-0.010810951702296734,-0.0026359930634498596,-0.015364537015557289,0.016424650326371193,0.0,0.0,-0.34413987398147583,0.0,-0.01,-0.04,0.0
24.59547300,24595473,2,-0.05,0.38,136.17000000000002,-0.011015725322067738,-0.002689632121473551,-0.014624927192926407,0.012344359420239925,0.0,0.0,-0.3430112600326538,0.0,-0.01,-0.04,0.0
24.69548400,24695484,2,-0.05,0.39,136.2,-0.011043977923691273,-0.002543299924582243,-0.014069436118006706,0.008327655494213104,0.0,0.0,-0.34255272150039673,0.0,-0.01,-0.05,0.0
24.79548500,24795485,2,-0.05,0.39,136.24,-0.009793533943593502,-0.003979952074587345,-0.013688500039279461,0.002743833465501666,0.0,0.0,-0.3421137034893036,0.0,-0.01,-0.05,0.0
24.89548700,24895487,2,-0.05,0.39,136.28,-0.009619013406336308,-0.005152414087206125,-0.014356224797666073,-0.019286664202809334,0.0,0.0,-0.3445292115211487,0.0,-0.01,-0.06,0.0
24.99545400,24995454,2,-0.06,0.4,136.32,-0.009599034674465656,-0.005762569140642881,-0.013736266642808914,-0.035487767308950424,0.0,0.0,-0.3471274971961975,0.0,-0.01,-0.07,0.0
25.09552000,25095520,2,-0.06,0.4,136.36,-0.009215101599693298,-0.006810079328715801,-0.01398773305118084,-0.0278337262570858,0.0,0.0,-0.3492485284805298,0.0,-0.01,-0.07,0.0
25.19546400,25195464,2,-0.05,0.4,136.41,-0.00938727892935276,-0.007856519892811775,-0.01288512907922268,-0.017982715740799904,0.0,0.0,-0.3506666123867035,0.0,-0.01,-0.08,0.0
25.29551200,25295512,2,-0.05,0.4,136.45,-0.00951888132840395,-0.00928734801709652,-0.012512130662798882,0.006868531461805105,0.0,0.0,-0.34960368275642395,0.0,-0.01,-0.08,0.0
25.39547900,25395479,2,-0.06,0.4,136.48,-0.01000701542943716,-0.010076000355184078,-0.011734374798834324,0.01259545050561428,0.0,0.0,-0.34948453307151794,0.0,-0.01,-0.08,0.0
25.49547100,25495471,2,-0.06,0.4,136.5,-0.009434265084564686,-0.01163665484637022,-0.010109605267643929,0.0014790059067308903,0.0,0.0,-0.349725604057312,0.0,-0.01,-0.08,0.0
25.59547900,25595479,2,-0.07,0.39,136.53,-0.008948559872806072,-0.012037667445838451,-0.009607138112187386,-0.008312336169183254,0.0,0.0,-0.3508578836917877,0.0,-0.01,-0.08,0.0
25.69547800,25695478,2,-0.07,0.39,136.57,-0.009720847010612488,-0.012399782426655293,-0.009213889949023724,-0.012906561605632305,0.0,0.0,-0.3517143428325653,0.0,-0.01,-0.09,0.0
25.79547200,25795472,2,-0.07,0.38,136.61,-0.01077698078006506,-0.012292147614061832,-0.008962796069681644,-0.016187522560358047,0.0,0.0,-0.35339784622192383,0.0,-0.01,-0.09,0.0
25.89546500,25895465,2,-0.07,0.39,136.59,-0.01076006144285202,-0.01284822542220354,-0.007364335004240274,-0.018421046435832977,0.0,0.0,-0.35487547516822815,0.0,-0.01,-0.05,0.0
25.99549000,25995490,2,-0.07,0.39,136.45,-0.01116102933883667,-0.012914681807160378,-0.00676690973341465,-0.020672660320997238,0.0,0.0,-0.3570673167705536,0.0,-0.01,0.01,0.0
26.09546100,26095461,2,-0.07,0.39,136.23,-0.010833167470991611,-0.012147044762969017,-0.006005689036101103,-0.01600886881351471,0.0,0.0,-0.35794883966445923,0.0,-0.01,0.01,0.0
26.19550400,26195504,2,-0.07,0.39,136.02,-0.011580719612538815,-0.012467426247894764,-0.004159880802035332,-0.0015394589863717556,0.0,0.0,-0.35845044255256653,0.0,-0.01,0.01,0.0
26.29547800,26295478,2,-0.07,0.39,135.87,-0.011819897219538689,-0.01179427932947874,-0.00463136937469244,-0.01966293342411518,0.0,0.0,-0.3614460229873657,0.0,-0.01,0.0,0.0
26.39547700,26395477,2,-0.07,0.39,135.78,-0.011301866732537746,-0.011246989481151104,-0.0049544344656169415,-0.033492133021354675,0.0,0.0,-0.363919734954834,0.0,-0.01,0.0,0.0
26.49547500,26495475,2,-0.07,0.39,135.74,-0.010653570294380188,-0.011312740854918957,-0.004335926845669746,-0.013644864782691002,0.0,0.0,-0.3644769787788391,0.0,-0.01,0.0,0.0
26.59547400,26595474,2,-0.06,0.39,135.75,-0.010415245778858662,-0.010649378411471844,-0.0037461433093994856,0.006132671143859625,0.0,0.0,-0.3639512360095978,0.0,-0.01,0.0,0.0
26.69547900,26695479,2,-0.07,0.4,135.77,-0.009977888315916061,-0.009649599902331829,-0.0037517575547099113,0.012918230146169662,0.0,0.0,-0.36322730779647827,0.0,-0.01,0.0,0.0
26.79545900,26795459,2,-0.07,0.39,135.81,-0.009345343336462975,-0.009379073977470398,-0.004640256520360708,0.013143092393875122,0.0,0.0,-0.3622622787952423,0.0,-0.01,0.0,0.0
26.89552000,26895520,2,-0.07,0.39,135.86,-0.00883585773408413,-0.00869788508862257,-0.0037155435420572758,-0.0010478548938408494,0.0,0.0,-0.36335742473602295,0.0,-0.01,-0.01,0.0
26.99546500,26995465,2,-0.07,0.39,135.9,-0.007587730884552002,-0.009196488186717033,-0.004182554315775633,-0.04429679363965988,0.0,0.0,-0.3685292601585388,0.0,-0.01,-0.01,0.0
27.09550800,27095508,2,-0.08,0.39,135.96,-0.007968846708536148,-0.010056649334728718,-0.004142249934375286,-0.06353382021188736,0.0,0.0,-0.3728489577770233,0.0,-0.01,-0.02,0.0
27.19547600,27195476,2,-0.08,0.39,136.0,-0.007081304211169481,-0.010294627398252487,-0.003725722897797823,-0.03846486285328865,0.0,0.0,-0.37527233362197876,0.0,-0.01,-0.02,0.0
27.29547500,27295475,2,-0.09,0.39,136.04,-0.006537419743835926,-0.01004504319280386,-0.002944160485640168,-0.011246182024478912,0.0,0.0,-0.3764043152332306,0.0,-0.01,-0.02,0.0
27.39548500,27395485,2,-0.09,0.39,136.08,-0.00612895330414176,-0.010504921898245811,-0.0024743727408349514,0.006498292088508606,0.0,0.0,-0.3761032819747925,0.0,-0.01,-0.02,0.0
27.49547100,27495471,2,-0.09,0.4,136.1,-0.005297294817864895,-0.00929926335811615,-0.0024574859999120235,0.006499860435724258,0.0,0.0,-0.3764355778694153,0.0,-0.01,-0.03,0.0
27.59547600,27595476,2,-0.09,0.41000000000000003,136.12,-0.00497103575617075,-0.009431351907551289,-0.0011836111079901457,0.021350326016545296,0.0,0.0,-0.37416836619377136,0.0,-0.01,-0.03,0.0
27.69546900,27695469,2,-0.1,0.4,136.15,-0.004878735635429621,-0.009573855437338352,0.0015327289002016187,0.05742615461349487,0.0,0.0,-0.36910387873649597,0.0,-0.01,-0.03,0.0
27.79550000,27795500,2,-0.1,0.41000000000000003,136.17000000000002,-0.003960249945521355,-0.008829967118799686,0.0028804016765207052,0.07063779979944229,0.0,0.0,-0.3632190525531769,0.0,-0.01,-0.04,0.0
27.89546500,27895465,2,-0.1,0.41000000000000003,136.2,-0.0035030702129006386,-0.008740385994315147,0.004946543835103512,0.06540194898843765,0.0,0.0,-0.35797879099845886,0.0,-0.01,-0.04,0.0
27.99550500,27995505,2,-0.1,0.41000000000000003,136.24,-0.002905622823163867,-0.008715072646737099,0.006633587181568146,0.04065502807497978,0.0,0.0,-0.35484564304351807,0.0,-0.01,-0.04,0.0
28.09548000,28095480,2,-0.1,0.42,136.27,-0.00224807346239686,-0.008551997132599354,0.007539769634604454,0.017479827627539635,0.0,0.0,-0.3528522253036499,0.0,-0.01,-0.05,0.0
28.19547400,28195474,2,-0.1,0.42,136.31,-0.0019936624448746443,-0.008732976391911507,0.008403744548559189,0.008714042603969574,0.0,0.0,-0.35137587785720825,0.0,-0.01,-0.05,0.0
28.29547500,28295475,2,-0.1,0.41000000000000003,136.35,-0.0015372426714748144,-0.0075021120719611645,0.008821402676403522,0.0030110254883766174,0.0,0.0,-0.3505590260028839,0.0,-0.01,-0.05,0.0
28.39547500,28395475,2,-0.1,0.41000000000000003,136.38,-0.0007487235125154257,-0.006609424948692322,0.010359191335737705,0.0004467100079637021,0.0,0.0,-0.3500533998012543,0.0,-0.01,-0.06,0.0
28.49547700,28495477,2,-0.11,0.41000000000000003,136.42000000000002,-0.0006680146907456219,-0.005279699340462685,0.009515796788036823,-0.01741078495979309,0.0,0.0,-0.35172587633132935,0.0,-0.01,-0.06,0.0
28.59547000,28595470,2,-0.11,0.41000000000000003,136.45,0.00029515125788748264,-0.004521074239164591,0.007934904657304287,-0.03925471380352974,0.0,0.0,-0.35498684644699097,0.0,-0.01,-0.06,0.0
28.69547800,28695478,2,-0.11,0.41000000000000003,136.45,0.0018189585534855723,-0.004797595553100109,0.008000870235264301,-0.03085508942604065,0.0,0.0,-0.3566341698169708,0.0,-0.01,-0.05,0.0
28.79547000,28795470,2,-0.11,0.41000000000000003,136.37,0.0025348912458866835,-0.004167220089584589,0.008550191298127174,0.007467350922524929,0.0,0.0,-0.3549637794494629,0.0,-0.01,0.0,0.0
28.89550000,28895500,2,-0.12,0.41000000000000003,136.18,0.0028546410612761974,-0.003561918856576085,0.009064681828022003,0.03874510899186134,0.0,0.0,-0.35179054737091064,0.0,-0.01,0.02,0.0
28.99547600,28995476,2,-0.12,0.41000000000000003,135.99,0.0034218663349747658,-0.0021150887478142977,0.01003348920494318,0.059268929064273834,0.0,0.0,-0.34662142395973206,0.0,-0.01,0.01,0.0
29.09547400,29095474,2,-0.12,0.41000000000000003,135.83,0.003427942981943488,-0.0007346207275986671,0.011704208329319954,0.06840386986732483,0.0,0.0,-0.3413181006908417,0.0,-0.01,0.01,0.0
29.19547200,29195472,2,-0.13,0.4,135.74,0.004108673892915249,0.0003544139035511762,0.011931275948882103,0.03934237360954285,0.0,0.0,-0.33891183137893677,0.0,-0.01,0.0,0.0
29.29547400,29295474,2,-0.13,0.4,135.69,0.004397201351821423,0.0003228025452699512,0.011383863165974617,-0.010330420918762684,0.0,0.0,-0.3402763605117798,0.0,-0.01,0.0,0.0
29.39547900,29395479,2,-0.13,0.39,135.69,0.00475640082731843,0.0013123234966769814,0.011169356293976307,-0.030446747317910194,0.0,0.0,-0.3416750729084015,0.0,-0.01,0.0,0.0
29.49545100,29495451,2,-0.13,0.39,135.71,0.005254926159977913,0.002763313241302967,0.011213087476789951,-0.022757140919566154,0.0,0.0,-0.3429357707500458,0.0,-0.01,0.0,0.0
29.59548500,29595485,2,-0.13,0.39,135.74,0.005283747334033251,0.003394894301891327,0.011059802025556564,-0.020786209031939507,0.0,0.0,-0.3444448709487915,0.0,-0.01,0.0,0.0
29.69546900,29695469,2,-0.14,0.39,135.78,0.004930623807013035,0.004076492507010698,0.01072104461491108,-0.027455633506178856,0.0,0.0,-0.34708186984062195,0.0,-0.01,0.0,0.0
29.79548100,29795481,2,-0.14,0.39,135.83,0.00509509164839983,0.004412985406816006,0.00993366539478302,-0.013068562373518944,0.0,0.0,-0.3470839858055115,0.0,-0.01,0.0,0.0
29.89547100,29895471,2,-0.14,0.39,135.87,0.004979710094630718,0.004862653091549873,0.011081132106482983,0.03174814581871033,0.0,0.0,-0.3437689244747162,0.0,-0.01,-0.01,0.0
29.99547600,29995476,2,-0.14,0.39,135.91,0.005736114457249641,0.005850938614457846,0.012122280895709991,0.06913568824529648,0.0,0.0,-0.33767053484916687,0.0,-0.01,-0.01,0.0
30.09546700,30095467,2,-0.14,0.39,135.94,0.00539014907553792,0.006856468040496111,0.014823184348642826,0.09606749564409256,0.0,0.0,-0.32958027720451355,0.0,-0.01,-0.01,0.0
30.19546100,30195461,2,-0.14,0.38,135.97,0.004965844098478556,0.008552643470466137,0.01646474190056324,0.0926859900355339,0.0,0.0,-0.32232698798179626,0.0,-0.01,-0.01,0.0
30.29546300,30295463,2,-0.14,0.39,136.0,0.004546215292066336,0.009592093527317047,0.016135551035404205,0.07143853604793549,0.0,0.0,-0.31609266996383667,0.0,-0.01,-0.02,0.0
30.39545200,30395452,2,-0.14,0.39,136.03,0.004301114939153194,0.010651377961039543,0.01669025421142578,0.05097302421927452,0.0,0.0,-0.3114466965198517,0.0,-0.01,-0.02,0.0
30.49549100,30495491,2,-0.14,0.38,136.07,0.004236435983330011,0.011679662391543388,0.016864020377397537,0.036395467817783356,0.0,0.0,-0.307353675365448,0.0,-0.01,-0.02,0.0
30.59545400,30595454,2,-0.15,0.38,136.1,0.004367691930383444,0.013345098122954369,0.018048251047730446,0.019855499267578125,0.0,0.0,-0.30550989508628845,0.0,-0.01,-0.03,0.0
30.69549900,30695499,2,-0.14,0.38,136.13,0.004428324289619923,0.013606997206807137,0.018715988844633102,0.012151401489973068,0.0,0.0,-0.30303043127059937,0.0,-0.01,-0.03,0.0
30.79546600,30795466,2,-0.15,0.38,136.16,0.004907155409455299,0.013541128486394882,0.01999315805733204,0.035622481256723404,0.0,0.0,-0.2987186908721924,0.0,-0.01,-0.03,0.0
30.89546000,30895460,2,-0.15,0.38,136.18,0.005470545496791601,0.013566025532782078,0.021217431873083115,0.05589906871318817,0.0,0.0,-0.29320916533470154,0.0,-0.01,-0.03,0.0
30.99546300,30995463,2,-0.15,0.38,136.2,0.0062124296091496944,0.014238549396395683,0.022822510451078415,0.06252183765172958,0.0,0.0,-0.28769001364707947,0.0,-0.01,-0.03,0.0
31.09546500,31095465,2,-0.15,0.37,136.22,0.006020484492182732,0.015176041051745415,0.023859279230237007,0.04204562306404114,0.0,0.0,-0.2845025956630707,0.0,-0.01,-0.03,0.0
31.19546000,31195460,2,-0.15,0.37,136.24,0.006017892621457577,0.01501307263970375,0.02446454018354416,0.02633391134440899,0.0,0.0,-0.28130316734313965,0.0,-0.01,-0.03,0.0
31.29545500,31295455,2,-0.15,0.36,136.26,0.006060420069843531,0.015788260847330093,0.02545030042529106,0.024381360039114952,0.0,0.0,-0.27872371673583984,0.0,-0.01,-0.04,0.0
31.39548300,31395483,2,-0.15,0.36,136.28,0.005823386833071709,0.015615302138030529,0.026880374178290367,0.02130412869155407,0.0,0.0,-0.27616557478904724,0.0,-0.01,-0.04,0.0
31.49545600,31495456,2,-0.15,0.36,136.29,0.006523722782731056,0.015538965351879597,0.026747126132249832,0.006425794679671526,0.0,0.0,-0.27585622668266296,0.0,-0.01,-0.04,0.0
31.59549800,31595498,2,-0.15,0.36,136.25,0.006341410335153341,0.01625153422355652,0.026186233386397362,-0.028557317331433296,0.0,0.0,-0.27838996052742004,0.0,-0.01,-0.01,0.0
31.69546600,31695466,2,-0.15,0.36,136.12,0.00624150549992919,0.016505831852555275,0.02566779963672161,-0.03914053365588188,0.0,0.0,-0.2807323634624481,0.0,-0.01,0.01,0.0
31.79547300,31795473,2,-0.15,0.36,135.96,0.006120000500231981,0.017456501722335815,0.02571062557399273,-0.028490405529737473,0.0,0.0,-0.2826522886753082,0.0,-0.01,0.01,0.0
31.89546100,31895461,2,-0.15,0.36,135.84,0.0063310666009783745,0.017997512593865395,0.024799088016152382,-0.021286508068442345,0.0,0.0,-0.2842780649662018,0.0,-0.01,0.0,0.0
31.99546600,31995466,2,-0.15,0.36,135.75,0.006459349766373634,0.018621113151311874,0.02403310313820839,-0.018838925287127495,0.0,0.0,-0.2860725224018097,0.0,-0.01,0.0,0.0
32.09546000,32095460,2,-0.15,0.35000000000000003,135.71,0.006444720551371574,0.019784776493906975,0.02289784699678421,-0.009906405583024025,0.0,0.0,-0.28657981753349304,0.0,-0.01,0.0,0.0
32.19545600,32195456,2,-0.16,0.35000000000000003,135.71,0.006342743989080191,0.020785251632332802,0.021846553310751915,0.005740635562688112,0.0,0.0,-0.28615662455558777,0.0,-0.01,0.0,0.0
32.29547400,32295474,2,-0.15,0.35000000000000003,135.72,0.006391623988747597,0.0218100193887949,0.022175535559654236,0.012159752659499645,0.0,0.0,-0.2854713797569275,0.0,-0.01,0.0,0.0
32.39546300,32395463,2,-0.15,0.35000000000000003,135.76,0.006339844781905413,0.02255629003047943,0.02308485098183155,0.017968276515603065,0.0,0.0,-0.28402382135391235,0.0,-0.01,0.0,0.0
32.49549400,32495494,2,-0.16,0.34,135.79,0.006519779562950134,0.022433985024690628,0.02239583432674408,0.013048289343714714,0.0,0.0,-0.283376544713974,0.0,-0.01,0.0,0.0
32.59547100,32595471,2,-0.15,0.34,135.83,0.005891503766179085,0.022315192967653275,0.021733667701482773,-0.0022505903616547585,0.0,0.0,-0.28376758098602295,0.0,-0.01,0.0,0.0
32.69546100,32695461,2,-0.16,0.34,135.85,0.005521422252058983,0.022550642490386963,0.021215807646512985,-0.02004370465874672,0.0,0.0,-0.2857983410358429,0.0,-0.01,0.0,0.0
32.79546600,32795466,2,-0.17,0.35000000000000003,135.88,0.005413432139903307,0.023106595501303673,0.020980043336749077,-0.035063352435827255,0.0,0.0,-0.28865307569503784,0.0,-0.01,0.0,0.0
32.89548200,32895482,2,-0.17,0.34,135.91,0.004613853059709072,0.024584345519542694,0.019461549818515778,-0.03471239283680916,0.0,0.0,-0.2911923825740814,0.0,-0.01,-0.01,0.0
32.99546300,32995463,2,-0.17,0.34,135.94,0.0041365306824445724,0.0249667726457119,0.019233623519539833,-0.020941875874996185,0.0,0.0,-0.2926596403121948,0.0,-0.01,-0.01,0.0
33.09545000,33095450,2,-0.17,0.34,135.97,0.003767318557947874,0.02600351721048355,0.019664814695715904,-0.01827908679842949,0.0,0.0,-0.29491910338401794,0.0,-0.01,-0.01,0.0
33.19546100,33195461,2,-0.17,0.34,136.0,0.0040288097225129604,0.027200354263186455,0.01928679831326008,-0.020855875685811043,0.0,0.0,-0.2967132031917572,0.0,-0.01,-0.01,0.0
33.29545200,33295452,2,-0.17,0.35000000000000003,136.02,0.0038744336925446987,0.027536382898688316,0.017888255417346954,-0.023235565051436424,0.0,0.0,-0.29927584528923035,0.0,-0.01,-0.01,0.0
33.39549400,33395494,2,-0.17,0.35000000000000003,136.04,0.005158356390893459,0.028386106714606285,0.017010046169161797,-0.014438381418585777,0.0,0.0,-0.2998681366443634,0.0,-0.01,-0.02,0.0
33.49546400,33495464,2,-0.18,0.35000000000000003,136.06,0.005345858167856932,0.028189003467559814,0.017278842628002167,0.017535189166665077,0.0,0.0,-0.2981627583503723,0.0,-0.01,-0.02,0.0
33.59546200,33595462,2,-0.18,0.35000000000000003,136.08,0.005408542696386576,0.02898772805929184,0.016930479556322098,0.03433296084403992,0.0,0.0,-0.2954968214035034,0.0,-0.01,-0.02,0.0
33.69546700,33695467,2,-0.18,0.35000000000000003,136.1,0.005038545001298189,0.030020326375961304,0.015683075413107872,0.033113155514001846,0.0,0.0,-0.29322174191474915,0.0,-0.01,-0.02,0.0
33.79546300,33795463,2,-0.18,0.35000000000000003,136.12,0.005687141790986061,0.030908804386854172,0.015974631533026695,0.010063179768621922,0.0,0.0,-0.2932385802268982,0.0,-0.01,-0.02,0.0
33.89546200,33895462,2,-0.18,0.35000000000000003,136.15,0.006760020274668932,0.03251667693257332,0.015992822125554085,-0.01375117152929306,0.0,0.0,-0.2943328320980072,0.0,-0.01,-0.03,0.0
33.99544600,33995446,2,-0.18,0.35000000000000003,136.18,0.0065096477046608925,0.033230673521757126,0.015139918774366379,-0.01313200406730175,0.0,0.0,-0.2947215437889099,0.0,-0.01,-0.03,0.0
34.09550900,34095509,2,-0.17,0.35000000000000003,136.21,0.006167568266391754,0.033824287354946136,0.013833185657858849,-0.008313651196658611,0.0,0.0,-0.2952582836151123,0.0,-0.01,-0.03,0.0
34.19546300,34195463,2,-0.17,0.35000000000000003,136.24,0.0062043266370892525,0.03463611379265785,0.013206993229687214,-0.0031598384957760572,0.0,0.0,-0.29520127177238464,0.0,-0.01,-0.03,0.0
34.29549200,34295492,2,-0.18,0.35000000000000003,136.26,0.0066067930310964584,0.03489711508154869,0.013180048204958439,0.006622629705816507,0.0,0.0,-0.29459747672080994,0.0,-0.01,-0.03,0.0
34.39546200,34395462,2,-0.17,0.34,136.26,0.006302948109805584,0.03473098948597908,0.013711892068386078,0.027948569506406784,0.0,0.0,-0.2914504408836365,0.0,-0.01,-0.02,0.0
34.49546000,34495460,2,-0.17,0.34,136.18,0.00647933641448617,0.034967198967933655,0.014299415051937103,0.04095541685819626,0.0,0.0,-0.2885192036628723,0.0,-0.01,0.0,0.0
34.59546500,34595465,2,-0.17,0.35000000000000003,136.05,0.006056658457964659,0.03638914227485657,0.013573897071182728,0.019072728231549263,0.0,0.0,-0.28750696778297424,0.0,-0.01,0.0,0.0
34.69546100,34695461,2,-0.17,0.35000000000000003,135.93,0.005472921300679445,0.03693365305662155,0.013261942192912102,0.013810078613460064,0.0,0.0,-0.28557565808296204,0.0,-0.01,0.0,0.0
34.79546700,34795467,2,-0.17,0.35000000000000003,135.85,0.004999700002372265,0.03635944426059723,0.014176898635923862,0.016200199723243713,0.0,0.0,-0.2842477262020111,0.0,-0.01,0.0,0.0
34.89543900,34895439,2,-0.16,0.35000000000000003,135.81,0.004508909769356251,0.0357239656150341,0.014181721024215221,0.00257628271356225,0.0,0.0,-0.2840067446231842,0.0,-0.01,0.0,0.0
34.99548000,34995480,2,-0.17,0.35000000000000003,135.8,0.004771526902914047,0.03474091738462448,0.015025844797492027,-0.008500142954289913,0.0,0.0,-0.28472939133644104,0.0,-0.01,0.0,0.0
35.09547100,35095471,2,-0.16,0.35000000000000003,135.82,0.005300894379615784,0.034537654370069504,0.015111408196389675,-0.003465660847723484,0.0,0.0,-0.28408804535865784,0.0,-0.01,0.0,0.0
35.19550000,35195500,2,-0.16,0.35000000000000003,135.85,0.0052903881296515465,0.03286528214812279,0.01491694338619709,0.006415277719497681,0.0,0.0,-0.28354737162590027,0.0,-0.01,-0.01,0.0
35.29546300,35295463,2,-0.15,0.35000000000000003,135.88,0.00528356758877635,0.03194122016429901,0.014546492137014866,-0.003777574747800827,0.0,0.0,-0.2841399312019348,0.0,-0.01,-0.01,0.0
35.39546700,35395467,2,-0.15,0.36,135.92000000000002,0.005610119551420212,0.03165125846862793,0.01453801617026329,-0.007507448084652424,0.0,0.0,-0.28449007868766785,0.0,-0.01,-0.01,0.0
35.49547500,35495475,2,-0.15,0.36,135.95,0.005839735269546509,0.03018856793642044,0.01464291661977768,-0.0031983128283172846,0.0,0.0,-0.2846151292324066,0.0,-0.01,-0.01,0.0
35.59547400,35595474,2,-0.15,0.36,135.98,0.00547010125592351,0.029108917340636253,0.01336664892733097,-0.014519830234348774,0.0,0.0,-0.286300390958786,0.0,-0.01,-0.01,0.0
35.69549300,35695493,2,-0.14,0.36,136.01,0.004493239335715771,0.028567150235176086,0.01387119386345148,-0.01821994222700596,0.0,0.0,-0.2874971330165863,0.0,-0.01,-0.01,0.0
35.79545000,35795450,2,-0.14,0.36,136.03,0.004806037992238998,0.027471160516142845,0.014489315450191498,-1.8894234017352574e-05,0.0,0.0,-0.2870309054851532,0.0,-0.01,-0.02,0.0
35.89548800,35895488,2,-0.13,0.36,136.06,0.004936036188155413,0.02541639655828476,0.015239411033689976,0.016199860721826553,0.0,0.0,-0.2856203615665436,0.0,-0.01,-0.02,0.0
35.99546600,35995466,2,-0.13,0.36,136.09,0.005239059217274189,0.024344423785805702,0.01448593195527792,0.022342998534440994,0.0,0.0,-0.28380975127220154,0.0,-0.01,-0.02,0.0
36.09548900,36095489,2,-0.14,0.37,136.11,0.004459238611161709,0.023684918880462646,0.014268296770751476,0.03243933618068695,0.0,0.0,-0.2807028889656067,0.0,-0.01,-0.02,0.0
36.19546700,36195467,2,-0.13,0.37,136.15,0.003566216444596648,0.02306182123720646,0.0154156144708395,0.03291765972971916,0.0,0.0,-0.278452605009079,0.0,-0.01,-0.02,0.0
36.29547200,36295472,2,-0.13,0.37,136.17000000000002,0.0032003154046833515,0.021338194608688354,0.015772363170981407,0.015358821488916874,0.0,0.0,-0.27730655670166016,0.0,-0.01,-0.02,0.0
36.39547300,36395473,2,-0.13,0.37,136.2,0.0026222120504826307,0.01966443844139576,0.01575726829469204,-0.00813248846679926,0.0,0.0,-0.278324156999588,0.0,-0.01,-0.02,0.0
36.49547700,36495477,2,-0.13,0.38,136.21,0.0029729127418249846,0.018660858273506165,0.01484189834445715,-0.030431533232331276,0.0,0.0,-0.28059130907058716,0.0,-0.01,-0.02,0.0
36.59547100,36595471,2,-0.13,0.37,136.22,0.003895905101671815,0.01795957423746586,0.014132477343082428,-0.021025482565164566,0.0,0.0,-0.2812627851963043,0.0,-0.01,-0.02,0.0
36.69544100,36695441,2,-0.13,0.37,136.24,0.0033195374999195337,0.01853460632264614,0.014586427249014378,0.009908011183142662,0.0,0.0,-0.27971065044403076,0.0,-0.01,-0.03,0.0
36.79550800,36795508,2,-0.13,0.37,136.26,0.0032027128618210554,0.0174001045525074,0.014751049689948559,0.0011145815951749682,0.0,0.0,-0.28110021352767944,0.0,-0.01,-0.03,0.0
36.89547400,36895474,2,-0.13,0.37,136.28,0.002270850818604231,0.016710417345166206,0.01385506708174944,-0.040152665227651596,0.0,0.0,-0.2851915657520294,0.0,-0.01,-0.03,0.0
36.99549200,36995492,2,-0.12,0.37,136.3,0.002114729257300496,0.016353681683540344,0.012758584693074226,-0.04275933653116226,0.0,0.0,-0.2878781855106354,0.0,-0.01,-0.03,0.0
37.09547700,37095477,2,-0.12,0.38,136.32,0.00163617345970124,0.016464045271277428,0.011982119642198086,-0.028492076322436333,0.0,0.0,-0.2902993857860565,0.0,-0.01,-0.03,0.0
37.19545900,37195459,2,-0.12,0.38,136.33,0.0011518208775669336,0.01616416871547699,0.010654304176568985,-0.034570712596178055,0.0,0.0,-0.2940431237220764,0.0,-0.01,-0.02,0.0
37.29546200,37295462,2,-0.12,0.38,136.28,0.00022075028391554952,0.015887143090367317,0.009877108037471771,-0.04879630357027054,0.0,0.0,-0.29880785942077637,0.0,-0.01,-0.01,0.0
37.39546800,37395468,2,-0.12,0.39,136.17000000000002,-0.0005066205048933625,0.015663987025618553,0.008892792277038097,-0.04655064642429352,0.0,0.0,-0.30251798033714294,0.0,-0.01,0.0,0.0
37.49546800,37495468,2,-0.11,0.38,136.06,-0.0009004839812405407,0.01563621684908867,0.008253520354628563,-0.03474165499210358,0.0,0.0,-0.30577054619789124,0.0,-0.01,0.0,0.0
37.59543800,37595438,2,-0.11,0.38,135.97,-0.0004970571608282626,0.016000399366021156,0.0075656212866306305,-0.02153812162578106,0.0,0.0,-0.30766648054122925,0.0,-0.01,0.0,0.0
37.69549800,37695498,2,-0.11,0.38,135.92000000000002,-0.0012814333895221353,0.014973632991313934,0.0069290404208004475,0.009492884390056133,0.0,0.0,-0.30641523003578186,0.0,-0.01,0.0,0.0
37.79545800,37795458,2,-0.11,0.38,135.9,-0.0002849285665433854,0.014346308074891567,0.007132799364626408,0.017174629494547844,0.0,0.0,-0.3062588572502136,0.0,-0.01,0.0,0.0
37.89548900,37895489,2,-0.11,0.38,135.9,-0.0004843196365982294,0.015530387870967388,0.005495920777320862,0.012523571960628033,0.0,0.0,-0.30528855323791504,0.0,-0.01,-0.01,0.0
37.99546800,37995468,2,-0.12,0.38,135.92000000000002,-0.0004188537714071572,0.015992699190974236,0.004402644466608763,0.0034725493751466274,0.0,0.0,-0.3057578206062317,0.0,-0.01,-0.01,0.0
38.09545800,38095458,2,-0.12,0.38,135.94,0.00030460511334240437,0.016222549602389336,0.00363148283213377,-0.003919301554560661,0.0,0.0,-0.30585169792175293,0.0,-0.01,-0.01,0.0
38.19546600,38195466,2,-0.12,0.39,135.97,0.0006024219910614192,0.015178189612925053,0.0040004500187933445,-0.0007327983039431274,0.0,0.0,-0.3059368133544922,0.0,-0.01,-0.01,0.0
38.29547300,38295473,2,-0.13,0.38,135.99,0.0008790569263510406,0.014569059945642948,0.0044460478238761425,0.001284433645196259,0.0,0.0,-0.3057563602924347,0.0,-0.01,-0.01,0.0
38.39547300,38395473,2,-0.12,0.39,136.01,0.002053691539913416,0.012937375344336033,0.003972747828811407,-0.014126760885119438,0.0,0.0,-0.307852178812027,0.0,-0.01,-0.01,0.0
38.49544300,38495443,2,-0.12,0.39,136.04,0.0033073604572564363,0.012613438069820404,0.002958846976980567,-0.03835005313158035,0.0,0.0,-0.31108853220939636,0.0,-0.01,-0.01,0.0
38.59549100,38595491,2,-0.12,0.39,136.07,0.0029137704987078905,0.011346805840730667,0.0033681965433061123,-0.04023577272891998,0.0,0.0,-0.31412240862846375,0.0,-0.01,-0.02,0.0
38.69547300,38695473,2,-0.12,0.4,136.1,0.002805103547871113,0.010983660817146301,0.002608285751193762,-0.03769896924495697,0.0,0.0,-0.3175033628940582,0.0,-0.01,-0.02,0.0
38.79549200,38795492,2,-0.12,0.39,136.12,0.0029591419734060764,0.009086495265364647,0.003061882918700576,-0.030847862362861633,0.0,0.0,-0.32009992003440857,0.0,-0.01,-0.02,0.0
38.89546000,38895460,2,-0.12,0.39,136.13,0.00348161649890244,0.00849243812263012,0.003139267209917307,-0.012151431292295456,0.0,0.0,-0.32114455103874207,0.0,-0.01,-0.02,0.0
38.99547200,38995472,2,-0.12,0.4,136.14000000000001,0.003980564419180155,0.0074772615917027,0.002956103766337037,0.003085132222622633,0.0,0.0,-0.32114604115486145,0.0,-0.01,-0.02,0.0
39.09547600,39095476,2,-0.11,0.39,136.15,0.004387320019304752,0.0063959877006709576,0.002617831574752927,0.0037529170513153076,0.0,0.0,-0.3214895725250244,0.0,-0.01,-0.02,0.0
39.19547000,39195470,2,-0.12,0.4,136.16,0.003717886283993721,0.0057156989350914955,0.0023483193945139647,-0.00490402290597558,0.0,0.0,-0.32234808802604675,0.0,-0.01,-0.02,0.0
39.29546200,39295462,2,-0.12,0.4,136.18,0.0037302605342119932,0.00590564776211977,0.0017289171228185296,-0.012165911495685577,0.0,0.0,-0.3236129581928253,0.0,-0.01,-0.02,0.0
39.39544300,39395443,2,-0.11,0.39,136.19,0.0037237138021737337,0.005343340802937746,0.0009967004880309105,-0.014055734500288963,0.0,0.0,-0.3247999846935272,0.0,-0.01,-0.02,0.0
39.49548100,39495481,2,-0.11,0.4,136.2,0.0036759208887815475,0.00502917030826211,0.0010964944958686829,0.002532555954530835,0.0,0.0,-0.3241272568702698,0.0,-0.01,-0.02,0.0
39.59546200,39595462,2,-0.11,0.4,136.21,0.004432604182511568,0.004566613584756851,0.0016220620600506663,0.018454788252711296,0.0,0.0,-0.32272177934646606,0.0,-0.01,-0.02,0.0
39.69549300,39695493,2,-0.11,0.4,136.22,0.004652705509215593,0.004585436079651117,0.002179322997108102,0.017299342900514603,0.0,0.0,-0.32165172696113586,0.0,-0.01,-0.02,0.0
39.79546500,39795465,2,-0.1,0.4,136.23,0.0046288324519991875,0.005091594997793436,0.0013393021654337645,0.009297359734773636,0.0,0.0,-0.32100197672843933,0.0,-0.01,-0.02,0.0
39.89546800,39895468,2,-0.1,0.4,136.25,0.004950602073222399,0.005259821657091379,0.0025309990160167217,0.0159995649009943,0.0,0.0,-0.3191826641559601,0.0,-0.01,-0.03,0.0
39.99549000,39995490,2,-0.11,0.4,136.25,0.0047831423580646515,0.005619318690150976,0.001396405161358416,0.011634314432740211,0.0,0.0,-0.3185313940048218,0.0,-0.01,-0.02,0.0
40.09546000,40095460,2,-0.1,0.4,136.22,0.00492365937680006,0.005309300497174263,0.002068568719550967,-0.017815742641687393,0.0,0.0,-0.32069656252861023,0.0,-0.01,-0.01,0.0
40.19546100,40195461,2,-0.1,0.4,136.12,0.005253365729004145,0.005552752874791622,0.0012836602982133627,-0.021085107699036598,0.0,0.0,-0.32148507237434387,0.0,-0.01,0.0,0.0
40.29544500,40295445,2,-0.09,0.41000000000000003,136.0,0.00476846843957901,0.003924225457012653,0.000661914877127856,-0.01776832900941372,0.0,0.0,-0.32324105501174927,0.0,-0.01,0.0,0.0
40.39549100,40395491,2,-0.1,0.41000000000000003,135.89000000000001,0.004674920812249184,0.003245570696890354,0.00035881041549146175,-0.028177890926599503,0.0,0.0,-0.3257695734500885,0.0,-0.01,0.0,0.0
40.49545300,40495453,2,-0.1,0.41000000000000003,135.82,0.00529037369415164,0.003230256959795952,-0.0008414817857556045,-0.04105271026492119,0.0,0.0,-0.33003440499305725,0.0,-0.01,0.0,0.0
40.59549300,40595493,2,-0.1,0.41000000000000003,135.79,0.005481203086674213,0.0035982264671474695,-0.002542915055528283,-0.04712051898241043,0.0,0.0,-0.3335495591163635,0.0,-0.01,0.0,0.0
40.69546500,40695465,2,-0.1,0.42,135.78,0.005778537597507238,0.0036948630586266518,-0.004339896142482758,-0.04260619357228279,0.0,0.0,-0.3377419710159302,0.0,-0.01,0.0,0.0
40.79546700,40795467,2,-0.11,0.42,135.79,0.006106868851929903,0.002842956455424428,-0.005449146032333374,-0.03913798928260803,0.0,0.0,-0.34094011783599854,0.0,-0.01,0.0,0.0
40.89547400,40895474,2,-0.12,0.43,135.81,0.006049802992492914,0.0019192020408809185,-0.005922018550336361,-0.026822945103049278,0.0,0.0,-0.3436315059661865,0.0,-0.01,0.0,0.0
40.99546500,40995465,2,-0.11,0.42,135.83,0.0068232412450015545,0.0011857310310006142,-0.006053256336599588,-0.00847767572849989,0.0,0.0,-0.3442579507827759,0.0,-0.01,0.0,0.0
41.09546700,41095467,2,-0.11,0.43,135.86,0.006576727144420147,0.0014881858369335532,-0.006903625559061766,-0.006884292233735323,0.0,0.0,-0.3460034728050232,0.0,-0.01,0.0,0.0
41.19543900,41195439,2,-0.11,0.42,135.87,0.006718766409903765,0.0002755776804406196,-0.006044724490493536,0.0065883006900548935,0.0,0.0,-0.34485873579978943,0.0,-0.01,0.0,0.0
41.29549100,41295491,2,-0.11,0.43,135.89000000000001,0.006864985451102257,-0.001326104742474854,-0.004733068868517876,0.031602893024683,0.0,0.0,-0.34237322211265564,0.0,-0.01,0.0,0.0
41.39547000,41395470,2,-0.1,0.43,135.9,0.0070249950513243675,-0.0022933727595955133,-0.0037430813536047935,0.032856084406375885,0.0,0.0,-0.34024447202682495,0.0,-0.01,-0.01,0.0
41.49550400,41495504,2,-0.1,0.43,135.91,0.00819510966539383,-0.002997600706294179,-0.00305143347941339,0.022658895701169968,0.0,0.0,-0.3388440012931824,0.0,-0.01,-0.01,0.0
41.59546400,41595464,2,-0.1,0.42,135.93,0.007737664971500635,-0.0031427135691046715,-0.0030976564157754183,0.012941023334860802,0.0,0.0,-0.33771154284477234,0.0,-0.01,-0.01,0.0
41.69546800,41695468,2,-0.1,0.42,135.94,0.007107493467628956,-0.004248770419508219,-0.0031700688414275646,-0.00011773430014727637,0.0,0.0,-0.33775630593299866,0.0,-0.01,-0.01,0.0
41.79547700,41795477,2,-0.09,0.42,135.96,0.007232531439512968,-0.005553713068366051,-0.0013459541369229555,0.00763607956469059,0.0,0.0,-0.33630794286727905,0.0,-0.01,-0.01,0.0
41.89545900,41895459,2,-0.09,0.41000000000000003,135.97,0.007106520235538483,-0.006693583447486162,0.001058603054843843,0.05292535573244095,0.0,0.0,-0.33055824041366577,0.0,-0.01,-0.01,0.0
41.99546600,41995466,2,-0.09,0.41000000000000003,135.98,0.007055341731756926,-0.006602109409868717,0.0019408061634749174,0.06495162099599838,0.0,0.0,-0.3257150650024414,0.0,-0.01,-0.01,0.0
42.09544500,42095445,2,-0.09,0.41000000000000003,136.0,0.007104677148163319,-0.006427180487662554,0.001973748439922929,0.04041353240609169,0.0,0.0,-0.3224688470363617,0.0,-0.01,-0.01,0.0
42.19548800,42195488,2,-0.08,0.41000000000000003,136.01,0.006912526674568653,-0.006710472516715527,0.001941788592375815,0.018838252872228622,0.0,0.0,-0.3207418620586395,0.0,-0.01,-0.01,0.0
42.29545800,42295458,2,-0.08,0.41000000000000003,136.03,0.007488658651709557,-0.0069471849128603935,0.001763265230692923,0.003296084702014923,0.0,0.0,-0.31985846161842346,0.0,-0.01,-0.01,0.0
42.39549600,42395496,2,-0.08,0.42,136.03,0.00753189017996192,-0.006484526675194502,0.0026060561649501324,0.009361844509840012,0.0,0.0,-0.3181151747703552,0.0,-0.01,-0.01,0.0
42.49546200,42495462,2,-0.08,0.42,136.04,0.007176266983151436,-0.0072068385779857635,0.002852544654160738,0.00992973055690527,0.0,0.0,-0.3172042667865753,0.0,-0.01,-0.01,0.0
42.59546800,42595468,2,-0.08,0.42,136.05,0.0072813439182937145,-0.0073394631035625935,0.0035444844979792833,0.011775897815823555,0.0,0.0,-0.3155533969402313,0.0,-0.01,-0.01,0.0
42.69547800,42695478,2,-0.08,0.42,136.05,0.0074613625183701515,-0.00889699999243021,0.002431125147268176,0.012865722179412842,0.0,0.0,-0.3144375681877136,0.0,-0.01,-0.01,0.0
42.79546400,42795464,2,-0.09,0.41000000000000003,136.05,0.007248647976666689,-0.008684197440743446,0.0011287839151918888,-0.006278253626078367,0.0,0.0,-0.3152026832103729,0.0,-0.01,-0.01,0.0
42.89546100,42895461,2,-0.09,0.41000000000000003,136.04,0.007183440029621124,-0.009230995550751686,0.0012572151608765125,0.0038171536289155483,0.0,0.0,-0.3137798607349396,0.0,-0.01,-0.01,0.0
42.99545500,42995455,2,-0.09,0.41000000000000003,135.97,0.007660085801035166,-0.00843108631670475,0.0017550730844959617,0.016432205215096474,0.0,0.0,-0.3126455247402191,0.0,-0.01,0.0,0.0
43.09552200,43095522,2,-0.1,0.41000000000000003,135.88,0.007400305476039648,-0.007766995579004288,0.001322039868682623,0.008144907653331757,0.0,0.0,-0.3119104504585266,0.0,-0.01,0.0,0.0
43.19546400,43195464,2,-0.1,0.41000000000000003,135.79,0.006347281392663717,-0.006781787145882845,0.0010757644195109606,0.024198951199650764,0.0,0.0,-0.3088744878768921,0.0,-0.01,0.0,0.0
43.29549400,43295494,2,-0.1,0.41000000000000003,135.73,0.006530260667204857,-0.0064291441813111305,0.0013917610049247742,0.009783885441720486,0.0,0.0,-0.3096287250518799,0.0,-0.01,0.0,0.0
43.39547300,43395473,2,-0.1,0.41000000000000003,135.69,0.006936593446880579,-0.005653781816363335,-4.9725742428563535e-05,-0.03604751080274582,0.0,0.0,-0.3128657937049866,0.0,-0.01,0.0,0.0
43.49544100,43495441,2,-0.1,0.41000000000000003,135.67000000000002,0.006277480628341436,-0.005157576408237219,-0.0011823803652077913,-0.03864876180887222,0.0,0.0,-0.3152637481689453,0.0,-0.01,0.0,0.0
43.59546500,43595465,2,-0.1,0.41000000000000003,135.67000000000002,0.0066141365095973015,-0.005439290776848793,-0.0008285703370347619,-0.028561502695083618,0.0,0.0,-0.31754741072654724,0.0,-0.01,0.0,0.0
43.69546700,43695467,2,-0.1,0.41000000000000003,135.67000000000002,0.007275352720171213,-0.005829535890370607,-0.0006037612911313772,-0.028241300955414772,0.0,0.0,-0.3202248811721802,0.0,-0.01,0.0,0.0
43.79546200,43795462,2,-0.09,0.41000000000000003,135.69,0.006976280827075243,-0.005473170429468155,0.00036495199310593307,-0.012250425294041634,0.0,0.0,-0.3207874596118927,0.0,-0.01,0.0,0.0
43.89544100,43895441,2,-0.08,0.41000000000000003,135.7,0.006533332634717226,-0.005180353298783302,0.000677666044794023,0.0025169176515191793,0.0,0.0,-0.3210890591144562,0.0,-0.01,0.0,0.0
43.99550200,43995502,2,-0.08,0.4,135.71,0.006094129290431738,-0.0045776208862662315,0.0006217016489244998,0.014818115159869194,0.0,0.0,-0.3194688558578491,0.0,-0.01,0.0,0.0
44.09545700,44095457,2,-0.09,0.39,135.73,0.005960952956229448,-0.0036373152397572994,0.00033402402186766267,0.03383595496416092,0.0,0.0,-0.3167845606803894,0.0,-0.01,0.0,0.0
44.19549300,44195493,2,-0.08,0.39,135.74,0.00619230093434453,-0.0039408267475664616,0.0005860732635483146,0.02288331463932991,0.0,0.0,-0.31577610969543457,0.0,-0.01,0.0,0.0
44.29546500,44295465,2,-0.09,0.39,135.76,0.005181078799068928,-0.004628425929695368,8.145088941091672e-05,-0.00175882363691926,0.0,0.0,-0.3163144886493683,0.0,-0.01,0.0,0.0
44.39547000,44395470,2,-0.09,0.39,135.77,0.004816384054720402,-0.0042816284112632275,0.0006037570419721305,-0.011376175098121166,0.0,0.0,-0.31693005561828613,0.0,-0.01,0.0,0.0
44.49546200,44495462,2,-0.09,0.39,135.79,0.003813292598351836,-0.004414548631757498,0.0011223270557820797,-0.0035294669214636087,0.0,0.0,-0.31666678190231323,0.0,-0.01,0.0,0.0
44.59546600,44595466,2,-0.09,0.39,135.8,0.002466619247570634,-0.002801573136821389,0.0013596595963463187,0.004642564803361893,0.0,0.0,-0.31612589955329895,0.0,-0.01,0.0,0.0
44.69547500,44695475,2,-0.1,0.39,135.81,0.0012418647529557347,-0.0029998025856912136,0.0022027709055691957,0.007915912196040154,0.0,0.0,-0.3154914975166321,0.0,-0.01,0.0,0.0
44.79545500,44795455,2,-0.09,0.39,135.82,0.0006668816786259413,-0.0021236331667751074,0.0021521239541471004,0.0016940415371209383,0.0,0.0,-0.31565290689468384,0.0,-0.01,0.0,0.0
44.89549100,44895491,2,-0.09,0.39,135.83,5.242458428256214e-05,-0.0012882117880508304,0.001721000182442367,-0.007873643189668655,0.0,0.0,-0.3164643943309784,0.0,-0.01,0.0,0.0
44.99546600,44995466,2,-0.09,0.39,135.84,-0.0002518007531762123,-0.0001608753955224529,0.0007266229949891567,-0.021789802238345146,0.0,0.0,-0.3186596632003784,0.0,-0.01,0.0,0.0
45.09549400,45095494,2,-0.09,0.4,135.84,-0.0005217550788074732,0.00036895391531288624,0.00012340987450443208,-0.02999648079276085,0.0,0.0,-0.32101884484291077,0.0,-0.01,0.0,0.0
45.19546100,45195461,2,-0.09,0.4,135.84,-0.001092852558940649,0.0004207830352243036,-0.0013202755944803357,-0.03461542725563049,0.0,0.0,-0.32416796684265137,0.0,-0.01,0.0,0.0
45.29546300,45295463,2,-0.09,0.4,135.86,-0.001931490027345717,0.0003337360976729542,-0.0009072000975720584,-0.03165935352444649,0.0,0.0,-0.32673680782318115,0.0,-0.01,0.0,0.0
45.39546600,45395466,2,-0.09,0.4,135.87,-0.0025909855030477047,0.00065055419690907,-0.002297476399689913,-0.02966606616973877,0.0,0.0,-0.32961636781692505,0.0,-0.01,-0.01,0.0
45.49545900,45495459,2,-0.09,0.41000000000000003,135.89000000000001,-0.002215455286204815,0.0007860988844186068,-0.0022387795615941286,-0.014609213918447495,0.0,0.0,-0.3303854465484619,0.0,-0.01,-0.01,0.0
45.59546500,45595465,2,-0.09,0.41000000000000003,135.9,-0.001746003981679678,0.0004250048368703574,-0.0017657282296568155,0.010947237722575665,0.0,0.0,-0.3294017016887665,0.0,-0.01,-0.01,0.0
