timestamp,TimeUS,I,Status,GMS,GWk,NSats,HDop,Lat,Lng,Alt,Spd,GCrs,VZ,Yaw,U
1666739817.19899988,1360276516,0,3,256635199,2233,13,0.74,42.7306747,-84.4904411,230.67000000000002,0.04118252173066139,29.054601669311523,0.010000000707805157,0.0,1
1666739817.39848995,1360476006,0,3,256635399,2233,13,0.74,42.7306747,-84.4904416,230.68,0.051078375428915024,156.94869995117188,-0.07600000500679016,0.0,1
1666739817.57806301,1360655579,0,3,256635599,2233,13,0.74,42.7306746,-84.49044219999999,230.67000000000002,0.07657676190137863,220.76361083984375,-0.0010000000474974513,0.0,1
1666739817.77807403,1360855590,0,3,256635799,2233,13,0.74,42.7306746,-84.4904428,230.64000000000001,0.06946222484111786,300.2564392089844,-0.05700000375509262,0.0,1
1666739817.97810984,1361055626,0,3,256635999,2233,13,0.74,42.7306747,-84.49044359999999,230.57,0.048795491456985474,315.830322265625,-0.04200000315904617,0.0,1
1666739818.17811203,1361255628,0,3,256636199,2233,13,0.74,42.730674799999996,-84.4904444,230.53,0.057723481208086014,14.036242485046387,-0.10400000214576721,0.0,1
1666739818.37814403,1361455660,0,3,256636399,2233,13,0.74,42.7306749,-84.49044529999999,230.48000000000002,0.07766595482826233,191.888671875,-0.07200000435113907,0.0,1
1666739818.57805800,1361655574,0,3,256636599,2233,13,0.74,42.730674799999996,-84.4904461,230.43,0.05821511894464493,94.9271011352539,-0.0860000029206276,0.0,1
1666739818.77802181,1361855538,0,3,256636799,2233,13,0.74,42.7306749,-84.49044669999999,230.33,0.15558920800685883,107.96913146972656,-0.01100000087171793,0.0,1
1666739818.97814202,1362055658,0,3,256636999,2233,13,0.74,42.7306749,-84.4904473,230.27,0.05458937585353851,61.55706787109375,-0.03100000135600567,0.0,1
1666739819.19844699,1362275963,0,3,256637199,2233,13,0.74,42.730675,-84.490448,230.23000000000002,0.01345362514257431,48.01278305053711,-0.014000000432133675,0.0,1
1666739819.39850402,1362476020,0,3,256637399,2233,13,0.74,42.7306751,-84.49044889999999,230.20000000000002,0.07723341882228851,221.32550048828125,-0.014000000432133675,0.0,1
1666739819.57812595,1362655642,0,3,256637599,2233,13,0.74,42.7306752,-84.4904498,230.15,0.02475883811712265,223.36341857910156,0.08400000631809235,0.0,1
1666739819.77811599,1362855632,0,3,256637799,2233,13,0.74,42.7306752,-84.49045079999999,230.11,0.10230347514152527,230.552978515625,-0.012000000104308128,0.0,1
1666739819.97812080,1363055637,0,3,256637999,2233,14,0.68,42.7306752,-84.4904517,230.08,0.05824946612119675,281.888671875,-0.14100000262260437,0.0,1
1666739820.19843698,1363275953,0,3,256638199,2233,13,0.68,42.7306753,-84.49045249999999,230.05,0.06720863282680511,226.80874633789062,-0.10500000417232513,0.0,1
1666739820.39845586,1363475972,0,3,256638399,2233,14,0.68,42.7306752,-84.4904535,230.01,0.08668333292007446,258.6900634765625,-0.10400000214576721,0.0,1
1666739820.57806182,1363655578,0,3,256638599,2233,14,0.68,42.7306753,-84.49045439999999,229.94,0.0776466429233551,352.60040283203125,-0.036000002175569534,0.0,1
1666739820.77806187,1363855578,0,3,256638799,2233,14,0.68,42.7306753,-84.49045509999999,229.85,0.05656854808330536,135.0,-0.06800000369548798,0.0,1
1666739820.97813582,1364055652,0,3,256638999,2233,14,0.68,42.730675399999996,-84.4904557,229.78,0.08401190489530563,351.0982971191406,0.04200000315904617,0.0,1
1666739821.17811584,1364255632,0,3,256639199,2233,14,0.68,42.7306753,-84.4904564,229.68,0.1245792955160141,185.52755737304688,0.03200000151991844,0.0,1
1666739821.37810898,1364455625,0,3,256639399,2233,14,0.68,42.730675399999996,-84.4904569,229.58,0.1261942982673645,33.6900634765625,0.024000000208616257,0.0,1
1666739821.57810283,1364655619,0,3,256639599,2233,14,0.68,42.7306756,-84.49045749999999,229.49,0.05341348424553871,141.8427734375,0.09300000220537186,0.0,1
1666739821.77801681,1364855533,0,3,256639799,2233,14,0.68,42.7306757,-84.49045799999999,229.42000000000002,0.10466136783361435,45.77421569824219,0.0650000050663948,0.0,1
1666739821.99846983,1365075986,0,3,256639999,2233,14,0.68,42.7306761,-84.4904586,229.35,0.0546717494726181,320.1944274902344,0.04100000113248825,0.0,1
1666739822.19841099,1365275927,0,3,256640199,2233,14,0.68,42.7306764,-84.49045939999999,229.27,0.044944413006305695,290.8544616699219,0.08500000089406967,0.0,1
1666739822.39845490,1365475971,0,3,256640399,2233,14,0.68,42.7306767,-84.49046,229.16,0.09091755002737045,119.66670989990234,-0.01900000125169754,0.0,1
1666739822.57814503,1365655661,0,3,256640599,2233,14,0.68,42.730677,-84.4904607,229.07,0.019416488707065582,34.508522033691406,-0.018000001087784767,0.0,1
1666739822.77811003,1365855626,0,3,256640799,2233,14,0.68,42.730677299999996,-84.4904615,228.99,0.058694127947092056,283.79949951171875,-0.03800000250339508,0.0,1
1666739822.99848580,1366076002,0,3,256640999,2233,14,0.68,42.7306777,-84.4904624,228.88,0.06657326966524124,327.2647705078125,0.024000000208616257,0.0,1
1666739823.17812085,1366255637,0,3,256641199,2233,14,0.68,42.7306781,-84.4904631,228.78,0.032557643949985504,42.51044464111328,0.04500000178813934,0.0,1
1666739823.37803197,1366455548,0,3,256641399,2233,14,0.68,42.730678499999996,-84.49046369999999,228.69,0.03801315650343895,35.36246109008789,0.03500000014901161,0.0,1
1666739823.57803988,1366655556,0,3,256641599,2233,14,0.68,42.7306789,-84.4904644,228.63,0.04491102695465088,258.43988037109375,0.004000000189989805,0.0,1
1666739823.77802896,1366855545,0,3,256641799,2233,14,0.68,42.7306793,-84.4904651,228.53,0.05197114869952202,11.093722343444824,0.039000000804662704,0.0,1
1666739823.97808886,1367055605,0,3,256641999,2233,14,0.68,42.7306798,-84.4904658,228.46,0.07029224932193756,320.1944274902344,-0.03500000014901161,0.0,1
1666739824.19839787,1367275914,0,3,256642199,2233,14,0.68,42.730680199999995,-84.4904664,228.36,0.10420173406600952,52.80018615722656,0.023000001907348633,0.0,1
1666739824.37815404,1367455670,0,3,256642399,2233,14,0.68,42.730680799999995,-84.4904667,228.27,0.06907966732978821,67.89054870605469,0.018000001087784767,0.0,1
1666739824.57814193,1367655658,0,3,256642599,2233,14,0.68,42.7306813,-84.490467,228.21,0.1166190430521965,59.03623962402344,0.10900000482797623,0.0,1
1666739824.77810597,1367855622,0,3,256642799,2233,14,0.68,42.7306818,-84.4904672,228.14000000000001,0.03492850065231323,203.62937927246094,0.1380000114440918,0.0,1
1666739824.99853587,1368076052,0,3,256642999,2233,14,0.68,42.7306822,-84.4904675,228.07,0.12814055383205414,87.31621551513672,0.03400000184774399,0.0,1
1666739825.19846487,1368275981,0,3,256643199,2233,14,0.68,42.730682699999996,-84.4904676,228.03,0.06236185133457184,195.81919860839844,-0.058000002056360245,0.0,1
1666739825.37804389,1368455560,0,3,256643399,2233,14,0.68,42.7306831,-84.49046779999999,227.98000000000002,0.06293647736310959,134.3562469482422,0.01100000087171793,0.0,1
1666739825.59861898,1368676135,0,3,256643599,2233,14,0.68,42.730683899999995,-84.4904679,227.91,0.13285329937934875,19.79887580871582,0.020000001415610313,0.0,1
1666739825.79836488,1368875881,0,3,256643799,2233,14,0.68,42.7306847,-84.4904681,227.88,0.09291394799947739,278.04290771484375,0.13300000131130219,0.0,1
1666739825.99840689,1369075923,0,3,256643999,2233,13,0.7000000000000001,42.7306853,-84.4904684,227.85,0.036221541464328766,173.65980529785156,0.0020000000949949026,0.0,1
1666739826.19843483,1369275951,0,3,256644199,2233,13,0.7000000000000001,42.7306859,-84.49046849999999,227.83,0.06100820004940033,179.06080627441406,-0.030000001192092896,0.0,1
1666739826.39846897,1369475985,0,3,256644399,2233,13,0.7000000000000001,42.7306866,-84.4904688,227.78,0.0806535854935646,252.6883544921875,0.009000000543892384,0.0,1
1666739826.59851003,1369676026,0,3,256644599,2233,13,0.7000000000000001,42.730687499999995,-84.4904691,227.74,0.07513321936130524,350.03619384765625,0.12000000476837158,0.0,1
1666739826.77809882,1369855615,0,3,256644799,2233,13,0.7000000000000001,42.730688199999996,-84.4904695,227.71,0.18183784186840057,251.0668487548828,-0.02200000174343586,0.0,1
1666739826.97806501,1370055581,0,3,256644999,2233,14,0.7000000000000001,42.730688799999996,-84.49047,227.67000000000002,0.14812158048152924,235.45164489746094,0.0010000000474974513,0.0,1
1666739827.19848800,1370276004,0,3,256645199,2233,14,0.7000000000000001,42.7306895,-84.4904703,227.62,0.08271034061908722,194.70831298828125,-0.0020000000949949026,0.0,1
1666739827.37808394,1370455600,0,3,256645399,2233,14,0.7000000000000001,42.7306901,-84.49047039999999,227.6,0.10711676627397537,272.6754150390625,-0.02800000086426735,0.0,1
1666739827.57810998,1370655626,0,3,256645599,2233,14,0.7000000000000001,42.7306909,-84.4904705,227.6,0.029154760763049126,329.0362548828125,0.007000000216066837,0.0,1
1666739827.77810597,1370855622,0,3,256645799,2233,13,0.7000000000000001,42.7306919,-84.49047039999999,227.61,0.06573431938886642,326.7934265136719,-0.055000003427267075,0.0,1
1666739827.97811985,1371055636,0,3,256645999,2233,13,0.7000000000000001,42.7306929,-84.49047039999999,227.61,0.03705401346087456,93.09405517578125,-0.14100000262260437,0.0,1
1666739828.17812085,1371255637,0,3,256646199,2233,13,0.7000000000000001,42.7306938,-84.49047019999999,227.6,0.037443291395902634,34.114471435546875,-0.0020000000949949026,0.0,1
1666739828.39851284,1371476029,0,3,256646399,2233,13,0.7000000000000001,42.7306947,-84.49047019999999,227.56,0.023345235735177994,313.2642822265625,-0.03800000250339508,0.0,1
1666739828.57810497,1371655621,0,3,256646599,2233,13,0.7000000000000001,42.7306956,-84.49047019999999,227.53,0.08544003963470459,106.3138427734375,0.005000000353902578,0.0,1
1666739828.79837298,1371875889,0,3,256646799,2233,13,0.7000000000000001,42.7306964,-84.4904701,227.49,0.12121056020259857,52.37376022338867,-0.07900000363588333,0.0,1
1666739828.99838781,1372075904,0,3,256646999,2233,13,0.7000000000000001,42.7306974,-84.49047,227.46,0.21821549534797668,37.55257797241211,0.11800000816583633,0.0,1
1666739829.19837189,1372275888,0,3,256647199,2233,13,0.7000000000000001,42.7306983,-84.49047,227.44,0.04535416513681412,255.96377563476562,0.010000000707805157,0.0,1
1666739829.37809300,1372455609,0,3,256647399,2233,13,0.7000000000000001,42.7306989,-84.49047039999999,227.41,0.17963574826717377,230.19442749023438,0.13700000941753387,0.0,1
1666739829.57802701,1372655543,0,3,256647599,2233,13,0.7000000000000001,42.7306995,-84.4904705,227.4,0.17568439245224,74.14419555664062,-0.046000003814697266,0.0,1
1666739829.77807999,1372855596,0,3,256647799,2233,13,0.7000000000000001,42.7307001,-84.4904706,227.39000000000001,0.14189080893993378,166.55137634277344,-0.0860000029206276,0.0,1
1666739829.99843001,1373075946,0,3,256647999,2233,13,0.7000000000000001,42.7307008,-84.4904708,227.28,0.10510947555303574,21.194055557250977,0.14100000262260437,0.0,1
1666739830.19855881,1373276075,0,3,256648199,2233,12,0.7000000000000001,42.7307014,-84.4904711,227.3,0.05197114869952202,281.0937194824219,-0.005000000353902578,0.0,1
1666739830.37812185,1373455638,0,3,256648399,2233,12,0.7000000000000001,42.730702099999995,-84.4904715,227.28,0.13103435933589935,321.8182067871094,-0.05100000277161598,0.0,1
1666739830.59837294,1373675889,0,3,256648599,2233,12,0.7000000000000001,42.730702699999995,-84.49047159999999,227.20000000000002,0.36381590366363525,99.3328628540039,-0.004000000189989805,0.0,1
1666739830.77804685,1373855563,0,3,256648799,2233,12,0.7000000000000001,42.730703299999995,-84.4904725,227.09,0.3555193543434143,228.19247436523438,0.13500000536441803,0.0,1
1666739830.97810888,1374055625,0,3,256648999,2233,12,0.7000000000000001,42.7307044,-84.49047399999999,226.93,0.07655716687440872,23.886499404907227,0.2240000069141388,0.0,1
1666739831.17802691,1374255543,0,3,256649199,2233,11,0.7000000000000001,42.7307061,-84.49047589999999,226.72,0.28037118911743164,42.10873031616211,0.2840000092983246,0.0,1
1666739846.19843602,1389275952,0,3,256664199,2233,11,0.77,42.7307153,-84.4905113,225.94,0.07479305565357208,240.3501434326172,0.023000001907348633,0.0,1
1666739846.39846683,1389475983,0,3,256664399,2233,11,0.77,42.7307147,-84.4905125,225.94,0.03026549331843853,262.4053649902344,-0.009000000543892384,0.0,1
1666739846.59852982,1389676046,0,3,256664599,2233,11,0.77,42.7307142,-84.49051349999999,225.91,0.02745906077325344,10.491476058959961,-0.01100000087171793,0.0,1
1666739846.79843783,1389875954,0,3,256664799,2233,11,0.77,42.730713699999995,-84.4905146,225.88,0.08061017841100693,225.0,-0.05100000277161598,0.0,1
1666739846.99845886,1390075975,0,3,256664999,2233,11,0.77,42.730713099999996,-84.4905156,225.85,0.05240229144692421,138.09405517578125,0.02500000037252903,0.0,1
1666739847.17809200,1390255608,0,3,256665199,2233,11,0.77,42.730712499999996,-84.49051659999999,225.85,0.10568349808454514,235.40771484375,0.06599999964237213,0.0,1
1666739847.37811184,1390455628,0,3,256665399,2233,11,0.77,42.730711899999996,-84.4905177,225.83,0.07249827682971954,155.5560302734375,-0.03100000135600567,0.0,1
1666739847.57806683,1390655583,0,3,256665599,2233,11,0.77,42.730711299999996,-84.4905185,225.82,0.0688767060637474,154.1790008544922,0.010000000707805157,0.0,1
1666739847.77814984,1390855666,0,3,256665799,2233,11,0.77,42.730710699999996,-84.4905193,225.92000000000002,0.024698179215192795,301.7594909667969,-0.08500000089406967,0.0,1
1666739847.99844193,1391075958,0,3,256665999,2233,10,0.85,42.730709999999995,-84.4905206,225.9,0.14353397488594055,219.3455810546875,-0.1120000034570694,0.0,1
1666739848.17820382,1391255720,0,3,256666199,2233,10,0.85,42.7307092,-84.490522,225.9,0.08184131234884262,234.9506378173828,-0.015000000596046448,0.0,1
1666739848.39854288,1391476059,0,3,256666399,2233,10,0.85,42.7307085,-84.49052329999999,225.88,0.0718679428100586,211.92088317871094,-0.0690000057220459,0.0,1
1666739848.57802391,1391655540,0,3,256666599,2233,10,0.85,42.7307079,-84.4905244,225.87,0.10220078378915787,53.354347229003906,0.003000000026077032,0.0,1
1666739848.77809095,1391855607,0,3,256666799,2233,10,0.85,42.7307073,-84.4905254,225.83,0.04455334320664406,80.96051025390625,0.1080000028014183,0.0,1
1666739848.99845195,1392075968,0,3,256666999,2233,11,0.79,42.7307066,-84.4905265,225.79,0.05703508108854294,87.99044036865234,-0.05400000140070915,0.0,1
1666739849.19841290,1392275929,0,3,256667199,2233,11,0.79,42.730706,-84.4905277,225.85,0.07905694842338562,55.30484390258789,-0.04700000211596489,0.0,1
1666739849.39841390,1392475930,0,3,256667399,2233,11,0.79,42.7307053,-84.490529,225.85,0.05069516971707344,165.14137268066406,-0.1290000081062317,0.0,1
1666739849.59845400,1392675970,0,3,256667599,2233,11,0.79,42.730704499999995,-84.49053049999999,225.9,0.061684686690568924,253.0338592529297,-0.020000001415610313,0.0,1
1666739849.79845095,1392875967,0,3,256667799,2233,11,0.79,42.7307037,-84.490532,225.96,0.13647344708442688,224.70314025878906,-0.004000000189989805,0.0,1
1666739849.97813392,1393055650,0,3,256667999,2233,11,0.79,42.730702799999996,-84.49053339999999,225.98000000000002,0.08367795497179031,104.5344467163086,-0.10900000482797623,0.0,1
1666739850.19852781,1393276044,0,3,256668199,2233,11,0.79,42.730702099999995,-84.49053459999999,226.02,0.05661272257566452,107.47476959228516,-0.0820000022649765,0.0,1
1666739850.37815404,1393455670,0,3,256668399,2233,11,0.79,42.7307014,-84.4905359,226.05,0.026248810812830925,139.6354522705078,-0.03800000250339508,0.0,1
1666739850.57812285,1393655639,0,3,256668599,2233,11,0.79,42.7307006,-84.4905371,226.07,0.04539823904633522,187.5946502685547,-0.04400000348687172,0.0,1
1666739850.79849887,1393876015,0,3,256668799,2233,11,0.79,42.7306999,-84.4905382,226.13,0.04049691557884216,69.77513885498047,-0.1469999998807907,0.0,1
1666739850.99842882,1394075945,0,3,256668999,2233,11,0.79,42.7306994,-84.4905393,226.15,0.03623534366488457,39.400657653808594,-0.10500000417232513,0.0,1
1666739851.19849586,1394276012,0,3,256669199,2233,11,0.79,42.7306986,-84.4905405,226.22,0.06449806690216064,172.87496948242188,-0.08000000566244125,0.0,1
1666739851.39850497,1394476021,0,3,256669399,2233,11,0.79,42.730698,-84.49054149999999,226.27,0.09193476289510727,44.118595123291016,-0.12700000405311584,0.0,1
1666739851.59852791,1394676044,0,3,256669599,2233,11,0.79,42.7306974,-84.4905426,226.31,0.06264982372522354,208.61045837402344,-0.05000000074505806,0.0,1
1666739851.77817583,1394855692,0,3,256669799,2233,11,0.79,42.7306968,-84.4905438,226.32,0.012041594833135605,318.366455078125,-0.06100000441074371,0.0,1
1666739851.97814584,1395055662,0,3,256669999,2233,11,0.79,42.7306962,-84.4905449,226.34,0.02941088378429413,197.81890869140625,-0.08100000023841858,0.0,1
1666739852.17813993,1395255656,0,3,256670199,2233,11,0.79,42.7306957,-84.490546,226.4,0.0962548702955246,32.699459075927734,-0.0010000000474974513,0.0,1
1666739852.39836884,1395475885,0,3,256670399,2233,11,0.79,42.7306953,-84.4905471,226.42000000000002,0.05048762261867523,352.0303955078125,-0.08500000089406967,0.0,1
1666739852.57814002,1395655656,0,3,256670599,2233,11,0.79,42.730694899999996,-84.4905481,226.45000000000002,0.04310452565550804,176.0090789794922,-0.09700000286102295,0.0,1
1666739852.77812099,1395855637,0,3,256670799,2233,11,0.79,42.7306946,-84.49054919999999,226.48000000000002,0.08984431624412537,163.17857360839844,-0.27900001406669617,0.0,1
1666739852.97812486,1396055641,0,3,256670999,2233,11,0.79,42.730694799999995,-84.49055059999999,226.44,0.04838388413190842,108.06046295166016,-0.39400002360343933,0.0,1
1666739853.17814994,1396255666,0,3,256671199,2233,10,0.79,42.730694899999996,-84.4905527,226.36,0.15666845440864563,330.9809265136719,-0.4520000219345093,0.0,1
1666739853.37815285,1396455669,0,3,256671399,2233,11,0.79,42.7306957,-84.49055539999999,226.35,0.5817233324050903,2.8574862480163574,-0.16200000047683716,0.0,1
1666739853.57814598,1396655662,0,3,256671599,2233,12,0.79,42.730696599999995,-84.4905579,226.27,0.1548709273338318,8.914926528930664,-0.2370000183582306,0.0,1
1666739853.77814603,1396855662,0,3,256671799,2233,12,0.79,42.7306975,-84.49056,226.17000000000002,0.30459973216056824,342.8143005371094,-0.07900000363588333,0.0,1
1666739853.97813582,1397055652,0,3,256671999,2233,12,0.75,42.7306988,-84.4905627,226.0,0.2505693733692169,283.14886474609375,0.2290000170469284,0.0,1
1666739854.19841695,1397275933,0,3,256672199,2233,11,0.75,42.730700399999996,-84.4905646,225.79,0.23982077836990356,310.264404296875,0.06200000271201134,0.0,1
1666739854.39846396,1397475980,0,3,256672399,2233,12,0.75,42.7307017,-84.4905665,225.72,0.4191252887248993,332.2732849121094,0.014000000432133675,0.0,1
1666739854.59842801,1397675944,0,3,256672599,2233,12,0.75,42.730702699999995,-84.4905682,225.56,0.3305526077747345,275.55535888671875,-0.029000001028180122,0.0,1
1666739854.79851103,1397876027,0,3,256672799,2233,10,0.75,42.7307032,-84.4905691,225.53,0.1521906852722168,352.8282775878906,-0.4100000262260437,0.0,1
1666739854.99864697,1398076163,0,3,256672999,2233,12,0.75,42.7307037,-84.49057069999999,225.42000000000002,0.128763347864151,353.7580871582031,-0.24400001764297485,0.0,1
1666739855.19856095,1398276077,0,3,256673199,2233,12,0.75,42.730703999999996,-84.4905721,225.39000000000001,0.10304369032382965,358.3316650390625,-0.3230000138282776,0.0,1
1666739855.37812591,1398455642,0,3,256673399,2233,12,0.75,42.7307044,-84.4905728,225.33,0.10600472241640091,297.531982421875,-0.20400001108646393,0.0,1
1666739855.59845400,1398675970,0,3,256673599,2233,11,0.75,42.730705,-84.49057309999999,225.43,0.288764625787735,29.228052139282227,-0.35500001907348633,0.0,1
1666739855.77811599,1398855632,0,3,256673799,2233,11,0.75,42.7307056,-84.4905732,225.41,0.16183942556381226,50.01311111450195,-0.4310000240802765,0.0,1
1666739855.97811794,1399055634,0,3,256673999,2233,12,0.75,42.730706,-84.4905737,225.46,0.08139410614967346,132.51043701171875,-0.49800002574920654,0.0,1
1666739856.17814493,1399255661,0,3,256674199,2233,12,0.75,42.7307062,-84.49057409999999,225.44,0.13793115317821503,43.53119659423828,-0.16900001466274261,0.0,1
1666739856.37814093,1399455657,0,3,256674399,2233,12,0.75,42.730706399999995,-84.49057409999999,225.51,0.14073024690151215,19.07869529724121,-0.10100000351667404,0.0,1
1666739856.57813001,1399655646,0,3,256674599,2233,12,0.75,42.730706399999995,-84.4905746,225.51,0.14494137465953827,230.59933471679688,-0.009000000543892384,0.0,1
1666739856.77816200,1399855678,0,3,256674799,2233,12,0.75,42.7307062,-84.4905754,225.57,0.18278129398822784,236.8315887451172,-0.009000000543892384,0.0,1
1666739856.97814703,1400055663,0,3,256674999,2233,12,0.75,42.7307062,-84.4905763,225.73000000000002,0.10628264397382736,250.2011260986328,-0.01600000075995922,0.0,1
1666739857.19841981,1400275936,0,3,256675199,2233,11,0.75,42.7307062,-84.49057669999999,225.98000000000002,0.14200352132320404,37.273380279541016,0.12700000405311584,0.0,1
1666739857.37814593,1400455662,0,3,256675399,2233,12,0.75,42.7307066,-84.49057619999999,226.29,0.9143680930137634,45.75326156616211,-0.09100000560283661,0.0,1
1666739857.57813787,1400655654,0,3,256675599,2233,13,0.75,42.7307067,-84.4905758,227.07,0.37787434458732605,76.22117614746094,0.05300000309944153,0.0,1
1666739857.77804494,1400855561,0,3,256675799,2233,13,0.75,42.7307073,-84.49057549999999,227.68,0.33262744545936584,66.05499267578125,0.012000000104308128,0.0,1
1666739857.97818089,1401055697,0,3,256675999,2233,12,0.75,42.730708,-84.4905761,228.28,0.10746628046035767,354.6607666015625,0.09400000423192978,0.0,1
1666739858.17812181,1401255638,0,3,256676199,2233,11,0.75,42.7307078,-84.4905781,228.71,0.8247696757316589,239.54855346679688,0.22700001299381256,0.0,1
1666739858.39848900,1401476005,0,3,256676399,2233,12,0.75,42.730707699999996,-84.49057959999999,229.04,0.40317246317863464,226.406982421875,0.22200001776218414,0.0,1
1666739858.57815981,1401655676,0,3,256676599,2233,12,0.75,42.7307073,-84.4905805,229.33,0.2579922676086426,209.74488830566406,0.12200000882148743,0.0,1
1666739858.77817488,1401855691,0,3,256676799,2233,13,0.75,42.730706999999995,-84.4905809,229.71,0.310077428817749,213.69007873535156,0.12000000476837158,0.0,1
1666739858.97812080,1402055637,0,3,256676999,2233,12,0.72,42.7307069,-84.4905809,230.07,0.09204890578985214,162.9430389404297,-0.12000000476837158,0.0,1
1666739859.17814183,1402255658,0,3,256677199,2233,13,0.72,42.7307066,-84.4905813,230.39000000000001,0.1044461652636528,149.5066375732422,-0.0560000017285347,0.0,1
1666739859.37812901,1402455645,0,3,256677399,2233,11,0.72,42.7307066,-84.49058149999999,230.61,0.07433034479618073,107.21607208251953,-0.03700000047683716,0.0,1
1666739859.57812881,1402655645,0,3,256677599,2233,13,0.72,42.7307068,-84.4905818,230.88,0.5416733622550964,244.5230255126953,-0.04100000113248825,0.0,1
1666739859.77805686,1402855573,0,3,256677799,2233,13,0.72,42.7307068,-84.4905823,231.15,0.6984017491340637,254.8096466064453,-0.01900000125169754,0.0,1
1666739859.99845481,1403075971,0,3,256677999,2233,12,0.7000000000000001,42.7307068,-84.49058079999999,231.46,0.02617250569164753,96.58193969726562,-0.2840000092983246,0.0,1
1666739860.19841599,1403275932,0,3,256678199,2233,12,0.7000000000000001,42.7307067,-84.49057719999999,231.83,0.03026549331843853,82.40535736083984,-0.37300002574920654,0.0,1
1666739860.37813592,1403455652,0,3,256678399,2233,12,0.7000000000000001,42.7307071,-84.4905746,232.14000000000001,0.23976656794548035,242.15243530273438,-0.18700000643730164,0.0,1
1666739860.59845495,1403675971,0,3,256678599,2233,11,0.7000000000000001,42.730707599999995,-84.4905726,232.41,0.03405877575278282,176.63352966308594,-0.2990000247955322,0.0,1
1666739860.77812791,1403855644,0,3,256678799,2233,13,0.7000000000000001,42.7307079,-84.49057119999999,232.55,0.051478154957294464,65.92449951171875,-0.19600000977516174,0.0,1
1666739860.97819281,1404055709,0,3,256678999,2233,11,0.75,42.730708199999995,-84.49057049999999,232.68,0.06140033155679703,253.9264373779297,-0.3330000042915344,0.0,1
1666739861.17813897,1404255655,0,3,256679199,2233,12,0.75,42.7307087,-84.4905703,232.73000000000002,0.03847077116370201,351.0273742675781,-0.21300001442432404,0.0,1
1666739861.39850903,1404476025,0,3,256679399,2233,12,0.75,42.7307097,-84.4905703,232.83,0.10154802352190018,237.875,-0.27400001883506775,0.0,1
1666739861.59842896,1404675945,0,3,256679599,2233,12,0.75,42.7307108,-84.4905703,232.86,0.04841487482190132,321.7098388671875,-0.3140000104904175,0.0,1
1666739861.77812982,1404855646,0,3,256679799,2233,11,0.75,42.730711799999995,-84.4905704,232.88,0.09347192943096161,333.98321533203125,-0.09100000560283661,0.0,1
1666739861.97813392,1405055650,0,3,256679999,2233,11,0.79,42.7307124,-84.4905702,232.94,0.15868522226810455,257.62786865234375,-0.01900000125169754,0.0,1
1666739862.17815399,1405255670,0,3,256680199,2233,12,0.79,42.730713,-84.4905698,232.89000000000001,0.06579513847827911,316.84759521484375,-0.03100000135600567,0.0,1
1666739862.39851189,1405476028,0,3,256680399,2233,12,0.79,42.7307134,-84.490569,232.8,0.06802941113710403,91.68467712402344,0.009000000543892384,0.0,1
1666739862.57815003,1405655666,0,3,256680599,2233,12,0.79,42.7307139,-84.490567,232.79,0.22238032519817352,86.64866638183594,0.020000001415610313,0.0,1
1666739862.79857492,1405876091,0,3,256680799,2233,12,0.79,42.7307136,-84.4905658,232.83,0.4575587511062622,202.0804443359375,-0.049000002443790436,0.0,1
1666739862.99845481,1406075971,0,3,256680999,2233,11,0.79,42.730713099999996,-84.4905654,232.85,0.13776792585849762,76.5689697265625,-0.1770000010728836,0.0,1
1666739863.19837189,1406275888,0,3,256681199,2233,13,0.79,42.7307126,-84.4905642,232.87,0.5546927452087402,172.5418701171875,-0.48100003600120544,0.0,1
1666739863.39846587,1406475982,0,3,256681399,2233,12,0.79,42.7307115,-84.4905622,232.73000000000002,0.30591830611228943,74.64631652832031,-0.11400000751018524,0.0,1
1666739863.57810402,1406655620,0,3,256681599,2233,13,0.79,42.7307114,-84.4905598,232.70000000000002,0.2193467617034912,171.61131286621094,-0.05400000140070915,0.0,1
1666739863.79844999,1406875966,0,3,256681799,2233,12,0.79,42.730711899999996,-84.4905574,232.72,0.3319096267223358,115.32974243164062,-0.10400000214576721,0.0,1
1666739863.99851394,1407076030,0,3,256681999,2233,12,0.75,42.730711799999995,-84.4905555,232.66,0.06664083153009415,205.79603576660156,-0.0860000029206276,0.0,1
1666739864.19853497,1407276051,0,3,256682199,2233,13,0.75,42.730711799999995,-84.4905538,232.53,0.10955364257097244,84.23735809326172,0.09600000083446503,0.0,1
1666739864.39852095,1407476037,0,3,256682399,2233,11,0.75,42.7307108,-84.49055369999999,232.41,0.22796930372714996,354.71453857421875,0.06200000271201134,0.0,1
1666739864.57816601,1407655682,0,3,256682599,2233,10,0.75,42.7307111,-84.4905545,232.42000000000002,0.8440024256706238,307.00567626953125,-0.07500000298023224,0.0,1
1666739864.77813792,1407855654,0,3,256682799,2233,13,0.75,42.7307126,-84.4905548,232.52,1.0542471408843994,300.4324951171875,-0.03800000250339508,0.0,1
1666739864.99840283,1408075919,0,3,256682999,2233,13,0.7000000000000001,42.7307145,-84.49055469999999,232.46,1.0794258117675781,348.5651550292969,0.2070000171661377,0.0,1
1666739865.17811799,1408255634,0,3,256683199,2233,10,0.7000000000000001,42.7307158,-84.4905531,232.36,1.032663106918335,63.980838775634766,1.184000015258789,0.0,1
1666739865.39842892,1408475945,0,3,256683399,2233,14,0.7000000000000001,42.730716799999996,-84.4905507,232.09,0.4233674705028534,355.3937072753906,0.1900000125169754,0.0,1
1666739865.57804894,1408655565,0,3,256683599,2233,11,0.7000000000000001,42.7307172,-84.49055039999999,232.11,0.5658639669418335,319.29986572265625,-0.44700002670288086,0.0,1
1666739865.77818489,1408855701,0,3,256683799,2233,12,0.7000000000000001,42.7307177,-84.4905502,232.52,0.8205864429473877,3.563267946243286,-1.0880000591278076,0.0,1
1666739865.97815681,1409055673,0,3,256683999,2233,14,0.68,42.730719199999996,-84.4905485,232.68,0.06217717006802559,332.19854736328125,-0.11100000888109207,0.0,1
1666739866.17818284,1409255699,0,3,256684199,2233,13,0.68,42.7307199,-84.4905469,232.68,0.06224146857857704,23.682085037231445,-0.24700000882148743,0.0,1
1666739866.37813187,1409455648,0,3,256684399,2233,12,0.68,42.7307203,-84.49054509999999,232.74,0.1889047473669052,147.31944274902344,-0.3540000021457672,0.0,1
1666739866.57815099,1409655667,0,3,256684599,2233,12,0.68,42.7307196,-84.4905431,232.70000000000002,0.1147388443350792,83.49436950683594,-0.23200000822544098,0.0,1
1666739866.77811193,1409855628,0,3,256684799,2233,12,0.68,42.7307195,-84.4905419,232.73000000000002,0.2970421016216278,123.7435531616211,-0.48100003600120544,0.0,1
1666739866.99849892,1410076015,0,3,256684999,2233,12,0.75,42.7307193,-84.49053889999999,232.29,0.1883215457201004,33.52130126953125,-0.08400000631809235,0.0,1
1666739867.19849491,1410276011,0,3,256685199,2233,13,0.75,42.7307199,-84.49053649999999,231.71,0.33602383732795715,89.31793212890625,-0.09700000286102295,0.0,1
1666739867.37813091,1410455647,0,3,256685399,2233,12,0.75,42.7307206,-84.4905342,231.43,0.11162885278463364,71.72735595703125,-0.058000002056360245,0.0,1
1666739867.57811785,1410655634,0,3,256685599,2233,12,0.75,42.7307209,-84.49053169999999,231.39000000000001,0.3249138593673706,54.646812438964844,0.009000000543892384,0.0,1
1666739867.77825594,1410855772,0,3,256685799,2233,12,0.75,42.7307208,-84.4905292,231.27,0.231486514210701,71.09542083740234,-0.06300000101327896,0.0,1
1666739867.99843001,1411075946,0,3,256685999,2233,13,0.7000000000000001,42.7307206,-84.4905275,230.92000000000002,0.10196568071842194,172.10829162597656,-0.055000003427267075,0.0,1
1666739868.17818689,1411255703,0,3,256686199,2233,13,0.7000000000000001,42.7307203,-84.4905263,230.47,0.10456099361181259,146.30992126464844,-0.012000000104308128,0.0,1
1666739868.37812686,1411455643,0,3,256686399,2233,13,0.7000000000000001,42.730720399999996,-84.4905251,230.08,0.1629294455051422,171.17361450195312,-0.003000000026077032,0.0,1
1666739868.57810497,1411655621,0,3,256686599,2233,13,0.7000000000000001,42.730720399999996,-84.4905241,229.92000000000002,0.24895985424518585,199.9634552001953,0.07300000637769699,0.0,1
1666739868.77805400,1411855570,0,3,256686799,2233,12,0.7000000000000001,42.7307201,-84.4905237,229.68,0.12587693333625793,194.2570343017578,0.2120000123977661,0.0,1
1666739868.97810698,1412055623,0,3,256686999,2233,12,0.7000000000000001,42.7307202,-84.490523,229.53,0.03088689222931862,299.0545959472656,0.06200000271201134,0.0,1
1666739869.17813993,1412255656,0,3,256687199,2233,11,0.7000000000000001,42.7307201,-84.4905223,229.42000000000002,0.15524175763130188,158.06150817871094,0.16200000047683716,0.0,1
1666739869.39847398,1412475990,0,3,256687399,2233,12,0.7000000000000001,42.730719799999996,-84.49052189999999,229.29,0.14481022953987122,193.1725616455078,0.2200000137090683,0.0,1
1666739869.57815480,1412655671,0,3,256687599,2233,11,0.7000000000000001,42.7307193,-84.49052119999999,229.08,0.06700746715068817,127.7249984741211,0.01900000125169754,0.0,1
1666739869.77814102,1412855657,0,3,256687799,2233,11,0.7000000000000001,42.730719099999995,-84.4905204,228.89000000000001,0.07803204655647278,120.83781433105469,0.16200000047683716,0.0,1
1666739869.99852991,1413076046,0,3,256687999,2233,12,0.7000000000000001,42.7307188,-84.49051949999999,228.70000000000002,0.14468242228031158,188.7461700439453,0.023000001907348633,0.0,1
1666739870.17813301,1413255649,0,3,256688199,2233,12,0.7000000000000001,42.7307183,-84.49051899999999,228.6,0.18515129387378693,206.98023986816406,0.04500000178813934,0.0,1
1666739870.37806582,1413455582,0,3,256688399,2233,11,0.7000000000000001,42.730717899999995,-84.4905187,228.62,0.03214031830430031,5.3558244705200195,-0.11300000548362732,0.0,1
1666739870.57811999,1413655636,0,3,256688599,2233,11,0.7000000000000001,42.7307178,-84.4905179,228.63,0.2510976195335388,54.72757339477539,0.1120000034570694,0.0,1
1666739870.77810502,1413855621,0,3,256688799,2233,11,0.7000000000000001,42.7307178,-84.4905168,228.64000000000001,0.11535163968801498,94.47489166259766,0.09200000762939453,0.0,1
1666739870.97812986,1414055646,0,3,256688999,2233,11,0.75,42.7307177,-84.4905161,228.69,0.1865609884262085,257.30462646484375,-0.04800000041723251,0.0,1
1666739871.17815304,1414255669,0,3,256689199,2233,10,0.75,42.7307176,-84.4905158,228.76,0.0708378478884697,228.4336395263672,-0.10200000554323196,0.0,1
1666739871.37817883,1414455695,0,3,256689399,2233,12,0.75,42.7307178,-84.49051469999999,228.47,0.225470632314682,61.9574089050293,0.03100000135600567,0.0,1
1666739871.57814384,1414655660,0,3,256689599,2233,12,0.75,42.7307183,-84.49051349999999,228.32,0.11552056670188904,11.990833282470703,0.10000000149011612,0.0,1
1666739871.77813482,1414855651,0,3,256689799,2233,13,0.75,42.7307187,-84.4905126,228.36,0.23390810191631317,242.77767944335938,0.052000001072883606,0.0,1
1666739871.97816586,1415055682,0,3,256689999,2233,13,0.7000000000000001,42.730719099999995,-84.4905119,228.43,0.1245792955160141,275.52752685546875,-0.015000000596046448,0.0,1
1666739872.17806983,1415255586,0,3,256690199,2233,13,0.7000000000000001,42.730719799999996,-84.4905113,228.52,0.2960827648639679,324.48480224609375,0.06700000166893005,0.0,1
1666739872.37812185,1415455638,0,3,256690399,2233,13,0.7000000000000001,42.7307209,-84.4905098,228.66,0.13283449411392212,332.663330078125,-0.02500000037252903,0.0,1
1666739872.57813787,1415655654,0,3,256690599,2233,13,0.7000000000000001,42.7307215,-84.49050799999999,228.69,0.04949747771024704,171.86988830566406,-0.12000000476837158,0.0,1
1666739872.77811503,1415855631,0,3,256690799,2233,13,0.7000000000000001,42.7307218,-84.49050679999999,228.46,0.10361950099468231,292.10943603515625,-0.010000000707805157,0.0,1
1666739872.97819901,1416055715,0,3,256690999,2233,13,0.7000000000000001,42.7307225,-84.4905058,228.01,0.04517742991447449,354.9203796386719,0.07800000160932541,0.0,1
1666739873.17813802,1416255654,0,3,256691199,2233,13,0.7000000000000001,42.7307231,-84.4905048,227.55,0.12762445211410522,32.195735931396484,0.09200000762939453,0.0,1
1666739873.37813902,1416455655,0,3,256691399,2233,13,0.7000000000000001,42.730723399999995,-84.4905038,227.18,0.20179197192192078,230.6306915283203,0.24700000882148743,0.0,1
1666739873.57818604,1416655702,0,3,256691599,2233,13,0.7000000000000001,42.7307232,-84.4905036,226.94,0.6222555637359619,225.13021850585938,0.22500000894069672,0.0,1
1666739873.77814388,1416855660,0,3,256691799,2233,13,0.7000000000000001,42.7307232,-84.4905033,226.5,0.3302196264266968,225.12269592285156,-0.164000004529953,0.0,1
1666739873.97818494,1417055701,0,3,256691999,2233,13,0.7000000000000001,42.7307237,-84.4905027,226.06,0.11884865164756775,202.2490234375,-0.04700000211596489,0.0,1
1666739874.19839287,1417275909,0,3,256692199,2233,13,0.7000000000000001,42.7307244,-84.4905019,225.59,0.022472206503152847,237.724365234375,-0.02800000086426735,0.0,1
1666739874.37815404,1417455670,0,3,256692399,2233,13,0.7000000000000001,42.7307249,-84.4905015,225.19,0.23356583714485168,235.28933715820312,0.039000000804662704,0.0,1
1666739874.57815003,1417655666,0,3,256692599,2233,13,0.7000000000000001,42.7307255,-84.4905012,224.89000000000001,0.05565968528389931,197.7838897705078,0.04100000113248825,0.0,1
1666739874.77815294,1417855669,0,3,256692799,2233,13,0.7000000000000001,42.7307262,-84.490501,224.70000000000002,0.0374833308160305,350.7889709472656,-0.018000001087784767,0.0,1
1666739874.97814989,1418055666,0,3,256692999,2233,13,0.7000000000000001,42.7307272,-84.49050079999999,224.37,0.0923471748828888,17.650123596191406,0.014000000432133675,0.0,1
1666739875.17818499,1418255701,0,3,256693199,2233,13,0.7000000000000001,42.7307281,-84.49050079999999,224.16,0.064845971763134,26.56505012512207,0.12300000339746475,0.0,1
1666739875.37813592,1418455652,0,3,256693399,2233,13,0.7000000000000001,42.730729,-84.4905011,224.03,0.20532171428203583,302.0645446777344,0.03500000014901161,0.0,1
1666739875.57813787,1418655654,0,3,256693599,2233,13,0.7000000000000001,42.7307297,-84.49050179999999,224.02,0.3157784044742584,242.46119689941406,0.046000003814697266,0.0,1
1666739875.77813697,1418855653,0,3,256693799,2233,13,0.7000000000000001,42.730730199999996,-84.49050249999999,224.04,0.18469977378845215,7.7791361808776855,0.06800000369548798,0.0,1
1666739875.97813296,1419055649,0,3,256693999,2233,13,0.7000000000000001,42.7307311,-84.49050319999999,224.23000000000002,0.15423683822155,302.5566711425781,-0.024000000208616257,0.0,1
1666739876.17811584,1419255632,0,3,256694199,2233,13,0.7000000000000001,42.730731899999995,-84.4905038,224.51,0.2001599371433258,357.7093811035156,0.004000000189989805,0.0,1
1666739876.37806988,1419455586,0,3,256694399,2233,13,0.7000000000000001,42.730732599999996,-84.4905048,225.08,0.31476977467536926,4.0078043937683105,-0.004000000189989805,0.0,1
1666739876.57815385,1419655670,0,3,256694599,2233,12,0.7000000000000001,42.730733,-84.4905052,225.54,0.03661966696381569,304.9920349121094,-0.12200000882148743,0.0,1
1666739876.77819395,1419855710,0,3,256694799,2233,11,0.7000000000000001,42.730733099999995,-84.4905057,226.05,0.22671568393707275,41.42366409301758,-0.13100001215934753,0.0,1
1666739876.97814798,1420055664,0,3,256694999,2233,11,0.7000000000000001,42.730733099999995,-84.4905064,226.56,0.3488624691963196,47.20705795288086,-0.14600001275539398,0.0,1
1666739877.17814183,1420255658,0,3,256695199,2233,11,0.7000000000000001,42.730733,-84.49050749999999,226.75,0.06800735741853714,17.10272789001465,-0.125,0.0,1
1666739877.37816691,1420455683,0,3,256695399,2233,11,0.7000000000000001,42.730733,-84.490509,226.93,0.1651090681552887,294.7024230957031,-0.10500000417232513,0.0,1
1666739877.57811189,1420655628,0,3,256695599,2233,10,0.7000000000000001,42.7307327,-84.49051,227.26,0.12955307960510254,351.1193542480469,-0.08900000154972076,0.0,1
1666739877.77812099,1420855637,0,3,256695799,2233,10,0.7000000000000001,42.7307316,-84.490509,227.65,0.05556977540254593,239.74356079101562,-0.12800000607967377,0.0,1
1666739877.97810984,1421055626,0,3,256695999,2233,10,0.8300000000000001,42.730730099999995,-84.49050729999999,227.99,0.11692733317613602,257.15228271484375,-0.09400000423192978,0.0,1
1666739878.17808390,1421255600,0,3,256696199,2233,12,0.8300000000000001,42.7307292,-84.49050539999999,228.20000000000002,0.10121265053749084,52.22431182861328,-0.1850000023841858,0.0,1
1666739878.37814903,1421455665,0,3,256696399,2233,11,0.8300000000000001,42.7307282,-84.4905034,228.43,0.14368368685245514,227.53855895996094,-0.20000000298023224,0.0,1
1666739878.59855795,1421676074,0,3,256696599,2233,12,0.8300000000000001,42.730727099999996,-84.4905016,228.64000000000001,0.1049237847328186,202.4098358154297,-0.25,0.0,1
1666739878.77817583,1421855692,0,3,256696799,2233,12,0.8300000000000001,42.730725899999996,-84.4905004,228.77,0.25962474942207336,214.4857940673828,-0.15400001406669617,0.0,1
1666739878.97815681,1422055673,0,3,256696999,2233,12,0.75,42.730725199999995,-84.49050059999999,228.63,0.2973785698413849,120.96373748779297,-0.16700001060962677,0.0,1
1666739879.17817903,1422255695,0,3,256697199,2233,12,0.75,42.730724699999996,-84.49050129999999,228.69,0.14812496304512024,151.35865783691406,-0.0560000017285347,0.0,1
1666739879.37812495,1422455641,0,3,256697399,2233,12,0.75,42.7307237,-84.49050249999999,229.24,0.2071617692708969,105.10957336425781,-0.17600001394748688,0.0,1
1666739879.59843397,1422675950,0,3,256697599,2233,12,0.75,42.7307223,-84.4905051,230.70000000000002,0.3055912256240845,176.4353485107422,-0.1420000046491623,0.0,1
1666739879.77821493,1422855731,0,3,256697799,2233,11,0.75,42.7307219,-84.49050609999999,231.24,0.0778331607580185,227.0825653076172,-0.08700000494718552,0.0,1
1666739879.99853492,1423076051,0,3,256697999,2233,12,0.75,42.7307219,-84.49050679999999,231.3,0.13461798429489136,324.0664978027344,-0.07500000298023224,0.0,1
1666739880.17816687,1423255683,0,3,256698199,2233,11,0.75,42.730723,-84.49050679999999,231.31,0.0785493478178978,31.464141845703125,-0.18300001323223114,0.0,1
1666739880.37812996,1423455646,0,3,256698399,2233,11,0.75,42.7307233,-84.490507,231.44,0.19331322610378265,183.26205444335938,-0.3360000252723694,0.0,1
1666739880.57815695,1423655673,0,3,256698599,2233,12,0.75,42.730724599999995,-84.4905062,231.74,0.02973213978111744,317.726318359375,-0.23000000417232513,0.0,1
1666739880.77817583,1423855692,0,3,256698799,2233,12,0.75,42.7307257,-84.4905059,232.0,0.1147693395614624,221.46771240234375,-0.34200000762939453,0.0,1
1666739880.97812080,1424055637,0,3,256698999,2233,13,0.7000000000000001,42.7307267,-84.49050489999999,232.3,0.015811389312148094,198.43495178222656,-0.23800000548362732,0.0,1
1666739881.17804003,1424255556,0,3,256699199,2233,13,0.7000000000000001,42.7307278,-84.4905043,232.48000000000002,0.1613195687532425,317.0095520019531,-0.14900000393390656,0.0,1
1666739881.37811089,1424455627,0,3,256699399,2233,11,0.7000000000000001,42.7307287,-84.4905041,232.57,0.13674063980579376,325.7288513183594,-0.06400000303983688,0.0,1
1666739881.57806492,1424655581,0,3,256699599,2233,11,0.7000000000000001,42.7307292,-84.4905043,232.65,0.18685021996498108,247.00274658203125,-0.017000000923871994,0.0,1
1666739881.77810693,1424855623,0,3,256699799,2233,11,0.7000000000000001,42.7307294,-84.4905046,232.74,0.044598206877708435,227.726318359375,-0.16500000655651093,0.0,1
1666739881.97815394,1425055670,0,3,256699999,2233,11,0.85,42.7307293,-84.4905047,232.9,0.11795762926340103,82.6942367553711,-0.3400000035762787,0.0,1
1666739882.17815781,1425255674,0,3,256700199,2233,11,0.85,42.7307294,-84.4905043,233.03,0.17042595148086548,78.49226379394531,-0.4180000126361847,0.0,1
1666739882.37814188,1425455658,0,3,256700399,2233,10,0.85,42.7307296,-84.4905038,233.18,0.0604400560259819,106.3360366821289,-0.21000000834465027,0.0,1
1666739882.57814693,1425655663,0,3,256700599,2233,14,0.85,42.730730699999995,-84.4905027,233.37,0.08612201362848282,102.74527740478516,-0.2540000081062317,0.0,1
1666739882.77815485,1425855671,0,3,256700799,2233,13,0.85,42.7307317,-84.49050199999999,233.26,0.023537207394838333,282.2647705078125,-0.15300001204013824,0.0,1
1666739882.97821188,1426055728,0,3,256700999,2233,12,0.85,42.7307324,-84.4905021,233.09,0.05923681706190109,248.1986083984375,-0.15600000321865082,0.0,1
1666739883.17812586,1426255642,0,3,256701199,2233,13,0.79,42.7307336,-84.4905021,232.99,0.02202271670103073,140.52752685546875,-0.16100001335144043,0.0,1
1666739883.37808681,1426455603,0,3,256701399,2233,13,0.79,42.7307352,-84.49050079999999,233.15,0.09340771287679672,68.65421295166016,-0.08300000429153442,0.0,1
1666739883.57813597,1426655652,0,3,256701599,2233,12,0.79,42.730736799999995,-84.4904993,233.25,0.07433034479618073,72.78392028808594,-0.020000001415610313,0.0,1
1666739883.77810693,1426855623,0,3,256701799,2233,13,0.79,42.730738099999996,-84.4904974,233.29,0.31849804520606995,72.6459732055664,-0.14900000393390656,0.0,1
1666739883.97819281,1427055709,0,3,256701999,2233,13,0.74,42.730739899999996,-84.4904966,233.42000000000002,0.020615529268980026,104.0362319946289,-0.24500000476837158,0.0,1
1666739884.17814493,1427255661,0,3,256702199,2233,13,0.74,42.7307408,-84.49049579999999,233.4,0.11684606224298477,119.19747924804688,-0.08900000154972076,0.0,1
1666739884.37814689,1427455663,0,3,256702399,2233,13,0.74,42.730741599999995,-84.49049459999999,233.47,0.08658522367477417,194.0362548828125,0.052000001072883606,0.0,1
1666739884.57814384,1427655660,0,3,256702599,2233,14,0.74,42.7307421,-84.4904938,233.46,0.17147013545036316,170.26300048828125,-0.14400000870227814,0.0,1
1666739884.77810502,1427855621,0,3,256702799,2233,12,0.74,42.7307415,-84.49049529999999,233.17000000000002,0.18383145332336426,62.45920181274414,0.046000003814697266,0.0,1
1666739884.97810793,1428055624,0,3,256702999,2233,12,0.85,42.730740999999995,-84.4904966,232.92000000000002,0.11672617495059967,80.13418579101562,0.1810000091791153,0.0,1
1666739885.17813587,1428255652,0,3,256703199,2233,12,0.85,42.730740999999995,-84.4904967,232.87,0.05440588295459747,162.8972625732422,0.04700000211596489,0.0,1
1666739885.37815785,1428455674,0,3,256703399,2233,11,0.85,42.730741099999996,-84.49049649999999,232.88,0.0756637305021286,277.5946350097656,-0.007000000216066837,0.0,1
1666739885.57814002,1428655656,0,3,256703599,2233,11,0.85,42.730741099999996,-84.49049579999999,232.93,0.07382412254810333,28.300752639770508,-0.014000000432133675,0.0,1
1666739885.77813601,1428855652,0,3,256703799,2233,12,0.85,42.730740999999995,-84.4904956,232.97,0.10824509710073471,223.12826538085938,0.07600000500679016,0.0,1
1666739885.97817302,1429055689,0,3,256703999,2233,12,0.85,42.7307406,-84.4904959,232.89000000000001,0.14757370948791504,275.0538330078125,0.5110000371932983,0.0,1
1666739886.17813301,1429255649,0,3,256704199,2233,11,0.85,42.7307402,-84.4904967,233.01,0.6661186218261719,234.90228271484375,0.12200000882148743,0.0,1
1666739886.37815881,1429455675,0,3,256704399,2233,12,0.85,42.7307401,-84.4904973,233.09,0.19739556312561035,238.8869171142578,-0.05300000309944153,0.0,1
1666739886.57809591,1429655612,0,3,256704599,2233,13,0.85,42.730740499999996,-84.4904983,233.22,0.5718409419059753,273.1075744628906,0.242000013589859,0.0,1
1666739886.77813196,1429855648,0,3,256704799,2233,13,0.85,42.730741099999996,-84.49049939999999,233.28,0.3472636044025421,294.49859619140625,0.10900000482797623,0.0,1
1666739886.97811794,1430055634,0,3,256704999,2233,12,0.77,42.730742199999995,-84.4904991,233.29,0.1643441617488861,68.58702850341797,-0.40700000524520874,0.0,1
1666739887.19848299,1430275999,0,3,256705199,2233,11,0.77,42.7307432,-84.49049819999999,233.20000000000002,0.15089400112628937,131.5074005126953,-0.36900001764297485,0.0,1
1666739887.37812591,1430455642,0,3,256705399,2233,12,0.77,42.730743499999996,-84.4904978,232.95000000000002,0.09021086990833282,54.01932144165039,0.04000000283122063,0.0,1
1666739887.57820487,1430655721,0,3,256705599,2233,13,0.77,42.730744,-84.4904981,232.69,0.18539687991142273,137.185791015625,0.055000003427267075,0.0,1
1666739887.77815986,1430855676,0,3,256705799,2233,13,0.77,42.7307456,-84.4904997,232.38,0.18102486431598663,98.57771301269531,0.08100000023841858,0.0,1
1666739887.97816181,1431055678,0,3,256705999,2233,13,0.75,42.7307467,-84.4905012,232.32,0.2612967789173126,174.28939819335938,-0.08900000154972076,0.0,1
1666739888.17811799,1431255634,0,3,256706199,2233,11,0.75,42.730747699999995,-84.49050299999999,232.3,0.13104580342769623,115.78289794921875,0.08700000494718552,0.0,1
1666739888.37813592,1431455652,0,3,256706399,2233,11,0.75,42.730748899999995,-84.49050419999999,232.27,0.0655515119433403,21.476789474487305,0.08700000494718552,0.0,1
1666739888.57810593,1431655622,0,3,256706599,2233,11,0.75,42.730751,-84.4905051,232.35,0.5962491035461426,62.317535400390625,0.12600000202655792,0.0,1
1666739888.77810192,1431855618,0,3,256706799,2233,12,0.75,42.7307519,-84.49050609999999,232.11,0.2134900540113449,208.84608459472656,0.07600000500679016,0.0,1
1666739888.97812986,1432055646,0,3,256706999,2233,13,0.75,42.7307535,-84.4905074,232.17000000000002,0.33300599455833435,107.83643341064453,-0.4540000259876251,0.0,1
1666739889.19852281,1432276039,0,3,256707199,2233,13,0.75,42.7307555,-84.490509,232.16,0.20704106986522675,261.94818115234375,-0.07800000160932541,0.0,1
1666739889.37812686,1432455643,0,3,256707399,2233,13,0.75,42.730757399999995,-84.4905108,231.97,0.18085353076457977,190.19151306152344,-0.17900000512599945,0.0,1
1666739889.57813096,1432655647,0,3,256707599,2233,11,0.75,42.7307594,-84.4905125,231.93,0.0690072551369667,0.8303154110908508,-0.16700001060962677,0.0,1
1666739889.79845381,1432875970,0,3,256707799,2233,11,0.75,42.7307614,-84.4905143,231.85,0.2786574959754944,46.163204193115234,-0.2750000059604645,0.0,1
1666739889.99841404,1433075930,0,3,256707999,2233,12,0.85,42.7307631,-84.49051589999999,231.66,0.07343705743551254,173.74595642089844,-0.289000004529953,0.0,1
1666739890.19845080,1433275967,0,3,256708199,2233,12,0.85,42.7307644,-84.4905175,231.52,0.03106445074081421,326.82147216796875,-0.1990000158548355,0.0,1
1666739890.39842987,1433475946,0,3,256708399,2233,12,0.85,42.7307657,-84.4905191,231.27,0.09315041452646255,29.592294692993164,-0.10200000554323196,0.0,1
1666739890.57805085,1433655567,0,3,256708599,2233,11,0.85,42.7307669,-84.4905211,230.99,0.08163332939147949,210.96376037597656,-0.14900000393390656,0.0,1
1666739890.77811503,1433855631,0,3,256708799,2233,12,0.85,42.730767799999995,-84.49052379999999,230.67000000000002,0.07746613025665283,191.16488647460938,-0.014000000432133675,0.0,1
1666739890.97813392,1434055650,0,3,256708999,2233,12,0.75,42.7307677,-84.49052619999999,230.12,0.204200878739357,37.03824996948242,0.04800000041723251,0.0,1
1666739891.17818785,1434255704,0,3,256709199,2233,12,0.75,42.730768399999995,-84.4905275,229.5,0.08271034061908722,14.70830249786377,0.015000000596046448,0.0,1
1666739891.37813997,1434455656,0,3,256709399,2233,12,0.75,42.730768999999995,-84.4905283,229.18,0.07900632917881012,269.2747802734375,0.08900000154972076,0.0,1
1666739891.57810283,1434655619,0,3,256709599,2233,12,0.75,42.7307694,-84.4905289,229.0,0.14589038491249084,56.745628356933594,0.2070000171661377,0.0,1
1666739891.77813292,1434855649,0,3,256709799,2233,10,0.75,42.7307695,-84.4905296,229.05,0.26066455245018005,289.9643249511719,0.3070000112056732,0.0,1
1666739891.97815585,1435055672,0,3,256709999,2233,10,0.85,42.7307698,-84.4905316,229.12,0.17749649286270142,225.6847686767578,0.12700000405311584,0.0,1
1666739892.17805195,1435255568,0,3,256710199,2233,11,0.85,42.730770299999996,-84.4905335,228.97,0.16336768865585327,11.653839111328125,0.1300000101327896,0.0,1
1666739892.37819695,1435455713,0,3,256710399,2233,12,0.85,42.7307704,-84.49053409999999,228.66,0.09476286172866821,44.1448974609375,0.02200000174343586,0.0,1
1666739892.57809281,1435655609,0,3,256710599,2233,10,0.85,42.7307698,-84.4905339,228.19,0.08832327276468277,329.3699951171875,0.13700000941753387,0.0,1
1666739892.77811599,1435855632,0,3,256710799,2233,11,0.85,42.7307701,-84.4905338,227.71,0.2807775139808655,22.180343627929688,0.13300000131130219,0.0,1
1666739892.97819185,1436055708,0,3,256710999,2233,11,0.79,42.730767199999995,-84.49053339999999,226.75,0.1390863060951233,338.04559326171875,0.14600001275539398,0.0,1
1666739893.17818594,1436255702,0,3,256711199,2233,11,0.79,42.7307652,-84.4905335,226.33,0.17677387595176697,251.87254333496094,0.39400002360343933,0.0,1
1666739893.37813997,1436455656,0,3,256711399,2233,10,0.79,42.730764099999995,-84.49053339999999,226.07,0.20262527465820312,54.03499221801758,0.49500003457069397,0.0,1
1666739893.57811499,1436655631,0,3,256711599,2233,11,0.79,42.7307634,-84.4905337,225.87,0.2770649790763855,308.11077880859375,0.6040000319480896,0.0,1
1666739893.77812791,1436855644,0,3,256711799,2233,11,0.79,42.7307613,-84.4905347,225.44,0.13054119050502777,261.1871032714844,0.24400001764297485,0.0,1
1666739893.97811985,1437055636,0,3,256711999,2233,10,0.89,42.730760599999996,-84.4905355,225.16,0.2580000162124634,0.0,0.20900000631809235,0.0,1
1666739894.17807198,1437255588,0,3,256712199,2233,10,0.89,42.7307603,-84.4905354,224.92000000000002,0.14406248927116394,328.6269836425781,0.4130000174045563,0.0,1
1666739894.37813401,1437455650,0,3,256712399,2233,10,0.89,42.7307596,-84.490535,224.58,0.33729663491249084,44.639652252197266,0.33000001311302185,0.0,1
1666739894.57814384,1437655660,0,3,256712599,2233,10,0.89,42.7307591,-84.4905345,224.32,0.3183535933494568,2.700629234313965,-0.04000000283122063,0.0,1
1666739894.77814984,1437855666,0,3,256712799,2233,11,0.89,42.7307586,-84.49053359999999,224.19,0.1010049507021904,0.5672664046287537,0.027000000700354576,0.0,1
1666739894.97814584,1438055662,0,3,256712999,2233,11,0.85,42.7307584,-84.4905321,224.06,0.1890105903148651,307.4761962890625,-0.07700000703334808,0.0,1
1666739895.17813492,1438255651,0,3,256713199,2233,11,0.85,42.730759,-84.4905309,224.17000000000002,0.17288725078105927,328.2405090332031,-0.0860000029206276,0.0,1
1666739895.37814498,1438455661,0,3,256713399,2233,13,0.85,42.7307595,-84.4905306,224.28,0.21821549534797668,353.94976806640625,-0.07100000232458115,0.0,1
1666739895.57811284,1438655629,0,3,256713599,2233,13,0.85,42.7307598,-84.4905297,224.37,0.07657676190137863,310.76361083984375,-0.2630000114440918,0.0,1
1666739895.77807593,1438855592,0,3,256713799,2233,13,0.85,42.7307588,-84.49052809999999,224.29,0.34057745337486267,71.5118408203125,-0.23500001430511475,0.0,1
1666739895.99844790,1439075964,0,3,256713999,2233,14,0.68,42.7307592,-84.490526,224.3,0.12705904245376587,208.1785888671875,-0.13700000941753387,0.0,1
1666739896.17811704,1439255633,0,3,256714199,2233,14,0.68,42.730758699999996,-84.49052499999999,224.18,0.22377891838550568,258.1377258300781,-0.03100000135600567,0.0,1
1666739896.37814498,1439455661,0,3,256714399,2233,14,0.68,42.7307582,-84.49052379999999,224.07,0.06888396292924881,230.30093383789062,-0.03700000047683716,0.0,1
1666739896.59845781,1439675974,0,3,256714599,2233,13,0.68,42.7307578,-84.490522,223.85,0.2142171859741211,243.67417907714844,-0.2110000103712082,0.0,1
1666739896.79850888,1439876025,0,3,256714799,2233,13,0.68,42.730757499999996,-84.4905206,223.72,0.07100704312324524,270.80694580078125,-0.06599999964237213,0.0,1
1666739896.99856901,1440076085,0,3,256714999,2233,13,0.7000000000000001,42.7307573,-84.4905193,223.47,0.05491812527179718,213.11135864257812,-0.1850000023841858,0.0,1
1666739897.19846582,1440275982,0,3,256715199,2233,13,0.7000000000000001,42.7307572,-84.49051829999999,223.21,0.16830924153327942,249.84239196777344,-0.09300000220537186,0.0,1
1666739897.37807083,1440455587,0,3,256715399,2233,12,0.7000000000000001,42.7307571,-84.49051709999999,222.85,0.16648124158382416,231.34019470214844,-0.0650000050663948,0.0,1
1666739897.57810593,1440655622,0,3,256715599,2233,12,0.7000000000000001,42.730756799999995,-84.49051589999999,222.55,0.1658463180065155,239.56948852539062,-0.1420000046491623,0.0,1
1666739897.77808499,1440855601,0,3,256715799,2233,12,0.7000000000000001,42.7307567,-84.49051469999999,222.26,0.0817435011267662,97.73358917236328,-0.1290000081062317,0.0,1
1666739897.97810388,1441055620,0,3,256715999,2233,12,0.72,42.7307565,-84.49051349999999,221.99,0.049648769199848175,189.27261352539062,-0.09600000083446503,0.0,1
1666739898.17811298,1441255629,0,3,256716199,2233,12,0.72,42.7307564,-84.490512,221.71,0.053225934505462646,115.6021728515625,-0.11800000816583633,0.0,1
1666739898.37805295,1441455569,0,3,256716399,2233,12,0.72,42.730756199999995,-84.490511,221.54,0.18747267127037048,241.65785217285156,-0.17500001192092896,0.0,1
1666739898.57811403,1441655630,0,3,256716599,2233,12,0.72,42.730756199999995,-84.4905098,221.27,0.06574192643165588,26.1752872467041,-0.07800000160932541,0.0,1
1666739898.77810097,1441855617,0,3,256716799,2233,11,0.72,42.7307564,-84.4905086,220.93,0.053150732070207596,318.8140869140625,0.014000000432133675,0.0,1
1666739898.99842000,1442075936,0,3,256716999,2233,11,0.72,42.7307566,-84.4905074,220.6,0.05807753652334213,357.0390625,0.0010000000474974513,0.0,1
1666739899.17808700,1442255603,0,3,256717199,2233,11,0.72,42.730756799999995,-84.490506,220.26,0.09208692610263824,267.51043701171875,0.003000000026077032,0.0,1
1666739899.37807393,1442455590,0,3,256717399,2233,11,0.72,42.7307567,-84.49050489999999,220.0,0.09616652876138687,196.92752075195312,0.012000000104308128,0.0,1
1666739899.57809997,1442655616,0,3,256717599,2233,11,0.72,42.7307565,-84.4905036,219.64000000000001,0.0623939111828804,186.4416046142578,0.01900000125169754,0.0,1
1666739899.77800798,1442855524,0,3,256717799,2233,12,0.72,42.730756299999996,-84.4905024,219.27,0.05423098802566528,95.29007720947266,-0.02500000037252903,0.0,1
1666739899.99850798,1443076024,0,3,256717999,2233,13,0.7000000000000001,42.7307561,-84.4905015,218.93,0.012369317002594471,194.0362548828125,-0.07700000703334808,0.0,1
1666739900.17813587,1443255652,0,3,256718199,2233,13,0.7000000000000001,42.730755599999995,-84.4905009,218.62,0.09897980093955994,71.74810028076172,0.04000000283122063,0.0,1
1666739900.39845991,1443475976,0,3,256718399,2233,13,0.7000000000000001,42.730755099999996,-84.4905004,218.35,0.05869412422180176,261.17962646484375,-0.03800000250339508,0.0,1
1666739900.57809496,1443655611,0,3,256718599,2233,13,0.7000000000000001,42.7307546,-84.4904997,218.07,0.031400639563798904,260.837646484375,0.004000000189989805,0.0,1
1666739900.79838085,1443875897,0,3,256718799,2233,13,0.7000000000000001,42.730753899999996,-84.4904993,217.84,0.1281561553478241,202.96377563476562,-0.07000000029802322,0.0,1
1666739900.99837184,1444075888,0,3,256718999,2233,13,0.7000000000000001,42.730753199999995,-84.490499,217.6,0.07507330179214478,228.2397003173828,-0.026000000536441803,0.0,1
1666739901.19845891,1444275975,0,3,256719199,2233,13,0.7000000000000001,42.7307527,-84.49049869999999,217.32,0.04753946140408516,247.7509765625,0.07400000095367432,0.0,1
1666739901.39844298,1444475959,0,3,256719399,2233,13,0.7000000000000001,42.7307521,-84.49049839999999,217.05,0.042379241436719894,199.29005432128906,0.08800000697374344,0.0,1
1666739901.57803702,1444655553,0,3,256719599,2233,14,0.7000000000000001,42.730751,-84.49049869999999,216.84,0.08431489020586014,236.1214599609375,0.07500000298023224,0.0,1
1666739901.77813196,1444855648,0,3,256719799,2233,14,0.7000000000000001,42.73075,-84.49049889999999,216.62,0.07029224932193756,39.805572509765625,0.0820000022649765,0.0,1
1666739901.97810197,1445055618,0,3,256719999,2233,14,0.68,42.7307491,-84.4904992,216.42000000000002,0.08591274917125702,219.8055877685547,0.027000000700354576,0.0,1
1666739902.17813182,1445255648,0,3,256720199,2233,14,0.68,42.7307481,-84.49049959999999,216.20000000000002,0.08309633284807205,219.62901306152344,0.02200000174343586,0.0,1
1666739902.37810087,1445455617,0,3,256720399,2233,14,0.68,42.730747099999995,-84.4905,215.98000000000002,0.05333854630589485,30.41107749938965,0.030000001192092896,0.0,1
1666739902.57806396,1445655580,0,3,256720599,2233,14,0.68,42.730745999999996,-84.4905004,215.81,0.14673104882240295,214.4481964111328,0.06300000101327896,0.0,1
1666739902.77807689,1445855593,0,3,256720799,2233,14,0.68,42.7307449,-84.49050079999999,215.66,0.03901281952857971,358.53118896484375,0.058000002056360245,0.0,1
1666739902.97800493,1446055521,0,3,256720999,2233,14,0.68,42.7307439,-84.4905011,215.5,0.04201190546154976,88.63607025146484,0.08100000023841858,0.0,1
1666739903.19845891,1446275975,0,3,256721199,2233,14,0.68,42.730742899999996,-84.4905014,215.33,0.05288667231798172,74.64985656738281,0.02800000086426735,0.0,1
1666739903.39852881,1446476045,0,3,256721399,2233,14,0.68,42.730742,-84.49050179999999,215.16,0.06935416907072067,312.6626892089844,0.055000003427267075,0.0,1
1666739903.59844398,1446675960,0,3,256721599,2233,14,0.68,42.730740999999995,-84.4905023,214.96,0.0984124019742012,95.24713134765625,0.023000001907348633,0.0,1
1666739903.79841781,1446875934,0,3,256721799,2233,14,0.68,42.730739899999996,-84.4905027,214.75,0.07816009223461151,163.6518096923828,0.039000000804662704,0.0,1
1666739903.99839997,1447075916,0,3,256721999,2233,14,0.68,42.7307389,-84.49050319999999,214.52,0.05345091596245766,17.417970657348633,0.08400000631809235,0.0,1
1666739904.19845080,1447275967,0,3,256722199,2233,13,0.68,42.730738099999996,-84.49050319999999,214.33,0.07488658279180527,55.88552474975586,0.004000000189989805,0.0,1
1666739904.37810183,1447455618,0,3,256722399,2233,13,0.68,42.7307375,-84.4905034,214.18,0.08900561928749084,62.571258544921875,0.04200000315904617,0.0,1
1666739904.57802796,1447655544,0,3,256722599,2233,13,0.68,42.730736799999995,-84.4905036,214.04,0.03736308589577675,254.47589111328125,-0.021000001579523087,0.0,1
1666739904.77803802,1447855554,0,3,256722799,2233,13,0.68,42.7307361,-84.4905039,213.9,0.1087060272693634,62.0205192565918,0.09300000220537186,0.0,1
1666739904.97808599,1448055602,0,3,256722999,2233,13,0.68,42.7307354,-84.490504,213.77,0.1004987582564354,174.28939819335938,0.06599999964237213,0.0,1
1666739905.17812490,1448255641,0,3,256723199,2233,14,0.68,42.7307345,-84.4905046,213.67000000000002,0.03106445074081421,273.69140625,-0.021000001579523087,0.0,1
1666739905.37810302,1448455619,0,3,256723399,2233,14,0.68,42.7307334,-84.4905048,213.53,0.10248903185129166,5.599339485168457,0.06599999964237213,0.0,1
