timestamp,TimeUS,Lat,Lng,Alt,RelHomeAlt,RelOriginAlt
1666739817.03844285,1360115959,42.730675999999995,-84.4904366,277.3299865722656,-0.3095153868198395,-2.4495153427124023
1666739817.07844591,1360155962,42.7306759,-84.4904366,277.3299865722656,-0.30731001496315,-2.447309970855713
1666739817.09957290,1360177089,42.7306759,-84.49043669999999,277.3299865722656,-0.3062244951725006,-2.4462244510650635
1666739817.11853194,1360196048,42.7306759,-84.49043669999999,277.3299865722656,-0.30510392785072327,-2.445103883743286
1666739817.15849996,1360236016,42.7306759,-84.49043669999999,277.3299865722656,-0.3017093241214752,-2.441709280014038
1666739817.19955301,1360277069,42.7306759,-84.4904368,277.3399963378906,-0.29821887612342834,-2.438218832015991
1666739817.19964099,1360277157,42.7306759,-84.4904368,277.3399963378906,-0.29821887612342834,-2.438218832015991
1666739817.23888803,1360316404,42.7306759,-84.4904368,277.3399963378906,-0.2954370081424713,-2.435436964035034
1666739817.27842402,1360355940,42.7306759,-84.49043689999999,277.3399963378906,-0.29278746247291565,-2.4327874183654785
1666739817.29903388,1360376550,42.7306759,-84.49043689999999,277.3399963378906,-0.2914411127567291,-2.431441068649292
1666739817.31839204,1360395908,42.7306759,-84.49043689999999,277.3399963378906,-0.2902025282382965,-2.4302024841308594
1666739817.35847783,1360435994,42.7306759,-84.490437,277.3500061035156,-0.28720369935035706,-2.42720365524292
1666739817.39905691,1360476573,42.7306759,-84.490437,277.3500061035156,-0.28379765152931213,-2.423797607421875
1666739817.39919591,1360476712,42.7306759,-84.490437,277.3500061035156,-0.28379765152931213,-2.423797607421875
1666739817.43913198,1360516648,42.7306759,-84.4904371,277.3500061035156,-0.28030672669410706,-2.42030668258667
1666739817.47843885,1360555955,42.7306759,-84.4904371,277.3599853515625,-0.2763167917728424,-2.4163167476654053
1666739817.49904799,1360576564,42.7306759,-84.4904371,277.3599853515625,-0.2741505205631256,-2.4141504764556885
1666739817.51839781,1360595914,42.7306759,-84.4904372,277.3599853515625,-0.27252283692359924,-2.412522792816162
1666739817.55846882,1360635985,42.7306759,-84.4904372,277.3699951171875,-0.2688552439212799,-2.4088551998138428
1666739817.59926200,1360676778,42.7306759,-84.4904373,277.3699951171875,-0.265252023935318,-2.405251979827881
1666739817.59939289,1360676909,42.7306759,-84.4904373,277.3699951171875,-0.265252023935318,-2.405251979827881
1666739817.63907003,1360716586,42.7306759,-84.4904373,277.3699951171875,-0.2622946798801422,-2.402294635772705
1666739817.67846394,1360755980,42.7306759,-84.49043739999999,277.3800048828125,-0.25943461060523987,-2.3994345664978027
1666739817.69894791,1360776464,42.7306759,-84.49043739999999,277.3800048828125,-0.25794854760169983,-2.3979485034942627
1666739817.71844983,1360795966,42.7306759,-84.4904375,277.3800048828125,-0.25663915276527405,-2.396639108657837
1666739817.75841093,1360835927,42.7306759,-84.4904375,277.3800048828125,-0.2539149820804596,-2.3939149379730225
1666739817.79941893,1360876935,42.7306758,-84.4904377,277.3800048828125,-0.25119343400001526,-2.391193389892578
1666739817.79959083,1360877107,42.7306758,-84.4904377,277.3800048828125,-0.25119343400001526,-2.391193389892578
1666739817.83906603,1360916582,42.7306758,-84.4904378,277.3899841308594,-0.2485903799533844,-2.3885903358459473
1666739817.87851286,1360956029,42.7306758,-84.4904378,277.3899841308594,-0.2459794580936432,-2.385979413986206
1666739817.89901781,1360976534,42.7306758,-84.4904378,277.3899841308594,-0.2446536123752594,-2.3846535682678223
1666739817.91849685,1360996013,42.7306758,-84.49043789999999,277.3899841308594,-0.24345722794532776,-2.3834571838378906
1666739817.95845985,1361035976,42.7306758,-84.49043789999999,277.3899841308594,-0.241082102060318,-2.381082057952881
1666739817.99891901,1361076435,42.7306758,-84.490438,277.3999938964844,-0.23888245224952698,-2.37888240814209
1666739817.99906802,1361076584,42.7306758,-84.490438,277.3999938964844,-0.23888245224952698,-2.37888240814209
1666739818.03915000,1361116666,42.7306758,-84.49043809999999,277.3999938964844,-0.23687401413917542,-2.3768739700317383
1666739818.07851100,1361156027,42.7306758,-84.4904382,277.3999938964844,-0.23513594269752502,-2.375135898590088
1666739818.09925604,1361176772,42.7306758,-84.4904382,277.3999938964844,-0.23431244492530823,-2.374312400817871
1666739818.11856294,1361196079,42.7306758,-84.4904383,277.3999938964844,-0.23332944512367249,-2.3733294010162354
1666739818.15845680,1361235973,42.7306758,-84.4904383,277.3999938964844,-0.23173657059669495,-2.371736526489258
1666739818.19897294,1361276489,42.7306758,-84.4904384,277.3999938964844,-0.23015323281288147,-2.3701531887054443
1666739818.19913101,1361276647,42.7306758,-84.4904384,277.3999938964844,-0.23015323281288147,-2.3701531887054443
1666739818.23897195,1361316488,42.7306758,-84.4904385,277.4100036621094,-0.22798457741737366,-2.3679845333099365
1666739818.27853703,1361356053,42.7306758,-84.49043859999999,277.4100036621094,-0.2255355417728424,-2.3655354976654053
1666739818.29898286,1361376499,42.7306758,-84.49043859999999,277.4100036621094,-0.2242967188358307,-2.3642966747283936
1666739818.31852698,1361396043,42.7306759,-84.49043859999999,277.4100036621094,-0.2231251299381256,-2.3631250858306885
1666739818.35843301,1361435949,42.7306759,-84.4904387,277.4100036621094,-0.22076383233070374,-2.3607637882232666
1666739818.39898896,1361476505,42.7306759,-84.49043879999999,277.41998291015625,-0.21826496720314026,-2.358264923095703
1666739818.39910889,1361476625,42.7306759,-84.49043879999999,277.41998291015625,-0.21826496720314026,-2.358264923095703
1666739818.43901300,1361516529,42.7306759,-84.4904389,277.41998291015625,-0.2160111963748932,-2.356011152267456
1666739818.47847700,1361555993,42.7306759,-84.490439,277.41998291015625,-0.21416321396827698,-2.35416316986084
1666739818.49901104,1361576527,42.7306758,-84.490439,277.41998291015625,-0.21330681443214417,-2.353306770324707
1666739818.51854897,1361596065,42.7306758,-84.490439,277.41998291015625,-0.21229973435401917,-2.352299690246582
1666739818.55854988,1361636066,42.7306758,-84.4904391,277.41998291015625,-0.21058622002601624,-2.350586175918579
1666739818.59919596,1361676712,42.7306758,-84.4904392,277.42999267578125,-0.20891347527503967,-2.3489134311676025
1666739818.59934688,1361676863,42.7306758,-84.4904392,277.42999267578125,-0.20891347527503967,-2.3489134311676025
1666739818.63905501,1361716571,42.7306758,-84.4904392,277.42999267578125,-0.2070235311985016,-2.3470234870910645
1666739818.67841697,1361755933,42.7306758,-84.49043929999999,277.42999267578125,-0.2052229940891266,-2.3452229499816895
1666739818.69906902,1361776585,42.7306758,-84.49043929999999,277.42999267578125,-0.2043711245059967,-2.3443710803985596
1666739818.71840882,1361795925,42.7306758,-84.4904394,277.42999267578125,-0.20338335633277893,-2.343383312225342
1666739818.75851703,1361836033,42.7306758,-84.4904394,277.42999267578125,-0.20143404603004456,-2.3414340019226074
1666739818.79938793,1361876904,42.7306758,-84.4904395,277.44000244140625,-0.19982114434242249,-2.3398211002349854
1666739818.79958200,1361877098,42.7306758,-84.4904395,277.44000244140625,-0.19982114434242249,-2.3398211002349854
1666739818.83904481,1361916561,42.7306758,-84.4904395,277.44000244140625,-0.19834032654762268,-2.3383402824401855
1666739818.87851286,1361956029,42.7306758,-84.4904395,277.44000244140625,-0.19704094529151917,-2.337040901184082
1666739818.89905787,1361976574,42.7306758,-84.4904396,277.44000244140625,-0.1964835226535797,-2.3364834785461426
1666739818.91840696,1361995923,42.7306758,-84.4904396,277.44000244140625,-0.1956426203250885,-2.3356425762176514
1666739818.95855784,1362036074,42.7306758,-84.4904396,277.44000244140625,-0.1940576136112213,-2.334057569503784
1666739818.99905586,1362076572,42.7306758,-84.4904397,277.44000244140625,-0.19260349869728088,-2.3326034545898438
1666739818.99914503,1362076661,42.7306758,-84.4904397,277.44000244140625,-0.19260349869728088,-2.3326034545898438
1666739819.03906989,1362116586,42.7306758,-84.4904397,277.44000244140625,-0.19108429551124573,-2.3310842514038086
1666739819.07841396,1362155930,42.7306758,-84.49043979999999,277.4499816894531,-0.1896916925907135,-2.3296916484832764
1666739819.09922194,1362176738,42.7306758,-84.49043979999999,277.4499816894531,-0.18906369805335999,-2.329063653945923
1666739819.11840200,1362195918,42.7306758,-84.49043979999999,277.4499816894531,-0.18820133805274963,-2.3282012939453125
1666739819.15846491,1362235981,42.7306758,-84.49043979999999,277.4499816894531,-0.18736734986305237,-2.3273673057556152
1666739819.19907093,1362276587,42.7306758,-84.4904399,277.4499816894531,-0.18718591332435608,-2.327185869216919
1666739819.19916081,1362276677,42.7306758,-84.4904399,277.4499816894531,-0.18718591332435608,-2.327185869216919
1666739819.23911190,1362316628,42.7306758,-84.49043999999999,277.4499816894531,-0.18668070435523987,-2.3266806602478027
1666739819.27843094,1362355947,42.7306758,-84.49043999999999,277.4499816894531,-0.18595686554908752,-2.3259568214416504
1666739819.29913282,1362376649,42.7306758,-84.4904401,277.4499816894531,-0.1857399046421051,-2.325739860534668
1666739819.31845903,1362395975,42.7306758,-84.4904401,277.4499816894531,-0.18508568406105042,-2.3250856399536133
1666739819.35840988,1362435926,42.7306758,-84.4904402,277.4499816894531,-0.1844584047794342,-2.324458360671997
1666739819.39901590,1362476532,42.7306758,-84.4904402,277.4499816894531,-0.18424192070960999,-2.324241876602173
1666739819.39921188,1362476728,42.7306758,-84.4904402,277.4499816894531,-0.18424192070960999,-2.324241876602173
1666739819.43906283,1362516579,42.7306758,-84.4904403,277.4499816894531,-0.1840476095676422,-2.324047565460205
1666739819.47851300,1362556029,42.7306758,-84.4904404,277.4499816894531,-0.1843668520450592,-2.324366807937622
1666739819.49897289,1362576489,42.7306758,-84.49044049999999,277.4499816894531,-0.18477001786231995,-2.324769973754883
1666739819.51844287,1362595959,42.7306758,-84.49044049999999,277.4499816894531,-0.18445125222206116,-2.324451208114624
1666739819.55847001,1362635986,42.7306758,-84.4904406,277.4499816894531,-0.1842295229434967,-2.3242294788360596
1666739819.59929204,1362676808,42.7306758,-84.4904407,277.4499816894531,-0.18500152230262756,-2.3250014781951904
1666739819.59945989,1362676976,42.7306758,-84.4904407,277.4499816894531,-0.18500152230262756,-2.3250014781951904
1666739819.63901687,1362716533,42.7306758,-84.4904408,277.4499816894531,-0.18541184067726135,-2.325411796569824
1666739819.67850399,1362756020,42.7306758,-84.49044099999999,277.4499816894531,-0.18570461869239807,-2.325704574584961
1666739819.69894195,1362776458,42.7306758,-84.49044099999999,277.4499816894531,-0.18607011437416077,-2.3260700702667236
1666739819.71856594,1362796082,42.7306758,-84.49044099999999,277.4499816894531,-0.18574371933937073,-2.3257436752319336
1666739819.75849485,1362836011,42.7306758,-84.4904411,277.4499816894531,-0.1850070059299469,-2.3250069618225098
1666739819.79937196,1362876888,42.7306758,-84.4904414,277.4499816894531,-0.18433299660682678,-2.3243329524993896
1666739819.79946089,1362876977,42.7306758,-84.4904414,277.4499816894531,-0.18433299660682678,-2.3243329524993896
1666739819.83894801,1362916464,42.7306758,-84.4904415,277.4499816894531,-0.18369022011756897,-2.323690176010132
1666739819.87854791,1362956064,42.7306758,-84.4904416,277.4499816894531,-0.1835137903690338,-2.3235137462615967
1666739819.89896584,1362976482,42.7306758,-84.4904416,277.4499816894531,-0.18359532952308655,-2.3235952854156494
1666739819.91852784,1362996044,42.7306758,-84.49044169999999,277.4499816894531,-0.18315330147743225,-2.323153257369995
1666739819.95852399,1363036040,42.7306758,-84.4904418,277.4499816894531,-0.182612806558609,-2.322612762451172
1666739819.99896693,1363076483,42.7306758,-84.4904419,277.4499816894531,-0.1816634237766266,-2.3216633796691895
1666739819.99909091,1363076607,42.7306758,-84.4904419,277.4499816894531,-0.1816634237766266,-2.3216633796691895
1666739820.03898287,1363116499,42.7306758,-84.4904421,277.4499816894531,-0.1801096498966217,-2.3201096057891846
1666739820.07844901,1363155965,42.7306758,-84.49044219999999,277.4599914550781,-0.1786767542362213,-2.318676710128784
1666739820.09924603,1363176762,42.7306758,-84.4904423,277.4599914550781,-0.17801347374916077,-2.3180134296417236
1666739820.11851382,1363196030,42.7306758,-84.4904423,277.4599914550781,-0.1772109568119049,-2.3172109127044678
1666739820.15844893,1363235965,42.7306758,-84.4904425,277.4599914550781,-0.17632952332496643,-2.3163294792175293
1666739820.19901180,1363276528,42.7306758,-84.4904426,277.4599914550781,-0.17596569657325745,-2.3159656524658203
1666739820.19913483,1363276651,42.7306758,-84.4904426,277.4599914550781,-0.17596569657325745,-2.3159656524658203
1666739820.23909092,1363316607,42.7306758,-84.4904427,277.4599914550781,-0.17459145188331604,-2.314591407775879
1666739820.27840090,1363355917,42.7306758,-84.49044289999999,277.4599914550781,-0.1732138693332672,-2.31321382522583
1666739820.29904795,1363376564,42.7306758,-84.49044289999999,277.4599914550781,-0.1725570261478424,-2.3125569820404053
1666739820.31849790,1363396014,42.7306758,-84.490443,277.4599914550781,-0.17177048325538635,-2.311770439147949
1666739820.35846186,1363435978,42.7306758,-84.4904431,277.4599914550781,-0.1702522337436676,-2.3102521896362305
1666739820.39903402,1363476550,42.7306758,-84.4904432,277.4700012207031,-0.1687411367893219,-2.3087410926818848
1666739820.39916396,1363476680,42.7306758,-84.4904432,277.4700012207031,-0.1687411367893219,-2.3087410926818848
1666739820.43900895,1363516525,42.7306758,-84.49044339999999,277.4700012207031,-0.1667713224887848,-2.3067712783813477
1666739820.47847986,1363555996,42.7306758,-84.49044359999999,277.4700012207031,-0.1651870310306549,-2.3051869869232178
1666739820.49909687,1363576613,42.7306758,-84.4904437,277.4700012207031,-0.164407879114151,-2.304407835006714
1666739820.51838589,1363595902,42.7306758,-84.4904437,277.4700012207031,-0.16355577111244202,-2.303555727005005
1666739820.55863500,1363636151,42.7306758,-84.4904438,277.4700012207031,-0.16180244088172913,-2.301802396774292
1666739820.59921789,1363676734,42.7306758,-84.490444,277.4700012207031,-0.16002431511878967,-2.3000242710113525
1666739820.59934497,1363676861,42.7306758,-84.490444,277.4700012207031,-0.16002431511878967,-2.3000242710113525
1666739820.63913488,1363716651,42.7306758,-84.4904442,277.47998046875,-0.15841475129127502,-2.298414707183838
1666739820.67847085,1363755987,42.7306758,-84.4904443,277.47998046875,-0.15698257088661194,-2.296982526779175
1666739820.69904304,1363776559,42.7306758,-84.4904444,277.47998046875,-0.15629878640174866,-2.2962987422943115
1666739820.71840191,1363795918,42.7306758,-84.4904444,277.47998046875,-0.15549078583717346,-2.2954907417297363
1666739820.75839186,1363835908,42.7306758,-84.4904445,277.47998046875,-0.15430894494056702,-2.29430890083313
1666739820.79937696,1363876893,42.7306758,-84.4904447,277.47998046875,-0.15327349305152893,-2.293273448944092
1666739820.79952192,1363877038,42.7306758,-84.4904447,277.47998046875,-0.15327349305152893,-2.293273448944092
1666739820.83905792,1363916574,42.7306758,-84.49044479999999,277.47998046875,-0.15199270844459534,-2.291992664337158
1666739820.87847090,1363955987,42.7306758,-84.4904449,277.47998046875,-0.1508435308933258,-2.2908434867858887
1666739820.89900398,1363976520,42.7306758,-84.490445,277.47998046875,-0.15032926201820374,-2.2903292179107666
1666739820.91846585,1363995982,42.7306758,-84.490445,277.489990234375,-0.14960184693336487,-2.2896018028259277
1666739820.95842886,1364035945,42.7306758,-84.4904451,277.489990234375,-0.14861002564430237,-2.2886099815368652
1666739820.99897504,1364076491,42.7306758,-84.49044529999999,277.489990234375,-0.14848819375038147,-2.2884881496429443
1666739820.99916291,1364076679,42.7306758,-84.49044529999999,277.489990234375,-0.14848819375038147,-2.2884881496429443
1666739821.03909802,1364116614,42.7306758,-84.4904454,277.489990234375,-0.14837947487831116,-2.288379430770874
1666739821.07847595,1364155992,42.7306758,-84.49044549999999,277.489990234375,-0.14843478798866272,-2.2884347438812256
1666739821.09926295,1364176779,42.7306758,-84.4904456,277.489990234375,-0.14864864945411682,-2.2886486053466797
1666739821.11846685,1364195983,42.7306758,-84.4904456,277.489990234375,-0.14830747246742249,-2.2883074283599854
1666739821.15848088,1364235997,42.7306759,-84.4904457,277.489990234375,-0.14859095215797424,-2.288590908050537
1666739821.19893789,1364276454,42.7306759,-84.4904459,277.47998046875,-0.1500648558139801,-2.290064811706543
1666739821.19912386,1364276640,42.7306759,-84.4904459,277.47998046875,-0.1500648558139801,-2.290064811706543
1666739821.23898792,1364316504,42.7306759,-84.49044599999999,277.47998046875,-0.15093198418617249,-2.2909319400787354
1666739821.27850103,1364356017,42.7306758,-84.4904461,277.47998046875,-0.15181294083595276,-2.2918128967285156
1666739821.29891682,1364376433,42.7306758,-84.4904462,277.47998046875,-0.15249839425086975,-2.2924983501434326
1666739821.31852102,1364396037,42.7306758,-84.4904462,277.47998046875,-0.15239253640174866,-2.2923924922943115
1666739821.35842490,1364435941,42.7306758,-84.4904463,277.47998046875,-0.1524011194705963,-2.292401075363159
1666739821.39919996,1364476716,42.7306758,-84.4904464,277.47998046875,-0.15285125374794006,-2.292851209640503
1666739821.39934802,1364476864,42.7306758,-84.4904464,277.47998046875,-0.15285125374794006,-2.292851209640503
1666739821.43896294,1364516479,42.7306759,-84.4904466,277.47998046875,-0.1528424322605133,-2.292842388153076
1666739821.47846198,1364555978,42.7306759,-84.49044669999999,277.47998046875,-0.15264716744422913,-2.292647123336792
1666739821.49901986,1364576536,42.7306759,-84.49044669999999,277.47998046875,-0.15269318222999573,-2.2926931381225586
1666739821.51852584,1364596042,42.7306759,-84.4904468,277.47998046875,-0.15233173966407776,-2.2923316955566406
1666739821.55851197,1364636028,42.7306759,-84.4904468,277.47998046875,-0.15201130509376526,-2.292011260986328
1666739821.59924698,1364676763,42.7306759,-84.490447,277.47998046875,-0.1527794897556305,-2.2927794456481934
1666739821.59941483,1364676931,42.7306759,-84.490447,277.47998046875,-0.1527794897556305,-2.2927794456481934
1666739821.63900781,1364716524,42.7306759,-84.4904471,277.47998046875,-0.15318813920021057,-2.2931880950927734
1666739821.67853189,1364756048,42.7306759,-84.49044719999999,277.47998046875,-0.15311184525489807,-2.293111801147461
1666739821.69900799,1364776524,42.7306759,-84.49044719999999,277.47998046875,-0.15323486924171448,-2.2932348251342773
1666739821.71852684,1364796043,42.7306759,-84.4904473,277.47998046875,-0.15290966629981995,-2.292909622192383
1666739821.75851202,1364836028,42.7306759,-84.4904474,277.47998046875,-0.15299668908119202,-2.292996644973755
1666739821.79932594,1364876842,42.730675999999995,-84.4904475,277.47998046875,-0.15419593453407288,-2.2941958904266357
1666739821.79953194,1364877048,42.730675999999995,-84.4904475,277.47998046875,-0.15419593453407288,-2.2941958904266357
1666739821.83899689,1364916513,42.7306761,-84.4904476,277.47998046875,-0.15503421425819397,-2.295034170150757
1666739821.87842703,1364955943,42.7306761,-84.49044769999999,277.47998046875,-0.15576830506324768,-2.2957682609558105
1666739821.89906287,1364976579,42.7306761,-84.49044769999999,277.47998046875,-0.15634813904762268,-2.2963480949401855
1666739821.91846085,1364995977,42.7306761,-84.4904478,277.47998046875,-0.15628281235694885,-2.2962827682495117
1666739821.95846796,1365035984,42.7306761,-84.4904478,277.47998046875,-0.15604892373085022,-2.296048879623413
1666739821.99907088,1365076587,42.7306761,-84.49044789999999,277.47998046875,-0.15561595559120178,-2.2956159114837646
1666739821.99918985,1365076706,42.7306761,-84.49044789999999,277.47998046875,-0.15561595559120178,-2.2956159114837646
1666739822.03902698,1365116543,42.7306761,-84.490448,277.47998046875,-0.1556195318698883,-2.295619487762451
1666739822.07844996,1365155966,42.7306761,-84.4904482,277.47998046875,-0.15550509095191956,-2.2955050468444824
1666739822.09917402,1365176690,42.7306761,-84.4904482,277.47998046875,-0.15556254982948303,-2.295562505722046
1666739822.11845684,1365195973,42.7306761,-84.4904483,277.47998046875,-0.15527334809303284,-2.2952733039855957
1666739822.15844893,1365235965,42.7306761,-84.49044839999999,277.47998046875,-0.15477123856544495,-2.294771194458008
1666739822.19904399,1365276560,42.7306761,-84.4904485,277.47998046875,-0.15425053238868713,-2.29425048828125
1666739822.19913793,1365276654,42.7306761,-84.4904485,277.47998046875,-0.15425053238868713,-2.29425048828125
1666739822.23916388,1365316680,42.7306762,-84.4904486,277.47998046875,-0.1546286642551422,-2.294628620147705
1666739822.27849388,1365356010,42.7306762,-84.4904487,277.47998046875,-0.15471091866493225,-2.294710874557495
1666739822.29908895,1365376605,42.7306762,-84.4904488,277.47998046875,-0.15486851334571838,-2.2948684692382812
1666739822.31840301,1365395919,42.7306762,-84.49044889999999,277.47998046875,-0.15465369820594788,-2.2946536540985107
1666739822.35839200,1365435908,42.7306762,-84.490449,277.47998046875,-0.15472617745399475,-2.2947261333465576
1666739822.39900088,1365476517,42.7306762,-84.49044909999999,277.47998046875,-0.15512695908546448,-2.2951269149780273
1666739822.39916086,1365476677,42.7306762,-84.49044909999999,277.47998046875,-0.15512695908546448,-2.2951269149780273
1666739822.43909287,1365516609,42.7306763,-84.4904492,277.47998046875,-0.15530267357826233,-2.295302629470825
1666739822.47854495,1365556061,42.7306763,-84.4904493,277.47998046875,-0.15568891167640686,-2.2956888675689697
1666739822.49898982,1365576506,42.7306763,-84.4904494,277.47998046875,-0.15602174401283264,-2.2960216999053955
1666739822.51840496,1365595921,42.7306763,-84.4904494,277.47998046875,-0.1559104025363922,-2.295910358428955
1666739822.55840182,1365635918,42.7306763,-84.4904495,277.47998046875,-0.15631166100502014,-2.296311616897583
1666739822.59930587,1365676822,42.7306763,-84.49044959999999,277.47998046875,-0.15713611245155334,-2.297136068344116
1666739822.59939790,1365676914,42.7306763,-84.49044959999999,277.47998046875,-0.15713611245155334,-2.297136068344116
1666739822.63912892,1365716645,42.7306763,-84.4904497,277.47998046875,-0.15747728943824768,-2.2974772453308105
1666739822.67851400,1365756030,42.7306763,-84.4904498,277.47998046875,-0.1578916609287262,-2.297891616821289
1666739822.69892192,1365776438,42.7306764,-84.4904499,277.47998046875,-0.15823140740394592,-2.298231363296509
1666739822.71845889,1365795975,42.7306764,-84.4904499,277.47998046875,-0.1581505835056305,-2.2981505393981934
1666739822.75847197,1365835988,42.7306764,-84.49045,277.47998046875,-0.15839043259620667,-2.2983903884887695
1666739822.79940295,1365876919,42.7306765,-84.4904502,277.47998046875,-0.15877237915992737,-2.2987723350524902
1666739822.79952097,1365877037,42.7306765,-84.4904502,277.47998046875,-0.15877237915992737,-2.2987723350524902
1666739822.83904791,1365916564,42.7306765,-84.49045029999999,277.47998046875,-0.15846911072731018,-2.298469066619873
1666739822.87853003,1365956046,42.7306765,-84.4904504,277.47998046875,-0.1578179895877838,-2.2978179454803467
1666739822.89898682,1365976503,42.7306765,-84.4904505,277.47998046875,-0.15750399231910706,-2.29750394821167
1666739822.91845798,1365995974,42.7306765,-84.4904506,277.47998046875,-0.157114177942276,-2.297114133834839
1666739822.95846701,1366035983,42.7306765,-84.4904507,277.47998046875,-0.1566857397556305,-2.2966856956481934
1666739822.99906898,1366076585,42.7306765,-84.49045079999999,277.47998046875,-0.15647569298744202,-2.296475648880005
1666739822.99921584,1366076732,42.7306765,-84.49045079999999,277.47998046875,-0.15647569298744202,-2.296475648880005
1666739823.03897381,1366116490,42.7306765,-84.4904509,277.47998046875,-0.1562141478061676,-2.2962141036987305
1666739823.07852793,1366156044,42.730676599999995,-84.4904511,277.47998046875,-0.15533414483070374,-2.2953341007232666
1666739823.09923887,1366176755,42.730676599999995,-84.4904511,277.47998046875,-0.15489712357521057,-2.2948970794677734
1666739823.11853194,1366196048,42.730676599999995,-84.4904512,277.47998046875,-0.15444770455360413,-2.294447660446167
1666739823.15852094,1366236037,42.730676599999995,-84.49045129999999,277.47998046875,-0.1536363661289215,-2.2936363220214844
1666739823.19904590,1366276562,42.7306767,-84.4904514,277.47998046875,-0.15334144234657288,-2.2933413982391357
1666739823.19917297,1366276689,42.7306767,-84.4904514,277.47998046875,-0.15334144234657288,-2.2933413982391357
1666739823.23901701,1366316533,42.7306767,-84.4904516,277.47998046875,-0.1532837450504303,-2.293283700942993
1666739823.27838182,1366355898,42.7306768,-84.4904517,277.47998046875,-0.15335717797279358,-2.2933571338653564
1666739823.29901481,1366376531,42.7306768,-84.4904518,277.47998046875,-0.15349498391151428,-2.293494939804077
1666739823.31849599,1366396012,42.7306768,-84.4904518,277.47998046875,-0.1533319056034088,-2.2933318614959717
1666739823.35851693,1366436033,42.7306768,-84.4904519,277.47998046875,-0.15313974022865295,-2.293139696121216
1666739823.39904881,1366476565,42.7306769,-84.4904521,277.47998046875,-0.15336552262306213,-2.293365478515625
1666739823.39917183,1366476688,42.7306769,-84.4904521,277.47998046875,-0.15336552262306213,-2.293365478515625
1666739823.43904996,1366516566,42.7306769,-84.4904522,277.47998046875,-0.15353932976722717,-2.29353928565979
1666739823.47849703,1366556013,42.730677,-84.4904523,277.47998046875,-0.15368667244911194,-2.293686628341675
1666739823.49917388,1366576690,42.730677,-84.4904524,277.47998046875,-0.15385213494300842,-2.2938520908355713
1666739823.51846290,1366595979,42.730677,-84.4904524,277.47998046875,-0.1537279188632965,-2.2937278747558594
1666739823.55857182,1366636088,42.730677,-84.49045249999999,277.47998046875,-0.15398350358009338,-2.2939834594726562
1666739823.59923291,1366676749,42.7306771,-84.49045269999999,277.47998046875,-0.15472880005836487,-2.2947287559509277
1666739823.59940195,1366676918,42.7306771,-84.49045269999999,277.47998046875,-0.15472880005836487,-2.2947287559509277
1666739823.63908100,1366716597,42.7306771,-84.4904528,277.47998046875,-0.15504994988441467,-2.2950499057769775
1666739823.67847896,1366755995,42.7306771,-84.490453,277.47998046875,-0.1552514135837555,-2.2952513694763184
1666739823.69904780,1366776564,42.730677199999995,-84.490453,277.47998046875,-0.15544763207435608,-2.295447587966919
1666739823.71840501,1366795921,42.730677199999995,-84.4904531,277.47998046875,-0.15535393357276917,-2.295353889465332
1666739823.75844002,1366835956,42.730677199999995,-84.49045319999999,277.47998046875,-0.15580525994300842,-2.2958052158355713
1666739823.79932284,1366876839,42.730677299999996,-84.49045339999999,277.47998046875,-0.15708079934120178,-2.2970807552337646
1666739823.79947400,1366876990,42.730677299999996,-84.49045339999999,277.47998046875,-0.15708079934120178,-2.2970807552337646
1666739823.83907700,1366916593,42.7306774,-84.4904535,277.47998046875,-0.15782156586647034,-2.297821521759033
1666739823.87848687,1366956003,42.7306774,-84.4904536,277.47998046875,-0.15816441178321838,-2.2981643676757812
1666739823.89908600,1366976602,42.7306774,-84.49045369999999,277.47998046875,-0.15842309594154358,-2.2984230518341064
1666739823.91850495,1366996021,42.7306774,-84.49045369999999,277.47998046875,-0.15838590264320374,-2.2983858585357666
1666739823.95840096,1367035917,42.7306774,-84.49045389999999,277.47998046875,-0.15895095467567444,-2.2989509105682373
1666739823.99898481,1367076501,42.7306775,-84.490454,277.47998046875,-0.15980640053749084,-2.2998063564300537
1666739823.99916196,1367076678,42.7306775,-84.490454,277.47998046875,-0.15980640053749084,-2.2998063564300537
1666739824.03908300,1367116599,42.7306775,-84.4904542,277.4700012207031,-0.16036739945411682,-2.3003673553466797
1666739824.07855487,1367156071,42.7306776,-84.4904543,277.4700012207031,-0.16136208176612854,-2.3013620376586914
1666739824.09931588,1367176832,42.7306776,-84.49045439999999,277.4700012207031,-0.16200461983680725,-2.30200457572937
1666739824.11841798,1367195934,42.7306776,-84.49045439999999,277.4700012207031,-0.16216102242469788,-2.3021609783172607
1666739824.15840793,1367235924,42.7306777,-84.4904545,277.4700012207031,-0.16257897019386292,-2.302578926086426
1666739824.19928598,1367276802,42.7306777,-84.4904547,277.4700012207031,-0.16298189759254456,-2.3029818534851074
1666739824.19941902,1367276935,42.7306777,-84.4904547,277.4700012207031,-0.16298189759254456,-2.3029818534851074
1666739824.23910499,1367316621,42.730677799999995,-84.4904548,277.4700012207031,-0.16319265961647034,-2.303192615509033
1666739824.27854395,1367356060,42.730677799999995,-84.4904549,277.4700012207031,-0.1629871428012848,-2.3029870986938477
1666739824.29894185,1367376458,42.730677899999996,-84.490455,277.4700012207031,-0.16290894150733948,-2.3029088973999023
1666739824.31847596,1367395992,42.730677899999996,-84.490455,277.4700012207031,-0.1627449095249176,-2.3027448654174805
1666739824.35845995,1367435976,42.730677899999996,-84.49045509999999,277.4700012207031,-0.16258874535560608,-2.302588701248169
1666739824.39898181,1367476498,42.730678,-84.4904553,277.4700012207031,-0.16274204850196838,-2.3027420043945312
1666739824.39912701,1367476643,42.730678,-84.4904553,277.4700012207031,-0.16274204850196838,-2.3027420043945312
1666739824.43901300,1367516529,42.7306781,-84.4904554,277.4700012207031,-0.16284742951393127,-2.302847385406494
1666739824.47844100,1367555957,42.7306781,-84.4904555,277.4700012207031,-0.1629752218723297,-2.3029751777648926
1666739824.49893093,1367576447,42.7306782,-84.4904555,277.4700012207031,-0.16309180855751038,-2.3030917644500732
1666739824.51844597,1367595962,42.7306782,-84.49045559999999,277.4700012207031,-0.16302767395973206,-2.303027629852295
1666739824.55846381,1367635980,42.7306782,-84.4904557,277.4700012207031,-0.16296210885047913,-2.302962064743042
1666739824.59938192,1367676898,42.7306783,-84.49045579999999,277.4700012207031,-0.16369667649269104,-2.303696632385254
1666739824.59951591,1367677032,42.7306783,-84.49045579999999,277.4700012207031,-0.16369667649269104,-2.303696632385254
1666739824.63908792,1367716604,42.730678399999995,-84.4904559,277.4700012207031,-0.16466370224952698,-2.30466365814209
1666739824.67848802,1367756004,42.730678399999995,-84.490456,277.4700012207031,-0.16560330986976624,-2.305603265762329
1666739824.69894004,1367776456,42.730678499999996,-84.490456,277.4700012207031,-0.1662093698978424,-2.3062093257904053
1666739824.71850181,1367796018,42.730678499999996,-84.4904561,277.4700012207031,-0.16641154885292053,-2.3064115047454834
1666739824.75857496,1367836091,42.730678499999996,-84.4904561,277.4700012207031,-0.16736140847206116,-2.307361364364624
1666739824.79941201,1367876928,42.7306786,-84.49045629999999,277.4700012207031,-0.16967454552650452,-2.3096745014190674
1666739824.79954100,1367877057,42.7306786,-84.49045629999999,277.4700012207031,-0.16967454552650452,-2.3096745014190674
1666739824.83898091,1367916497,42.7306786,-84.4904564,277.4599914550781,-0.17182770371437073,-2.3118276596069336
1666739824.87839699,1367955913,42.7306787,-84.4904565,277.4599914550781,-0.17377892136573792,-2.313778877258301
1666739824.89903283,1367976549,42.7306787,-84.4904565,277.4599914550781,-0.1749812662601471,-2.31498122215271
1666739824.91854596,1367996062,42.7306787,-84.4904566,277.4599914550781,-0.1754995882511139,-2.3154995441436768
1666739824.95852494,1368036041,42.7306788,-84.4904566,277.4599914550781,-0.17702999711036682,-2.3170299530029297
1666739824.99911404,1368076630,42.7306788,-84.4904567,277.4599914550781,-0.17884483933448792,-2.318844795227051
1666739824.99923682,1368076753,42.7306788,-84.4904567,277.4599914550781,-0.17884483933448792,-2.318844795227051
1666739825.03896594,1368116482,42.7306789,-84.49045679999999,277.4499816894531,-0.1804279386997223,-2.320427894592285
1666739825.07841086,1368155927,42.7306789,-84.4904569,277.4499816894531,-0.1819571554660797,-2.3219571113586426
1666739825.09919882,1368176715,42.730678999999995,-84.4904569,277.4499816894531,-0.1828879415988922,-2.322887897491455
1666739825.11850095,1368196017,42.730678999999995,-84.49045699999999,277.4499816894531,-0.18330779671669006,-2.323307752609253
1666739825.15851593,1368236032,42.730678999999995,-84.49045699999999,277.4499816894531,-0.1843961775302887,-2.3243961334228516
1666739825.19922996,1368276746,42.730679099999996,-84.4904571,277.4499816894531,-0.18559947609901428,-2.325599431991577
1666739825.19944191,1368276958,42.730679099999996,-84.4904571,277.4499816894531,-0.18559947609901428,-2.325599431991577
1666739825.23901892,1368316535,42.730679099999996,-84.4904572,277.4499816894531,-0.18566742539405823,-2.325667381286621
1666739825.27853203,1368356048,42.7306792,-84.4904573,277.4499816894531,-0.1854054033756256,-2.3254053592681885
1666739825.29907298,1368376589,42.7306792,-84.4904574,277.4499816894531,-0.18523898720741272,-2.3252389430999756
1666739825.31842399,1368395940,42.7306792,-84.4904574,277.4499816894531,-0.18515530228614807,-2.325155258178711
1666739825.35852003,1368436036,42.7306792,-84.49045749999999,277.4499816894531,-0.18470636010169983,-2.3247063159942627
1666739825.39897680,1368476493,42.7306793,-84.4904576,277.4499816894531,-0.18412962555885315,-2.324129581451416
1666739825.39914894,1368476665,42.7306793,-84.4904576,277.4499816894531,-0.18412962555885315,-2.324129581451416
1666739825.43907690,1368516593,42.7306793,-84.4904577,277.4499816894531,-0.1840325891971588,-2.3240325450897217
1666739825.47850800,1368556024,42.7306794,-84.4904578,277.4499816894531,-0.18434634804725647,-2.3243463039398193
1666739825.49900103,1368576517,42.7306794,-84.4904578,277.4499816894531,-0.18452587723731995,-2.324525833129883
1666739825.51841402,1368595930,42.7306794,-84.4904579,277.4499816894531,-0.1846121847629547,-2.3246121406555176
1666739825.55841088,1368635927,42.7306794,-84.49045799999999,277.4499816894531,-0.18549981713294983,-2.3254997730255127
1666739825.59940195,1368676918,42.7306795,-84.49045799999999,277.4499816894531,-0.18689504265785217,-2.326894998550415
1666739825.59954691,1368677063,42.7306795,-84.49045799999999,277.4499816894531,-0.18689504265785217,-2.326894998550415
1666739825.63911080,1368716627,42.730679599999995,-84.4904581,277.4499816894531,-0.18767085671424866,-2.3276708126068115
1666739825.67848897,1368756005,42.730679599999995,-84.49045819999999,277.4499816894531,-0.1877376139163971,-2.32773756980896
1666739825.69901395,1368776530,42.730679699999996,-84.4904583,277.4499816894531,-0.18776622414588928,-2.327766180038452
1666739825.71850801,1368796024,42.730679699999996,-84.4904583,277.4499816894531,-0.18779507279396057,-2.3277950286865234
1666739825.75843596,1368835952,42.7306798,-84.4904584,277.4499816894531,-0.18763771653175354,-2.3276376724243164
1666739825.79935884,1368876875,42.7306798,-84.4904584,277.4499816894531,-0.18730393052101135,-2.327303886413574
1666739825.79948688,1368877003,42.7306798,-84.4904584,277.4499816894531,-0.18730393052101135,-2.327303886413574
1666739825.83909893,1368916615,42.7306799,-84.4904586,277.4499816894531,-0.1886235773563385,-2.3286235332489014
1666739825.87857389,1368956090,42.73068,-84.49045869999999,277.44000244140625,-0.1901475489139557,-2.3301475048065186
1666739825.89902782,1368976544,42.73068,-84.4904588,277.44000244140625,-0.19105663895606995,-2.331056594848633
1666739825.91850495,1368996021,42.7306801,-84.4904588,277.44000244140625,-0.19151702523231506,-2.331516981124878
1666739825.95841193,1369035928,42.7306801,-84.4904589,277.44000244140625,-0.19267454743385315,-2.332674503326416
1666739825.99902892,1369076545,42.730680199999995,-84.490459,277.44000244140625,-0.19394388794898987,-2.3339438438415527
1666739825.99919391,1369076710,42.730680199999995,-84.490459,277.44000244140625,-0.19394388794898987,-2.3339438438415527
1666739826.03895092,1369116467,42.730680299999996,-84.4904591,277.44000244140625,-0.19473019242286682,-2.3347301483154297
1666739826.07856798,1369156084,42.730680299999996,-84.49045919999999,277.44000244140625,-0.1952783167362213,-2.335278272628784
1666739826.09921598,1369176732,42.7306804,-84.4904593,277.44000244140625,-0.19559136033058167,-2.3355913162231445
1666739826.11847591,1369195992,42.7306804,-84.4904593,277.44000244140625,-0.19579115509986877,-2.3357911109924316
1666739826.15846992,1369235986,42.7306804,-84.49045939999999,277.44000244140625,-0.1957167685031891,-2.335716724395752
1666739826.19936299,1369276879,42.7306805,-84.4904595,277.44000244140625,-0.19525757431983948,-2.3352575302124023
1666739826.19953299,1369277049,42.7306805,-84.4904595,277.44000244140625,-0.19525757431983948,-2.3352575302124023
1666739826.23901701,1369316533,42.7306806,-84.4904596,277.44000244140625,-0.19471779465675354,-2.3347177505493164
1666739826.27838683,1369355903,42.7306806,-84.4904597,277.44000244140625,-0.19428792595863342,-2.3342878818511963
1666739826.29901981,1369376536,42.7306806,-84.4904598,277.44000244140625,-0.19400015473365784,-2.3340001106262207
1666739826.31844783,1369395964,42.7306807,-84.4904598,277.44000244140625,-0.19391575455665588,-2.3339157104492188
1666739826.35851789,1369436034,42.7306807,-84.49045989999999,277.44000244140625,-0.19318237900733948,-2.3331823348999023
1666739826.39906883,1369476585,42.730680799999995,-84.49046,277.44000244140625,-0.19203630089759827,-2.332036256790161
1666739826.39918995,1369476706,42.730680799999995,-84.49046,277.44000244140625,-0.19203630089759827,-2.332036256790161
1666739826.43911695,1369516633,42.730680799999995,-84.49046009999999,277.44000244140625,-0.19124546647071838,-2.3312454223632812
1666739826.47839284,1369555909,42.730680899999996,-84.4904602,277.44000244140625,-0.19025006890296936,-2.3302500247955322
1666739826.49902582,1369576542,42.730680899999996,-84.4904603,277.4499816894531,-0.18962660431861877,-2.3296265602111816
1666739826.51844096,1369595957,42.730681,-84.4904603,277.4499816894531,-0.18938246369361877,-2.3293824195861816
1666739826.55851889,1369636035,42.730681,-84.49046039999999,277.4499816894531,-0.1887008249759674,-2.3287007808685303
1666739826.59934092,1369676857,42.7306811,-84.4904605,277.4499816894531,-0.18791332840919495,-2.327913284301758
1666739826.59953284,1369677049,42.7306811,-84.4904605,277.4499816894531,-0.18791332840919495,-2.327913284301758
1666739826.63899398,1369716510,42.7306812,-84.49046059999999,277.4499816894531,-0.18870773911476135,-2.328707695007324
1666739826.67841601,1369755932,42.7306813,-84.4904607,277.4499816894531,-0.18961134552955627,-2.329611301422119
1666739826.69901490,1369776531,42.7306813,-84.4904608,277.44000244140625,-0.19013705849647522,-2.330137014389038
1666739826.71849203,1369796008,42.7306813,-84.4904608,277.44000244140625,-0.19044747948646545,-2.3304474353790283
1666739826.75852394,1369836040,42.730681399999995,-84.4904609,277.44000244140625,-0.19132915139198303,-2.331329107284546
1666739826.79943395,1369876950,42.7306816,-84.4904612,277.44000244140625,-0.1922101080417633,-2.332210063934326
1666739826.79960489,1369877121,42.7306816,-84.4904612,277.44000244140625,-0.1922101080417633,-2.332210063934326
1666739826.83906102,1369916577,42.7306817,-84.49046129999999,277.44000244140625,-0.19259682297706604,-2.332596778869629
1666739826.87845588,1369955972,42.7306817,-84.4904614,277.44000244140625,-0.19266405701637268,-2.3326640129089355
1666739826.89905000,1369976566,42.7306817,-84.4904614,277.44000244140625,-0.19267907738685608,-2.332679033279419
1666739826.91842985,1369995946,42.7306818,-84.4904615,277.44000244140625,-0.19276371598243713,-2.332763671875
1666739826.95846891,1370035985,42.7306818,-84.4904616,277.44000244140625,-0.1923626959323883,-2.332362651824951
1666739826.99897385,1370076490,42.7306819,-84.49046179999999,277.44000244140625,-0.19151034951210022,-2.331510305404663
1666739826.99916101,1370076677,42.7306819,-84.49046179999999,277.44000244140625,-0.19151034951210022,-2.331510305404663
1666739827.03904796,1370116564,42.730682,-84.4904619,277.44000244140625,-0.19112196564674377,-2.3311219215393066
1666739827.07854581,1370156062,42.730682099999996,-84.490462,277.44000244140625,-0.19097653031349182,-2.3309764862060547
1666739827.09924984,1370176766,42.730682099999996,-84.4904621,277.44000244140625,-0.1908530294895172,-2.33085298538208
1666739827.11845803,1370195974,42.730682099999996,-84.4904622,277.44000244140625,-0.1908682882785797,-2.3308682441711426
1666739827.15847588,1370235992,42.7306822,-84.49046229999999,277.44000244140625,-0.19026580452919006,-2.330265760421753
1666739827.19912481,1370276641,42.7306823,-84.4904624,277.4499816894531,-0.18919411301612854,-2.3291940689086914
1666739827.19924593,1370276762,42.7306823,-84.4904624,277.4499816894531,-0.18919411301612854,-2.3291940689086914
1666739827.23905087,1370316567,42.7306823,-84.49046249999999,277.4499816894531,-0.18834391236305237,-2.3283438682556152
1666739827.27858496,1370356101,42.7306824,-84.4904626,277.4499816894531,-0.1872641146183014,-2.3272640705108643
1666739827.29895687,1370376473,42.7306825,-84.4904627,277.4499816894531,-0.18658676743507385,-2.3265867233276367
1666739827.31843281,1370395949,42.7306825,-84.4904628,277.4499816894531,-0.1863364279270172,-2.32633638381958
1666739827.35841799,1370435934,42.7306825,-84.4904629,277.4499816894531,-0.18557944893836975,-2.3255794048309326
1666739827.39892197,1370476438,42.7306826,-84.49046299999999,277.4499816894531,-0.18447819352149963,-2.3244781494140625
1666739827.39906883,1370476585,42.7306826,-84.49046299999999,277.4499816894531,-0.18447819352149963,-2.3244781494140625
1666739827.43904281,1370516559,42.730682699999996,-84.4904631,277.4499816894531,-0.1835898458957672,-2.32358980178833
1666739827.47855592,1370556072,42.7306828,-84.4904633,277.4499816894531,-0.18263307213783264,-2.3226330280303955
1666739827.49897981,1370576496,42.7306829,-84.4904633,277.4499816894531,-0.1820310652256012,-2.322031021118164
1666739827.51856089,1370596077,42.7306829,-84.4904634,277.4499816894531,-0.18181005120277405,-2.321810007095337
1666739827.55841303,1370635929,42.7306829,-84.49046349999999,277.4499816894531,-0.18089905381202698,-2.32089900970459
1666739827.59937286,1370676889,42.7306831,-84.4904636,277.4599914550781,-0.17970147728919983,-2.3197014331817627
1666739827.59946895,1370676985,42.7306831,-84.4904636,277.4599914550781,-0.17970147728919983,-2.3197014331817627
1666739827.63898683,1370716503,42.7306832,-84.49046369999999,277.4599914550781,-0.17916741967201233,-2.319167375564575
1666739827.67857695,1370756093,42.730683299999995,-84.4904638,277.4599914550781,-0.17898884415626526,-2.318988800048828
1666739827.69918084,1370776697,42.730683299999995,-84.4904639,277.4599914550781,-0.17885461449623108,-2.318854570388794
1666739827.71846581,1370795982,42.730683299999995,-84.4904639,277.4599914550781,-0.17884817719459534,-2.318848133087158
1666739827.75847983,1370835996,42.7306834,-84.490464,277.4599914550781,-0.17835727334022522,-2.318357229232788
1666739827.79938483,1370876901,42.7306836,-84.4904641,277.4599914550781,-0.177133709192276,-2.317133665084839
1666739827.79951382,1370877030,42.7306836,-84.4904641,277.4599914550781,-0.177133709192276,-2.317133665084839
1666739827.83900189,1370916518,42.7306838,-84.49046419999999,277.4599914550781,-0.17619600892066956,-2.3161959648132324
1666739827.87857890,1370956095,42.730683899999995,-84.4904643,277.4599914550781,-0.17549815773963928,-2.315498113632202
1666739827.89902282,1370976539,42.730683899999995,-84.4904643,277.4599914550781,-0.17505112290382385,-2.3150510787963867
1666739827.91842985,1370995946,42.730683899999995,-84.4904644,277.4599914550781,-0.17489519715309143,-2.3148951530456543
1666739827.95848489,1371036001,42.730684,-84.4904644,277.4599914550781,-0.17411985993385315,-2.314119815826416
1666739827.99899888,1371076515,42.7306841,-84.4904645,277.4599914550781,-0.17207208275794983,-2.3120720386505127
1666739827.99912691,1371076643,42.7306841,-84.4904645,277.4599914550781,-0.17207208275794983,-2.3120720386505127
1666739828.03902292,1371116539,42.7306842,-84.4904646,277.4700012207031,-0.16992869973182678,-2.3099286556243896
1666739828.07840490,1371155921,42.7306843,-84.49046469999999,277.4700012207031,-0.1677023470401764,-2.3077023029327393
1666739828.09924197,1371176758,42.7306844,-84.49046469999999,277.4700012207031,-0.16634073853492737,-2.3063406944274902
1666739828.11851287,1371196029,42.7306844,-84.49046469999999,277.4700012207031,-0.1657203733921051,-2.305720329284668
1666739828.15851903,1371236035,42.730684499999995,-84.4904648,277.4700012207031,-0.16382566094398499,-2.303825616836548
1666739828.19910789,1371276624,42.7306846,-84.4904648,277.4700012207031,-0.1615249216556549,-2.3015248775482178
1666739828.19923091,1371276747,42.7306846,-84.4904648,277.4700012207031,-0.1615249216556549,-2.3015248775482178
1666739828.23908401,1371316600,42.7306848,-84.49046489999999,277.4700012207031,-0.16001835465431213,-2.300018310546875
1666739828.27847791,1371355994,42.7306849,-84.490465,277.47998046875,-0.15866652131080627,-2.298666477203369
1666739828.29903698,1371376553,42.730685,-84.490465,277.47998046875,-0.1578477919101715,-2.2978477478027344
1666739828.31839299,1371395909,42.730685,-84.490465,277.47998046875,-0.15746036171913147,-2.2974603176116943
1666739828.35851502,1371436031,42.730685099999995,-84.490465,277.47998046875,-0.1569303572177887,-2.2969303131103516
1666739828.39908981,1371476606,42.730685199999996,-84.4904651,277.47998046875,-0.15663591027259827,-2.296635866165161
1666739828.39920783,1371476724,42.730685199999996,-84.4904651,277.47998046875,-0.15663591027259827,-2.296635866165161
1666739828.43903685,1371516553,42.7306853,-84.4904651,277.47998046875,-0.15618649125099182,-2.2961864471435547
1666739828.47844696,1371555963,42.7306855,-84.4904652,277.47998046875,-0.15601006150245667,-2.2960100173950195
1666739828.49898291,1371576499,42.7306855,-84.4904652,277.47998046875,-0.15590396523475647,-2.2959039211273193
1666739828.51839900,1371595915,42.7306856,-84.4904653,277.47998046875,-0.15584173798561096,-2.295841693878174
1666739828.55847597,1371635992,42.730685699999995,-84.4904653,277.47998046875,-0.15523234009742737,-2.2952322959899902
1666739828.59929204,1371676808,42.730685799999996,-84.4904653,277.47998046875,-0.15431609749794006,-2.294316053390503
1666739828.59942293,1371676939,42.730685799999996,-84.4904653,277.47998046875,-0.15431609749794006,-2.294316053390503
1666739828.63909388,1371716610,42.730686,-84.49046539999999,277.47998046875,-0.15343990921974182,-2.2934398651123047
1666739828.67845488,1371755971,42.7306861,-84.49046539999999,277.47998046875,-0.15208616852760315,-2.292086124420166
1666739828.69898891,1371776505,42.7306861,-84.49046539999999,277.47998046875,-0.15128198266029358,-2.2912819385528564
1666739828.71847486,1371795991,42.7306862,-84.49046539999999,277.47998046875,-0.15088239312171936,-2.2908823490142822
1666739828.75846982,1371835986,42.730686299999995,-84.49046539999999,277.489990234375,-0.1498495638370514,-2.2898495197296143
1666739828.79933882,1371876855,42.730686399999996,-84.4904655,277.489990234375,-0.14870038628578186,-2.2887003421783447
1666739828.79947591,1371876992,42.730686399999996,-84.4904655,277.489990234375,-0.14870038628578186,-2.2887003421783447
1666739828.83898091,1371916497,42.7306865,-84.4904655,277.489990234375,-0.14743033051490784,-2.2874302864074707
1666739828.87856293,1371956079,42.7306867,-84.4904655,277.489990234375,-0.14671960473060608,-2.286719560623169
1666739828.89898896,1371976505,42.7306868,-84.4904655,277.489990234375,-0.14630070328712463,-2.2863006591796875
1666739828.91845798,1371995974,42.7306868,-84.4904655,277.489990234375,-0.14607253670692444,-2.2860724925994873
1666739828.95851398,1372036030,42.730686899999995,-84.4904655,277.489990234375,-0.1456998884677887,-2.2856998443603516
1666739828.99894881,1372076465,42.730686999999996,-84.4904655,277.489990234375,-0.14541712403297424,-2.285417079925537
1666739828.99912500,1372076641,42.730686999999996,-84.4904655,277.489990234375,-0.14541712403297424,-2.285417079925537
1666739829.03899288,1372116509,42.7306872,-84.4904655,277.489990234375,-0.14677873253822327,-2.286778688430786
1666739829.07854295,1372156059,42.7306874,-84.4904655,277.489990234375,-0.14893236756324768,-2.2889323234558105
1666739829.09934092,1372176857,42.730687499999995,-84.4904655,277.47998046875,-0.15024223923683167,-2.2902421951293945
1666739829.11852694,1372196043,42.730687499999995,-84.4904655,277.47998046875,-0.15084519982337952,-2.2908451557159424
1666739829.15841699,1372235933,42.7306877,-84.4904655,277.47998046875,-0.15316715836524963,-2.2931671142578125
1666739829.19909096,1372276607,42.7306878,-84.4904655,277.47998046875,-0.15625610947608948,-2.2962560653686523
1666739829.19929600,1372276812,42.7306878,-84.4904655,277.47998046875,-0.15625610947608948,-2.2962560653686523
1666739829.23897195,1372316488,42.730688,-84.4904655,277.47998046875,-0.15838351845741272,-2.2983834743499756
1666739829.27854490,1372356061,42.730688199999996,-84.4904656,277.4700012207031,-0.16036930680274963,-2.3003692626953125
1666739829.29896498,1372376481,42.730688199999996,-84.4904656,277.4700012207031,-0.1615687906742096,-2.3015687465667725
1666739829.31853294,1372396049,42.7306883,-84.4904656,277.4700012207031,-0.162149578332901,-2.302149534225464
1666739829.35851288,1372436029,42.7306884,-84.4904656,277.4700012207031,-0.16410890221595764,-2.3041088581085205
1666739829.39896297,1372476479,42.7306886,-84.4904657,277.4700012207031,-0.1674756109714508,-2.3074755668640137
1666739829.39909196,1372476608,42.7306886,-84.4904657,277.4700012207031,-0.1674756109714508,-2.3074755668640137
1666739829.43903089,1372516547,42.730688699999995,-84.4904657,277.4599914550781,-0.1704196035861969,-2.3104195594787598
1666739829.47846699,1372555983,42.7306889,-84.4904658,277.4599914550781,-0.1732255518436432,-2.313225507736206
1666739829.49904799,1372576564,42.7306889,-84.4904658,277.4599914550781,-0.17490950226783752,-2.3149094581604004
1666739829.51847386,1372595990,42.730689,-84.49046589999999,277.4599914550781,-0.17575255036354065,-2.3157525062561035
1666739829.55849481,1372636011,42.7306891,-84.49046589999999,277.4599914550781,-0.1781255304813385,-2.3181254863739014
1666739829.59926295,1372676779,42.7306892,-84.490466,277.4499816894531,-0.18060055375099182,-2.3206005096435547
1666739829.59945297,1372676969,42.7306892,-84.490466,277.4499816894531,-0.18060055375099182,-2.3206005096435547
1666739829.63906288,1372716579,42.730689399999996,-84.490466,277.4499816894531,-0.18216362595558167,-2.3221635818481445
1666739829.67847300,1372755989,42.7306895,-84.490466,277.4499816894531,-0.18376865983009338,-2.3237686157226562
1666739829.69898486,1372776501,42.7306896,-84.490466,277.4499816894531,-0.18470492959022522,-2.324704885482788
1666739829.71837902,1372795895,42.7306896,-84.490466,277.4499816894531,-0.18521466851234436,-2.3252146244049072
1666739829.75845194,1372835968,42.7306898,-84.490466,277.4499816894531,-0.18673411011695862,-2.3267340660095215
1666739829.79959488,1372877111,42.7306899,-84.490466,277.4499816894531,-0.1879378855228424,-2.3279378414154053
1666739829.79971194,1372877228,42.7306899,-84.490466,277.4499816894531,-0.1879378855228424,-2.3279378414154053
1666739829.83903384,1372916550,42.730689999999996,-84.49046609999999,277.4499816894531,-0.18851199746131897,-2.328511953353882
1666739829.87842989,1372955946,42.7306901,-84.49046609999999,277.4499816894531,-0.1893233358860016,-2.3293232917785645
1666739829.89906383,1372976580,42.7306902,-84.49046609999999,277.4499816894531,-0.18977323174476624,-2.329773187637329
1666739829.91841483,1372995931,42.7306902,-84.49046609999999,277.44000244140625,-0.19004645943641663,-2.3300464153289795
1666739829.95854402,1373036060,42.7306903,-84.49046609999999,277.44000244140625,-0.1906520426273346,-2.3306519985198975
1666739829.99908185,1373076598,42.7306904,-84.49046609999999,277.44000244140625,-0.19126644730567932,-2.331266403198242
1666739829.99920297,1373076719,42.7306904,-84.49046609999999,277.44000244140625,-0.19126644730567932,-2.331266403198242
1666739830.03909993,1373116616,42.730690599999996,-84.4904662,277.44000244140625,-0.1929551661014557,-2.3329551219940186
1666739830.07846498,1373155981,42.7306907,-84.4904662,277.44000244140625,-0.19434848427772522,-2.334348440170288
1666739830.09923387,1373176750,42.7306908,-84.4904662,277.44000244140625,-0.19516125321388245,-2.3351612091064453
1666739830.11843586,1373195952,42.7306908,-84.4904662,277.44000244140625,-0.1956268846988678,-2.3356268405914307
1666739830.15845084,1373235967,42.7306909,-84.4904662,277.44000244140625,-0.19730129837989807,-2.337301254272461
1666739830.19914103,1373276657,42.7306911,-84.4904662,277.44000244140625,-0.19949474930763245,-2.3394947052001953
1666739830.19925880,1373276775,42.7306911,-84.4904662,277.44000244140625,-0.19949474930763245,-2.3394947052001953
1666739830.23913383,1373316650,42.730691199999995,-84.4904663,277.42999267578125,-0.20081916451454163,-2.3408191204071045
1666739830.27849293,1373356009,42.7306914,-84.4904663,277.42999267578125,-0.20189610123634338,-2.3418960571289062
1666739830.29894996,1373376466,42.7306914,-84.4904664,277.42999267578125,-0.20250383019447327,-2.342503786087036
1666739830.31841803,1373395934,42.7306915,-84.4904664,277.42999267578125,-0.2028898298740387,-2.3428897857666016
1666739830.35841298,1373435929,42.7306916,-84.4904664,277.42999267578125,-0.20385947823524475,-2.3438594341278076
1666739830.39903402,1373476550,42.730691799999995,-84.4904665,277.42999267578125,-0.20453324913978577,-2.3445332050323486
1666739830.39918685,1373476703,42.730691799999995,-84.4904665,277.42999267578125,-0.20453324913978577,-2.3445332050323486
1666739830.43909287,1373516609,42.730692,-84.49046659999999,277.42999267578125,-0.2048434317111969,-2.3448433876037598
1666739830.47847986,1373555996,42.7306921,-84.49046659999999,277.42999267578125,-0.20520368218421936,-2.3452036380767822
1666739830.49896502,1373576481,42.7306922,-84.4904667,277.42999267578125,-0.2053774893283844,-2.3453774452209473
1666739830.51846290,1373595979,42.7306922,-84.4904667,277.42999267578125,-0.20555654168128967,-2.3455564975738525
1666739830.55862093,1373636137,42.730692399999995,-84.4904667,277.42999267578125,-0.2055899202823639,-2.3455898761749268
1666739830.59919381,1373676710,42.730692499999996,-84.4904668,277.42999267578125,-0.2053610384464264,-2.3453609943389893
1666739830.59938598,1373676902,42.730692499999996,-84.4904668,277.42999267578125,-0.2053610384464264,-2.3453609943389893
1666739830.63916183,1373716678,42.7306927,-84.4904668,277.42999267578125,-0.20567265152931213,-2.345672607421875
1666739830.67857790,1373756094,42.7306928,-84.4904668,277.42999267578125,-0.20671525597572327,-2.346715211868286
1666739830.69893193,1373776448,42.7306929,-84.4904668,277.42999267578125,-0.2072989046573639,-2.3472988605499268
1666739830.71850896,1373796025,42.7306929,-84.4904668,277.42999267578125,-0.20767489075660706,-2.34767484664917
1666739830.75851583,1373836032,42.730693099999996,-84.4904668,277.42999267578125,-0.2083534300327301,-2.348353385925293
1666739830.79937601,1373876892,42.7306932,-84.4904669,277.42999267578125,-0.20924440026283264,-2.3492443561553955
1666739830.79946589,1373876982,42.7306932,-84.4904669,277.42999267578125,-0.20924440026283264,-2.3492443561553955
1666739830.83895397,1373916470,42.7306934,-84.4904669,277.41998291015625,-0.2103828489780426,-2.3503828048706055
1666739830.87847686,1373955993,42.7306935,-84.490467,277.41998291015625,-0.2117997705936432,-2.351799726486206
1666739830.89904404,1373976560,42.730693599999995,-84.490467,277.41998291015625,-0.212609201669693,-2.352609157562256
1666739830.91854596,1373996062,42.730693599999995,-84.490467,277.41998291015625,-0.2131144106388092,-2.353114366531372
1666739830.95845795,1374035974,42.730693699999996,-84.490467,277.41998291015625,-0.21475473046302795,-2.354754686355591
1666739830.99897385,1374076490,42.7306939,-84.490467,277.41998291015625,-0.21740856766700745,-2.3574085235595703
1666739830.99909282,1374076609,42.7306939,-84.490467,277.41998291015625,-0.21740856766700745,-2.3574085235595703
1666739831.03900480,1374116521,42.7306941,-84.490467,277.41998291015625,-0.2197507917881012,-2.359750747680664
1666739831.07840896,1374155925,42.730694199999995,-84.49046709999999,277.4100036621094,-0.22195187211036682,-2.3619518280029297
1666739831.09919500,1374176711,42.730694299999996,-84.49046709999999,277.4100036621094,-0.2232324182987213,-2.363232374191284
1666739831.11859202,1374196108,42.7306944,-84.49046709999999,277.4100036621094,-0.22398582100868225,-2.363985776901245
1666739831.15852284,1374236039,42.7306945,-84.4904672,277.4100036621094,-0.2260982096195221,-2.366098165512085
1666739831.19905996,1374276576,42.7306947,-84.4904672,277.4100036621094,-0.22941413521766663,-2.3694140911102295
1666739831.19918299,1374276699,42.7306947,-84.4904672,277.4100036621094,-0.22941413521766663,-2.3694140911102295
1666739846.19897199,1389276488,42.7307219,-84.49049839999999,277.0799865722656,0.007225167006254196,-2.692774772644043
1666739846.19911385,1389276630,42.7307219,-84.49049839999999,277.0799865722656,0.007225167006254196,-2.692774772644043
1666739846.23905087,1389316567,42.7307218,-84.4904985,277.0799865722656,0.007223736494779587,-2.6927762031555176
1666739846.27846289,1389355979,42.7307217,-84.49049869999999,277.0799865722656,0.007219206541776657,-2.6927807331085205
1666739846.29891896,1389376435,42.7307217,-84.4904988,277.0799865722656,0.007324825972318649,-2.6926751136779785
1666739846.31844687,1389395963,42.7307217,-84.4904988,277.0799865722656,0.0070968978106975555,-2.6929030418395996
1666739846.35841894,1389435935,42.730721599999995,-84.490499,277.0799865722656,0.0069574229419231415,-2.693042516708374
1666739846.39898086,1389476497,42.7307215,-84.4904991,277.0799865722656,0.0069977156817913055,-2.693002223968506
1666739846.39908385,1389476600,42.7307215,-84.4904991,277.0799865722656,0.0069977156817913055,-2.693002223968506
1666739846.43892598,1389516442,42.7307214,-84.4904993,277.0799865722656,0.006977450102567673,-2.6930224895477295
1666739846.47848201,1389555998,42.7307213,-84.4904995,277.0799865722656,0.006886612623929977,-2.693113327026367
1666739846.49892688,1389576443,42.7307213,-84.49049959999999,277.0799865722656,0.006916414946317673,-2.6930835247039795
1666739846.51846194,1389595978,42.7307212,-84.49049959999999,277.0799865722656,0.006662975996732712,-2.6933369636535645
1666739846.55851698,1389636033,42.7307212,-84.4904998,277.0799865722656,0.00643075630068779,-2.6935691833496094
1666739846.59944987,1389676966,42.7307211,-84.4904999,277.0799865722656,0.006364237517118454,-2.6936357021331787
1666739846.59956694,1389677083,42.7307211,-84.4904999,277.0799865722656,0.006364237517118454,-2.6936357021331787
1666739846.63898087,1389716497,42.730720999999996,-84.49050009999999,277.0799865722656,0.006302248686552048,-2.693697690963745
1666739846.67839289,1389755909,42.7307209,-84.4905003,277.0799865722656,0.00613320991396904,-2.693866729736328
1666739846.69897795,1389776494,42.7307209,-84.4905004,277.0799865722656,0.006123196333646774,-2.6938767433166504
1666739846.71844792,1389795964,42.7307208,-84.4905004,277.0799865722656,0.005857836455106735,-2.6941421031951904
1666739846.75851488,1389836031,42.7307208,-84.49050059999999,277.0799865722656,0.005509506911039352,-2.694490432739258
1666739846.79902792,1389876544,42.7307207,-84.4905007,277.0799865722656,0.0052331797778606415,-2.6947667598724365
1666739846.79909992,1389876616,42.7307207,-84.4905007,277.0799865722656,0.0052331797778606415,-2.6947667598724365
1666739846.83901787,1389916534,42.7307206,-84.4905009,277.0799865722656,0.0054909102618694305,-2.6945090293884277
1666739846.87847590,1389955992,42.7307205,-84.4905011,277.0799865722656,0.005699526518583298,-2.694300413131714
