timestamp,TimeUS,C,Roll,Pitch,Yaw,VN,VE,VD,dPD,PN,PE,PD,GX,GY,GZ,OH
1666739817.03773189,1360115248,1,0.91,-0.41000000000000003,17.580000000000002,0.02974291890859604,-0.04461384937167168,-0.033164676278829575,-0.04822133854031563,-19.610572814941406,-5.247798919677734,2.509800434112549,0.66,-0.15,-0.28,279.72
1666739817.07771587,1360155232,1,0.91,-0.41000000000000003,17.580000000000002,0.029081489890813828,-0.04496104642748833,-0.03316200152039528,-0.03970670700073242,-19.612163543701172,-5.252325057983398,2.507596492767334,0.66,-0.15,-0.28,279.72
1666739817.09771490,1360175231,1,0.91,-0.41000000000000003,17.580000000000002,0.02815958485007286,-0.04547587037086487,-0.03365536779165268,-0.039473965764045715,-19.613245010375977,-5.254839897155762,2.506425619125366,0.66,-0.15,-0.28,279.72
1666739817.11771894,1360195235,1,0.91,-0.41000000000000003,17.580000000000002,0.02813802659511566,-0.04628618806600571,-0.033701326698064804,-0.04000973701477051,-19.61345672607422,-5.256505489349365,2.505523204803467,0.66,-0.15,-0.28,279.72
1666739817.15775204,1360235268,1,0.91,-0.41000000000000003,17.580000000000002,0.027883775532245636,-0.04683002457022667,-0.03398345410823822,-0.046798113733530045,-19.61448097229004,-5.260401725769043,2.502584457397461,0.66,-0.15,-0.28,279.72
1666739817.19772482,1360275241,1,0.91,-0.4,17.580000000000002,0.026954300701618195,-0.047947753220796585,-0.034411393105983734,-0.06122564896941185,-19.6158390045166,-5.264606475830078,2.498845100402832,0.66,-0.15,-0.28,279.72
1666739817.23775887,1360315275,1,0.91,-0.4,17.59,0.026841608807444572,-0.04830285906791687,-0.03484920784831047,-0.07008037716150284,-19.61627197265625,-5.26885461807251,2.4960436820983887,0.66,-0.15,-0.28,279.72
1666739817.27771401,1360355230,1,0.91,-0.4,17.59,0.026753727346658707,-0.0485842227935791,-0.034955013543367386,-0.07407277077436447,-19.616453170776367,-5.273284435272217,2.4932198524475098,0.66,-0.15,-0.28,279.72
1666739817.29774284,1360375259,1,0.91,-0.4,17.59,0.026915961876511574,-0.048692356795072556,-0.03487234190106392,-0.07434508204460144,-19.616317749023438,-5.274970054626465,2.492119789123535,0.66,-0.15,-0.28,279.72
1666739817.31771493,1360395231,1,0.91,-0.4,17.59,0.02659333497285843,-0.049270451068878174,-0.035256803035736084,-0.07420563697814941,-19.616512298583984,-5.277310848236084,2.490647077560425,0.66,-0.15,-0.28,279.72
1666739817.35771489,1360435231,1,0.91,-0.4,17.59,0.027196144685149193,-0.04956063628196716,-0.03571655973792076,-0.07455890625715256,-19.61641502380371,-5.2810773849487305,2.4875595569610596,0.66,-0.15,-0.28,279.72
1666739817.39774489,1360475261,1,0.91,-0.4,17.59,0.02757551334798336,-0.05070042237639427,-0.03600417077541351,-0.0790049359202385,-19.61615753173828,-5.284638404846191,2.4843688011169434,0.66,-0.15,-0.28,279.72
1666739817.43773198,1360515248,1,0.92,-0.4,17.59,0.026889123022556305,-0.050526827573776245,-0.0365467295050621,-0.08300686627626419,-19.61809539794922,-5.2901177406311035,2.480133533477783,0.66,-0.15,-0.28,279.72
1666739817.47774291,1360555259,1,0.92,-0.4,17.6,0.02616741508245468,-0.05093234404921532,-0.03711928054690361,-0.09506776183843613,-19.61897087097168,-5.294332981109619,2.4759557247161865,0.66,-0.15,-0.28,279.72
1666739817.49776602,1360575282,1,0.92,-0.4,17.6,0.026473773643374443,-0.05128047987818718,-0.03711921349167824,-0.09990011900663376,-19.61905288696289,-5.29597806930542,2.474417209625244,0.66,-0.15,-0.28,279.72
1666739817.51771402,1360595230,1,0.92,-0.4,17.6,0.026046521961688995,-0.051478467881679535,-0.03743648901581764,-0.10375995188951492,-19.619630813598633,-5.298222541809082,2.47214412689209,0.66,-0.15,-0.28,279.72
1666739817.55771804,1360635234,1,0.92,-0.4,17.6,0.025521529838442802,-0.0518050491809845,-0.03801042586565018,-0.10637932270765305,-19.620105743408203,-5.301826477050781,2.4684324264526367,0.66,-0.15,-0.28,279.72
1666739817.59777403,1360675290,1,0.92,-0.4,17.6,0.02563130110502243,-0.05222981050610542,-0.03841330483555794,-0.10461297631263733,-19.620954513549805,-5.3062639236450195,2.464980125427246,0.66,-0.15,-0.28,279.72
1666739817.63774085,1360715257,1,0.92,-0.4,17.6,0.023910755291581154,-0.05328917130827904,-0.038386326283216476,-0.09616642445325851,-19.623485565185547,-5.313535213470459,2.4613938331604004,0.66,-0.15,-0.28,279.72
1666739817.67775702,1360755273,1,0.93,-0.4,17.61,0.02365860715508461,-0.05397341027855873,-0.03885822743177414,-0.08871288597583771,-19.62480926513672,-5.318932056427002,2.458376169204712,0.66,-0.15,-0.28,279.72
1666739817.69771290,1360775229,1,0.93,-0.4,17.61,0.023160448297858238,-0.05432737246155739,-0.03897037357091904,-0.08508124947547913,-19.625043869018555,-5.3209991455078125,2.4571571350097656,0.66,-0.15,-0.28,279.72
1666739817.71773386,1360795250,1,0.93,-0.39,17.61,0.02297188714146614,-0.05496794357895851,-0.038990724831819534,-0.0813237801194191,-19.62588882446289,-5.3239521980285645,2.455543279647827,0.66,-0.15,-0.28,279.72
1666739817.75771284,1360835229,1,0.93,-0.39,17.61,0.02205018699169159,-0.055767692625522614,-0.03940413147211075,-0.07507048547267914,-19.62675666809082,-5.328581809997559,2.4527533054351807,0.66,-0.15,-0.28,279.72
1666739817.79771495,1360875231,1,0.93,-0.39,17.61,0.02251015044748783,-0.05729304626584053,-0.03911645710468292,-0.07025831192731857,-19.62735939025879,-5.334055423736572,2.4499995708465576,0.67,-0.15,-0.28,279.72
1666739817.83769703,1360915213,1,0.93,-0.39,17.61,0.021267401054501534,-0.05874617397785187,-0.039663150906562805,-0.0673031210899353,-19.628002166748047,-5.342718124389648,2.446859359741211,0.67,-0.15,-0.28,279.72
1666739817.87774992,1360955266,1,0.93,-0.39,17.6,0.021801918745040894,-0.060228824615478516,-0.04014694318175316,-0.06737736612558365,-19.628103256225586,-5.3491339683532715,2.444066047668457,0.67,-0.15,-0.28,279.72
1666739817.89771795,1360975234,1,0.93,-0.39,17.61,0.02147805504500866,-0.06079060956835747,-0.040163371711969376,-0.0671742707490921,-19.627967834472656,-5.3515706062316895,2.442904233932495,0.67,-0.15,-0.28,279.72
1666739817.91774797,1360995264,1,0.93,-0.39,17.61,0.021728698164224625,-0.06166519224643707,-0.04049812629818916,-0.06686998158693314,-19.628093719482422,-5.355064392089844,2.4414515495300293,0.67,-0.15,-0.28,279.72
1666739817.95771503,1361035231,1,0.93,-0.39,17.61,0.02165808714926243,-0.06255534291267395,-0.041137684136629105,-0.06547854095697403,-19.627918243408203,-5.3606719970703125,2.4388790130615234,0.67,-0.15,-0.28,279.72
1666739817.99771190,1361075228,1,0.93,-0.39,17.61,0.02223469875752926,-0.06438711285591125,-0.04150481894612312,-0.06296411901712418,-19.627593994140625,-5.366809844970703,2.4364354610443115,0.67,-0.15,-0.28,279.72
1666739818.03771782,1361115234,1,0.93,-0.39,17.61,0.02109498344361782,-0.06574006378650665,-0.042075347155332565,-0.06019061803817749,-19.627132415771484,-5.375798225402832,2.4339404106140137,0.67,-0.15,-0.28,279.72
1666739818.07774401,1361155260,1,0.93,-0.39,17.61,0.022129032760858536,-0.06741449236869812,-0.04217858985066414,-0.05568217486143112,-19.626501083374023,-5.382528305053711,2.431881904602051,0.67,-0.15,-0.28,279.72
1666739818.09771299,1361175229,1,0.93,-0.38,17.62,0.02163073606789112,-0.06743775308132172,-0.0420645996928215,-0.05303678661584854,-19.626117706298828,-5.38514518737793,2.430914878845215,0.67,-0.15,-0.28,279.72
1666739818.11775994,1361195276,1,0.92,-0.38,17.62,0.021940123289823532,-0.06803624331951141,-0.041864048689603806,-0.050515446811914444,-19.625797271728516,-5.3888115882873535,2.4298834800720215,0.67,-0.15,-0.28,279.72
1666739818.15773201,1361235248,1,0.92,-0.38,17.62,0.02262932062149048,-0.06940958648920059,-0.04175714775919914,-0.046077582985162735,-19.62503433227539,-5.394622325897217,2.428088665008545,0.67,-0.15,-0.28,279.72
1666739818.19771385,1361275230,1,0.92,-0.38,17.62,0.023220116272568703,-0.07013022899627686,-0.04173623025417328,-0.042553920298814774,-19.62395668029785,-5.4007062911987305,2.4261536598205566,0.67,-0.15,-0.28,279.72
1666739818.23771381,1361315230,1,0.92,-0.39,17.63,0.023410074412822723,-0.07084162533283234,-0.04207981750369072,-0.04473720118403435,-19.622182846069336,-5.4086222648620605,2.4235432147979736,0.67,-0.15,-0.28,279.72
1666739818.27771282,1361355229,1,0.92,-0.39,17.63,0.02487400732934475,-0.07158933579921722,-0.042339812964200974,-0.0532245859503746,-19.620643615722656,-5.414683818817139,2.4208061695098877,0.67,-0.15,-0.28,279.72
1666739818.29772902,1361375245,1,0.92,-0.39,17.63,0.024584302678704262,-0.07189787179231644,-0.04236525669693947,-0.0575496070086956,-19.619953155517578,-5.41711950302124,2.419626474380493,0.67,-0.15,-0.28,279.72
1666739818.31775904,1361395275,1,0.92,-0.39,17.63,0.02438199147582054,-0.07206296920776367,-0.04237856715917587,-0.0608891025185585,-19.61911392211914,-5.420330047607422,2.418215751647949,0.67,-0.15,-0.28,279.72
1666739818.35773301,1361435249,1,0.92,-0.39,17.63,0.02557981014251709,-0.07304242253303528,-0.04263797402381897,-0.06539969146251678,-19.617589950561523,-5.425615310668945,2.415590763092041,0.67,-0.15,-0.28,279.72
1666739818.39774299,1361475259,1,0.92,-0.39,17.62,0.025343187153339386,-0.07353556901216507,-0.04303460568189621,-0.06841713935136795,-19.616891860961914,-5.431552886962891,2.4129080772399902,0.67,-0.15,-0.28,279.72
1666739818.43771386,1361515230,1,0.92,-0.39,17.62,0.02455168403685093,-0.07437483221292496,-0.04337954521179199,-0.0705493837594986,-19.618234634399414,-5.440094470977783,2.4100422859191895,0.67,-0.15,-0.28,279.72
1666739818.47772884,1361555245,1,0.92,-0.39,17.62,0.02397977001965046,-0.07421600073575974,-0.043428439646959305,-0.06731199473142624,-19.6187801361084,-5.446588039398193,2.4078762531280518,0.67,-0.15,-0.28,279.72
1666739818.49774384,1361575260,1,0.92,-0.39,17.62,0.023852162063121796,-0.07439419627189636,-0.04351344332098961,-0.0645887702703476,-19.618757247924805,-5.449136734008789,2.406881332397461,0.67,-0.15,-0.28,279.72
1666739818.51771593,1361595232,1,0.92,-0.39,17.62,0.02276209183037281,-0.07460381835699081,-0.043424345552921295,-0.06155009567737579,-19.61914825439453,-5.452599048614502,2.4057822227478027,0.67,-0.15,-0.28,279.72
1666739818.55771804,1361635234,1,0.92,-0.39,17.62,0.02321011573076248,-0.07525864243507385,-0.04306621849536896,-0.05536922067403793,-19.619386672973633,-5.458208084106445,2.403829574584961,0.67,-0.15,-0.28,279.72
1666739818.59776282,1361675279,1,0.92,-0.39,17.62,0.021791918203234673,-0.07567591220140457,-0.04271595925092697,-0.05009692907333374,-19.619709014892578,-5.4638519287109375,2.4018352031707764,0.67,-0.15,-0.28,279.72
1666739818.63774586,1361715262,1,0.92,-0.39,17.62,0.02169177494943142,-0.07584597170352936,-0.043016497045755386,-0.04970511794090271,-19.620738983154297,-5.4707350730896,2.399500846862793,0.67,-0.15,-0.28,279.72
1666739818.67771697,1361755233,1,0.92,-0.39,17.63,0.021236248314380646,-0.07634603977203369,-0.0433700866997242,-0.05048738047480583,-19.62113380432129,-5.476141452789307,2.397414207458496,0.67,-0.15,-0.28,279.72
1666739818.69773602,1361775252,1,0.92,-0.39,17.63,0.021831491962075233,-0.07654786109924316,-0.04339892789721489,-0.0505596362054348,-19.62108039855957,-5.47836971282959,2.3964452743530273,0.67,-0.15,-0.28,279.72
1666739818.71772599,1361795242,1,0.92,-0.39,17.62,0.02116573601961136,-0.07634801417589188,-0.043514881283044815,-0.050500448793172836,-19.62135887145996,-5.481186389923096,2.395387649536133,0.67,-0.15,-0.28,279.72
1666739818.75774193,1361835258,1,0.92,-0.38,17.63,0.021434146910905838,-0.07679983973503113,-0.043345045298337936,-0.05059664696455002,-19.621469497680664,-5.485919952392578,2.393202304840088,0.67,-0.15,-0.28,279.72
1666739818.79775596,1361875272,1,0.92,-0.38,17.63,0.021078580990433693,-0.07615915685892105,-0.04366680979728699,-0.052328214049339294,-19.621992111206055,-5.490013122558594,2.3911044597625732,0.67,-0.15,-0.28,279.72
1666739818.83775282,1361915269,1,0.93,-0.38,17.62,0.020579436793923378,-0.07407717406749725,-0.043653346598148346,-0.05024949461221695,-19.624073028564453,-5.493175029754639,2.389303684234619,0.67,-0.15,-0.28,279.72
1666739818.87773299,1361955249,1,0.93,-0.38,17.62,0.019190145656466484,-0.07277476042509079,-0.04323809593915939,-0.045246850699186325,-19.62515640258789,-5.496072292327881,2.387688159942627,0.67,-0.15,-0.28,279.72
1666739818.89775085,1361975267,1,0.93,-0.38,17.62,0.019794782623648643,-0.07291091233491898,-0.04327622428536415,-0.04303974285721779,-19.625354766845703,-5.497442245483398,2.3868906497955322,0.67,-0.15,-0.28,279.72
1666739818.91771388,1361995230,1,0.9400000000000001,-0.38,17.62,0.019530588760972023,-0.07165641337633133,-0.043358590453863144,-0.04111213982105255,-19.62605094909668,-5.498746871948242,2.3861207962036133,0.67,-0.15,-0.28,279.72
1666739818.95772195,1362035238,1,0.9400000000000001,-0.39,17.62,0.018885212019085884,-0.07124011218547821,-0.04356657713651657,-0.03973952680826187,-19.62676239013672,-5.5012946128845215,2.3842649459838867,0.67,-0.15,-0.28,279.72
1666739818.99774384,1362075260,1,0.9400000000000001,-0.39,17.62,0.018307585269212723,-0.0701083242893219,-0.04321485757827759,-0.04148918390274048,-19.627195358276367,-5.504579544067383,2.38236665725708,0.67,-0.15,-0.28,279.72
1666739819.03772283,1362115239,1,0.9400000000000001,-0.38,17.62,0.018634729087352753,-0.06900238990783691,-0.04346850514411926,-0.04307902604341507,-19.62751579284668,-5.509768962860107,2.380558490753174,0.67,-0.15,-0.28,279.72
1666739819.07774401,1362155260,1,0.9500000000000001,-0.38,17.62,0.018340200185775757,-0.06796965003013611,-0.04356244206428528,-0.04320654273033142,-19.627452850341797,-5.5138936042785645,2.37884259223938,0.67,-0.15,-0.28,279.72
1666739819.09771490,1362175231,1,0.9500000000000001,-0.38,17.62,0.01857367902994156,-0.06796275079250336,-0.043679140508174896,-0.04305737465620041,-19.627290725708008,-5.515646934509277,2.377983808517456,0.67,-0.15,-0.28,279.72
1666739819.11771297,1362195229,1,0.9500000000000001,-0.38,17.62,0.01883397437632084,-0.0675247311592102,-0.04365892335772514,-0.04268503561615944,-19.627290725708008,-5.517734050750732,2.3771235942840576,0.67,-0.15,-0.28,279.72
1666739819.15771484,1362235231,1,0.9500000000000001,-0.38,17.62,0.018718251958489418,-0.06711865961551666,-0.043241795152425766,-0.03858296200633049,-19.627052307128906,-5.521254539489746,2.376051187515259,0.67,-0.15,-0.28,279.72
1666739819.19770098,1362275217,1,0.9500000000000001,-0.38,17.62,0.01923586241900921,-0.06649180501699448,-0.04302174225449562,-0.029375646263360977,-19.62671661376953,-5.5245866775512695,2.3751935958862305,0.67,-0.15,-0.28,279.72
1666739819.23773003,1362315246,1,0.96,-0.38,17.63,0.019241223111748695,-0.0661914050579071,-0.0427057109773159,-0.02052101492881775,-19.626462936401367,-5.532164573669434,2.3747122287750244,0.67,-0.15,-0.28,279.72
1666739819.27772498,1362355241,1,0.96,-0.38,17.63,0.019284993410110474,-0.06656096130609512,-0.04281991720199585,-0.016974622383713722,-19.625991821289062,-5.537865161895752,2.3736703395843506,0.67,-0.15,-0.28,279.72
1666739819.29771686,1362375233,1,0.96,-0.38,17.63,0.019576918333768845,-0.06654257327318192,-0.04257988929748535,-0.01658014766871929,-19.625696182250977,-5.540101528167725,2.3730273246765137,0.67,-0.15,-0.28,279.72
1666739819.31775904,1362395275,1,0.96,-0.38,17.63,0.02054213359951973,-0.06658908724784851,-0.04233116656541824,-0.016840860247612,-19.625457763671875,-5.543107509613037,2.372580051422119,0.67,-0.15,-0.28,279.72
1666739819.35771394,1362435230,1,0.96,-0.38,17.63,0.020004471763968468,-0.06687535345554352,-0.04206680506467819,-0.017842743545770645,-19.624839782714844,-5.547998905181885,2.371645927429199,0.67,-0.15,-0.28,279.72
1666739819.39771485,1362475231,1,0.96,-0.38,17.63,0.02085527405142784,-0.06752046942710876,-0.041871123015880585,-0.017524663358926773,-19.62419319152832,-5.552506923675537,2.370783567428589,0.67,-0.15,-0.28,279.72
1666739819.43772697,1362515243,1,0.96,-0.38,17.62,0.019305776804685593,-0.068379707634449,-0.04161246493458748,-0.016611386090517044,-19.625226974487305,-5.563593864440918,2.370643377304077,0.67,-0.15,-0.28,279.72
1666739819.47774887,1362555265,1,0.96,-0.38,17.62,0.01909131556749344,-0.06892088800668716,-0.041052840650081635,-0.008004657924175262,-19.62561798095703,-5.571686744689941,2.370645523071289,0.67,-0.15,-0.28,279.72
1666739819.49771690,1362575233,1,0.96,-0.38,17.62,0.018547698855400085,-0.06924089044332504,-0.04094342142343521,-0.003667225828394294,-19.625600814819336,-5.574678897857666,2.370344877243042,0.67,-0.15,-0.28,279.72
1666739819.51775002,1362595266,1,0.96,-0.38,17.62,0.01868303492665291,-0.0699550062417984,-0.04073396325111389,-0.00019506370881572366,-19.625900268554688,-5.57907772064209,2.370507001876831,0.67,-0.15,-0.28,279.72
1666739819.55772400,1362635240,1,0.96,-0.38,17.62,0.018314095214009285,-0.07055257260799408,-0.04073775187134743,0.0016963224625214934,-19.626041412353516,-5.585926055908203,2.370021343231201,0.67,-0.15,-0.28,279.72
1666739819.59771585,1362675232,1,0.96,-0.38,17.62,0.018636120483279228,-0.07146917283535004,-0.04020996019244194,-0.0003147381648886949,-19.626232147216797,-5.593692302703857,2.369709014892578,0.67,-0.15,-0.28,279.72
1666739819.63771701,1362715233,1,0.96,-0.38,17.61,0.017658773809671402,-0.07289613783359528,-0.0396379753947258,0.0034577776677906513,-19.626901626586914,-5.605679035186768,2.370490789413452,0.67,-0.15,-0.28,279.72
1666739819.67774487,1362755261,1,0.96,-0.37,17.61,0.017664911225438118,-0.07419350743293762,-0.03965386375784874,0.00651253666728735,-19.62708854675293,-5.614426612854004,2.370455741882324,0.67,-0.15,-0.28,279.72
1666739819.69771481,1362775231,1,0.9500000000000001,-0.38,17.61,0.017283916473388672,-0.07478532940149307,-0.039468854665756226,0.006903002504259348,-19.62700653076172,-5.617711544036865,2.3701257705688477,0.67,-0.15,-0.28,279.72
1666739819.71774197,1362795258,1,0.96,-0.38,17.61,0.01707508973777294,-0.0756499320268631,-0.03926368057727814,0.006520786322653294,-19.62718391418457,-5.622476100921631,2.3702645301818848,0.67,-0.15,-0.28,279.72
1666739819.75774789,1362835264,1,0.96,-0.37,17.6,0.016859471797943115,-0.07664521783590317,-0.03958458453416824,-0.0005857824580743909,-19.627180099487305,-5.629952430725098,2.3692221641540527,0.67,-0.15,-0.28,279.72
1666739819.79771399,1362875230,1,0.96,-0.37,17.6,0.016517259180545807,-0.07831864804029465,-0.03952270746231079,-0.014847439713776112,-19.627546310424805,-5.638821601867676,2.3678982257843018,0.67,-0.15,-0.28,279.72
1666739819.83771896,1362915235,1,0.9500000000000001,-0.37,17.6,0.01560191996395588,-0.08002392947673798,-0.03936012461781502,-0.025554794818162918,-19.6291561126709,-5.6533050537109375,2.367072582244873,0.67,-0.15,-0.28,279.72
1666739819.87771702,1362955233,1,0.9500000000000001,-0.37,17.59,0.014667305164039135,-0.08206190168857574,-0.03890356048941612,-0.025605499744415283,-19.630016326904297,-5.663795471191406,2.366549253463745,0.67,-0.15,-0.28,279.72
1666739819.89773703,1362975253,1,0.9500000000000001,-0.37,17.59,0.014609159901738167,-0.08245556056499481,-0.038891032338142395,-0.023979468271136284,-19.630170822143555,-5.667644500732422,2.3660941123962402,0.67,-0.15,-0.28,279.72
1666739819.91774893,1362995265,1,0.9500000000000001,-0.37,17.59,0.014156576246023178,-0.08331111073493958,-0.03886794671416283,-0.0221861619502306,-19.63072395324707,-5.673428058624268,2.3659262657165527,0.67,-0.15,-0.28,279.72
1666739819.95773387,1363035250,1,0.9500000000000001,-0.37,17.59,0.01404262613505125,-0.08473460376262665,-0.03866003453731537,-0.02048116736114025,-19.63129234313965,-5.682364463806152,2.36503529548645,0.67,-0.15,-0.28,279.72
1666739819.99775386,1363075270,1,0.9500000000000001,-0.37,17.580000000000002,0.013650214299559593,-0.08679371327161789,-0.03848890960216522,-0.023367740213871002,-19.631607055664062,-5.692375183105469,2.3637170791625977,0.67,-0.15,-0.28,279.72
1666739820.03771281,1363115229,1,0.9500000000000001,-0.36,17.580000000000002,0.013461552560329437,-0.08871471881866455,-0.03898390009999275,-0.03438741713762283,-19.631725311279297,-5.707650661468506,2.3617303371429443,0.67,-0.15,-0.28,279.72
1666739820.07771397,1363155230,1,0.9400000000000001,-0.36,17.580000000000002,0.013133907690644264,-0.09110494703054428,-0.03888783976435661,-0.04343642294406891,-19.63161277770996,-5.718781471252441,2.3599600791931152,0.67,-0.15,-0.28,279.72
1666739820.09776592,1363175282,1,0.9400000000000001,-0.36,17.580000000000002,0.013378328643739223,-0.09157902002334595,-0.03908035531640053,-0.046671245247125626,-19.6314754486084,-5.722904205322266,2.3591196537017822,0.67,-0.15,-0.28,279.72
1666739820.11769295,1363195209,1,0.9400000000000001,-0.36,17.59,0.01326468214392662,-0.0922471284866333,-0.039069145917892456,-0.048728711903095245,-19.631444931030273,-5.729034900665283,2.3582205772399902,0.67,-0.15,-0.28,279.72
1666739820.15774703,1363235263,1,0.9400000000000001,-0.36,17.59,0.012570979073643684,-0.09379009157419205,-0.03932671621441841,-0.048203978687524796,-19.631240844726562,-5.7385125160217285,2.3570282459259033,0.67,-0.15,-0.28,279.72
1666739820.19773602,1363275252,1,0.9400000000000001,-0.36,17.59,0.012447957880795002,-0.09520808607339859,-0.03941914439201355,-0.04047754779458046,-19.63098907470703,-5.747352123260498,2.35602068901062,0.67,-0.15,-0.28,279.72
1666739820.23776388,1363315280,1,0.9400000000000001,-0.36,17.59,0.011826415546238422,-0.09745334088802338,-0.03995143622159958,-0.0384402833878994,-19.632017135620117,-5.762960910797119,2.354318857192993,0.67,-0.15,-0.28,279.72
1666739820.27771091,1363355227,1,0.9400000000000001,-0.36,17.59,0.010786685161292553,-0.09884452074766159,-0.04025619849562645,-0.04056071490049362,-19.632524490356445,-5.774459362030029,2.3525896072387695,0.67,-0.15,-0.28,279.72
1666739820.29775190,1363375268,1,0.9400000000000001,-0.36,17.59,0.010991825722157955,-0.09936213493347168,-0.04012431204319,-0.0415947400033474,-19.632606506347656,-5.778730869293213,2.3517537117004395,0.67,-0.15,-0.28,279.72
1666739820.31771588,1363395232,1,0.9400000000000001,-0.36,17.59,0.010913402773439884,-0.1002708300948143,-0.040487103164196014,-0.04293648898601532,-19.63294219970703,-5.7850117683410645,2.3508849143981934,0.67,-0.15,-0.28,279.72
1666739820.35771704,1363435233,1,0.9400000000000001,-0.36,17.59,0.010917036794126034,-0.1016477718949318,-0.0408475436270237,-0.045277148485183716,-19.63325309753418,-5.794780731201172,2.3490405082702637,0.67,-0.15,-0.28,279.72
1666739820.39774394,1363475260,1,0.9400000000000001,-0.36,17.59,0.010723992250859737,-0.10290081799030304,-0.04117393493652344,-0.047990430146455765,-19.63347816467285,-5.803852558135986,2.347149610519409,0.67,-0.15,-0.28,279.72
1666739820.43772197,1363515238,1,0.9400000000000001,-0.35000000000000003,17.59,0.00951755978167057,-0.10500282049179077,-0.04192066565155983,-0.05460035800933838,-19.634166717529297,-5.820888996124268,2.344517707824707,0.67,-0.15,-0.28,279.72
1666739820.47772002,1363555236,1,0.93,-0.35000000000000003,17.59,0.009593307040631771,-0.10732118785381317,-0.042516373097896576,-0.05754009634256363,-19.634502410888672,-5.83332633972168,2.3425605297088623,0.67,-0.15,-0.28,279.72
1666739820.49776697,1363575283,1,0.93,-0.35000000000000003,17.59,0.00941343791782856,-0.10834924131631851,-0.04290229454636574,-0.05756903439760208,-19.6345272064209,-5.8379716873168945,2.3416261672973633,0.67,-0.15,-0.28,279.72
1666739820.51771593,1363595232,1,0.93,-0.35000000000000003,17.59,0.008650556206703186,-0.10933712124824524,-0.04328073933720589,-0.057059526443481445,-19.634754180908203,-5.844807147979736,2.3406076431274414,0.67,-0.15,-0.28,279.72
1666739820.55771494,1363635231,1,0.93,-0.35000000000000003,17.59,0.008928392082452774,-0.110301673412323,-0.04330246150493622,-0.05583038181066513,-19.634946823120117,-5.855432987213135,2.338456869125366,0.67,-0.15,-0.28,279.72
1666739820.59775281,1363675269,1,0.9400000000000001,-0.35000000000000003,17.59,0.00859755091369152,-0.1117539331316948,-0.043099600821733475,-0.056184399873018265,-19.634315490722656,-5.86647367477417,2.336294174194336,0.67,-0.15,-0.28,279.72
1666739820.63776302,1363715279,1,0.93,-0.35000000000000003,17.59,0.009681958705186844,-0.11238908767700195,-0.04310058429837227,-0.05561491474509239,-19.631683349609375,-5.881310939788818,2.334212303161621,0.67,-0.15,-0.28,279.72
1666739820.67774391,1363755260,1,0.93,-0.35000000000000003,17.59,0.010725141502916813,-0.11391185224056244,-0.04308139532804489,-0.052549097687006,-19.629785537719727,-5.892505645751953,2.3323822021484375,0.67,-0.15,-0.28,279.72
1666739820.69771695,1363775233,1,0.93,-0.35000000000000003,17.59,0.011019092053174973,-0.11382658034563065,-0.04291955754160881,-0.05059955641627312,-19.629106521606445,-5.896721363067627,2.331519365310669,0.67,-0.15,-0.28,279.72
1666739820.71771789,1363795234,1,0.93,-0.35000000000000003,17.59,0.010818062350153923,-0.11434265971183777,-0.0427679643034935,-0.04868462681770325,-19.62799835205078,-5.9027557373046875,2.3306009769439697,0.67,-0.15,-0.28,279.72
1666739820.75771904,1363835235,1,0.93,-0.35000000000000003,17.59,0.011773780919611454,-0.11568368226289749,-0.04327235743403435,-0.04516451060771942,-19.626331329345703,-5.9122185707092285,2.3291003704071045,0.67,-0.15,-0.28,279.72
1666739820.79771280,1363875229,1,0.93,-0.35000000000000003,17.59,0.011952619068324566,-0.11594894528388977,-0.043340228497982025,-0.040053002536296844,-19.625099182128906,-5.921881675720215,2.327580451965332,0.67,-0.15,-0.28,279.72
1666739820.83772492,1363915241,1,0.93,-0.35000000000000003,17.59,0.01187940128147602,-0.1153109148144722,-0.04349590837955475,-0.03856435790657997,-19.624595642089844,-5.934106349945068,2.325932264328003,0.67,-0.15,-0.28,279.72
1666739820.87773204,1363955248,1,0.93,-0.35000000000000003,17.59,0.011323572136461735,-0.11562394350767136,-0.04369964078068733,-0.037312161177396774,-19.624099731445312,-5.943437099456787,2.3244192600250244,0.67,-0.15,-0.28,279.72
1666739820.89771891,1363975235,1,0.93,-0.35000000000000003,17.59,0.011620137840509415,-0.11619333177804947,-0.043787602335214615,-0.036740317940711975,-19.623851776123047,-5.9471611976623535,2.323615074157715,0.67,-0.15,-0.28,279.72
1666739820.91774988,1363995266,1,0.93,-0.35000000000000003,17.59,0.010899967513978481,-0.11611636728048325,-0.043770790100097656,-0.03622548282146454,-19.62358856201172,-5.952081680297852,2.3228747844696045,0.67,-0.15,-0.28,279.72
1666739820.95771885,1364035235,1,0.93,-0.35000000000000003,17.580000000000002,0.010937515646219254,-0.11609190702438354,-0.043771468102931976,-0.034891195595264435,-19.623090744018555,-5.960172176361084,2.3215019702911377,0.67,-0.15,-0.28,279.72
1666739820.99771500,1364075231,1,0.93,-0.35000000000000003,17.59,0.010376203805208206,-0.11602663993835449,-0.043919604271650314,-0.031354449689388275,-19.62186622619629,-5.968975067138672,2.32051682472229,0.67,-0.15,-0.28,279.72
1666739821.03769588,1364115212,1,0.9400000000000001,-0.35000000000000003,17.59,0.012227719649672508,-0.11662521213293076,-0.04335609823465347,-0.021688183769583702,-19.61867332458496,-5.981527805328369,2.320509910583496,0.67,-0.15,-0.28,279.72
1666739821.07772493,1364155241,1,0.9400000000000001,-0.35000000000000003,17.59,0.012431821785867214,-0.11645959317684174,-0.04343084618449211,-0.010824243538081646,-19.61638069152832,-5.991166114807129,2.3201777935028076,0.67,-0.15,-0.28,279.72
1666739821.09771490,1364175231,1,0.9400000000000001,-0.35000000000000003,17.59,0.0130689088255167,-0.1164839044213295,-0.04322722181677818,-0.006627511698752642,-19.615564346313477,-5.994968414306641,2.319748878479004,0.67,-0.15,-0.28,279.72
1666739821.11775684,1364195273,1,0.9400000000000001,-0.35000000000000003,17.59,0.013222402893006802,-0.11658823490142822,-0.04288702458143234,-0.0036294907331466675,-19.614234924316406,-6.000023365020752,2.3197131156921387,0.67,-0.15,-0.28,279.72
1666739821.15773892,1364235255,1,0.9400000000000001,-0.35000000000000003,17.59,0.013716383837163448,-0.11683566123247147,-0.04267077520489693,0.000757948262616992,-19.612232208251953,-6.008305549621582,2.31962251663208,0.67,-0.15,-0.28,279.72
1666739821.19771600,1364275232,1,0.9400000000000001,-0.35000000000000003,17.59,0.013756480999290943,-0.11738038063049316,-0.042123280465602875,0.007296957541257143,-19.61139488220215,-6.017365455627441,2.3198633193969727,0.67,-0.15,-0.28,279.72
1666739821.23771501,1364315231,1,0.9400000000000001,-0.35000000000000003,17.580000000000002,0.012442140839993954,-0.11775104701519012,-0.04161195084452629,0.01525590755045414,-19.613134384155273,-6.030210018157959,2.321136474609375,0.67,-0.15,-0.28,279.72
1666739821.27769494,1364355211,1,0.9400000000000001,-0.35000000000000003,17.580000000000002,0.010652142576873302,-0.1177697628736496,-0.041047751903533936,0.022424861788749695,-19.614118576049805,-6.040011882781982,2.3216166496276855,0.67,-0.15,-0.28,279.72
1666739821.29771280,1364375229,1,0.9400000000000001,-0.35000000000000003,17.580000000000002,0.010654519312083721,-0.11787306517362595,-0.04063653573393822,0.024043995887041092,-19.61435317993164,-6.043891429901123,2.321455955505371,0.67,-0.15,-0.28,279.72
1666739821.31773996,1364395256,1,0.9400000000000001,-0.35000000000000003,17.580000000000002,0.010213924571871758,-0.11802303045988083,-0.0400950163602829,0.02458149939775467,-19.6149845123291,-6.049067497253418,2.3218822479248047,0.67,-0.15,-0.28,279.72
1666739821.35772896,1364435245,1,0.9400000000000001,-0.35000000000000003,17.580000000000002,0.008801445364952087,-0.11824672669172287,-0.03940805047750473,0.019372794777154922,-19.61575698852539,-6.0574951171875,2.321556806564331,0.67,-0.15,-0.28,279.72
1666739821.39774585,1364475262,1,0.9400000000000001,-0.35000000000000003,17.580000000000002,0.008307485841214657,-0.11807308346033096,-0.03869601711630821,0.008275995962321758,-19.6156063079834,-6.066273212432861,2.321098804473877,0.67,-0.15,-0.28,279.72
1666739821.43771482,1364515231,1,0.9400000000000001,-0.35000000000000003,17.580000000000002,0.008390691131353378,-0.11718828231096268,-0.03766091912984848,0.0019179664086550474,-19.613494873046875,-6.077482223510742,2.321291446685791,0.67,-0.15,-0.28,279.72
1666739821.47771692,1364555233,1,0.9500000000000001,-0.35000000000000003,17.580000000000002,0.008101888932287693,-0.11680400371551514,-0.03708965703845024,-0.0033808613661676645,-19.61199378967285,-6.086184501647949,2.3208155632019043,0.67,-0.15,-0.28,279.72
1666739821.49774885,1364575265,1,0.9500000000000001,-0.35000000000000003,17.580000000000002,0.007917563430964947,-0.1168641746044159,-0.036831874400377274,-0.0058507840149104595,-19.611478805541992,-6.089660167694092,2.320406913757324,0.67,-0.15,-0.28,279.72
1666739821.51775193,1364595268,1,0.9500000000000001,-0.35000000000000003,17.580000000000002,0.008525016717612743,-0.11643540114164352,-0.036586251109838486,-0.008416108787059784,-19.610628128051758,-6.094239234924316,2.32025146484375,0.67,-0.15,-0.28,279.72
1666739821.55774689,1364635263,1,0.9500000000000001,-0.35000000000000003,17.57,0.0076132770627737045,-0.11621414870023727,-0.03536226227879524,-0.011790507473051548,-19.609363555908203,-6.10172700881958,2.3196873664855957,0.67,-0.15,-0.28,279.72
1666739821.59775591,1364675272,1,0.9500000000000001,-0.34,17.57,0.007832570932805538,-0.11554179340600967,-0.034715671092271805,-0.012900319881737232,-19.60845184326172,-6.109825134277344,2.3195066452026367,0.66,-0.15,-0.28,279.72
1666739821.63771391,1364715230,1,0.9500000000000001,-0.35000000000000003,17.57,0.006619925610721111,-0.11501330882310867,-0.03363657370209694,-0.003993179649114609,-19.60808563232422,-6.120882511138916,2.320356607437134,0.66,-0.15,-0.28,279.72
1666739821.67771387,1364755230,1,0.9500000000000001,-0.34,17.57,0.005995839834213257,-0.11451870948076248,-0.032886963337659836,-4.52273634437006e-05,-19.607755661010742,-6.129426002502441,2.3200759887695312,0.66,-0.15,-0.28,279.72
1666739821.69774604,1364775262,1,0.9500000000000001,-0.34,17.57,0.0056560044176876545,-0.11444970965385437,-0.03249184787273407,-0.0001911622821353376,-19.607616424560547,-6.1328864097595215,2.31974458694458,0.66,-0.15,-0.28,279.72
1666739821.71771789,1364795234,1,0.96,-0.34,17.57,0.005248701199889183,-0.11413352191448212,-0.0316799059510231,-0.0007760949083603919,-19.607460021972656,-6.137321949005127,2.3197131156921387,0.66,-0.15,-0.28,279.72
1666739821.75774598,1364835262,1,0.96,-0.35000000000000003,17.57,0.004327910486608744,-0.11357925832271576,-0.030889995396137238,-0.0020610857754945755,-19.607192993164062,-6.144660472869873,2.3196468353271484,0.66,-0.15,-0.28,279.72
1666739821.79773593,1364875252,1,0.96,-0.35000000000000003,17.56,0.004864426329731941,-0.11319197714328766,-0.03000769391655922,0.0009740217356011271,-19.606285095214844,-6.152335166931152,2.319950580596924,0.66,-0.15,-0.28,279.72
1666739821.83772802,1364915244,1,0.96,-0.35000000000000003,17.56,0.004930634051561356,-0.11128297448158264,-0.028680196031928062,0.009718711487948895,-19.603588104248047,-6.162237644195557,2.321302890777588,0.66,-0.15,-0.28,279.72
1666739821.87771583,1364955232,1,0.97,-0.35000000000000003,17.55,0.005675388965755701,-0.11041256785392761,-0.027269532904028893,0.0181364044547081,-19.60173988342285,-6.16995096206665,2.3219234943389893,0.66,-0.15,-0.28,279.72
1666739821.89775491,1364975271,1,0.97,-0.35000000000000003,17.55,0.005524353589862585,-0.11009324342012405,-0.02684435434639454,0.02032294124364853,-19.60112190246582,-6.173117637634277,2.321918487548828,0.66,-0.15,-0.28,279.72
1666739821.91771483,1364995231,1,0.97,-0.35000000000000003,17.55,0.0056451307609677315,-0.1099635437130928,-0.02634987235069275,0.021314017474651337,-19.60004997253418,-6.177076816558838,2.3223931789398193,0.66,-0.15,-0.28,279.72
1666739821.95771790,1365035234,1,0.97,-0.35000000000000003,17.55,0.00580257922410965,-0.1089562401175499,-0.02589300461113453,0.016720181331038475,-19.59850311279297,-6.18370246887207,2.322075128555298,0.66,-0.15,-0.28,279.72
1666739821.99776483,1365075281,1,0.97,-0.35000000000000003,17.55,0.005774874240159988,-0.10872763395309448,-0.02550576440989971,0.0034732413478195667,-19.59709358215332,-6.189888954162598,2.3213918209075928,0.66,-0.15,-0.28,279.72
1666739822.03772497,1365115241,1,0.97,-0.35000000000000003,17.55,0.006183253135532141,-0.10832761973142624,-0.024646442383527756,-0.0035027030389755964,-19.593536376953125,-6.202329158782959,2.3216307163238525,0.66,-0.15,-0.28,279.72
1666739822.07772398,1365155240,1,0.97,-0.35000000000000003,17.54,0.007096028886735439,-0.10820547491312027,-0.02395183965563774,-0.005828672554343939,-19.591100692749023,-6.211682319641113,2.3214046955108643,0.66,-0.15,-0.28,279.72
1666739822.09774184,1365175258,1,0.97,-0.35000000000000003,17.54,0.006843505892902613,-0.1080077514052391,-0.023842444643378258,-0.006822003982961178,-19.59029197692871,-6.2153472900390625,2.321159601211548,0.66,-0.15,-0.28,279.72
1666739822.11772299,1365195239,1,0.97,-0.35000000000000003,17.54,0.007142048794776201,-0.10783933848142624,-0.02341495081782341,-0.007448445539921522,-19.588882446289062,-6.220285415649414,2.321122646331787,0.66,-0.15,-0.28,279.72
1666739822.15771699,1365235233,1,0.97,-0.35000000000000003,17.54,0.007729890290647745,-0.10808337479829788,-0.023113440722227097,-0.010288138873875141,-19.586841583251953,-6.228249549865723,2.3205342292785645,0.66,-0.15,-0.28,279.72
1666739822.19774985,1365275266,1,0.97,-0.35000000000000003,17.54,0.007712602149695158,-0.10752931982278824,-0.022825688123703003,-0.015399984084069729,-19.584978103637695,-6.235654830932617,2.3198044300079346,0.66,-0.15,-0.28,279.72
1666739822.23775887,1365315275,1,0.97,-0.35000000000000003,17.54,0.008317255415022373,-0.10824022442102432,-0.02196972630918026,-0.01094395574182272,-19.581527709960938,-6.249593734741211,2.3204903602600098,0.66,-0.15,-0.28,279.72
1666739822.27776694,1365355283,1,0.97,-0.35000000000000003,17.54,0.008981959894299507,-0.10855686664581299,-0.02194236032664776,-0.005639173090457916,-19.579147338867188,-6.2599873542785645,2.3204004764556885,0.66,-0.15,-0.28,279.72
1666739822.29769588,1365375212,1,0.97,-0.35000000000000003,17.54,0.009342028759419918,-0.10899820923805237,-0.021614449098706245,-0.0038240551948547363,-19.578330993652344,-6.264035224914551,2.320199489593506,0.66,-0.15,-0.28,279.72
1666739822.31772184,1365395238,1,0.97,-0.35000000000000003,17.54,0.009466120041906834,-0.10938791930675507,-0.021426111459732056,-0.0029463586397469044,-19.576953887939453,-6.269664764404297,2.3202202320098877,0.66,-0.15,-0.28,279.72
1666739822.35771990,1365435236,1,0.97,-0.35000000000000003,17.54,0.010446442291140556,-0.10991277545690536,-0.021123293787240982,-0.0018900439608842134,-19.57494354248047,-6.278487205505371,2.3201725482940674,0.66,-0.15,-0.28,279.72
1666739822.39769101,1365475207,1,0.97,-0.35000000000000003,17.53,0.010308511555194855,-0.11045557260513306,-0.021203752607107162,-0.0009781195549294353,-19.57309341430664,-6.286745071411133,2.3201160430908203,0.66,-0.15,-0.28,279.72
1666739822.43774390,1365515260,1,0.97,-0.35000000000000003,17.53,0.01089012436568737,-0.10909383744001389,-0.020831886678934097,-0.0007269576890394092,-19.571496963500977,-6.297449111938477,2.320368766784668,0.66,-0.15,-0.28,279.72
1666739822.47774982,1365555266,1,0.97,-0.36,17.53,0.010744179598987103,-0.10858616977930069,-0.02075241692364216,0.002108581829816103,-19.570314407348633,-6.305749416351318,2.3205602169036865,0.66,-0.15,-0.28,279.72
1666739822.49771500,1365575231,1,0.97,-0.36,17.53,0.010680215433239937,-0.10820437967777252,-0.02051362954080105,0.003665334777906537,-19.569875717163086,-6.3090739250183105,2.3204641342163086,0.66,-0.15,-0.28,279.72
1666739822.51774597,1365595262,1,0.97,-0.36,17.53,0.010391762480139732,-0.1075097844004631,-0.020456116646528244,0.004533007275313139,-19.56924057006836,-6.313357830047607,2.3206467628479004,0.66,-0.15,-0.28,279.72
1666739822.55771494,1365635231,1,0.98,-0.36,17.52,0.010032362304627895,-0.10716082155704498,-0.019967734813690186,0.006252995692193508,-19.568269729614258,-6.320451736450195,2.3208696842193604,0.66,-0.15,-0.28,279.72
1666739822.59771895,1365675235,1,0.98,-0.36,17.52,0.0102659547701478,-0.1067148894071579,-0.01973637379705906,0.008153164759278297,-19.566877365112305,-6.328314304351807,2.321113348007202,0.66,-0.15,-0.28,279.72
1666739822.63770795,1365715224,1,0.98,-0.36,17.52,0.01024831272661686,-0.10577022284269333,-0.019781120121479034,0.008015086874365807,-19.56410789489746,-6.339809894561768,2.3216073513031006,0.66,-0.15,-0.28,279.72
1666739822.67774701,1365755263,1,0.98,-0.36,17.52,0.010077904909849167,-0.10539086163043976,-0.019885409623384476,0.008400646969676018,-19.56217384338379,-6.348571300506592,2.321821451187134,0.66,-0.15,-0.28,279.72
1666739822.69771290,1365775229,1,0.98,-0.36,17.52,0.010236541740596294,-0.10514618456363678,-0.01977667771279812,0.008430542424321175,-19.56151008605957,-6.35201358795166,2.3217341899871826,0.66,-0.15,-0.28,279.72
1666739822.71772695,1365795243,1,0.98,-0.36,17.52,0.01051937136799097,-0.10439913719892502,-0.019386474043130875,0.008359760046005249,-19.560434341430664,-6.356575012207031,2.321920871734619,0.66,-0.15,-0.28,279.72
1666739822.75775695,1365835273,1,0.98,-0.36,17.52,0.010335744358599186,-0.10453228652477264,-0.0193554125726223,0.006661309860646725,-19.558856964111328,-6.36396598815918,2.3219916820526123,0.66,-0.15,-0.28,279.72
1666739822.79772592,1365875242,1,0.98,-0.36,17.52,0.010745078325271606,-0.10406093299388885,-0.01918438822031021,0.004424791783094406,-19.556880950927734,-6.372777938842773,2.321922540664673,0.66,-0.15,-0.28,279.72
1666739822.83771992,1365915236,1,0.98,-0.36,17.52,0.011128602549433708,-0.10452169179916382,-0.0190279483795166,9.51068359427154e-05,-19.55339813232422,-6.386678695678711,2.3216261863708496,0.66,-0.15,-0.28,279.72
1666739822.87771702,1365955233,1,0.98,-0.36,17.52,0.011179805733263493,-0.10500545799732208,-0.0192690622061491,-0.008877829648554325,-19.550981521606445,-6.396987438201904,2.3207809925079346,0.66,-0.15,-0.28,279.72
1666739822.89772797,1365975244,1,0.98,-0.36,17.52,0.011565785855054855,-0.10568208992481232,-0.01943206787109375,-0.013615097850561142,-19.550155639648438,-6.400939464569092,2.3203673362731934,0.66,-0.15,-0.28,279.72
1666739822.91774487,1365995261,1,0.98,-0.36,17.52,0.012464489787817001,-0.10568259656429291,-0.01938484236598015,-0.017563248053193092,-19.548789978027344,-6.406480312347412,2.3199260234832764,0.66,-0.15,-0.28,279.72
1666739822.95775580,1366035272,1,0.98,-0.36,17.51,0.01248837634921074,-0.1060689315199852,-0.019836269319057465,-0.022552788257598877,-19.546768188476562,-6.415289402008057,2.319300413131714,0.66,-0.15,-0.28,279.72
1666739822.99774504,1366075261,1,0.98,-0.36,17.52,0.013476137071847916,-0.10671678185462952,-0.01970624178647995,-0.021959928795695305,-19.544918060302734,-6.42343282699585,2.318753242492676,0.66,-0.15,-0.28,279.72
1666739823.03771091,1366115227,1,0.98,-0.36,17.52,0.014758611097931862,-0.10732287168502808,-0.01963423378765583,-0.017112843692302704,-19.539226531982422,-6.4382829666137695,2.318514108657837,0.66,-0.15,-0.28,279.72
1666739823.07771897,1366155235,1,0.98,-0.36,17.52,0.015916286036372185,-0.1078575849533081,-0.020020518451929092,-0.01941961795091629,-19.535289764404297,-6.449265956878662,2.317401885986328,0.66,-0.15,-0.28,279.72
1666739823.09774399,1366175260,1,0.98,-0.36,17.52,0.01597747392952442,-0.10820257663726807,-0.020191652700304985,-0.022201744839549065,-19.533946990966797,-6.453489303588867,2.3168933391571045,0.66,-0.15,-0.28,279.72
1666739823.11774683,1366195263,1,0.99,-0.36,17.52,0.0165388323366642,-0.10842133313417435,-0.02013394609093666,-0.02465738169848919,-19.531719207763672,-6.459354877471924,2.3163132667541504,0.66,-0.15,-0.28,279.72
1666739823.15773487,1366235251,1,0.99,-0.36,17.53,0.016964510083198547,-0.10894570499658585,-0.020010853186249733,-0.028123779222369194,-19.52845573425293,-6.468669414520264,2.3152875900268555,0.66,-0.15,-0.28,279.72
1666739823.19775295,1366275269,1,0.99,-0.37,17.53,0.018580419942736626,-0.10926352441310883,-0.02027188241481781,-0.028796885162591934,-19.52480697631836,-6.478660583496094,2.314516544342041,0.66,-0.15,-0.28,279.72
1666739823.23773599,1366315252,1,0.99,-0.37,17.53,0.0196415763348341,-0.10925176739692688,-0.019882839173078537,-0.022382868453860283,-19.51907730102539,-6.492447853088379,2.314406633377075,0.66,-0.15,-0.28,279.72
1666739823.27771187,1366355228,1,0.99,-0.37,17.53,0.020683228969573975,-0.11002156883478165,-0.020231453701853752,-0.014214686118066311,-19.515056610107422,-6.502754211425781,2.314232587814331,0.66,-0.15,-0.28,279.72
1666739823.29769897,1366375215,1,0.99,-0.37,17.53,0.021296894177794456,-0.11011209338903427,-0.020717693492770195,-0.011087273247539997,-19.513652801513672,-6.506736755371094,2.3140177726745605,0.66,-0.15,-0.28,279.72
1666739823.31771684,1366395233,1,0.99,-0.37,17.53,0.02194754220545292,-0.10961489379405975,-0.02029380574822426,-0.007827100344002247,-19.511369705200195,-6.512235641479492,2.3139688968658447,0.66,-0.15,-0.28,279.72
1666739823.35774302,1366435259,1,0.99,-0.37,17.53,0.02260163053870201,-0.10993682593107224,-0.020077984780073166,-0.005179480649530888,-19.507991790771484,-6.520977020263672,2.3135201930999756,0.66,-0.15,-0.28,279.72
1666739823.39775991,1366475276,1,0.99,-0.37,17.53,0.023133685812354088,-0.10953672230243683,-0.019998233765363693,-0.00567478546872735,-19.504125595092773,-6.530454158782959,2.3131535053253174,0.66,-0.15,-0.28,279.72
1666739823.43775892,1366515275,1,0.99,-0.37,17.53,0.024944763630628586,-0.10964474827051163,-0.019986361265182495,-0.0036157197318971157,-19.497983932495117,-6.543851375579834,2.3133161067962646,0.66,-0.15,-0.28,279.72
1666739823.47771192,1366555228,1,1.0,-0.37,17.54,0.025063196197152138,-0.10958035290241241,-0.0200033001601696,-0.0011224752524867654,-19.493629455566406,-6.553934574127197,2.3131678104400635,0.66,-0.15,-0.28,279.72
1666739823.49775887,1366575275,1,1.0,-0.37,17.54,0.02572641149163246,-0.10989916324615479,-0.020126137882471085,-0.00062414666172117,-19.492101669311523,-6.557823657989502,2.312969923019409,0.66,-0.15,-0.28,279.72
1666739823.51771593,1366595232,1,1.0,-0.37,17.54,0.026372065767645836,-0.1093139722943306,-0.020107772201299667,-0.0004932089359499514,-19.489662170410156,-6.563159465789795,2.3129467964172363,0.66,-0.15,-0.28,279.72
1666739823.55772185,1366635238,1,1.0,-0.37,17.54,0.02670508250594139,-0.10969887673854828,-0.020292194560170174,-0.00034297897946089506,-19.48602294921875,-6.571665287017822,2.312898874282837,0.66,-0.15,-0.28,279.72
1666739823.59771800,1366675234,1,1.0,-0.37,17.55,0.027942480519413948,-0.10970763862133026,-0.020341781899333,0.0014932865742594004,-19.482149124145508,-6.581495761871338,2.3129308223724365,0.66,-0.15,-0.28,279.72
1666739823.63774681,1366715263,1,1.0,-0.38,17.55,0.028891386464238167,-0.11038868129253387,-0.019778287038207054,0.004091802518814802,-19.476686477661133,-6.596433639526367,2.313269853591919,0.66,-0.15,-0.28,279.72
1666739823.67775583,1366755272,1,1.0,-0.38,17.56,0.029212001711130142,-0.11040013283491135,-0.019648291170597076,0.004255354404449463,-19.472721099853516,-6.607582092285156,2.313147783279419,0.66,-0.15,-0.28,279.72
1666739823.69774294,1366775259,1,1.0,-0.38,17.56,0.02924051508307457,-0.11067987978458405,-0.019346993416547775,0.003735802136361599,-19.47129249572754,-6.6118059158325195,2.3129634857177734,0.66,-0.15,-0.28,279.72
1666739823.71771383,1366795230,1,1.0,-0.38,17.56,0.029692810028791428,-0.11058641970157623,-0.019141362980008125,0.0027305339463055134,-19.46910858154297,-6.6178107261657715,2.3129565715789795,0.66,-0.15,-0.28,279.72
1666739823.75771499,1366835231,1,1.0,-0.38,17.56,0.03008722886443138,-0.11065193265676498,-0.01862994208931923,0.002287214854732156,-19.465818405151367,-6.627141952514648,2.3131182193756104,0.66,-0.15,-0.28,279.72
1666739823.79769492,1366875211,1,1.01,-0.37,17.57,0.030891964212059975,-0.11080504953861237,-0.018462637439370155,0.00572521798312664,-19.461782455444336,-6.6372270584106445,2.3135569095611572,0.66,-0.15,-0.28,279.72
1666739823.83774400,1366915260,1,1.01,-0.37,17.57,0.03196507319808006,-0.11049670726060867,-0.017737070098519325,0.012835463508963585,-19.454919815063477,-6.651427268981934,2.314509868621826,0.66,-0.15,-0.28,279.72
1666739823.87775898,1366955275,1,1.01,-0.37,17.57,0.033131349831819534,-0.11048717796802521,-0.017491482198238373,0.013681435957551003,-19.450035095214844,-6.661916255950928,2.3145663738250732,0.66,-0.15,-0.28,279.72
1666739823.89770794,1366975224,1,1.01,-0.37,17.57,0.03322867304086685,-0.11053626984357834,-0.017796169966459274,0.01177564263343811,-19.448266983032227,-6.666013240814209,2.3144352436065674,0.66,-0.15,-0.28,279.72
1666739823.91773081,1366995247,1,1.01,-0.37,17.57,0.03394605591893196,-0.11060958355665207,-0.017259769141674042,0.01016275119036436,-19.4455623626709,-6.671591758728027,2.3145222663879395,0.66,-0.15,-0.28,279.72
1666739823.95771289,1367035229,1,1.01,-0.37,17.57,0.033978234976530075,-0.11062361299991608,-0.016912326216697693,0.007587227504700422,-19.441438674926758,-6.68057107925415,2.3148040771484375,0.66,-0.15,-0.29,279.72
1666739823.99771690,1367075233,1,1.01,-0.37,17.57,0.035112109035253525,-0.11094678938388824,-0.016734804958105087,0.008434637449681759,-19.436620712280273,-6.6906418800354,2.315098285675049,0.66,-0.15,-0.28,279.72
1666739824.03775001,1367115266,1,1.01,-0.38,17.57,0.03605416417121887,-0.11137296259403229,-0.01641230285167694,0.007254580035805702,-19.42873764038086,-6.705780506134033,2.3156704902648926,0.66,-0.15,-0.29,279.72
1666739824.07775187,1367155268,1,1.01,-0.38,17.580000000000002,0.03748873993754387,-0.11158544570207596,-0.01613280549645424,0.011447281576693058,-19.423110961914062,-6.716979503631592,2.3164076805114746,0.66,-0.15,-0.29,279.72
1666739824.09771490,1367175231,1,1.01,-0.38,17.580000000000002,0.03707243129611015,-0.11173737049102783,-0.015753839164972305,0.014356188476085663,-19.42108154296875,-6.7212934494018555,2.3165035247802734,0.66,-0.15,-0.29,279.72
1666739824.11775994,1367195276,1,1.01,-0.38,17.580000000000002,0.03803304210305214,-0.1116972491145134,-0.01571282185614109,0.01620985008776188,-19.417957305908203,-6.72730827331543,2.3169782161712646,0.66,-0.15,-0.29,279.72
1666739824.15771699,1367235233,1,1.01,-0.38,17.580000000000002,0.03854697570204735,-0.11194242537021637,-0.01575666293501854,0.015772929415106773,-19.413211822509766,-6.736822128295898,2.3171398639678955,0.66,-0.15,-0.29,279.72
1666739824.19771194,1367275228,1,1.02,-0.38,17.580000000000002,0.03980834037065506,-0.11212991178035736,-0.015832453966140747,0.010088270530104637,-19.408876419067383,-6.745553493499756,2.317077398300171,0.66,-0.15,-0.29,279.72
1666739824.23771787,1367315234,1,1.02,-0.38,17.59,0.04067789763212204,-0.11128576099872589,-0.015737535431981087,0.006135211326181889,-19.40005111694336,-6.758827209472656,2.317328929901123,0.66,-0.15,-0.29,279.72
1666739824.27773285,1367355249,1,1.02,-0.39,17.59,0.04266941547393799,-0.11059439182281494,-0.01571587286889553,-0.0006341035477817059,-19.393733978271484,-6.768824100494385,2.3168513774871826,0.66,-0.15,-0.28,279.72
1666739824.29771495,1367375231,1,1.02,-0.39,17.59,0.04263584315776825,-0.11066135764122009,-0.015892740339040756,-0.004627230577170849,-19.391469955444336,-6.772685527801514,2.3165833950042725,0.66,-0.15,-0.29,279.72
1666739824.31773591,1367395252,1,1.02,-0.39,17.59,0.043269604444503784,-0.11027868092060089,-0.015965990722179413,-0.008184828795492649,-19.387964248657227,-6.777945518493652,2.3163511753082275,0.66,-0.15,-0.28,279.72
1666739824.35776997,1367435286,1,1.02,-0.39,17.59,0.044666651636362076,-0.11020275205373764,-0.015955287963151932,-0.013122825883328915,-19.38262176513672,-6.786396503448486,2.315906047821045,0.66,-0.15,-0.28,279.72
1666739824.39773083,1367475247,1,1.02,-0.39,17.59,0.04561653733253479,-0.10991794615983963,-0.015720169991254807,-0.014460672624409199,-19.3768253326416,-6.795299530029297,2.3155863285064697,0.66,-0.15,-0.28,279.72
1666739824.43772101,1367515237,1,1.03,-0.39,17.59,0.04714471101760864,-0.10835000872612,-0.01579621247947216,-0.012509592808783054,-19.36824607849121,-6.807285308837891,2.3156015872955322,0.66,-0.15,-0.28,279.72
1666739824.47771382,1367555230,1,1.03,-0.4,17.580000000000002,0.048481285572052,-0.10736191272735596,-0.016090160235762596,-0.009717002511024475,-19.362043380737305,-6.816334247589111,2.3154306411743164,0.66,-0.15,-0.28,279.72
1666739824.49771380,1367575230,1,1.03,-0.4,17.580000000000002,0.048567596822977066,-0.10695262998342514,-0.016081735491752625,-0.008486028760671616,-19.359764099121094,-6.819886207580566,2.315249443054199,0.66,-0.15,-0.28,279.72
1666739824.51774287,1367595259,1,1.03,-0.4,17.580000000000002,0.0491379015147686,-0.10636258125305176,-0.016219710931181908,-0.007785644847899675,-19.356338500976562,-6.824610233306885,2.3151888847351074,0.66,-0.15,-0.28,279.72
1666739824.55772591,1367635242,1,1.03,-0.4,17.580000000000002,0.05083642899990082,-0.10571670532226562,-0.016592515632510185,-0.008069896139204502,-19.351037979125977,-6.832270622253418,2.3147709369659424,0.66,-0.15,-0.29,279.72
1666739824.59776187,1367675278,1,1.03,-0.4,17.580000000000002,0.05146396532654762,-0.10469631105661392,-0.016765570268034935,-0.008550341241061687,-19.345001220703125,-6.839996337890625,2.3146891593933105,0.66,-0.15,-0.29,279.72
1666739824.63771582,1367715232,1,1.04,-0.4,17.580000000000002,0.053516652435064316,-0.10240340232849121,-0.016453413292765617,0.00046195671893656254,-19.33544921875,-6.849825382232666,2.3157572746276855,0.66,-0.15,-0.28,279.72
1666739824.67771697,1367755233,1,1.04,-0.4,17.580000000000002,0.05434349179267883,-0.10090360790491104,-0.01611892133951187,0.010452409274876118,-19.328550338745117,-6.857314109802246,2.3163161277770996,0.66,-0.15,-0.28,279.72
1666739824.69775200,1367775268,1,1.04,-0.4,17.580000000000002,0.05499278008937836,-0.1003628596663475,-0.01584836095571518,0.013966001570224762,-19.32603645324707,-6.860287189483643,2.3163747787475586,0.66,-0.15,-0.28,279.72
1666739824.71772981,1367795246,1,1.04,-0.4,17.580000000000002,0.05527728423476219,-0.09958213567733765,-0.015509837307035923,0.016469618305563927,-19.322208404541016,-6.864160537719727,2.3167505264282227,0.66,-0.15,-0.29,279.72
1666739824.75776601,1367835282,1,1.04,-0.41000000000000003,17.580000000000002,0.05633325129747391,-0.09885150194168091,-0.015013226307928562,0.019049588590860367,-19.316362380981445,-6.870454788208008,2.317307472229004,0.66,-0.15,-0.28,279.72
1666739824.79773903,1367875255,1,1.05,-0.41000000000000003,17.57,0.05679445341229439,-0.09783931821584702,-0.014483122155070305,0.022769862785935402,-19.310503005981445,-6.8778300285339355,2.3183860778808594,0.66,-0.15,-0.28,279.72
1666739824.83772397,1367915240,1,1.05,-0.41000000000000003,17.57,0.057681359350681305,-0.09685935825109482,-0.01329707819968462,0.036296989768743515,-19.30305290222168,-6.889273166656494,2.3210608959198,0.66,-0.15,-0.28,279.72
1666739824.87771487,1367955231,1,1.05,-0.41000000000000003,17.57,0.05849883705377579,-0.09561702609062195,-0.01264785137027502,0.04742330312728882,-19.2974910736084,-6.897778034210205,2.3226587772369385,0.66,-0.15,-0.28,279.72
1666739824.89772797,1367975244,1,1.05,-0.41000000000000003,17.57,0.058880988508462906,-0.09566843509674072,-0.012194543145596981,0.050380900502204895,-19.295339584350586,-6.901078701019287,2.3230628967285156,0.66,-0.15,-0.28,279.72
1666739824.91771698,1367995233,1,1.05,-0.41000000000000003,17.57,0.058995217084884644,-0.09494888782501221,-0.012047314085066319,0.05149379000067711,-19.292348861694336,-6.90553617477417,2.324042558670044,0.66,-0.15,-0.28,279.72
1666739824.95774889,1368035265,1,1.05,-0.41000000000000003,17.57,0.05918416380882263,-0.09374960511922836,-0.011890052817761898,0.048822544515132904,-19.2876033782959,-6.912631988525391,2.325204849243164,0.66,-0.15,-0.29,279.72
1666739824.99775195,1368075268,1,1.05,-0.41000000000000003,17.57,0.05910143256187439,-0.09298375993967056,-0.011842992156744003,0.04229336231946945,-19.283191680908203,-6.919175148010254,2.3261678218841553,0.66,-0.15,-0.28,279.72
1666739825.03773689,1368115253,1,1.06,-0.41000000000000003,17.57,0.05996650084853172,-0.0896727666258812,-0.011314423754811287,0.03795903921127319,-19.275373458862305,-6.927711486816406,2.3279898166656494,0.66,-0.15,-0.29,279.72
1666739825.07771683,1368155233,1,1.06,-0.41000000000000003,17.57,0.05978507548570633,-0.08772339671850204,-0.011114691384136677,0.036070436239242554,-19.2695369720459,-6.934263706207275,2.3291335105895996,0.66,-0.15,-0.29,279.72
1666739825.09774184,1368175258,1,1.06,-0.41000000000000003,17.57,0.060581449419260025,-0.08700808137655258,-0.010896807536482811,0.03490579128265381,-19.26730728149414,-6.9368743896484375,2.3294029235839844,0.66,-0.15,-0.29,279.72
1666739825.11771488,1368195231,1,1.06,-0.41000000000000003,17.580000000000002,0.06043434143066406,-0.0859852284193039,-0.010678226128220558,0.033427026122808456,-19.264188766479492,-6.9401702880859375,2.330103874206543,0.66,-0.15,-0.29,279.72
1666739825.15771198,1368235228,1,1.06,-0.41000000000000003,17.580000000000002,0.06052448973059654,-0.08485793322324753,-0.010488532483577728,0.028638554736971855,-19.259267807006836,-6.945566177368164,2.33079195022583,0.66,-0.15,-0.29,279.72
1666739825.19774294,1368275259,1,1.06,-0.41000000000000003,17.580000000000002,0.061024345457553864,-0.08367229253053665,-0.01003437489271164,0.022015495225787163,-19.254688262939453,-6.950527667999268,2.3312981128692627,0.66,-0.15,-0.29,279.72
1666739825.23773003,1368315246,1,1.07,-0.41000000000000003,17.580000000000002,0.060913462191820145,-0.08250341564416885,-0.01070537231862545,0.011032510548830032,-19.248252868652344,-6.96157693862915,2.331150531768799,0.66,-0.15,-0.28,279.72
1666739825.27774882,1368355265,1,1.07,-0.41000000000000003,17.580000000000002,0.060980215668678284,-0.08165419846773148,-0.010671558789908886,-0.0030905362218618393,-19.243366241455078,-6.969646453857422,2.3305106163024902,0.66,-0.15,-0.28,279.72
1666739825.29776192,1368375278,1,1.07,-0.41000000000000003,17.580000000000002,0.060559116303920746,-0.08131705969572067,-0.010731356218457222,-0.009647225961089134,-19.241426467895508,-6.972705364227295,2.3302299976348877,0.66,-0.15,-0.28,279.72
1666739825.31769800,1368395214,1,1.07,-0.41000000000000003,17.580000000000002,0.06065414845943451,-0.08086681365966797,-0.010533283464610577,-0.014935998246073723,-19.238853454589844,-6.9770026206970215,2.3298826217651367,0.66,-0.15,-0.28,279.72
1666739825.35771894,1368435235,1,1.07,-0.41000000000000003,17.57,0.06006193161010742,-0.08056376874446869,-0.011016381904482841,-0.02363879792392254,-19.234743118286133,-6.983644008636475,2.3290324211120605,0.66,-0.15,-0.28,279.72
1666739825.39772582,1368475242,1,1.07,-0.4,17.57,0.05990493297576904,-0.07942003756761551,-0.011160395108163357,-0.030055789276957512,-19.230327606201172,-6.9907941818237305,2.3281707763671875,0.66,-0.15,-0.28,279.72
1666739825.43775392,1368515270,1,1.08,-0.4,17.57,0.05857985094189644,-0.07838758826255798,-0.011145146563649178,-0.03098224103450775,-19.224363327026367,-7.00079870223999,2.3276429176330566,0.66,-0.15,-0.29,279.72
1666739825.47773385,1368555250,1,1.08,-0.4,17.56,0.0590534470975399,-0.07705970108509064,-0.011555532924830914,-0.024648843333125114,-19.21980857849121,-7.0081682205200195,2.327566146850586,0.66,-0.15,-0.29,279.72
1666739825.49772000,1368575236,1,1.08,-0.4,17.56,0.058165475726127625,-0.07697785645723343,-0.011603245511651039,-0.020283866673707962,-19.21796417236328,-7.011013031005859,2.327441692352295,0.66,-0.15,-0.29,279.72
1666739825.51773596,1368595252,1,1.08,-0.4,17.56,0.058229751884937286,-0.07643664628267288,-0.011725975200533867,-0.01639316789805889,-19.215599060058594,-7.014926910400391,2.327406883239746,0.66,-0.15,-0.28,279.72
1666739825.55771589,1368635232,1,1.08,-0.4,17.56,0.058102354407310486,-0.07560493052005768,-0.01167844794690609,-0.0074388980865478516,-19.211782455444336,-7.020988464355469,2.3278448581695557,0.66,-0.15,-0.29,279.72
1666739825.59771585,1368675232,1,1.08,-0.4,17.56,0.05795948952436447,-0.0746617540717125,-0.011974326334893703,0.004602693021297455,-19.208234786987305,-7.02657413482666,2.3284506797790527,0.66,-0.15,-0.29,279.72
1666739825.63772893,1368715245,1,1.09,-0.4,17.56,0.05964791774749756,-0.07351794093847275,-0.011875185184180737,0.014825659804046154,-19.196969985961914,-7.036281108856201,2.329252243041992,0.66,-0.15,-0.29,279.72
1666739825.67776585,1368755282,1,1.09,-0.4,17.57,0.06132163852453232,-0.07244028896093369,-0.012220208533108234,0.012639450840651989,-19.188892364501953,-7.043395042419434,2.3288791179656982,0.66,-0.15,-0.29,279.72
1666739825.69771481,1368775231,1,1.09,-0.4,17.56,0.061629295349121094,-0.07216011732816696,-0.011915872804820538,0.009152905084192753,-19.185914993286133,-7.046123504638672,2.3286643028259277,0.66,-0.15,-0.29,279.72
1666739825.71775389,1368795270,1,1.09,-0.4,17.56,0.0623633936047554,-0.07155122607946396,-0.012021482922136784,0.005046690348535776,-19.181489944458008,-7.049838066101074,2.3284852504730225,0.66,-0.15,-0.29,279.72
1666739825.75772691,1368835243,1,1.09,-0.41000000000000003,17.56,0.06359117478132248,-0.0702095702290535,-0.012089142575860023,-0.0036579561419785023,-19.174623489379883,-7.055748462677002,2.327847957611084,0.66,-0.15,-0.29,279.72
1666739825.79771185,1368875228,1,1.09,-0.41000000000000003,17.56,0.06483402103185654,-0.0695314109325409,-0.0120552284643054,-0.011945907026529312,-19.168357849121094,-7.061049461364746,2.3271307945251465,0.66,-0.15,-0.29,279.72
1666739825.83772397,1368915240,1,1.09,-0.41000000000000003,17.56,0.0661100521683693,-0.07034198194742203,-0.011776295490562916,-0.007173940539360046,-19.157087326049805,-7.074273586273193,2.328453302383423,0.66,-0.15,-0.28,279.72
1666739825.87775803,1368955274,1,1.08,-0.41000000000000003,17.56,0.06779900193214417,-0.07059350609779358,-0.01117872167378664,0.008282335475087166,-19.148910522460938,-7.083699703216553,2.329515218734741,0.66,-0.15,-0.28,279.72
