timestamp,TimeUS,C,Q1,Q2,Q3,Q4
1666739817.03773189,1360115248,1,0.9882088899612427,0.008406257256865501,-0.0023430222645401955,0.15286295115947723
1666739817.07771587,1360155232,1,0.9882067441940308,0.0084221251308918,-0.002331217285245657,0.15287591516971588
1666739817.09771490,1360175231,1,0.9882069230079651,0.008430581539869308,-0.002342598745599389,0.15287435054779053
1666739817.11771894,1360195235,1,0.9882051944732666,0.008424236439168453,-0.0023325856309384108,0.15288570523262024
1666739817.15775204,1360235268,1,0.9882051944732666,0.00842523854225874,-0.0023353334981948137,0.15288576483726501
1666739817.19772482,1360275241,1,0.9882022738456726,0.008441908285021782,-0.0023127691820263863,0.15290413796901703
1666739817.23775887,1360315275,1,0.988197922706604,0.00843722466379404,-0.002293110592290759,0.15293268859386444
1666739817.27771401,1360355230,1,0.9881933927536011,0.008450577966868877,-0.002265662420541048,0.1529615819454193
1666739817.29774284,1360375259,1,0.9881944060325623,0.008447352796792984,-0.0022591797169297934,0.15295542776584625
1666739817.31771493,1360395231,1,0.9881933927536011,0.00845021940767765,-0.002258959924802184,0.15296174585819244
1666739817.35771489,1360435231,1,0.9881909489631653,0.008465288206934929,-0.002242797752842307,0.1529770940542221
1666739817.39774489,1360475261,1,0.9881888031959534,0.00847060140222311,-0.002241329522803426,0.15299062430858612
1666739817.43773198,1360515248,1,0.988187313079834,0.008478309959173203,-0.0022405432537198067,0.15299975872039795
1666739817.47774291,1360555259,1,0.9881847500801086,0.00849298108369112,-0.002243991009891033,0.153015598654747
1666739817.49776602,1360575282,1,0.9881828427314758,0.008505027741193771,-0.002230254467576742,0.15302728116512299
1666739817.51771402,1360595230,1,0.9881847500801086,0.008514480665326118,-0.0022332370281219482,0.15301434695720673
1666739817.55771804,1360635234,1,0.9881786704063416,0.008516056463122368,-0.0022364454343914986,0.1530536264181137
1666739817.59777403,1360675290,1,0.988175094127655,0.008524913340806961,-0.0022418727166950703,0.15307588875293732
1666739817.63774085,1360715257,1,0.9881739020347595,0.008552169427275658,-0.002231982536613941,0.1530822515487671
1666739817.67775702,1360755273,1,0.988169252872467,0.008566566742956638,-0.002220604568719864,0.15311190485954285
1666739817.69771290,1360775229,1,0.988167941570282,0.008574828505516052,-0.0022062656935304403,0.15312013030052185
1666739817.71773386,1360795250,1,0.9881669282913208,0.008574182167649269,-0.0021697666961699724,0.15312688052654266
1666739817.75771284,1360835229,1,0.9881672263145447,0.00858744140714407,-0.002165077952668071,0.15312442183494568
1666739817.79771495,1360875231,1,0.9881700277328491,0.008593203499913216,-0.0021433020010590553,0.15310628712177277
1666739817.83769703,1360915213,1,0.9881689548492432,0.00859459862112999,-0.002134546171873808,0.15311332046985626
1666739817.87774992,1360955266,1,0.9881723523139954,0.008592596277594566,-0.0021272858139127493,0.15309152007102966
1666739817.89771795,1360975234,1,0.9881716966629028,0.008595413528382778,-0.002121665282174945,0.1530958116054535
1666739817.91774797,1360995264,1,0.9881716966629028,0.008591355755925179,-0.0021168182138353586,0.153096005320549
1666739817.95771503,1361035231,1,0.9881715774536133,0.008591922000050545,-0.0021293112076818943,0.1530967503786087
1666739817.99771190,1361075228,1,0.9881673455238342,0.008563067764043808,-0.0021387790329754353,0.15312547981739044
1666739818.03771782,1361115234,1,0.988166332244873,0.008548459969460964,-0.0021290762815624475,0.15313293039798737
1666739818.07774401,1361155260,1,0.9881603121757507,0.008551113307476044,-0.00212355749681592,0.15317180752754211
1666739818.09771299,1361175229,1,0.9881584644317627,0.008547531440854073,-0.0021141611505299807,0.15318383276462555
1666739818.11775994,1361195276,1,0.9881567358970642,0.008539440110325813,-0.002111605368554592,0.15319547057151794
1666739818.15773201,1361235248,1,0.9881518483161926,0.008536138571798801,-0.0021199972834438086,0.15322716534137726
1666739818.19771385,1361275230,1,0.9881466627120972,0.00851639173924923,-0.002116064541041851,0.15326188504695892
1666739818.23771381,1361315230,1,0.9881400465965271,0.008519490249454975,-0.002137362491339445,0.15330389142036438
1666739818.27771282,1361355229,1,0.9881411790847778,0.008516541682183743,-0.002140905475243926,0.15329687297344208
1666739818.29772902,1361375245,1,0.9881418347358704,0.008516550064086914,-0.002135366201400757,0.15329255163669586
1666739818.31775904,1361395275,1,0.9881430268287659,0.008518978022038937,-0.0021458708215504885,0.15328462421894073
1666739818.35773301,1361435249,1,0.9881442785263062,0.00851810909807682,-0.002142097568139434,0.15327665209770203
1666739818.39774299,1361475259,1,0.9881485104560852,0.008512300439178944,-0.002149774692952633,0.15324947237968445
1666739818.43771386,1361515230,1,0.9881526231765747,0.008518495596945286,-0.002159680472686887,0.15322245657444
1666739818.47772884,1361555245,1,0.9881511330604553,0.008526495657861233,-0.0021644982043653727,0.15323153138160706
1666739818.49774384,1361575260,1,0.9881523847579956,0.008521458134055138,-0.0021581510081887245,0.1532238870859146
1666739818.51771593,1361595232,1,0.9881517887115479,0.008523060008883476,-0.002156561706215143,0.15322773158550262
1666739818.55771804,1361635234,1,0.9881502985954285,0.008499575778841972,-0.002146967453882098,0.15323896706104279
1666739818.59776282,1361675279,1,0.9881472587585449,0.00849630031734705,-0.002140094293281436,0.15325859189033508
1666739818.63774586,1361715262,1,0.9881473183631897,0.0084883663803339,-0.0021383345592767,0.15325896441936493
1666739818.67771697,1361755233,1,0.9881460070610046,0.008495369926095009,-0.0021479593124240637,0.1532667875289917
1666739818.69773602,1361775252,1,0.9881460666656494,0.008499092422425747,-0.0021377024240791798,0.15326616168022156
1666739818.71772599,1361795242,1,0.9881476759910583,0.008507486432790756,-0.0021366169676184654,0.15325559675693512
1666739818.75774193,1361835258,1,0.9881449341773987,0.00851321779191494,-0.0021188659593462944,0.15327318012714386
1666739818.79775596,1361875272,1,0.9881442785263062,0.008520666509866714,-0.0021162074990570545,0.1532766968011856
1666739818.83775282,1361915269,1,0.9881477355957031,0.008557727560400963,-0.0021023154258728027,0.1532527655363083
1666739818.87773299,1361955249,1,0.9881498217582703,0.008604124188423157,-0.00210544909350574,0.15323671698570251
1666739818.89775085,1361975267,1,0.9881491661071777,0.008620583452284336,-0.0021024213638156652,0.1532398909330368
1666739818.91771388,1361995230,1,0.9881521463394165,0.00864433217793703,-0.0020977086387574673,0.1532193273305893
1666739818.95772195,1362035238,1,0.9881517291069031,0.008662313222885132,-0.002108814660459757,0.15322117507457733
1666739818.99774384,1362075260,1,0.9881538152694702,0.008695083670318127,-0.0020960757974535227,0.1532057374715805
1666739819.03772283,1362115239,1,0.9881540536880493,0.00870558712631464,-0.002072668634355068,0.1532040685415268
1666739819.07774401,1362155260,1,0.9881553649902344,0.008724384941160679,-0.00206565554253757,0.15319480001926422
1666739819.09771490,1362175231,1,0.9881536960601807,0.008721043355762959,-0.0020547497551888227,0.15320591628551483
1666739819.11771297,1362195229,1,0.9881538152694702,0.008731070905923843,-0.0020477166399359703,0.15320444107055664
1666739819.15771484,1362235231,1,0.9881522059440613,0.008748689666390419,-0.002041305648162961,0.15321385860443115
1666739819.19770098,1362275217,1,0.9881480932235718,0.008783292956650257,-0.002052155788987875,0.15323837101459503
1666739819.23773003,1362315246,1,0.9881415963172913,0.008800903335213661,-0.0020356113091111183,0.1532796174287796
1666739819.27772498,1362355241,1,0.9881400465965271,0.008831099607050419,-0.002049000933766365,0.1532876193523407
1666739819.29771686,1362375233,1,0.9881407618522644,0.008837585337460041,-0.0020452612079679966,0.1532825529575348
1666739819.31775904,1362395275,1,0.9881407618522644,0.008841496892273426,-0.0020439329091459513,0.1532825529575348
1666739819.35771394,1362435230,1,0.9881414175033569,0.00883548241108656,-0.0020552838686853647,0.153278186917305
1666739819.39771485,1362475231,1,0.9881417751312256,0.00886070542037487,-0.002049306407570839,0.15327467024326324
1666739819.43772697,1362515243,1,0.9881457090377808,0.008865616284310818,-0.0020567448809742928,0.15324893593788147
1666739819.47774887,1362555265,1,0.988150417804718,0.008868154138326645,-0.0020382509101182222,0.15321873128414154
1666739819.49771690,1362575233,1,0.9881523847579956,0.008855517022311687,-0.002018034690991044,0.15320678055286407
1666739819.51775002,1362595266,1,0.9881497621536255,0.008848730474710464,-0.002030252944678068,0.1532241702079773
1666739819.55772400,1362635240,1,0.988150954246521,0.008832038380205631,-0.002030721865594387,0.15321747958660126
1666739819.59771585,1362675232,1,0.9881564378738403,0.008828075602650642,-0.00202314555644989,0.15318217873573303
1666739819.63771701,1362715233,1,0.9881601333618164,0.008809209801256657,-0.0020257364958524704,0.1531597226858139
1666739819.67774487,1362755261,1,0.9881613850593567,0.008794166147708893,-0.0019920789636671543,0.15315286815166473
1666739819.69771481,1362775231,1,0.9881642460823059,0.008783789351582527,-0.002000369131565094,0.15313465893268585
1666739819.71774197,1362795258,1,0.9881674647331238,0.008788861334323883,-0.001994485268369317,0.15311361849308014
1666739819.75774789,1362835264,1,0.9881712198257446,0.00879520270973444,-0.0019864304922521114,0.15308918058872223
1666739819.79771399,1362875230,1,0.9881764650344849,0.008785991929471493,-0.001984210452064872,0.1530560851097107
1666739819.83771896,1362915235,1,0.9881821870803833,0.008772867731750011,-0.0019630370661616325,0.1530202478170395
1666739819.87771702,1362955233,1,0.988187849521637,0.00875305850058794,-0.0019471613923087716,0.15298481285572052
1666739819.89773703,1362975253,1,0.9881888031959534,0.008749115280807018,-0.0019441837212070823,0.15297895669937134
1666739819.91774893,1362995265,1,0.9881928563117981,0.008746559731662273,-0.001925844233483076,0.15295332670211792
1666739819.95773387,1363035250,1,0.9881948232650757,0.008727330714464188,-0.0019278274849057198,0.15294167399406433
1666739819.99775386,1363075270,1,0.988198459148407,0.008713280782103539,-0.0019193935440853238,0.15291909873485565
1666739820.03771281,1363115229,1,0.9882012605667114,0.008687661960721016,-0.0019007710507139564,0.15290234982967377
1666739820.07771397,1363155230,1,0.9882016777992249,0.008662262000143528,-0.0018863133154809475,0.15290142595767975
1666739820.09776592,1363175282,1,0.9882015585899353,0.008665530942380428,-0.0018835937371477485,0.15290215611457825
1666739820.11769295,1363195209,1,0.9881983399391174,0.008667586371302605,-0.0018724584951996803,0.1529228538274765
1666739820.15774703,1363235263,1,0.9881985783576965,0.008659852668642998,-0.0018968286458402872,0.15292131900787354
1666739820.19773602,1363275252,1,0.9881976246833801,0.008644644170999527,-0.0018952216487377882,0.1529284566640854
1666739820.23776388,1363315280,1,0.9881944060325623,0.008622093126177788,-0.001895890454761684,0.15295062959194183
1666739820.27771091,1363355227,1,0.9881922602653503,0.008649267256259918,-0.0019015386933460832,0.15296275913715363
1666739820.29775190,1363375268,1,0.9881909489631653,0.0086575448513031,-0.0018989159725606441,0.15297096967697144
1666739820.31771588,1363395232,1,0.9881906509399414,0.00864235870540142,-0.0019029033137485385,0.1529735028743744
1666739820.35771704,1363435233,1,0.9881909489631653,0.008626577444374561,-0.0018739140359684825,0.15297304093837738
1666739820.39774394,1363475260,1,0.9881953597068787,0.008620736189186573,-0.0018518700962886214,0.15294504165649414
1666739820.43772197,1363515238,1,0.9881933331489563,0.008592751808464527,-0.0018315205816179514,0.15296006202697754
1666739820.47772002,1363555236,1,0.9881958365440369,0.008566034026443958,-0.0018042930169031024,0.15294568240642548
1666739820.49776697,1363575283,1,0.9881963133811951,0.008573335595428944,-0.001811319962143898,0.15294209122657776
1666739820.51771593,1363595232,1,0.988197922706604,0.008580554276704788,-0.0018122080946341157,0.15293128788471222
1666739820.55771494,1363635231,1,0.9881966710090637,0.008572347462177277,-0.0017946488223969936,0.15294001996517181
1666739820.59775281,1363675269,1,0.9881970286369324,0.00858267955482006,-0.0017841883236542344,0.15293727815151215
1666739820.63776302,1363715279,1,0.9881947636604309,0.008572657592594624,-0.0018061493756249547,0.1529521942138672
1666739820.67774391,1363755260,1,0.9881932735443115,0.008549988269805908,-0.0017978241667151451,0.15296298265457153
1666739820.69771695,1363775233,1,0.988192081451416,0.008563104085624218,-0.001785619999282062,0.1529700607061386
1666739820.71771789,1363795234,1,0.988190770149231,0.008544561453163624,-0.0017954299692064524,0.15297964215278625
1666739820.75771904,1363835235,1,0.9881901144981384,0.008525039069354534,-0.0018231847789138556,0.15298469364643097
1666739820.79771280,1363875229,1,0.9881920218467712,0.00852444488555193,-0.001810668152756989,0.15297237038612366
1666739820.83772492,1363915241,1,0.9881923794746399,0.00853139627724886,-0.0018009787891060114,0.15296974778175354
1666739820.87773204,1363955248,1,0.9881935119628906,0.00856475718319416,-0.0018028804333880544,0.1529608964920044
1666739820.89771891,1363975235,1,0.9881951808929443,0.0085515221580863,-0.0018064610194414854,0.1529504358768463
1666739820.91774988,1363995266,1,0.9881972670555115,0.008554287254810333,-0.0018138805171474814,0.15293681621551514
1666739820.95771885,1364035235,1,0.9882004857063293,0.008577789179980755,-0.0018049506470561028,0.15291470289230347
1666739820.99771500,1364075231,1,0.9881995320320129,0.008567503653466702,-0.001792074297554791,0.15292194485664368
1666739821.03769588,1364115212,1,0.9881992340087891,0.00858056079596281,-0.001775963930413127,0.15292316675186157
1666739821.07772493,1364155241,1,0.9881988167762756,0.00859057530760765,-0.0018007614417001605,0.15292496979236603
1666739821.09771490,1364175231,1,0.9881981611251831,0.008587714284658432,-0.0017933356575667858,0.1529296487569809
1666739821.11775684,1364195273,1,0.9881976842880249,0.008598935790359974,-0.001790774054825306,0.1529320627450943
1666739821.15773892,1364235255,1,0.9881945252418518,0.008586990647017956,-0.0017932943301275373,0.15295296907424927
1666739821.19771600,1364275232,1,0.9881970882415771,0.0085902726277709,-0.0017927163280546665,0.15293636918067932
1666739821.23771501,1364315231,1,0.9882001280784607,0.008599386550486088,-0.0017884460976347327,0.1529160737991333
1666739821.27769494,1364355211,1,0.9881997108459473,0.008623780682682991,-0.0017887852154672146,0.15291744470596313
1666739821.29771280,1364375229,1,0.9882010221481323,0.008625337854027748,-0.001780989463441074,0.15290892124176025
1666739821.31773996,1364395256,1,0.9882029891014099,0.00863610114902258,-0.0017773472936823964,0.15289583802223206
1666739821.35772896,1364435245,1,0.98820561170578,0.008635925129055977,-0.001782442326657474,0.15287886559963226
1666739821.39774585,1364475262,1,0.9882077574729919,0.008627546951174736,-0.0017746812663972378,0.15286529064178467
1666739821.43771482,1364515231,1,0.9882059097290039,0.008651846088469028,-0.0017764100339263678,0.15287600457668304
1666739821.47771692,1364555233,1,0.9882092475891113,0.008678128942847252,-0.0017682405887171626,0.15285319089889526
1666739821.49774885,1364575265,1,0.9882102608680725,0.008684500120580196,-0.0017557957908138633,0.152846097946167
1666739821.51775193,1364595268,1,0.9882110953330994,0.008682578802108765,-0.0017493522027507424,0.15284119546413422
1666739821.55774689,1364635263,1,0.9882132411003113,0.008691534399986267,-0.0017484232084825635,0.15282686054706573
1666739821.59775591,1364675272,1,0.9882160425186157,0.008700028993189335,-0.0017434194451197982,0.15280818939208984
1666739821.63771391,1364715230,1,0.988216757774353,0.008709761314094067,-0.0017467496218159795,0.15280288457870483
1666739821.67771387,1364755230,1,0.9882192015647888,0.00872841477394104,-0.0017394102178514004,0.15278629958629608
1666739821.69774604,1364775262,1,0.9882174730300903,0.008739280514419079,-0.0017327541718259454,0.1527968794107437
1666739821.71771789,1364795234,1,0.9882182478904724,0.00874986220151186,-0.001727880211547017,0.1527911275625229
1666739821.75774598,1364835262,1,0.9882214069366455,0.008775780908763409,-0.0017462546238675714,0.15276913344860077
1666739821.79773593,1364875252,1,0.9882272481918335,0.008790738880634308,-0.001756702782586217,0.1527302861213684
1666739821.83772802,1364915244,1,0.9882326126098633,0.008818840608000755,-0.001755055389367044,0.15269391238689423
1666739821.87771583,1364955232,1,0.9882376194000244,0.008842377923429012,-0.0017398593481630087,0.15266026556491852
1666739821.89775491,1364975271,1,0.9882400631904602,0.008855145424604416,-0.0017483988776803017,0.15264388918876648
1666739821.91771483,1364995231,1,0.9882446527481079,0.008848493918776512,-0.0017383986851200461,0.15261445939540863
1666739821.95771790,1365035234,1,0.9882484078407288,0.00888906978070736,-0.001753405318595469,0.1525876373052597
1666739821.99776483,1365075281,1,0.988246738910675,0.008879982866346836,-0.0017968995962291956,0.15259858965873718
1666739822.03772497,1365115241,1,0.9882495403289795,0.00888536311686039,-0.001801748643629253,0.15258003771305084
1666739822.07772398,1365155240,1,0.9882513284683228,0.00888947956264019,-0.001797886798158288,0.15256831049919128
1666739822.09774184,1365175258,1,0.9882515668869019,0.0088754091411829,-0.001794078852981329,0.1525675505399704
1666739822.11772299,1365195239,1,0.9882532358169556,0.008863632567226887,-0.0017841332592070103,0.15255756676197052
1666739822.15771699,1365235233,1,0.9882550835609436,0.008868278935551643,-0.0017727131489664316,0.1525454819202423
1666739822.19774985,1365275266,1,0.9882553219795227,0.008860458619892597,-0.0017779009649530053,0.15254418551921844
1666739822.23775887,1365315275,1,0.9882560968399048,0.00887561496347189,-0.001779662212356925,0.15253835916519165
1666739822.27776694,1365355283,1,0.988256573677063,0.008888798765838146,-0.0017834975151345134,0.15253454446792603
1666739822.29769588,1365375212,1,0.9882562160491943,0.008893363177776337,-0.0017868209397420287,0.1525362879037857
1666739822.31772184,1365395238,1,0.9882597923278809,0.008878304623067379,-0.0017927391454577446,0.15251410007476807
1666739822.35771990,1365435236,1,0.9882626533508301,0.008867353200912476,-0.00179608806502074,0.1524963229894638
1666739822.39769101,1365475207,1,0.9882646799087524,0.00888600293546915,-0.0017939736135303974,0.15248197317123413
1666739822.43774390,1365515260,1,0.98827064037323,0.008893556892871857,-0.0018047888297587633,0.15244273841381073
1666739822.47774982,1365555266,1,0.9882689714431763,0.008899387903511524,-0.0018218944314867258,0.1524529904127121
1666739822.49771500,1365575231,1,0.9882720112800598,0.008921587839722633,-0.0018246169202029705,0.15243186056613922
1666739822.51774597,1365595262,1,0.9882737398147583,0.008926850743591785,-0.001827721600420773,0.15242043137550354
1666739822.55771494,1365635231,1,0.9882765412330627,0.008942215703427792,-0.0018459225539118052,0.15240098536014557
1666739822.59771895,1365675235,1,0.9882816672325134,0.008963980711996555,-0.0018334040651097894,0.15236689150333405
1666739822.63770795,1365715224,1,0.9882843494415283,0.008974316529929638,-0.0018459877464920282,0.15234865248203278
1666739822.67774701,1365755263,1,0.9882835149765015,0.008975302800536156,-0.0018185791559517384,0.15235432982444763
1666739822.69771290,1365775229,1,0.988284170627594,0.00899374857544899,-0.0018179402686655521,0.1523488461971283
1666739822.71772695,1365795243,1,0.9882841110229492,0.008992847986519337,-0.0018365521682426333,0.15234912931919098
1666739822.75775695,1365835273,1,0.9882835149765015,0.008995845913887024,-0.0018447188194841146,0.15235279500484467
1666739822.79772592,1365875242,1,0.9882841110229492,0.009016642346978188,-0.0018550758250057697,0.15234774351119995
1666739822.83771992,1365915236,1,0.9882866144180298,0.00900854542851448,-0.0018533773254603148,0.1523318886756897
1666739822.87771702,1365955233,1,0.9882885813713074,0.009018569253385067,-0.0018569910898804665,0.15231823921203613
1666739822.89772797,1365975244,1,0.9882888197898865,0.00900783110409975,-0.00184449995867908,0.15231747925281525
1666739822.91774487,1365995261,1,0.9882871508598328,0.008992018178105354,-0.001849148771725595,0.15232928097248077
1666739822.95775580,1366035272,1,0.9882889986038208,0.009011484682559967,-0.0018695195904001594,0.15231598913669586
1666739822.99774504,1366075261,1,0.988286018371582,0.009015210904181004,-0.0018629634287208319,0.15233522653579712
1666739823.03771091,1366115227,1,0.9882838726043701,0.008997004479169846,-0.0018615445587784052,0.15235012769699097
1666739823.07771897,1366155235,1,0.9882801175117493,0.009023682214319706,-0.0018609171966090798,0.15237300097942352
1666739823.09774399,1366175260,1,0.9882805347442627,0.009023318998515606,-0.001846954459324479,0.1523703932762146
1666739823.11774683,1366195263,1,0.9882784485816956,0.009027402848005295,-0.0018450786592438817,0.15238390862941742
1666739823.15773487,1366235251,1,0.9882736206054688,0.009042586199939251,-0.0018592935521155596,0.15241385996341705
1666739823.19775295,1366275269,1,0.9882710576057434,0.009056019596755505,-0.001875947811640799,0.15242959558963776
1666739823.23773599,1366315252,1,0.9882692098617554,0.009077515453100204,-0.001877792295999825,0.15244019031524658
1666739823.27771187,1366355228,1,0.9882694482803345,0.009057052433490753,-0.001888146623969078,0.15243977308273315
1666739823.29769897,1366375215,1,0.9882687330245972,0.009052017703652382,-0.001895120833069086,0.15244464576244354
1666739823.31771684,1366395233,1,0.9882674217224121,0.009058166295289993,-0.001896190457046032,0.15245281159877777
1666739823.35774302,1366435259,1,0.9882662296295166,0.009073733352124691,-0.0019225844880566,0.1524592489004135
1666739823.39775991,1366475276,1,0.9882643222808838,0.009089862927794456,-0.0019314123783260584,0.15247061848640442
1666739823.43775892,1366515275,1,0.9882643818855286,0.00912956427782774,-0.001946446020156145,0.15246760845184326
1666739823.47771192,1366555228,1,0.9882601499557495,0.009133489802479744,-0.0019375454867258668,0.15249507129192352
1666739823.49775887,1366575275,1,0.9882559180259705,0.00914484541863203,-0.0019436124712228775,0.15252161026000977
1666739823.51771593,1366595232,1,0.9882539510726929,0.009154785424470901,-0.0019410939421504736,0.15253394842147827
1666739823.55772185,1366635238,1,0.9882487654685974,0.00916253961622715,-0.0019361106678843498,0.1525667905807495
1666739823.59771800,1366675234,1,0.9882420897483826,0.009179112501442432,-0.0019355894764885306,0.1526092290878296
1666739823.63774681,1366715263,1,0.988234281539917,0.009181913919746876,-0.0019635693170130253,0.1526593267917633
1666739823.67775583,1366755272,1,0.9882304072380066,0.009201077744364738,-0.001978648127987981,0.1526830494403839
1666739823.69774294,1366775259,1,0.9882267117500305,0.009206279180943966,-0.0019695069640874863,0.15270672738552094
1666739823.71771383,1366795230,1,0.9882257580757141,0.00920059997588396,-0.0019648035522550344,0.15271329879760742
1666739823.75771499,1366835231,1,0.9882215261459351,0.009217221289873123,-0.0019422012846916914,0.1527399718761444
1666739823.79769492,1366875211,1,0.9882192015647888,0.009224440902471542,-0.0019252710044384003,0.1527547538280487
1666739823.83774400,1366915260,1,0.9882168173789978,0.009225476533174515,-0.001913603744469583,0.1527702957391739
1666739823.87775898,1366955275,1,0.9882127642631531,0.009234187193214893,-0.0019093622686341405,0.1527959257364273
1666739823.89770794,1366975224,1,0.9882123470306396,0.009236276149749756,-0.0019014636054635048,0.15279850363731384
1666739823.91773081,1366995247,1,0.9882091879844666,0.009240010753273964,-0.0019095651805400848,0.15281862020492554
1666739823.95771289,1367035229,1,0.9882070422172546,0.009262241423130035,-0.0019095903262495995,0.15283112227916718
1666739823.99771690,1367075233,1,0.9882095456123352,0.009267451241612434,-0.0019104162929579616,0.1528146117925644
1666739824.03775001,1367115266,1,0.9882069826126099,0.009269165806472301,-0.0019396614516153932,0.1528308242559433
1666739824.07775187,1367155268,1,0.988203763961792,0.009286080487072468,-0.0019393607508391142,0.15285059809684753
1666739824.09771490,1367175231,1,0.9882015585899353,0.009287037886679173,-0.0019375497940927744,0.15286478400230408
1666739824.11775994,1367195276,1,0.9882010817527771,0.009296895936131477,-0.0019305634777992964,0.1528676301240921
1666739824.15771699,1367235233,1,0.9881970882415771,0.009286733344197273,-0.0019404651829972863,0.1528938263654709
1666739824.19771194,1367275228,1,0.9881930351257324,0.009314483031630516,-0.0019438969902694225,0.15291815996170044
1666739824.23771787,1367315234,1,0.9881916642189026,0.009333934634923935,-0.001984280999749899,0.1529254913330078
1666739824.27773285,1367355249,1,0.9881880283355713,0.009344276040792465,-0.002001314191147685,0.15294790267944336
1666739824.29771495,1367375231,1,0.9881870150566101,0.009352323599159718,-0.0020000822842121124,0.15295393764972687
1666739824.31773591,1367395252,1,0.9881865382194519,0.009364929981529713,-0.002012943383306265,0.1529562622308731
1666739824.35776997,1367435286,1,0.9881880879402161,0.009387573227286339,-0.0020265630446374416,0.15294472873210907
1666739824.39773083,1367475247,1,0.9881866574287415,0.009404578246176243,-0.0020378881599754095,0.15295261144638062
1666739824.43772101,1367515237,1,0.9881894588470459,0.009432975202798843,-0.002052693162113428,0.1529327929019928
1666739824.47771382,1367555230,1,0.9881918430328369,0.009453736245632172,-0.0020840002689510584,0.15291553735733032
1666739824.49771380,1367575230,1,0.9881951808929443,0.009463878348469734,-0.002076126169413328,0.15289349853992462
1666739824.51774287,1367595259,1,0.9881979823112488,0.009480154141783714,-0.0020850382279604673,0.15287426114082336
1666739824.55772591,1367635242,1,0.9882014393806458,0.009480757638812065,-0.0020925349090248346,0.15285159647464752
1666739824.59776187,1367675278,1,0.9881989359855652,0.009493604302406311,-0.0020848996937274933,0.15286710858345032
1666739824.63771582,1367715232,1,0.9881985187530518,0.009517718106508255,-0.00208276160992682,0.15286840498447418
1666739824.67771697,1367755233,1,0.9881992340087891,0.009540334343910217,-0.002106109634041786,0.152862086892128
1666739824.69775200,1367775268,1,0.9881994724273682,0.009545005857944489,-0.002111226785928011,0.1528601050376892
1666739824.71772981,1367795246,1,0.9881987571716309,0.00956074520945549,-0.002111904788762331,0.15286381542682648
1666739824.75776601,1367835282,1,0.9882016181945801,0.009596796706318855,-0.002154319314286113,0.15284253656864166
1666739824.79773903,1367875255,1,0.9882045388221741,0.009621363133192062,-0.002188523067161441,0.15282143652439117
1666739824.83772397,1367915240,1,0.9882091879844666,0.009660772047936916,-0.0021868806798011065,0.15278901159763336
1666739824.87771487,1367955231,1,0.9882079362869263,0.009668958373367786,-0.0021898383274674416,0.15279661118984222
1666739824.89772797,1367975244,1,0.9882075190544128,0.009660311974585056,-0.0021867353934794664,0.1527997851371765
1666739824.91771698,1367995233,1,0.9882066249847412,0.00966318603605032,-0.0021694633178412914,0.1528058797121048
1666739824.95774889,1368035265,1,0.9882050156593323,0.009680282324552536,-0.0021745245903730392,0.1528148353099823
1666739824.99775195,1368075268,1,0.9882032871246338,0.009686912409961224,-0.002173112239688635,0.152825728058815
1666739825.03773689,1368115253,1,0.9882070422172546,0.009713206440210342,-0.002173001877963543,0.15279968082904816
1666739825.07771683,1368155233,1,0.9882023930549622,0.009721890091896057,-0.00216793199069798,0.15282921493053436
1666739825.09774184,1368175258,1,0.9882017374038696,0.009736316278576851,-0.002167122671380639,0.1528327614068985
1666739825.11771488,1368195231,1,0.9881998300552368,0.009734297171235085,-0.0021613454446196556,0.1528451293706894
1666739825.15771198,1368235228,1,0.9881957769393921,0.00975335668772459,-0.0021690893918275833,0.15286995470523834
1666739825.19774294,1368275259,1,0.9881948828697205,0.00978639256209135,-0.002186634112149477,0.15287357568740845
1666739825.23773003,1368315246,1,0.9881959557533264,0.009818308986723423,-0.0021528848446905613,0.15286508202552795
1666739825.27774882,1368355265,1,0.9881956577301025,0.009821215644478798,-0.0021352253388613462,0.152866929769516
1666739825.29776192,1368375278,1,0.9881985783576965,0.009830483235418797,-0.002119373297318816,0.15284767746925354
1666739825.31769800,1368395214,1,0.9881998896598816,0.009834200143814087,-0.002108459360897541,0.1528390347957611
1666739825.35771894,1368435235,1,0.9882071614265442,0.00983548816293478,-0.002121641533449292,0.15279188752174377
1666739825.39772582,1368475242,1,0.9882105588912964,0.009854905307292938,-0.002087337663397193,0.152769073843956
1666739825.43775392,1368515270,1,0.9882124066352844,0.00985830556601286,-0.0020776770543307066,0.15275715291500092
1666739825.47773385,1368555250,1,0.9882143139839172,0.009866675361990929,-0.0020926110446453094,0.15274418890476227
1666739825.49772000,1368575236,1,0.9882156848907471,0.009882737882435322,-0.0020870636217296124,0.15273438394069672
1666739825.51773596,1368595252,1,0.9882183074951172,0.009896712377667427,-0.002072302158921957,0.15271656215190887
1666739825.55771589,1368635232,1,0.9882162809371948,0.00990421511232853,-0.0020584543235599995,0.15272948145866394
1666739825.59771585,1368675232,1,0.9882146120071411,0.009921293705701828,-0.0020575770176947117,0.15273886919021606
1666739825.63772893,1368715245,1,0.9882151484489441,0.009958353824913502,-0.0020585444290190935,0.15273316204547882
1666739825.67776585,1368755282,1,0.9882116913795471,0.00995915662497282,-0.0020658960565924644,0.15275542438030243
1666739825.69771481,1368775231,1,0.988214373588562,0.009955128654837608,-0.0020744644571095705,0.15273822844028473
1666739825.71775389,1368795270,1,0.9882135391235352,0.009961199015378952,-0.002072479808703065,0.15274327993392944
1666739825.75772691,1368835243,1,0.9882135391235352,0.00997486524283886,-0.0020832843147218227,0.15274213254451752
1666739825.79771185,1368875228,1,0.9882134795188904,0.009980847127735615,-0.0021038218401372433,0.1527419090270996
1666739825.83772397,1368915240,1,0.9882119297981262,0.009967280551791191,-0.0020985386800020933,0.15275274217128754
1666739825.87775803,1368955274,1,0.9882150888442993,0.009942235425114632,-0.002102188766002655,0.1527341604232788
1666739825.89772081,1368975237,1,0.988217294216156,0.009956863708794117,-0.0020913020707666874,0.15271881222724915
1666739825.91774201,1368995258,1,0.9882185459136963,0.009943767450749874,-0.0020949842873960733,0.15271151065826416
1666739825.95774698,1369035263,1,0.9882187247276306,0.009928164072334766,-0.002106109634041786,0.15271125733852386
1666739825.99771380,1369075230,1,0.9882163405418396,0.009915750473737717,-0.0020940275862812996,0.1527278572320938
1666739826.03771186,1369115228,1,0.9882165789604187,0.009927923791110516,-0.002095850184559822,0.15272533893585205
1666739826.07770300,1369155219,1,0.988216757774353,0.009930683299899101,-0.0020902943797409534,0.1527242362499237
1666739826.09771299,1369175229,1,0.9882141947746277,0.009943596087396145,-0.002091075526550412,0.15273989737033844
1666739826.11775684,1369195273,1,0.9882116913795471,0.009963874705135822,-0.002095065778121352,0.15275447070598602
1666739826.15772486,1369235241,1,0.9882110953330994,0.009979816153645515,-0.002095032949000597,0.15275737643241882
1666739826.19774985,1369275266,1,0.988209068775177,0.009978698566555977,-0.002089601242914796,0.15277063846588135
1666739826.23771787,1369315234,1,0.9882106781005859,0.009989180602133274,-0.002057835692539811,0.15275995433330536
1666739826.27772284,1369355239,1,0.9882076978683472,0.010004544630646706,-0.002047786256298423,0.15277843177318573
1666739826.29775596,1369375272,1,0.9882051348686218,0.010000555776059628,-0.002025654073804617,0.15279561281204224
1666739826.31771493,1369395231,1,0.9882043600082397,0.010009179823100567,-0.0020347321406006813,0.15279996395111084
1666739826.35774589,1369435262,1,0.9882040023803711,0.010019360110163689,-0.002038731472566724,0.15280139446258545
1666739826.39773583,1369475252,1,0.9882006049156189,0.010040923953056335,-0.002004138892516494,0.1528225541114807
1666739826.43775201,1369515268,1,0.9881992936134338,0.01004710327833891,-0.001996157690882683,0.15283052623271942
1666739826.47771502,1369555231,1,0.9881967306137085,0.010049264878034592,-0.0019955779425799847,0.1528473049402237
1666739826.49773288,1369575249,1,0.9881961345672607,0.010047604329884052,-0.001994401216506958,0.15285108983516693
1666739826.51772285,1369595239,1,0.9881990551948547,0.010034747421741486,-0.00198223814368248,0.15283343195915222
1666739826.55774999,1369635266,1,0.9881976246833801,0.01003578957170248,-0.0019780031871050596,0.15284264087677002
1666739826.59775686,1369675273,1,0.9881962537765503,0.010037310421466827,-0.001972152153030038,0.15285137295722961
1666739826.63774681,1369715263,1,0.9881929755210876,0.010018929839134216,-0.0019711898639798164,0.15287360548973083
1666739826.67772293,1369755239,1,0.988190770149231,0.010022950358688831,-0.001962060574442148,0.15288770198822021
1666739826.69774294,1369775259,1,0.9881905317306519,0.010030399076640606,-0.001955792773514986,0.15288910269737244
1666739826.71771502,1369795231,1,0.9881913661956787,0.01003095880150795,-0.001960592810064554,0.15288349986076355
1666739826.75772285,1369835239,1,0.9881865382194519,0.01004025712609291,-0.0019791019149124622,0.15291400253772736
1666739826.79774404,1369875260,1,0.9881858229637146,0.010049848817288876,-0.0019849040545523167,0.15291766822338104
1666739826.83776498,1369915281,1,0.9881882667541504,0.010055016726255417,-0.0020035908091813326,0.1529015153646469
1666739826.87774491,1369955261,1,0.9881888031959534,0.010042856447398663,-0.001986723393201828,0.15289895236492157
1666739826.89775681,1369975273,1,0.9881901741027832,0.01004695426672697,-0.001989959739148617,0.15288975834846497
1666739826.91771483,1369995231,1,0.9881922602653503,0.010027808137238026,-0.0019912035204470158,0.15287764370441437
1666739826.95771790,1370035234,1,0.9881966710090637,0.010011346079409122,-0.001991120632737875,0.15285010635852814
1666739826.99771690,1370075233,1,0.9881948232650757,0.009989058598876,-0.0019645369611680508,0.15286381542682648
1666739827.03774881,1370115265,1,0.9881960153579712,0.00998597964644432,-0.0019451886182650924,0.15285655856132507
1666739827.07772493,1370155241,1,0.9881983399391174,0.009968459606170654,-0.0019224726129323244,0.15284305810928345
1666739827.09771490,1370175231,1,0.9881998300552368,0.009969561360776424,-0.001914702937938273,0.15283329784870148
1666739827.11775589,1370195272,1,0.9881979823112488,0.009973778389394283,-0.0019119658973067999,0.15284523367881775
1666739827.15771890,1370235235,1,0.9881941676139832,0.009960005059838295,-0.001901825307868421,0.15287084877490997
1666739827.19772887,1370275245,1,0.9881904721260071,0.009953268803656101,-0.0018928715726360679,0.15289534628391266
1666739827.23772383,1370315240,1,0.9881857633590698,0.00995669700205326,-0.0018966174684464931,0.1529254913330078
1666739827.27772689,1370355243,1,0.9881853461265564,0.009957102127373219,-0.0018674880266189575,0.15292824804782867
1666739827.29771185,1370375228,1,0.9881845712661743,0.009963518008589745,-0.0018425867892801762,0.15293332934379578
1666739827.31774592,1370395262,1,0.9881823658943176,0.00995964277535677,-0.001848439103923738,0.15294787287712097
1666739827.35773993,1370435256,1,0.9881801605224609,0.009962490759789944,-0.001846958533860743,0.15296173095703125
1666739827.39771390,1370475230,1,0.9881823062896729,0.009954502806067467,-0.0018280220683664083,0.15294857323169708
1666739827.43772292,1370515239,1,0.9881795644760132,0.009953106753528118,-0.0018247566185891628,0.15296651422977448
1666739827.47777390,1370555290,1,0.9881758093833923,0.009948222897946835,-0.0018006280297413468,0.152991384267807
1666739827.49771786,1370575234,1,0.9881756901741028,0.009954724460840225,-0.0017908700974658132,0.15299177169799805
1666739827.51775098,1370595267,1,0.9881754517555237,0.009957510977983475,-0.00178617297206074,0.15299344062805176
1666739827.55774593,1370635262,1,0.9881750345230103,0.009942189790308475,-0.0017665318446233869,0.15299712121486664
1666739827.59771991,1370675236,1,0.9881744384765625,0.009945929981768131,-0.0017648650100454688,0.15300098061561584
1666739827.63771582,1370715232,1,0.9881710410118103,0.009947984479367733,-0.0017554707592353225,0.15302281081676483
1666739827.67771602,1370755232,1,0.988170862197876,0.009976569563150406,-0.001730648917146027,0.15302221477031708
1666739827.69773483,1370775251,1,0.9881697297096252,0.009979207068681717,-0.001733893877826631,0.1530294418334961
1666739827.71774983,1370795266,1,0.9881691932678223,0.009977021254599094,-0.0017314166761934757,0.1530330926179886
1666739827.75772285,1370835239,1,0.9881680011749268,0.00997532531619072,-0.0017461165552958846,0.1530405580997467
1666739827.79772091,1370875237,1,0.9881680607795715,0.009985337033867836,-0.001728918869048357,0.1530398428440094
1666739827.83771300,1370915229,1,0.9881656169891357,0.009995314292609692,-0.001742598251439631,0.15305465459823608
1666739827.87771702,1370955233,1,0.988167405128479,0.010021121241152287,-0.0017372316215187311,0.1530417799949646
1666739827.89775801,1370975274,1,0.9881680607795715,0.010030502453446388,-0.001749086775816977,0.15303656458854675
1666739827.91771889,1370995235,1,0.9881680011749268,0.010022218339145184,-0.0017581231659278274,0.15303727984428406
1666739827.95773983,1371035256,1,0.9881672859191895,0.010019530542194843,-0.001768008922226727,0.1530420333147049
1666739827.99772882,1371075245,1,0.9881666898727417,0.01004035584628582,-0.001779643353074789,0.15304461121559143
1666739828.03774381,1371115260,1,0.988166332244873,0.010057362727820873,-0.0017946778098121285,0.15304557979106903
1666739828.07771397,1371155230,1,0.9881636500358582,0.010071324184536934,-0.0018043870804831386,0.15306197106838226
1666739828.09774685,1371175263,1,0.9881616234779358,0.010089036077260971,-0.001821220270358026,0.15307360887527466
1666739828.11771703,1371195233,1,0.9881607890129089,0.010105717927217484,-0.0018327230354771018,0.15307758748531342
1666739828.15771604,1371235232,1,0.9881612062454224,0.01013791561126709,-0.0018397573148831725,0.15307267010211945
1666739828.19774985,1371275266,1,0.9881591200828552,0.010176287032663822,-0.001849970780313015,0.1530837118625641
1666739828.23775196,1371315268,1,0.9881590604782104,0.010220391675829887,-0.001847988460212946,0.15308119356632233
1666739828.27772903,1371355245,1,0.9881595373153687,0.010243168100714684,-0.001849366002716124,0.15307658910751343
1666739828.29775286,1371375269,1,0.9881605505943298,0.01026458665728569,-0.0018541526515036821,0.15306833386421204
1666739828.31771183,1371395228,1,0.9881604313850403,0.010273558087646961,-0.0018501479644328356,0.15306855738162994
1666739828.35772181,1371435238,1,0.9881593585014343,0.010276657529175282,-0.0018643346847966313,0.15307506918907166
1666739828.39775395,1371475270,1,0.9881606101989746,0.010288584046065807,-0.0018690425204113126,0.15306603908538818
1666739828.43773985,1371515256,1,0.9881591200828552,0.010295082814991474,-0.0018716739723458886,0.1530751883983612
1666739828.47774792,1371555264,1,0.9881591796875,0.01030097808688879,-0.0018652676371857524,0.15307478606700897
1666739828.49771690,1371575233,1,0.9881567358970642,0.010309367440640926,-0.001880517927929759,0.15308983623981476
1666739828.51769590,1371595212,1,0.9881591796875,0.01031877938657999,-0.0018967329524457455,0.1530729979276657
1666739828.55771303,1371635229,1,0.9881566166877747,0.010341508314013481,-0.0019170931773260236,0.15308786928653717
1666739828.59771585,1371675232,1,0.9881541728973389,0.010367042385041714,-0.0018995007267221808,0.15310220420360565
1666739828.63775301,1371715269,1,0.9881482124328613,0.010409070178866386,-0.0019110927823930979,0.15313756465911865
1666739828.67774796,1371755264,1,0.9881448149681091,0.010413660667836666,-0.0019146668491885066,0.15315915644168854
1666739828.69771385,1371775230,1,0.9881430268287659,0.010421916842460632,-0.0019220866961404681,0.15317007899284363
1666739828.71776390,1371795280,1,0.9881428480148315,0.01043732650578022,-0.001934539875946939,0.1531699001789093
1666739828.75776482,1371835281,1,0.9881361126899719,0.010454148054122925,-0.0019251506309956312,0.1532122641801834
1666739828.79771495,1371875231,1,0.9881309866905212,0.010484590195119381,-0.0019156825728714466,0.1532432734966278
1666739828.83773494,1371915251,1,0.988129734992981,0.010504378005862236,-0.0018958610016852617,0.15325026214122772
1666739828.87775588,1371955272,1,0.9881262183189392,0.010527501814067364,-0.0019170858431607485,0.15327119827270508
1666739828.89771891,1371975235,1,0.9881258606910706,0.010544468648731709,-0.0019155130721628666,0.15327222645282745
1666739828.91775084,1371995267,1,0.9881238341331482,0.010557036846876144,-0.0019301122520118952,0.15328457951545715
1666739828.95774698,1372035263,1,0.9881212115287781,0.010576062835752964,-0.0019385353662073612,0.15329980850219727
1666739828.99772096,1372075237,1,0.9881183505058289,0.010605285875499249,-0.0019465169170871377,0.15331615507602692
1666739829.03771496,1372115231,1,0.9881101250648499,0.010629965923726559,-0.0019691658671945333,0.15336740016937256
1666739829.07775497,1372155271,1,0.988103985786438,0.01066567376255989,-0.001973778009414673,0.1534041315317154
1666739829.09771395,1372175230,1,0.9881008863449097,0.01068141683936119,-0.001982003217563033,0.15342287719249725
1666739829.11775184,1372195268,1,0.9880955815315247,0.010686816647648811,-0.001996330451220274,0.15345673263072968
1666739829.15774703,1372235263,1,0.9880892634391785,0.010686644352972507,-0.002030467614531517,0.15349680185317993
1666739829.19770885,1372275225,1,0.9880784153938293,0.010692523792386055,-0.002034215023741126,0.1535663604736328
1666739829.23772001,1372315236,1,0.9880709648132324,0.010704279877245426,-0.0020374690648168325,0.15361326932907104
1666739829.27771401,1372355230,1,0.9880621433258057,0.0106915682554245,-0.002045936184003949,0.15367072820663452
1666739829.29772592,1372375242,1,0.9880582094192505,0.01069158036261797,-0.0020549269393086433,0.15369608998298645
1666739829.31774497,1372395261,1,0.9880574941635132,0.010693165473639965,-0.002071727067232132,0.1537003219127655
1666739829.35774589,1372435262,1,0.988054633140564,0.010703125968575478,-0.0020680585876107216,0.15371811389923096
1666739829.39774704,1372475263,1,0.9880509376525879,0.010697925463318825,-0.0020793548319488764,0.15374179184436798
1666739829.43771791,1372515234,1,0.9880461096763611,0.010672162286937237,-0.002079844707623124,0.15377461910247803
1666739829.47771287,1372555229,1,0.9880445599555969,0.010661065578460693,-0.002065459731966257,0.1537855714559555
1666739829.49774003,1372575256,1,0.9880440831184387,0.010668798349797726,-0.0020535201765596867,0.15378843247890472
1666739829.51770496,1372595221,1,0.9880419373512268,0.01065883319824934,-0.002057440811768174,0.15380273759365082
1666739829.55774784,1372635264,1,0.9880411624908447,0.010635774582624435,-0.0020579290576279163,0.15380947291851044
1666739829.59773183,1372675248,1,0.9880384206771851,0.010635944083333015,-0.0020643079187721014,0.15382695198059082
1666739829.63774800,1372715264,1,0.9880363345146179,0.01063956692814827,-0.0020657682325690985,0.153840109705925
1666739829.67771387,1372755230,1,0.9880342483520508,0.010663925670087337,-0.0020612424705177546,0.15385185182094574
1666739829.69775295,1372775269,1,0.9880329966545105,0.010659177787601948,-0.0020409852731972933,0.15386050939559937
1666739829.71771383,1372795230,1,0.9880321025848389,0.010672459378838539,-0.0020515017677098513,0.15386521816253662
1666739829.75771999,1372835236,1,0.988027811050415,0.010685588233172894,-0.002070109359920025,0.15389148890972137
1666739829.79774785,1372875264,1,0.9880253672599792,0.010695841163396835,-0.0020781527273356915,0.15390613675117493
1666739829.83775401,1372915270,1,0.9880256652832031,0.010710328817367554,-0.0020480556413531303,0.1539037823677063
1666739829.87774897,1372955265,1,0.988028347492218,0.01072662603110075,-0.002031628740951419,0.15388570725917816
1666739829.89775395,1372975270,1,0.988027811050415,0.010732397437095642,-0.0020110716577619314,0.15388885140419006
1666739829.91771388,1372995230,1,0.9880275130271912,0.010735636577010155,-0.0020129962358623743,0.1538906693458557
1666739829.95772099,1373035237,1,0.9880244731903076,0.010748594999313354,-0.002000818494707346,0.15390947461128235
1666739829.99770188,1373075218,1,0.9880262017250061,0.01075939740985632,-0.0020045172423124313,0.15389740467071533
1666739830.03773284,1373115249,1,0.9880290031433105,0.010770938359200954,-0.001997116021811962,0.15387888252735138
1666739830.07774782,1373155264,1,0.9880285263061523,0.010807021521031857,-0.001991469645872712,0.15387924015522003
1666739830.09772992,1373175246,1,0.9880287647247314,0.0108022540807724,-0.002003620844334364,0.1538780927658081
1666739830.11775303,1373195269,1,0.9880287051200867,0.010815571993589401,-0.0019798728171736,0.15387792885303497
1666739830.15771389,1373235230,1,0.9880255460739136,0.010823996737599373,-0.0019804579205811024,0.15389740467071533
1666739830.19771385,1373275230,1,0.988023042678833,0.010829053819179535,-0.00197888002730906,0.15391325950622559
1666739830.23781681,1373315333,1,0.9880203008651733,0.010830300860106945,-0.001999067608267069,0.15393055975437164
1666739830.27775192,1373355268,1,0.9880208373069763,0.010829192586243153,-0.002001466229557991,0.15392693877220154
1666739830.29771686,1373375233,1,0.988018274307251,0.010836944915354252,-0.001999226165935397,0.15394315123558044
1666739830.31773090,1373395247,1,0.9880176186561584,0.010829844512045383,-0.0020049558952450752,0.15394780039787292
1666739830.35771704,1373435233,1,0.9880182147026062,0.010835842229425907,-0.0020020264200866222,0.15394361317157745
1666739830.39771485,1373475231,1,0.9880232810974121,0.010813144966959953,-0.001979433000087738,0.1539129614830017
1666739830.43770385,1373515220,1,0.9880281686782837,0.01081229280680418,-0.00198752386495471,0.1538812816143036
1666739830.47774887,1373555265,1,0.988030731678009,0.010790990665555,-0.001981228357180953,0.15386661887168884
1666739830.49771285,1373575229,1,0.9880343675613403,0.010778190568089485,-0.0019783820025622845,0.1538442224264145
1666739830.51773381,1373595250,1,0.9880335330963135,0.010763205587863922,-0.0019626079592853785,0.15385088324546814
1666739830.55775690,1373635273,1,0.9880372285842896,0.01074798684567213,-0.0019594095647335052,0.15382803976535797
1666739830.59771681,1373675233,1,0.9880352020263672,0.010742651298642159,-0.0019549059215933084,0.1538415253162384
1666739830.63772583,1373715242,1,0.9880332946777344,0.010758199729025364,-0.001962624955922365,0.1538524627685547
1666739830.67775297,1373755269,1,0.9880344271659851,0.010753300972282887,-0.001964874565601349,0.15384575724601746
1666739830.69771290,1373775229,1,0.9880344867706299,0.010762310586869717,-0.0019764837343245745,0.15384462475776672
1666739830.71775699,1373795273,1,0.988036036491394,0.010752247646450996,-0.0019724061712622643,0.1538354456424713
1666739830.75775385,1373835270,1,0.9880380034446716,0.010770612396299839,-0.001974963117390871,0.15382114052772522
1666739830.79772282,1373875239,1,0.9880373477935791,0.010800856165587902,-0.001968905795365572,0.15382356941699982
1666739830.83771682,1373915233,1,0.9880374670028687,0.01078302226960659,-0.001950276317074895,0.15382416546344757
1666739830.87771583,1373955232,1,0.9880319833755493,0.010781576856970787,-0.0019167561549693346,0.15385982394218445
1666739830.89776397,1373975280,1,0.9880289435386658,0.010768050327897072,-0.001919665141031146,0.15388019382953644
1666739830.91774988,1373995266,1,0.9880266785621643,0.010806241072714329,-0.001923991832882166,0.15389230847358704
1666739830.95775199,1374035268,1,0.9880242347717285,0.0108165442943573,-0.001924005220644176,0.15390712022781372
1666739830.99772692,1374075243,1,0.9880159497261047,0.010859723202884197,-0.0019269919721409678,0.15395714342594147
1666739831.03771687,1374115233,1,0.9879875779151917,0.01091004814952612,-0.001937081920914352,0.1541355848312378
1666739831.07771587,1374155232,1,0.9879539012908936,0.01099250465631485,-0.0019966617692261934,0.15434452891349792
1666739831.09774399,1374175260,1,0.9879387617111206,0.010996867902576923,-0.00203736056573689,0.15444080531597137
1666739831.11771393,1374195230,1,0.9879268407821655,0.010974476113915443,-0.0020827415864914656,0.1545179933309555
1666739831.15775084,1374235267,1,0.9879176616668701,0.01084777619689703,-0.0020828237757086754,0.15458543598651886
1666739831.19773388,1374275250,1,0.9879320859909058,0.010721644386649132,-0.001985373441129923,0.15450355410575867
1666739846.19771981,1389275236,1,0.9876702427864075,0.010332451201975346,-0.00023821403738111258,0.15620696544647217
1666739846.23772097,1389315237,1,0.9876655340194702,0.010322213172912598,-0.0002617939608171582,0.15623755753040314
1666739846.27772188,1389355238,1,0.9876649379730225,0.010299798101186752,-0.00024429598124697804,0.15624290704727173
1666739846.29772997,1389375246,1,0.987666130065918,0.010283995419740677,-0.0002494148793630302,0.15623626112937927
1666739846.31777501,1389395291,1,0.9876664280891418,0.010275202803313732,-0.0002599427243694663,0.15623484551906586
1666739846.35773897,1389435255,1,0.9876693487167358,0.010264820419251919,-0.00027600867906585336,0.15621735155582428
1666739846.39774203,1389475258,1,0.9876735210418701,0.01025154534727335,-0.0002707157691475004,0.1561916619539261
1666739846.43772101,1389515237,1,0.9876757860183716,0.010233721695840359,-0.0002611504169180989,0.15617875754833221
1666739846.47772288,1389555239,1,0.9876770377159119,0.010207938961684704,-0.0002533660444896668,0.1561724990606308
1666739846.49775386,1389575270,1,0.9876790642738342,0.010209237225353718,-0.0002646489010658115,0.15615953505039215
1666739846.51774788,1389595264,1,0.987679123878479,0.010197813622653484,-0.00026549072936177254,0.15615981817245483
1666739846.55776095,1389635277,1,0.9876821637153625,0.010168356820940971,-0.0002662150072865188,0.15614230930805206
1666739846.59776902,1389675285,1,0.9876871109008789,0.010155982337892056,-0.00026790559059008956,0.15611186623573303
1666739846.63772202,1389715238,1,0.987689733505249,0.01015233900398016,-0.00026896860799752176,0.15609557926654816
1666739846.67771482,1389755231,1,0.9876955151557922,0.010149353183805943,-0.00027461801073513925,0.15605930984020233
1666739846.69774699,1389775263,1,0.9876973628997803,0.010145995765924454,-0.0002772047300823033,0.15604789555072784
1666739846.71772003,1389795236,1,0.9876980781555176,0.010137860663235188,-0.0002960074052680284,0.15604381263256073
1666739846.75775695,1389835273,1,0.9877020120620728,0.010108862072229385,-0.0003102401678916067,0.15602080523967743
1666739846.79774690,1389875263,1,0.9877076148986816,0.010092686861753464,-0.00032578836544416845,0.15598610043525696
1666739846.83778381,1389915300,1,0.987711489200592,0.010092577897012234,-0.0003060318704228848,0.15596163272857666
1666739846.87772489,1389955241,1,0.9877148866653442,0.010069483891129494,-0.00029615158564411104,0.15594176948070526
1666739846.89776897,1389975285,1,0.987717866897583,0.01006614975631237,-0.0003118879103567451,0.15592284500598907
1666739846.91771984,1389995236,1,0.9877191781997681,0.01006393227726221,-0.00030902301659807563,0.15591482818126678
1666739846.95772481,1390035241,1,0.9877239465713501,0.010075765661895275,-0.00031920033507049084,0.15588393807411194
1666739846.99775195,1390075268,1,0.987732470035553,0.010045895352959633,-0.0003376567328814417,0.15583182871341705
1666739847.03771496,1390115231,1,0.987737774848938,0.010012243874371052,-0.000357364013325423,0.15580011904239655
1666739847.07773590,1390155252,1,0.9877392649650574,0.010011181235313416,-0.0003578699834179133,0.1557910144329071
1666739847.09774899,1390175265,1,0.9877418279647827,0.009997391141951084,-0.0003604062949307263,0.15577542781829834
1666739847.11772585,1390195242,1,0.9877396821975708,0.009985590353608131,-0.0003525844367686659,0.15578998625278473
1666739847.15771794,1390235234,1,0.9877384901046753,0.009981080889701843,-0.00033071424695663154,0.15579774975776672
1666739847.19775891,1390275275,1,0.9877369999885559,0.009990203194320202,-0.00032289279624819756,0.1558067500591278
1666739847.23776889,1390315285,1,0.987736701965332,0.009979832917451859,-0.0003273582551628351,0.15580928325653076
1666739847.27774882,1390355265,1,0.9877378344535828,0.00996794831007719,-0.0003336462832521647,0.15580280125141144
1666739847.29769993,1390375216,1,0.9877391457557678,0.009970582090318203,-0.000340285652782768,0.15579429268836975
1666739847.31773591,1390395252,1,0.9877422451972961,0.009962140582501888,-0.00032951441244222224,0.1557750403881073
1666739847.35771585,1390435232,1,0.987745463848114,0.009943012148141861,-0.0003335467481520027,0.1557558923959732
1666739847.39771795,1390475234,1,0.9877449870109558,0.009917179122567177,-0.00032925893901847303,0.15576063096523285
1666739847.43774700,1390515263,1,0.98774254322052,0.009908221662044525,-0.00031895117717795074,0.15577669441699982
1666739847.47774482,1390555261,1,0.9877421259880066,0.00990417879074812,-0.0002913378702942282,0.15577954053878784
1666739847.49772596,1390575242,1,0.9877403378486633,0.009903904050588608,-0.00029475276824086905,0.15579091012477875
1666739847.51772881,1390595245,1,0.9877368211746216,0.009897728450596333,-0.0003066837089136243,0.1558135449886322
1666739847.55771899,1390635235,1,0.9877339005470276,0.009893915615975857,-0.00030182136106304824,0.15583239495754242
1666739847.59780097,1390675317,1,0.9877304434776306,0.009879982098937035,-0.0003189987037330866,0.15585505962371826
1666739847.63771892,1390715235,1,0.987730860710144,0.00987717229872942,-0.00034047814551740885,0.15585263073444366
1666739847.67774796,1390755264,1,0.9877228140830994,0.009880869649350643,-0.0003477136488072574,0.15590330958366394
1666739847.69771481,1390775231,1,0.9877232909202576,0.009877300821244717,-0.0003478901053313166,0.15590064227581024
1666739847.71773386,1390795250,1,0.9877234697341919,0.00987342931330204,-0.00034814135869964957,0.1558998078107834
1666739847.75774193,1390835258,1,0.9877210259437561,0.009887796826660633,-0.00035448113339953125,0.15591418743133545
1666739847.79771495,1390875231,1,0.9877185821533203,0.009884467348456383,-0.0003477641148492694,0.15592990815639496
1666739847.83771896,1390915235,1,0.987716019153595,0.009882793761789799,-0.0003618768241722137,0.15594641864299774
1666739847.87772489,1390955241,1,0.9877187609672546,0.009886512532830238,-0.00039358335197903216,0.15592849254608154
1666739847.89772582,1390975242,1,0.987720251083374,0.009877003729343414,-0.00039304286474362016,0.15591982007026672
1666739847.91774988,1390995266,1,0.987721860408783,0.009886105544865131,-0.00039553025271743536,0.15590915083885193
1666739847.95770693,1391035223,1,0.9877235889434814,0.009889503940939903,-0.00039458851097151637,0.15589800477027893
1666739847.99774981,1391075266,1,0.9877266883850098,0.00989589560776949,-0.0004074756579939276,0.15587788820266724
1666739848.03771496,1391115231,1,0.9877343773841858,0.009890059940516949,-0.00041957167559303343,0.15582945942878723
1666739848.07771802,1391155234,1,0.9877366423606873,0.009880357421934605,-0.0004174775385763496,0.1558157354593277
1666739848.09774494,1391175261,1,0.9877375364303589,0.009874825365841389,-0.0004145849379710853,0.15581047534942627
1666739848.11775398,1391195270,1,0.9877405166625977,0.009862619452178478,-0.0004166669095866382,0.15579231083393097
1666739848.15775585,1391235272,1,0.987742006778717,0.009823000058531761,-0.0004253680817782879,0.15578541159629822
1666739848.19777203,1391275288,1,0.987744152545929,0.009803767316043377,-0.00043329125037416816,0.15577290952205658
1666739848.23772693,1391315243,1,0.9877421855926514,0.009798761457204819,-0.00042194713023491204,0.15578563511371613
1666739848.27771497,1391355231,1,0.9877459406852722,0.009786002337932587,-0.0004309841024223715,0.15576255321502686
1666739848.29773402,1391375250,1,0.9877452254295349,0.009783569723367691,-0.0004344083135947585,0.15576747059822083
1666739848.31772494,1391395241,1,0.9877459406852722,0.00978145468980074,-0.00044627985334955156,0.15576274693012238
1666739848.35775304,1391435269,1,0.987749457359314,0.00976479984819889,-0.0004452497814781964,0.15574181079864502
1666739848.39775991,1391475276,1,0.987752377986908,0.009752845391631126,-0.0004552725877147168,0.1557239294052124
1666739848.43775892,1391515275,1,0.9877547025680542,0.009753290563821793,-0.00046925913193263113,0.1557091325521469
1666739848.47772694,1391555243,1,0.9877537488937378,0.009759035892784595,-0.00046145624946802855,0.15571457147598267
1666739848.49775195,1391575268,1,0.9877530932426453,0.009742149151861668,-0.0004625359724741429,0.1557197868824005
1666739848.51772285,1391595239,1,0.9877538084983826,0.009744517505168915,-0.0004510197031777352,0.15571513772010803
1666739848.55771899,1391635235,1,0.9877552390098572,0.00970980804413557,-0.0004649380571208894,0.1557082235813141
1666739848.59776783,1391675284,1,0.9877628684043884,0.009718049317598343,-0.0004635495715774596,0.15565960109233856
1666739848.63774085,1391715257,1,0.987766683101654,0.009687269106507301,-0.0004597777733579278,0.15563718974590302
1666739848.67774892,1391755265,1,0.9877749681472778,0.009665682911872864,-0.000455766188679263,0.15558607876300812
1666739848.69775486,1391775271,1,0.9877774715423584,0.009671054780483246,-0.0004550703160930425,0.15556956827640533
1666739848.71772504,1391795241,1,0.987779974937439,0.009662119671702385,-0.00045830014278180897,0.15555453300476074
1666739848.75772285,1391835239,1,0.9877808094024658,0.009675747714936733,-0.0004630517214536667,0.1555483341217041
1666739848.79776597,1391875282,1,0.9877893924713135,0.009685819037258625,-0.00048569979844614863,0.15549305081367493
1666739848.83775997,1391915276,1,0.9877933263778687,0.00968928262591362,-0.0004975642077624798,0.1554677039384842
1666739848.87775493,1391955271,1,0.9877960085868835,0.009684517979621887,-0.0005029098829254508,0.1554509699344635
1666739848.89773202,1391975248,1,0.9877983927726746,0.009688613936305046,-0.000504471710883081,0.155435711145401
1666739848.91777897,1391995295,1,0.9878011345863342,0.009675348177552223,-0.0004996504285372794,0.15541896224021912
1666739848.95772481,1392035241,1,0.9878042340278625,0.009650754742324352,-0.0004900103085674345,0.15540094673633575
1666739848.99772596,1392075242,1,0.9878047108650208,0.009674804285168648,-0.0005021875840611756,0.15539631247520447
1666739849.03775692,1392115273,1,0.9878079295158386,0.009650513529777527,-0.0005463071865960956,0.15537714958190918
1666739849.07772899,1392155245,1,0.9877992272377014,0.009674576111137867,-0.0005353743326850235,0.15543118119239807
1666739849.09772682,1392175243,1,0.987796425819397,0.009612169116735458,-0.0005729348049499094,0.15545271337032318
1666739849.11775994,1392195276,1,0.9877997636795044,0.009648107923567295,-0.0005741199711337686,0.15542921423912048
1666739849.15772390,1392235240,1,0.9877941012382507,0.009572554379701614,-0.0005596353439614177,0.15546971559524536
1666739849.19773293,1392275249,1,0.9878028631210327,0.009550122544169426,-0.0005696986336261034,0.1554156094789505
1666739849.23772383,1392315240,1,0.9878121614456177,0.00947583094239235,-0.0005833104369230568,0.15536102652549744
1666739849.27775383,1392355270,1,0.9878111481666565,0.009497747756540775,-0.0005565602914430201,0.1553659588098526
1666739849.29772186,1392375238,1,0.9878065586090088,0.009494835510849953,-0.0005452117184177041,0.15539555251598358
1666739849.31776285,1392395279,1,0.9878073930740356,0.009510339237749577,-0.0005519745172932744,0.15538914501667023
