timestamp,TimeUS,C,Roll,Pitch,Yaw,VN,VE,VD,dPD,PN,PE,PD,GX,GY,GZ,OH
63.16627900,63166279,2,-0.2,0.43,92.74,0.027300601825118065,0.03043358586728573,-0.00821242481470108,0.3505939245223999,0.0,0.0,-0.13557898998260498,0.0,0.02,0.04,0.0
63.26625200,63266252,2,-0.2,0.41000000000000003,92.89,0.025828959420323372,0.0007596329669468105,-0.009438111446797848,0.6024020314216614,0.0,0.0,-0.09093386679887772,0.0,0.02,0.04,0.0
63.36625800,63366258,2,-0.22,0.46,92.71000000000001,0.03544923663139343,0.0070749674923717976,-0.010753873735666275,0.44754743576049805,0.0,0.0,-0.05999726057052612,0.0,0.02,0.04,0.0
63.46625300,63466253,2,-0.19,0.42,92.8,0.026348059996962547,0.020238714292645454,-0.010403994470834732,0.2599741220474243,0.0,0.0,-0.03883705660700798,0.0,0.02,0.04,0.0
63.56625200,63566252,2,-0.22,0.45,92.74,0.03822790086269379,-0.003822771366685629,-0.011321093887090683,0.14051851630210876,0.0,0.0,-0.023448580875992775,0.0,0.02,0.04,0.0
63.66633200,63666332,2,-0.19,0.45,92.66,0.03222213312983513,0.022770438343286514,-0.009930730797350407,0.08135394006967545,0.0,0.0,-0.011830241419374943,0.0,0.02,0.04,0.0
63.76631300,63766313,2,-0.2,0.4,92.84,0.0359773188829422,0.011206257157027721,-0.010891048237681389,0.05687451362609863,0.0,0.0,-0.0029147949535399675,0.0,0.02,0.04,0.0
63.86634600,63866346,2,-0.22,0.47000000000000003,92.58,0.03906681016087532,-0.00796985812485218,-0.010924039408564568,0.03901377692818642,0.0,0.0,0.0033524255268275738,0.0,0.02,0.04,0.0
63.96635300,63966353,2,-0.2,0.47000000000000003,92.60000000000001,0.041609328240156174,0.02424694411456585,-0.0075051202438771725,0.03201736509799957,0.0,0.0,0.008465174585580826,0.0,0.02,0.04,0.0
64.06628700,64066287,2,-0.22,0.43,92.82000000000001,0.03442108631134033,0.010690555907785892,-0.007858960889279842,0.0174250528216362,0.0,0.0,0.01131188403815031,0.0,0.02,0.04,0.0
64.16625100,64166251,2,-0.21,0.45,92.66,0.05095585808157921,0.0024092181120067835,-0.007799963466823101,0.007157014217227697,0.0,0.0,0.013546369038522243,0.0,0.02,0.04,0.0
64.26626300,64266263,2,-0.24,0.46,92.64,0.041624777019023895,0.011843541637063026,-0.006871833465993404,0.007347496226429939,0.0,0.0,0.015179800800979137,0.0,0.02,0.04,0.0
64.36626100,64366261,2,-0.18,0.46,92.71000000000001,0.048176903277635574,0.009065280668437481,-0.005961704533547163,0.010157585144042969,0.0,0.0,0.016933584585785866,0.0,0.02,0.04,0.0
64.46626800,64466268,2,-0.27,0.47000000000000003,92.59,0.05144623667001724,0.011386885307729244,-0.005666901357471943,0.016478871926665306,0.0,0.0,0.01904737576842308,0.0,0.02,0.04,0.0
64.56635200,64566352,2,-0.21,0.46,92.74,0.04642781615257263,0.018282879143953323,-0.004909374751150608,0.027078796178102493,0.0,0.0,0.02183935046195984,0.0,0.02,0.04,0.0
64.66632700,64666327,2,-0.22,0.45,92.88,0.056959118694067,0.006406842730939388,-0.005065134726464748,0.0374736525118351,0.0,0.0,0.025426754727959633,0.0,0.02,0.04,0.0
64.76635500,64766355,2,-0.24,0.47000000000000003,92.63,0.051826708018779755,-0.006820824462920427,-0.005078486166894436,0.036513976752758026,0.0,0.0,0.02865677885711193,0.0,0.02,0.04,0.0
64.86635500,64866355,2,-0.23,0.49,92.54,0.06256919354200363,0.018222689628601074,-0.0024938525166362524,0.03336022421717644,0.0,0.0,0.031696535646915436,0.0,0.02,0.04,0.0
64.96628200,64966282,2,-0.22,0.46,92.92,0.04912479594349861,0.01595711149275303,-0.0016039364272728562,0.03275754675269127,0.0,0.0,0.0350092276930809,0.0,0.02,0.04,0.0
65.06626000,65066260,2,-0.23,0.45,92.75,0.06996441632509232,-0.005741980392485857,-0.0013605307321995497,0.03448442369699478,0.0,0.0,0.03845832869410515,0.0,0.02,0.04,0.0
65.16627000,65166270,2,-0.25,0.51,92.39,0.06128954514861107,-0.0018178561003878713,0.00040447813807986677,0.03275467827916145,0.0,0.0,0.04141638055443764,0.0,0.02,0.04,0.0
65.26626300,65266263,2,-0.21,0.49,92.79,0.06125345826148987,0.02978568524122238,0.0033906109165400267,0.03417201712727547,0.0,0.0,0.04494301229715347,0.0,0.02,0.04,0.0
65.36626600,65366266,2,-0.27,0.44,92.87,0.06533154100179672,-0.005140508525073528,0.0026806630194187164,0.031195424497127533,0.0,0.0,0.04784389212727547,0.0,0.02,0.04,0.0
65.46634000,65466340,2,-0.23,0.5,92.38,0.07562036067247391,-0.011678599752485752,0.0040572392754256725,0.027089715003967285,0.0,0.0,0.050577230751514435,0.0,0.02,0.04,0.0
65.56630700,65566307,2,-0.26,0.53,92.62,0.0671149492263794,0.0229262113571167,0.00807061605155468,0.03123052977025509,0.0,0.0,0.053572721779346466,0.0,0.02,0.04,0.0
65.66635500,65666355,2,-0.26,0.45,92.9,0.0667223408818245,0.009013458155095577,0.007469694130122662,0.028877848759293556,0.0,0.0,0.05651572719216347,0.0,0.02,0.04,0.0
65.76635600,65766356,2,-0.26,0.49,92.46000000000001,0.08293747901916504,-0.02321046218276024,0.008407310582697392,0.03407737985253334,0.0,0.0,0.06011121720075607,0.0,0.02,0.04,0.0
65.86628700,65866287,2,-0.28,0.55,92.47,0.07189037650823593,0.008949389681220055,0.011492811143398285,0.05947204306721687,0.0,0.0,0.06629949063062668,0.0,0.02,0.04,0.0
65.96627100,65966271,2,-0.25,0.49,92.86,0.0752023234963417,0.015965724363923073,0.012248705141246319,0.07707691192626953,0.0,0.0,0.073174849152565,0.0,0.02,0.05,0.0
66.06626000,66066260,2,-0.27,0.49,92.58,0.08559823036193848,-0.02814716100692749,0.01218435075134039,0.06447300314903259,0.0,0.0,0.07854368537664413,0.0,0.02,0.05,0.0
66.16626100,66166261,2,-0.28,0.5700000000000001,92.39,0.08193352073431015,-0.006488773971796036,0.014448683708906174,0.04166899994015694,0.0,0.0,0.08217047899961472,0.0,0.02,0.05,0.0
66.26627900,66266279,2,-0.26,0.52,92.72,0.07811732590198517,0.014243008568882942,0.015798788517713547,0.034512653946876526,0.0,0.0,0.08636564761400223,0.0,0.02,0.05,0.0
66.36634000,66366340,2,-0.26,0.49,92.68,0.08602467179298401,-0.02097300998866558,0.016500499099493027,0.04227295517921448,0.0,0.0,0.09092791378498077,0.0,0.02,0.05,0.0
66.46633100,66466331,2,-0.28,0.56,92.43,0.08916785567998886,-0.023752620443701744,0.01753902994096279,0.04923513904213905,0.0,0.0,0.09594224393367767,0.0,0.02,0.05,0.0
66.56634400,66566344,2,-0.26,0.54,92.58,0.08087044954299927,0.006118502002209425,0.020661408081650734,0.04759056121110916,0.0,0.0,0.10008589178323746,0.0,0.02,0.05,0.0
66.66636100,66666361,2,-0.26,0.49,92.67,0.08922546356916428,-0.01929602585732937,0.020027166232466698,0.039652492851018906,0.0,0.0,0.10444026440382004,0.0,0.02,0.05,0.0
66.76628800,66766288,2,-0.27,0.55,92.46000000000001,0.09073581546545029,-0.03024299629032612,0.02080461196601391,0.038421567529439926,0.0,0.0,0.10820504277944565,0.0,0.02,0.05,0.0
66.86625500,66866255,2,-0.27,0.55,92.49,0.08873775601387024,-0.0039157806895673275,0.02196473628282547,0.03018435649573803,0.0,0.0,0.11135680973529816,0.0,0.02,0.05,0.0
66.96628000,66966280,2,-0.29,0.51,92.60000000000001,0.09101688861846924,-0.017849167808890343,0.021931679919362068,0.024759376421570778,0.0,0.0,0.11410669982433319,0.0,0.02,0.05,0.0
67.06625200,67066252,2,-0.25,0.56,92.55,0.09429916739463806,-0.027293624356389046,0.022073114290833473,0.024116218090057373,0.0,0.0,0.11686873435974121,0.0,0.02,0.05,0.0
67.16626200,67166262,2,-0.25,0.5,92.54,0.08818379044532776,-0.011265773326158524,0.02219979651272297,0.03174900636076927,0.0,0.0,0.12046796083450317,0.0,0.02,0.05,0.0
67.26632400,67266324,2,-0.15,0.44,92.47,0.09186581522226334,-0.02762454003095627,0.022890716791152954,0.0350329764187336,0.0,0.0,0.12377766519784927,0.0,0.02,0.05,0.0
67.36632500,67366325,2,-0.14,0.47000000000000003,92.53,0.09323340654373169,-0.02975555509328842,0.024078795686364174,0.030307557433843613,0.0,0.0,0.12659762799739838,0.0,0.02,0.05,0.0
67.46634800,67466348,2,-0.1,0.44,92.52,0.08753663301467896,-0.017915990203619003,0.02576642856001854,0.036874670535326004,0.0,0.0,0.13065387308597565,0.0,0.02,0.05,0.0
67.56635900,67566359,2,-0.06,0.37,92.45,0.0923924520611763,-0.030849125236272812,0.02620617486536503,0.03668389096856117,0.0,0.0,0.13382257521152496,0.0,0.02,0.05,0.0
67.66629200,67666292,2,-0.04,0.38,92.46000000000001,0.08947019279003143,-0.03220192715525627,0.027164479717612267,0.031787361949682236,0.0,0.0,0.13698220252990723,0.0,0.02,0.05,0.0
67.76625400,67766254,2,0.0,0.33,92.4,0.08895541727542877,-0.023438988253474236,0.026520205661654472,0.02396833337843418,0.0,0.0,0.13923439383506775,0.0,0.02,0.05,0.0
67.86625400,67866254,2,0.06,0.25,92.39,0.08835993707180023,-0.02854316122829914,0.027813086286187172,0.015807095915079117,0.0,0.0,0.14089782536029816,0.0,0.02,0.05,0.0
67.96626000,67966260,2,0.11,0.26,92.53,0.09474841505289078,-0.04201095178723335,0.028745252639055252,0.01502025593072176,0.0,0.0,0.14276589453220367,0.0,0.02,0.05,0.0
68.06625200,68066252,2,0.08,0.28,92.53,0.08645543456077576,-0.037366267293691635,0.02738272212445736,0.008037990890443325,0.0,0.0,0.1434612274169922,0.0,0.02,0.05,0.0
68.16632200,68166322,2,0.06,0.29,92.48,0.08901731669902802,-0.03846307098865509,0.02830079011619091,0.016540827229619026,0.0,0.0,0.14594483375549316,0.0,0.02,0.05,0.0
68.26632100,68266321,2,0.1,0.28,92.49,0.09042029827833176,-0.03842395916581154,0.029785815626382828,0.038871247321367264,0.0,0.0,0.14975565671920776,0.0,0.02,0.05,0.0
68.36635700,68366357,2,0.13,0.24,92.49,0.08428486436605453,-0.03436659276485443,0.028227724134922028,0.04626788571476936,0.0,0.0,0.15392433106899261,0.0,0.02,0.05,0.0
68.46635700,68466357,2,0.22,0.15,92.43,0.07867500185966492,-0.03157462179660797,0.028590694069862366,0.0387427844107151,0.0,0.0,0.1570742279291153,0.0,0.02,0.05,0.0
68.56628400,68566284,2,0.27,0.1,92.37,0.08485907316207886,-0.042275961488485336,0.030679579824209213,0.018845556303858757,0.0,0.0,0.15852029621601105,0.0,0.02,0.05,0.0
68.66625300,68666253,2,0.21,0.13,92.36,0.08924705535173416,-0.05105060711503029,0.03292793035507202,0.01071846205741167,0.0,0.0,0.16017672419548035,0.0,0.02,0.05,0.0
68.76625100,68766251,2,0.13,0.19,92.38,0.08252552896738052,-0.047983791679143906,0.03285940736532211,0.014379149302840233,0.0,0.0,0.16204333305358887,0.0,0.02,0.05,0.0
68.86625400,68866254,2,-0.02,0.24,92.35000000000001,0.08228567987680435,-0.048414427787065506,0.03076816163957119,0.02288885787129402,0.0,0.0,0.16481249034404755,0.0,0.02,0.05,0.0
68.96628000,68966280,2,-0.26,0.38,92.31,0.08704949915409088,-0.06428249925374985,0.0313502736389637,0.033700473606586456,0.0,0.0,0.16787083446979523,0.0,0.02,0.05,0.0
69.06634800,69066348,2,-0.58,0.6,92.23,0.11231584846973419,-0.06428755074739456,0.006761341355741024,0.009872776456177235,0.0,0.0,0.17013514041900635,0.0,0.02,0.05,0.0
69.16632000,69166320,2,-1.07,0.8300000000000001,92.06,0.1268501579761505,-0.06175466626882553,-0.031985435634851456,-0.021860463544726372,0.0,0.0,0.1696806252002716,0.0,0.02,0.05,0.0
69.26635300,69266353,2,-1.69,1.07,91.87,0.12184621393680573,-0.05390072986483574,-0.06971987336874008,-0.0576058104634285,0.0,0.0,0.16512086987495422,0.0,0.02,0.05,0.0
69.36635500,69366355,2,-2.11,1.3,91.81,0.10497371107339859,-0.05851314961910248,-0.0917414128780365,-0.08995011448860168,0.0,0.0,0.15685522556304932,0.0,0.02,0.05,0.0
69.46628200,69466282,2,-2.21,1.61,91.78,0.06465891748666763,-0.06942518055438995,-0.13681432604789734,-0.1315251886844635,0.0,0.0,0.14647480845451355,0.0,0.02,0.05,0.0
69.56627200,69566272,2,-2.2800000000000002,1.97,91.73,0.027708003297448158,-0.06229638308286667,-0.2076559066772461,-0.18509921431541443,0.0,0.0,0.13127152621746063,0.0,0.02,0.05,0.0
69.66626200,69666262,2,-1.96,1.84,91.76,0.01171382237225771,-0.04810209572315216,-0.2632349133491516,-0.2210722118616104,0.0,0.0,0.111076720058918,0.0,0.02,0.05,0.0
69.76625800,69766258,2,-1.61,1.54,91.84,0.013130314648151398,-0.05146849900484085,-0.2921275496482849,-0.25072845816612244,0.0,0.0,0.08616422116756439,0.0,0.02,0.05,0.0
69.86627600,69866276,2,-1.42,1.46,91.94,0.031085742637515068,-0.05756222829222679,-0.3224044442176819,-0.3094499409198761,0.0,0.0,0.055819738656282425,0.0,0.02,0.05,0.0
69.96633300,69966333,2,-1.33,1.56,92.17,0.0465041883289814,-0.048276644200086594,-0.32588768005371094,-0.3364905118942261,0.0,0.0,0.022503972053527832,0.0,0.02,0.05,0.0
70.06634300,70066343,2,-1.36,1.7,92.32000000000001,0.06608587503433228,-0.03697642311453819,-0.3123740553855896,-0.3409036695957184,0.0,0.0,-0.01171976886689663,0.0,0.02,0.05,0.0
70.16636400,70166364,2,-1.34,1.67,92.32000000000001,0.059907879680395126,-0.03534616157412529,-0.2899364233016968,-0.3263855576515198,0.0,0.0,-0.044401634484529495,0.0,0.02,0.05,0.0
70.26636700,70266367,2,-1.27,1.58,92.2,0.05879347026348114,-0.044019997119903564,-0.22791270911693573,-0.2478177696466446,0.0,0.0,-0.07153497636318207,0.0,0.02,0.05,0.0
70.36628600,70366286,2,-1.32,1.61,92.10000000000001,0.07883171737194061,-0.060490041971206665,-0.1378740519285202,-0.14033502340316772,0.0,0.0,-0.08991143107414246,0.0,0.02,0.05,0.0
70.46627200,70466272,2,-1.42,1.57,92.07000000000001,0.07841745764017105,-0.06376981735229492,-0.08376207202672958,-0.08273082971572876,0.0,0.0,-0.1008642241358757,0.0,0.02,0.05,0.0
70.56626600,70566266,2,-1.2,1.26,92.18,0.09030835330486298,-0.06794153153896332,-0.02967137098312378,-0.03841810300946236,0.0,0.0,-0.10764264315366745,0.0,0.02,0.05,0.0
70.66625800,70666258,2,-0.86,0.89,92.35000000000001,0.10635732859373093,-0.0670480951666832,0.0010138130746781826,-0.0201785396784544,0.0,0.0,-0.11092852056026459,0.0,0.02,0.05,0.0
70.76631500,70766315,2,-0.73,0.7000000000000001,92.44,0.10471825301647186,-0.05839933454990387,0.020931022241711617,-0.016370179131627083,0.0,0.0,-0.11348888278007507,0.0,0.02,0.05,0.0
70.86632500,70866325,2,-0.63,0.6,92.46000000000001,0.08834608644247055,-0.046986088156700134,0.017454899847507477,-0.03394231200218201,0.0,0.0,-0.11590097099542618,0.0,0.02,0.05,0.0
70.96634000,70966340,2,-0.39,0.42,92.41,0.07883112877607346,-0.0416828878223896,0.018867626786231995,-0.02036070078611374,0.0,0.0,-0.11709839105606079,0.0,0.02,0.05,0.0
71.06635300,71066353,2,-0.3,0.44,92.35000000000001,0.07192590832710266,-0.042335327714681625,0.04088299721479416,0.019107874482870102,0.0,0.0,-0.1161554753780365,0.0,0.02,0.05,0.0
71.16635100,71166351,2,-0.38,0.62,92.38,0.07171543687582016,-0.043867822736501694,0.051414698362350464,0.030465850606560707,0.0,0.0,-0.11389492452144623,0.0,0.02,0.05,0.0
71.26628800,71266288,2,-0.36,0.75,92.45,0.07229818403720856,-0.051018618047237396,0.04070114344358444,0.013971975073218346,0.0,0.0,-0.11210428923368454,0.0,0.02,0.05,0.0
71.36628300,71366283,2,-0.19,0.8,92.5,0.07407795637845993,-0.05544549226760864,0.0473577156662941,0.009746137075126171,0.0,0.0,-0.11196546256542206,0.0,0.02,0.05,0.0
71.46626000,71466260,2,-0.15,0.87,92.52,0.07813350856304169,-0.056011948734521866,0.054837167263031006,0.002845467533916235,0.0,0.0,-0.11184173077344894,0.0,0.02,0.05,0.0
71.56626300,71566263,2,-0.21,0.91,92.47,0.08768443763256073,-0.05618385598063469,0.05753481760621071,0.01032846700400114,0.0,0.0,-0.10989797860383987,0.0,0.02,0.05,0.0
71.66627900,71666279,2,-0.18,0.9,92.41,0.09166721999645233,-0.05437830835580826,0.055043768137693405,0.016128502786159515,0.0,0.0,-0.1081324890255928,0.0,0.02,0.05,0.0
71.76633800,71766338,2,-0.13,0.97,92.34,0.09085801988840103,-0.05109742656350136,0.060037508606910706,0.022944366559386253,0.0,0.0,-0.10612689703702927,0.0,0.02,0.05,0.0
71.86633700,71866337,2,-0.19,1.08,92.27,0.09669829905033112,-0.04299941658973694,0.05972537398338318,0.030024807900190353,0.0,0.0,-0.10286153852939606,0.0,0.02,0.05,0.0
71.96637000,71966370,2,-0.3,1.1500000000000001,92.23,0.10296788066625595,-0.040918540209531784,0.0496036559343338,0.03643351048231125,0.0,0.0,-0.09856260567903519,0.0,0.02,0.05,0.0
72.06635600,72066356,2,-0.32,1.05,92.22,0.10456867516040802,-0.04337800666689873,0.05146068334579468,0.04605179280042648,0.0,0.0,-0.09487282484769821,0.0,0.02,0.05,0.0
72.16629400,72166294,2,-0.43,0.88,92.19,0.10765081644058228,-0.04578612372279167,0.05949029698967934,0.043812479823827744,0.0,0.0,-0.09127909690141678,0.0,0.02,0.05,0.0
72.26629400,72266294,2,-0.67,0.67,92.13,0.10981778800487518,-0.051861684769392014,0.055753257125616074,0.03143712878227234,0.0,0.0,-0.08783651888370514,0.0,0.02,0.05,0.0
72.36625800,72366258,2,-0.8300000000000001,0.45,92.11,0.11406633257865906,-0.05593492463231087,0.045339688658714294,0.019237486645579338,0.0,0.0,-0.08535101264715195,0.0,0.02,0.05,0.0
72.46625600,72466256,2,-1.0,0.26,92.13,0.12197389453649521,-0.05116279050707817,0.05171622708439827,0.023178229108452797,0.0,0.0,-0.08324916660785675,0.0,0.02,0.05,0.0
72.56627800,72566278,2,-1.17,0.16,92.18,0.12497249245643616,-0.047599997371435165,0.05398458242416382,0.01807723194360733,0.0,0.0,-0.08136407285928726,0.0,0.02,0.06,0.0
72.66633000,72666330,2,-1.17,0.21,92.16,0.12373228371143341,-0.048774801194667816,0.04443538933992386,-8.988743502413854e-05,0.0,0.0,-0.08063145726919174,0.0,0.02,0.06,0.0
72.76634800,72766348,2,-1.01,0.37,92.13,0.1236409917473793,-0.042841508984565735,0.038546737283468246,-0.008443477563560009,0.0,0.0,-0.08093073964118958,0.0,0.02,0.06,0.0
72.86635600,72866356,2,-0.8300000000000001,0.55,92.15,0.12716487050056458,-0.041605882346630096,0.042451776564121246,-0.0028945559170097113,0.0,0.0,-0.08127809315919876,0.0,0.02,0.06,0.0
72.96635600,72966356,2,-0.76,0.92,92.08,0.13068224489688873,-0.043580569326877594,0.05958664044737816,0.024128109216690063,0.0,0.0,-0.07941678166389465,0.0,0.02,0.06,0.0
73.06628400,73066284,2,-0.75,1.18,91.94,0.13941314816474915,-0.0393049456179142,0.05060182884335518,0.01436861976981163,0.0,0.0,-0.07777990400791168,0.0,0.02,0.06,0.0
73.16625600,73166256,2,-0.6900000000000001,1.18,91.92,0.1353866010904312,-0.039421018213033676,0.04728752747178078,-0.004062381107360125,0.0,0.0,-0.07819892466068268,0.0,0.02,0.06,0.0
73.26625500,73266255,2,-0.71,1.03,91.93,0.125306636095047,-0.040231820195913315,0.051528677344322205,-0.0063407993875443935,0.0,0.0,-0.07868833094835281,0.0,0.02,0.06,0.0
73.36625600,73366256,2,-0.74,0.8,91.92,0.1174260750412941,-0.041719794273376465,0.073182612657547,0.010071697644889355,0.0,0.0,-0.07856285572052002,0.0,0.02,0.06,0.0
73.46632100,73466321,2,-0.59,0.54,91.86,0.12151377648115158,-0.03946474939584732,0.08225292712450027,0.01573943719267845,0.0,0.0,-0.07668165117502213,0.0,0.02,0.06,0.0
73.56632900,73566329,2,-0.38,0.29,91.76,0.12650537490844727,-0.033897850662469864,0.08884625881910324,0.020738117396831512,0.0,0.0,-0.07494105398654938,0.0,0.02,0.06,0.0
73.66635300,73666353,2,-0.34,0.22,91.69,0.1252766251564026,-0.02682787925004959,0.11164529621601105,0.04636622220277786,0.0,0.0,-0.07122761756181717,0.0,0.02,0.06,0.0
73.76634700,73766347,2,-0.43,0.29,91.67,0.12795677781105042,-0.0293784961104393,0.1400197446346283,0.09244474768638611,0.0,0.0,-0.06278262287378311,0.0,0.02,0.06,0.0
73.86634600,73866346,2,-0.77,0.5700000000000001,91.68,0.1266063004732132,-0.036926355212926865,0.15427666902542114,0.12244167178869247,0.0,0.0,-0.05152004584670067,0.0,0.02,0.06,0.0
73.96628900,73966289,2,-1.58,1.17,91.60000000000001,0.12344922870397568,-0.03928414359688759,0.16428029537200928,0.12784035503864288,0.0,0.0,-0.040362268686294556,0.0,0.02,0.06,0.0
74.06625200,74066252,2,-2.57,1.71,91.46000000000001,0.12854568660259247,-0.030621906742453575,0.20627917349338531,0.1581583470106125,0.0,0.0,-0.026571400463581085,0.0,0.02,0.06,0.0
74.16625400,74166254,2,-3.19,1.75,91.4,0.13951440155506134,-0.022277601063251495,0.2353048175573349,0.2091224193572998,0.0,0.0,-0.005585577804595232,0.0,0.02,0.06,0.0
74.26625900,74266259,2,-2.92,1.24,91.32000000000001,0.1523555964231491,-0.03184003755450249,0.21930912137031555,0.21299874782562256,0.0,0.0,0.01620558649301529,0.0,0.02,0.06,0.0
74.36626500,74366265,2,-1.81,0.6900000000000001,91.05,0.15440084040164948,-0.044451311230659485,0.19029028713703156,0.18571443855762482,0.0,0.0,0.035635124891996384,0.0,0.02,0.06,0.0
74.46632700,74466327,2,-0.77,0.45,90.72,0.1571376621723175,-0.035670310258865356,0.15923142433166504,0.15697899460792542,0.0,0.0,0.05226196348667145,0.0,0.02,0.06,0.0
74.56632200,74566322,2,-0.1,0.52,90.53,0.14841875433921814,-0.03015044890344143,0.17338532209396362,0.16355490684509277,0.0,0.0,0.06693229079246521,0.0,0.02,0.06,0.0
74.66634700,74666347,2,0.29,0.72,90.5,0.14301325380802155,-0.016128698363900185,0.17719876766204834,0.16757605969905853,0.0,0.0,0.08386339992284775,0.0,0.02,0.06,0.0
74.76637000,74766370,2,0.25,0.65,90.55,0.14544399082660675,-0.008635523729026318,0.2019185572862625,0.19763676822185516,0.0,0.0,0.10194382816553116,0.0,0.02,0.06,0.0
74.86628300,74866283,2,-0.47000000000000003,0.5,90.37,0.1449979841709137,-0.02887619100511074,0.23890334367752075,0.2389591634273529,0.0,0.0,0.12398891150951385,0.0,0.02,0.06,0.0
74.96625600,74966256,2,-1.29,0.37,90.06,0.13869419693946838,-0.03555518388748169,0.23343026638031006,0.2468126118183136,0.0,0.0,0.149657741189003,0.0,0.02,0.06,0.0
75.06625500,75066255,2,-1.71,0.14,89.87,0.12940044701099396,-0.03148818761110306,0.19003838300704956,0.21183250844478607,0.0,0.0,0.17217162251472473,0.0,0.02,0.06,0.0
75.16625300,75166253,2,-1.81,-0.06,89.74,0.12529204785823822,-0.019954979419708252,0.15933316946029663,0.1713452935218811,0.0,0.0,0.1899956613779068,0.0,0.02,0.06,0.0
75.26627300,75266273,2,-1.8800000000000001,-0.04,89.5,0.12119416147470474,-0.008459393866360188,0.14339503645896912,0.13641490042209625,0.0,0.0,0.2043643444776535,0.0,0.02,0.07,0.0
75.36633600,75366336,2,-1.6400000000000001,-0.12,89.17,0.129741832613945,-0.017872273921966553,0.13327740132808685,0.11166747659444809,0.0,0.0,0.21632516384124756,0.0,0.02,0.07,0.0
75.46631600,75466316,2,-1.41,-0.22,88.93,0.1503632813692093,-0.030839888378977776,0.11844304949045181,0.08015105128288269,0.0,0.0,0.22521837055683136,0.0,0.02,0.07,0.0
75.56634400,75566344,2,-1.31,-0.11,88.87,0.16530856490135193,-0.03983034938573837,0.10453931987285614,0.062210988253355026,0.0,0.0,0.23313988745212555,0.0,0.02,0.07,0.0
75.66635900,75666359,2,-1.08,0.0,88.74,0.16072909533977509,-0.03906063735485077,0.10166146606206894,0.06727966666221619,0.0,0.0,0.24067088961601257,0.0,0.02,0.07,0.0
75.76628600,75766286,2,-0.91,0.03,88.49,0.15193891525268555,-0.037534017115831375,0.10159479081630707,0.06767702847719193,0.0,0.0,0.2475038766860962,0.0,0.02,0.07,0.0
75.86626700,75866267,2,-0.88,-0.08,88.23,0.13368085026741028,-0.0350705087184906,0.08565379679203033,0.03314269706606865,0.0,0.0,0.25123587250709534,0.0,0.02,0.07,0.0
75.96625900,75966259,2,-0.67,-0.38,88.01,0.11608897894620895,-0.03912106528878212,0.07292654365301132,0.010579809546470642,0.0,0.0,0.2535988688468933,0.0,0.02,0.07,0.0
76.06625300,76066253,2,-0.63,-0.49,87.92,0.11083093285560608,-0.04101347178220749,0.09824194759130478,0.03949445113539696,0.0,0.0,0.256450891494751,0.0,0.02,0.07,0.0
76.16626300,76166263,2,-0.8,-0.34,87.93,0.1206500232219696,-0.036139339208602905,0.0954548567533493,0.03875057026743889,0.0,0.0,0.2614128291606903,0.0,0.02,0.07,0.0
76.26633700,76266337,2,-0.81,-0.29,87.93,0.13573257625102997,-0.042282167822122574,0.07595856487751007,0.033185336738824844,0.0,0.0,0.26618248224258423,0.0,0.02,0.07,0.0
76.36632700,76366327,2,-0.73,-0.17,87.88,0.1224990114569664,-0.07209137082099915,0.04296493157744408,0.024113476276397705,0.0,0.0,0.270779550075531,0.0,0.02,0.07,0.0
76.46634900,76466349,2,-0.5700000000000001,-0.07,87.88,0.1089680939912796,-0.09113243222236633,0.043360140174627304,0.036411166191101074,0.0,0.0,0.27336838841438293,0.0,0.02,0.07,0.0
76.56634300,76566343,2,-0.27,0.07,88.0,0.1298462301492691,-0.0909830629825592,0.02913728542625904,0.012892688624560833,0.0,0.0,0.2743748128414154,0.0,0.02,0.07,0.0
76.66628400,76666284,2,-0.29,0.21,88.02,0.14799977838993073,-0.0853443369269371,0.03188579902052879,0.0029357795137912035,0.0,0.0,0.27416953444480896,0.0,0.02,0.07,0.0
76.76627000,76766270,2,-0.36,0.45,88.08,0.1429823637008667,-0.11368746310472488,0.027825133875012398,-0.014086730778217316,0.0,0.0,0.2730098366737366,0.0,0.02,0.07,0.0
76.86625400,76866254,2,-0.36,0.68,88.24,0.17041417956352234,-0.10882914066314697,0.02042112872004509,-0.027096671983599663,0.0,0.0,0.27123427391052246,0.0,0.02,0.07,0.0
76.96625600,76966256,2,-0.42,0.8200000000000001,88.29,0.125010147690773,-0.07010729610919952,0.01904653012752533,-0.030526114627718925,0.0,0.0,0.2683159112930298,0.0,0.02,0.07,0.0
77.06627200,77066272,2,-0.42,0.71,88.31,0.13070502877235413,-0.03042629361152649,0.01857762597501278,-0.035085804760456085,0.0,0.0,0.26525986194610596,0.0,0.02,0.07,0.0
77.16632700,77166327,2,-0.4,0.6,88.34,0.1328909546136856,-0.07291959971189499,0.014889892190694809,-0.04024852067232132,0.0,0.0,0.2617862820625305,0.0,0.02,0.07,0.0
77.26631800,77266318,2,-0.41000000000000003,0.6900000000000001,88.32000000000001,0.13882039487361908,-0.0860733836889267,0.012613139115273952,-0.05004323273897171,0.0,0.0,0.2569839358329773,0.0,0.02,0.07,0.0
77.36634800,77366348,2,-0.43,0.7000000000000001,88.26,0.13232828676700592,-0.05899035930633545,0.014025484211742878,-0.060383766889572144,0.0,0.0,0.25117728114128113,0.0,0.02,0.07,0.0
77.46635500,77466355,2,-0.35000000000000003,0.59,88.25,0.13418352603912354,-0.06012079119682312,0.013746317476034164,-0.07350911945104599,0.0,0.0,0.24418765306472778,0.0,0.02,0.07,0.0
77.56628200,77566282,2,-0.39,0.61,88.24,0.1379084587097168,-0.09046802669763565,0.011907735839486122,-0.07028467953205109,0.0,0.0,0.23827454447746277,0.0,0.02,0.07,0.0
77.66625400,77666254,2,-0.37,0.65,88.2,0.11786952614784241,-0.0647839680314064,0.01269512064754963,-0.014688057824969292,0.0,0.0,0.2382986843585968,0.0,0.02,0.07,0.0
77.76624900,77766249,2,-0.38,0.59,88.19,0.10728175938129425,-0.05615345761179924,0.012977028265595436,0.03803890570998192,0.0,0.0,0.24109655618667603,0.0,0.02,0.07,0.0
77.86625000,77866250,2,-0.37,0.61,88.22,0.09623201936483383,-0.0736740231513977,0.012821681797504425,0.04437223821878433,0.0,0.0,0.24333395063877106,0.0,0.02,0.07,0.0
77.96626400,77966264,2,-0.38,0.64,88.16,0.09327306598424911,-0.056833233684301376,0.01341365184634924,0.05839463695883751,0.0,0.0,0.2487967163324356,0.0,0.02,0.07,0.0
78.06633600,78066336,2,-0.37,0.6,88.11,0.08657623082399368,-0.05591544136404991,0.012083839625120163,0.019012831151485443,0.0,0.0,0.2473219335079193,0.0,0.02,0.08,0.0
78.16631500,78166315,2,-0.36,0.62,88.15,0.09085988998413086,-0.06682738661766052,0.009886303916573524,-0.059349339455366135,0.0,0.0,0.2421114295721054,0.0,0.02,0.08,0.0
78.26634200,78266342,2,-0.38,0.62,88.09,0.08651043474674225,-0.05575117468833923,0.007711285259574652,-0.09670607000589371,0.0,0.0,0.234599307179451,0.0,0.02,0.08,0.0
78.36635100,78366351,2,-0.36,0.59,88.05,0.08852093666791916,-0.060558781027793884,0.006533895153552294,-0.10394807159900665,0.0,0.0,0.22624173760414124,0.0,0.02,0.08,0.0
78.46627600,78466276,2,-0.38,0.62,88.09,0.08921664953231812,-0.06927923113107681,0.004630293231457472,-0.09464770555496216,0.0,0.0,0.2184862494468689,0.0,0.02,0.08,0.0
78.56625500,78566255,2,-0.37,0.62,88.02,0.0875769779086113,-0.06095222756266594,0.00406223488971591,-0.09156069159507751,0.0,0.0,0.20981365442276,0.0,0.02,0.08,0.0
78.66625900,78666259,2,-0.37,0.6,87.98,0.0899527296423912,-0.0677042230963707,0.0027655342128127813,-0.11086788773536682,0.0,0.0,0.19904489815235138,0.0,0.02,0.08,0.0
78.76626600,78766266,2,-0.37,0.62,88.03,0.08881715685129166,-0.06747197359800339,0.0032060814555734396,-0.06353550404310226,0.0,0.0,0.1947413980960846,0.0,0.02,0.08,0.0
78.86625700,78866257,2,-0.35000000000000003,0.6,87.97,0.08948086202144623,-0.06026698648929596,0.0036604914348572493,0.01229253038764,0.0,0.0,0.1951855570077896,0.0,0.02,0.08,0.0
78.96633500,78966335,2,-0.35000000000000003,0.59,87.94,0.08728807419538498,-0.06729636341333389,0.0034186330158263445,0.022882241755723953,0.0,0.0,0.19493436813354492,0.0,0.02,0.08,0.0
79.06632400,79066324,2,-0.33,0.6,87.97,0.08638269454240799,-0.06352152675390244,0.003307413076981902,0.022992456331849098,0.0,0.0,0.19624866545200348,0.0,0.02,0.08,0.0
79.16633800,79166338,2,-0.32,0.58,87.92,0.08192341774702072,-0.05957666411995888,0.0024671610444784164,0.019805418327450752,0.0,0.0,0.19681072235107422,-0.01,0.02,0.08,0.0
79.26632100,79266321,2,-0.3,0.58,87.89,0.08064378798007965,-0.06301087141036987,0.0025692430790513754,-0.0015554152196273208,0.0,0.0,0.19604717195034027,-0.01,0.02,0.08,0.0
79.36629700,79366297,2,-0.3,0.58,87.92,0.07557269930839539,-0.053778450936079025,0.0030521145090460777,0.002838541753590107,0.0,0.0,0.19683384895324707,-0.01,0.02,0.08,0.0
79.46626800,79466268,2,-0.28,0.55,87.87,0.07009107619524002,-0.05151599273085594,0.0029114640783518553,0.004385573323816061,0.0,0.0,0.19680483639240265,-0.01,0.02,0.08,0.0
79.56625900,79566259,2,-0.28,0.55,87.86,0.06610233336687088,-0.051478348672389984,0.001967217307537794,-0.021612850949168205,0.0,0.0,0.1943684071302414,-0.01,0.02,0.08,0.0
79.66626500,79666265,2,-0.25,0.54,87.89,0.058562640100717545,-0.0413358211517334,0.0009892607340589166,-0.038110535591840744,0.0,0.0,0.1913299262523651,-0.01,0.02,0.08,0.0
79.76625200,79766252,2,-0.24,0.52,87.85000000000001,0.054498713463544846,-0.04042593389749527,0.0006029155338183045,-0.022742031142115593,0.0,0.0,0.19018933176994324,-0.01,0.02,0.08,0.0
79.86633500,79866335,2,-0.24,0.53,87.84,0.04859715700149536,-0.03922690451145172,0.0009294712799601257,0.016043175011873245,0.0,0.0,0.19221249222755432,-0.01,0.02,0.08,0.0
79.96632200,79966322,2,-0.22,0.51,87.86,0.04303128272294998,-0.02923594042658806,0.0008230816456489265,0.018596846610307693,0.0,0.0,0.19249068200588226,-0.01,0.02,0.08,0.0
80.06635200,80066352,2,-0.21,0.5,87.83,0.037826769053936005,-0.029706938192248344,-0.0005466998554766178,-0.017373831942677498,0.0,0.0,0.19014506042003632,-0.01,0.02,0.08,0.0
80.16635800,80166358,2,-0.2,0.51,87.83,0.032438915222883224,-0.02615276351571083,-0.0009323609410785139,-0.03879300504922867,0.0,0.0,0.18676774203777313,-0.01,0.02,0.08,0.0
80.26629700,80266297,2,-0.19,0.5,87.84,0.0269328560680151,-0.017067695036530495,-0.0019797971472144127,-0.039733175188302994,0.0,0.0,0.18380805850028992,-0.01,0.02,0.08,0.0
80.36625700,80366257,2,-0.18,0.49,87.81,0.023457838222384453,-0.02014937810599804,-0.004097487311810255,-0.041852567344903946,0.0,0.0,0.17996527254581451,-0.01,0.02,0.08,0.0
80.46625700,80466257,2,-0.18,0.5,87.81,0.018748968839645386,-0.014672577381134033,-0.005153189413249493,-0.04365300014615059,0.0,0.0,0.1761031448841095,-0.01,0.02,0.08,0.0
80.56624800,80566248,2,-0.17,0.48,87.8,0.013364671729505062,-0.010405478067696095,-0.006086325738579035,-0.0370560847222805,0.0,0.0,0.17272675037384033,-0.01,0.02,0.08,0.0
80.66627000,80666270,2,-0.16,0.48,87.77,0.011028669774532318,-0.013684632256627083,-0.007018576376140118,-0.03146938234567642,0.0,0.0,0.16966204345226288,-0.01,0.02,0.08,0.0
80.76634100,80766341,2,-0.15,0.48,87.76,0.005324531812220812,-0.007964245043694973,-0.0064015998505055904,-0.021494917571544647,0.0,0.0,0.16755792498588562,-0.01,0.02,0.08,0.0
80.86631100,80866311,2,-0.15,0.47000000000000003,87.75,0.0025670735631138086,-0.004405127838253975,-0.006784592755138874,-0.008499755524098873,0.0,0.0,0.16659876704216003,-0.01,0.02,0.08,0.0
80.96635400,80966354,2,-0.15,0.48,87.72,-5.19689783686772e-05,-0.006598575506359339,-0.0060799685306847095,0.011580312624573708,0.0,0.0,0.16770604252815247,-0.01,0.02,0.08,0.0
81.06635100,81066351,2,-0.15,0.48,87.71000000000001,-0.0030209654942154884,-0.001186722656711936,-0.005648008547723293,0.025489024817943573,0.0,0.0,0.16929294168949127,-0.01,0.02,0.08,0.0
81.16627500,81166275,2,-0.14,0.47000000000000003,87.7,-0.005091218277812004,-0.0007861069752834737,-0.004903828725218773,0.016110386699438095,0.0,0.0,0.16979509592056274,-0.01,0.02,0.08,0.0
81.26625100,81266251,2,-0.14,0.47000000000000003,87.68,-0.00743767898529768,-0.0039949263446033,-0.00472501665353775,0.01651388593018055,0.0,0.0,0.17167358100414276,-0.01,0.02,0.08,0.0
81.36625100,81366251,2,-0.13,0.47000000000000003,87.67,-0.009979832917451859,0.0014485419960692525,-0.0032436090987175703,0.02030070312321186,0.0,0.0,0.17313173413276672,-0.01,0.02,0.08,0.0
81.46624800,81466248,2,-0.13,0.46,87.65,-0.010654237121343613,3.8874488382134587e-05,-0.0036870096810162067,0.02186710201203823,0.0,0.0,0.17557132244110107,-0.01,0.02,0.08,0.0
81.56625000,81566250,2,-0.13,0.47000000000000003,87.63,-0.010414069518446922,-0.0009474898688495159,-0.003064332064241171,0.03269977495074272,0.0,0.0,0.17868515849113464,-0.01,0.02,0.08,0.0
81.66633800,81666338,2,-0.14,0.47000000000000003,87.62,-0.013407846912741661,0.002400150755420327,-0.0020976781379431486,0.04186596721410751,0.0,0.0,0.18258339166641235,-0.01,0.02,0.08,0.0
81.76633600,81766336,2,-0.14,0.47000000000000003,87.62,-0.013594639487564564,0.0011377929477021098,-0.002407080726698041,0.022125044837594032,0.0,0.0,0.18344849348068237,-0.01,0.02,0.08,0.0
81.86634900,81866349,2,-0.13,0.47000000000000003,87.61,-0.013656322844326496,0.0007090637809596956,-0.002053899224847555,0.001167686190456152,0.0,0.0,0.18403343856334686,-0.01,0.02,0.08,0.0
81.96632900,81966329,2,-0.13,0.47000000000000003,87.59,-0.015340103767812252,0.0022714552469551563,-0.0016014502616599202,0.018444253131747246,0.0,0.0,0.187114417552948,-0.01,0.02,0.08,0.0
82.06627700,82066277,2,-0.13,0.47000000000000003,87.60000000000001,-0.015398547984659672,0.0006551460246555507,-3.928875958081335e-05,0.04016920551657677,0.0,0.0,0.19089195132255554,-0.01,0.02,0.08,0.0
82.16624700,82166247,2,-0.13,0.48,87.58,-0.015684138983488083,0.0008670362876728177,0.0011460818350315094,0.05863643065094948,0.0,0.0,0.1967265009880066,-0.01,0.02,0.08,0.0
82.26627000,82266270,2,-0.13,0.49,87.56,-0.016523201018571854,0.002309125615283847,0.0029532418120652437,0.07208213210105896,0.0,0.0,0.20301589369773865,-0.01,0.02,0.08,0.0
82.36624700,82366247,2,-0.13,0.49,87.57000000000001,-0.017202209681272507,-0.0003731337783392519,0.0045950748026371,0.07913004606962204,0.0,0.0,0.2097354531288147,-0.01,0.02,0.08,0.0
82.46625100,82466251,2,-0.13,0.5,87.55,-0.01700754649937153,0.0003109202370978892,0.006906525697559118,0.07712419331073761,0.0,0.0,0.216435045003891,-0.01,0.02,0.08,0.0
82.56632900,82566329,2,-0.14,0.5,87.53,-0.017818184569478035,-0.00016108801355585456,0.008767955005168915,0.05029277503490448,0.0,0.0,0.22078874707221985,-0.01,0.02,0.08,0.0
82.66631700,82666317,2,-0.13,0.5,87.54,-0.017063573002815247,-0.002691571833565831,0.009554400108754635,0.03823244944214821,0.0,0.0,0.2252652496099472,-0.01,0.02,0.08,0.0
82.76635500,82766355,2,-0.15,0.5,87.53,-0.01701556332409382,-0.002808170858770609,0.009946800768375397,0.04947297275066376,0.0,0.0,0.23079733550548553,-0.01,0.02,0.08,0.0
82.86634600,82866346,2,-0.15,0.5,87.51,-0.016866501420736313,-0.003428144147619605,0.010651817545294762,0.05032828822731972,0.0,0.0,0.2356470674276352,-0.01,0.02,0.08,0.0
82.96628300,82966283,2,-0.16,0.51,87.52,-0.017162078991532326,-0.004035801161080599,0.012016561813652515,0.04080020636320114,0.0,0.0,0.2397240698337555,-0.01,0.02,0.08,0.0
83.06624800,83066248,2,-0.16,0.51,87.5,-0.01563740149140358,-0.003619824768975377,0.012471490539610386,0.032400473952293396,0.0,0.0,0.24310755729675293,-0.01,0.02,0.09,0.0
83.16624800,83166248,2,-0.16,0.51,87.48,-0.015169407241046429,-0.005992447026073933,0.013535470701754093,0.04296759143471718,0.0,0.0,0.24810545146465302,-0.01,0.02,0.09,0.0
83.26625300,83266253,2,-0.16,0.51,87.48,-0.013286073692142963,-0.004654860123991966,0.014369474723935127,0.05436134710907936,0.0,0.0,0.2532130777835846,-0.01,0.02,0.09,0.0
83.36627000,83366270,2,-0.16,0.5,87.45,-0.014779116958379745,-0.006245213095098734,0.015950635075569153,0.06292957067489624,0.0,0.0,0.259468674659729,-0.01,0.02,0.09,0.0
83.46633400,83466334,2,-0.16,0.51,87.44,-0.01356451865285635,-0.008718916215002537,0.01758885383605957,0.0800330862402916,0.0,0.0,0.26707249879837036,-0.01,0.02,0.09,0.0
83.56630400,83566304,2,-0.17,0.51,87.45,-0.01531172264367342,-0.008038491010665894,0.019354119896888733,0.06266997009515762,0.0,0.0,0.2718576490879059,-0.01,0.02,0.09,0.0
83.66634300,83666343,2,-0.16,0.5,87.43,-0.013597380369901657,-0.009514997713267803,0.020600438117980957,0.03563476353883743,0.0,0.0,0.27567487955093384,-0.01,0.02,0.09,0.0
83.76634900,83766349,2,-0.17,0.5,87.42,-0.013089199550449848,-0.010141815058887005,0.02188269980251789,0.046394169330596924,0.0,0.0,0.2812168002128601,-0.01,0.02,0.09,0.0
83.86627600,83866276,2,-0.16,0.5,87.41,-0.0111059146001935,-0.01072578877210617,0.023179488256573677,0.05141788721084595,0.0,0.0,0.2860221862792969,-0.01,0.02,0.09,0.0
83.96625400,83966254,2,-0.16,0.5,87.39,-0.01087690144777298,-0.011711278930306435,0.023049425333738327,0.03910291567444801,0.0,0.0,0.2900095582008362,-0.01,0.02,0.09,0.0
84.06624900,84066249,2,-0.16,0.5,87.39,-0.010067971423268318,-0.012428409419953823,0.024022486060857773,0.04323983192443848,0.0,0.0,0.294809490442276,-0.01,0.02,0.09,0.0
84.16624800,84166248,2,-0.16,0.5,87.38,-0.008336943574249744,-0.014624915085732937,0.024624943733215332,0.048704490065574646,0.0,0.0,0.2995830476284027,-0.01,0.02,0.09,0.0
84.26625400,84266254,2,-0.17,0.5,87.36,-0.007775044534355402,-0.014405755326151848,0.026267768815159798,0.0616886280477047,0.0,0.0,0.30603212118148804,-0.01,0.02,0.09,0.0
84.36631700,84366317,2,-0.17,0.51,87.36,-0.005438433960080147,-0.016175823286175728,0.027745893225073814,0.08254879713058472,0.0,0.0,0.3139108717441559,-0.01,0.02,0.09,0.0
84.46630100,84466301,2,-0.17,0.51,87.35000000000001,-0.004611970856785774,-0.01524378638714552,0.028511537238955498,0.08145228773355484,0.0,0.0,0.3210354447364807,-0.01,0.02,0.09,0.0
84.56633900,84566339,2,-0.17,0.5,87.33,-0.0035220622085034847,-0.014392959885299206,0.029101014137268066,0.04891487956047058,0.0,0.0,0.324800580739975,-0.01,0.02,0.09,0.0
84.66635100,84666351,2,-0.17,0.5,87.33,-0.0031684604473412037,-0.015270593576133251,0.028429925441741943,0.026732919737696648,0.0,0.0,0.3285917639732361,-0.01,0.02,0.09,0.0
84.76628300,84766283,2,-0.17,0.5,87.33,-0.0021165127400308847,-0.015464840456843376,0.02958156168460846,0.026907723397016525,0.0,0.0,0.33154046535491943,-0.01,0.02,0.09,0.0
84.86625100,84866251,2,-0.17,0.5,87.31,-0.0023713174741715193,-0.016366345807909966,0.0301554836332798,0.015284094028174877,0.0,0.0,0.3335573375225067,-0.01,0.02,0.09,0.0
84.96625700,84966257,2,-0.17,0.5,87.31,-0.0017212129896506667,-0.018240053206682205,0.03149760887026787,0.013674340210855007,0.0,0.0,0.33543312549591064,-0.01,0.02,0.09,0.0
85.06624700,85066247,2,-0.17,0.51,87.29,-0.0001836029696278274,-0.018484938889741898,0.03192002326250076,-0.004391754046082497,0.0,0.0,0.33483031392097473,-0.01,0.02,0.09,0.0
85.16625600,85166256,2,-0.17,0.51,87.27,-0.0010650026379153132,-0.019889453426003456,0.03145342692732811,-0.020661810413002968,0.0,0.0,0.3336998224258423,-0.01,0.02,0.09,0.0
85.26632900,85266329,2,-0.17,0.5,87.27,0.0005927789025008678,-0.018271859735250473,0.0312306247651577,-0.009350867941975594,0.0,0.0,0.3339496850967407,-0.01,0.02,0.09,0.0
85.36631500,85366315,2,-0.17,0.5,87.26,-0.00018917795387096703,-0.019883213564753532,0.03058556653559208,-0.00041344042983837426,0.0,0.0,0.33387261629104614,-0.01,0.02,0.09,0.0
85.46633900,85466339,2,-0.18,0.5,87.24,0.0013860826147720218,-0.02071777544915676,0.029723741114139557,-0.00016359446453861892,0.0,0.0,0.3339758515357971,-0.01,0.02,0.09,0.0
85.56635400,85566354,2,-0.18,0.5,87.24,0.00174317741766572,-0.019753115251660347,0.029194602742791176,-0.0049412925727665424,0.0,0.0,0.33321642875671387,-0.01,0.02,0.09,0.0
85.66628900,85666289,2,-0.17,0.49,87.24,0.0021935547702014446,-0.021501172333955765,0.029394695535302162,0.0031256782822310925,0.0,0.0,0.33417564630508423,-0.01,0.02,0.09,0.0
85.76624900,85766249,2,-0.17,0.5,87.22,0.002105408115312457,-0.021847650408744812,0.030413823202252388,0.024474039673805237,0.0,0.0,0.33662375807762146,-0.01,0.02,0.09,0.0
85.86625000,85866250,2,-0.17,0.49,87.22,0.0019587939605116844,-0.021159373223781586,0.031083909794688225,0.02747175842523575,0.0,0.0,0.3385181427001953,-0.01,0.02,0.09,0.0
85.96625500,85966255,2,-0.17,0.49,87.21000000000001,0.002614725148305297,-0.022280797362327576,0.031744860112667084,0.02402034029364586,0.0,0.0,0.34075358510017395,-0.01,0.02,0.09,0.0
86.06626600,86066266,2,-0.17,0.49,87.2,0.001822999562136829,-0.02235213853418827,0.03303718566894531,0.033756326884031296,0.0,0.0,0.3441094160079956,-0.01,0.02,0.09,0.0
86.16632500,86166325,2,-0.17,0.49,87.18,0.0014856326160952449,-0.021898215636610985,0.03312527760863304,0.028411874547600746,0.0,0.0,0.3462776839733124,-0.01,0.03,0.09,0.0
86.26632100,86266321,2,-0.16,0.49,87.17,0.001433606375940144,-0.02282344177365303,0.03387415409088135,0.02776533178985119,0.0,0.0,0.34932562708854675,-0.01,0.03,0.09,0.0
86.36634500,86366345,2,-0.16,0.49,87.16,0.0015671509318053722,-0.02196829579770565,0.03306734934449196,0.007630986627191305,0.0,0.0,0.34934142231941223,-0.01,0.03,0.09,0.0
86.46635300,86466353,2,-0.16,0.48,87.15,0.0014553010696545243,-0.02154867723584175,0.03211395815014839,-0.02671564370393753,0.0,0.0,0.3473486602306366,-0.01,0.03,0.09,0.0
86.56628000,86566280,2,-0.16,0.48,87.15,0.0018113423138856888,-0.021821152418851852,0.030297135934233665,-0.03741873800754547,0.0,0.0,0.34474804997444153,-0.01,0.03,0.09,0.0
86.66624900,86666249,2,-0.16,0.47000000000000003,87.14,0.0009574041469022632,-0.02057751826941967,0.028419435024261475,-0.04117196425795555,0.0,0.0,0.34164726734161377,-0.01,0.03,0.09,0.0
86.76624800,86766248,2,-0.16,0.47000000000000003,87.13,0.000995952170342207,-0.02012898214161396,0.026985736563801765,-0.0399017408490181,0.0,0.0,0.33832991123199463,-0.01,0.03,0.09,0.0
86.86624900,86866249,2,-0.17,0.47000000000000003,87.12,0.0015383977442979813,-0.02135799452662468,0.02486732043325901,-0.043911512941122055,0.0,0.0,0.3343079388141632,-0.01,0.03,0.09,0.0
86.96625300,86966253,2,-0.16,0.47000000000000003,87.11,0.0015896364348009229,-0.02075888216495514,0.024270255118608475,-0.05077635496854782,0.0,0.0,0.3293667733669281,-0.01,0.03,0.09,0.0
87.06630200,87066302,2,-0.16,0.47000000000000003,87.11,0.0020055437926203012,-0.020135803148150444,0.022477712482213974,-0.06504534929990768,0.0,0.0,0.32318392395973206,-0.01,0.03,0.09,0.0
87.16630300,87166303,2,-0.16,0.46,87.10000000000001,0.0018388018943369389,-0.01976081170141697,0.022491732612252235,-0.06930913031101227,0.0,0.0,0.3169914782047272,-0.01,0.03,0.09,0.0
87.26634200,87266342,2,-0.16,0.46,87.08,0.0021259374916553497,-0.017904451116919518,0.021619372069835663,-0.049787960946559906,0.0,0.0,0.3129698634147644,-0.01,0.03,0.09,0.0
87.36634800,87366348,2,-0.17,0.46,87.08,0.002230936661362648,-0.016920946538448334,0.021613340824842453,-0.01896657794713974,0.0,0.0,0.31110432744026184,-0.01,0.03,0.09,0.0
87.46628100,87466281,2,-0.16,0.46,87.07000000000001,0.002185465767979622,-0.01744173653423786,0.021855708211660385,0.00568271754309535,0.0,0.0,0.31103238463401794,-0.01,0.03,0.09,0.0
87.56625400,87566254,2,-0.17,0.46,87.05,0.0013255972880870104,-0.01685470901429653,0.023281889036297798,0.03495004400610924,0.0,0.0,0.31383150815963745,-0.01,0.03,0.09,0.0
87.66625100,87666251,2,-0.16,0.46,87.05,0.000978238764218986,-0.016531579196453094,0.02358229272067547,0.0396936796605587,0.0,0.0,0.31603580713272095,-0.01,0.03,0.09,0.0
87.76624700,87766247,2,-0.16,0.45,87.05,0.0001212226488860324,-0.016605878248810768,0.024108372628688812,0.028912851586937904,0.0,0.0,0.31823793053627014,-0.01,0.03,0.09,0.0
87.86625600,87866256,2,-0.15,0.45,87.04,-0.0005976477405056357,-0.01672852225601673,0.02480669505894184,0.02265876904129982,0.0,0.0,0.3199813663959503,-0.01,0.03,0.09,0.0
87.96633200,87966332,2,-0.15,0.45,87.04,-0.001210152404382825,-0.0163543913513422,0.02547583170235157,-0.001537175034172833,0.0,0.0,0.3193369507789612,-0.01,0.03,0.09,0.0
88.06633600,88066336,2,-0.16,0.45,87.04,-0.002305197063833475,-0.016980983316898346,0.02648419886827469,-0.005659562535583973,0.0,0.0,0.31976956129074097,-0.01,0.03,0.09,0.0
88.16634700,88166347,2,-0.15,0.44,87.03,-0.0027070140931755304,-0.01622350886464119,0.02633536048233509,-0.0040658307261765,0.0,0.0,0.3193095028400421,-0.01,0.03,0.09,0.0
88.26635700,88266357,2,-0.15,0.44,87.02,-0.003405285067856312,-0.01656457595527172,0.026967845857143402,0.00045310051064006984,0.0,0.0,0.32011860609054565,-0.01,0.03,0.09,0.0
88.36628400,88366284,2,-0.15,0.44,87.02,-0.003772439667955041,-0.01625540293753147,0.027000276371836662,2.2296242605079897e-05,0.0,0.0,0.31964683532714844,-0.01,0.03,0.09,0.0
88.46625200,88466252,2,-0.16,0.44,87.0,-0.0047536855563521385,-0.015431723557412624,0.02647753804922104,-0.02215317077934742,0.0,0.0,0.3175594210624695,-0.01,0.03,0.09,0.0
88.56625000,88566250,2,-0.16,0.44,86.99,-0.005708320066332817,-0.014013973996043205,0.02593225985765457,-0.022078830748796463,0.0,0.0,0.31622403860092163,-0.01,0.03,0.09,0.0
88.66625300,88666253,2,-0.15,0.43,86.97,-0.005782025400549173,-0.01365798432379961,0.026562118902802467,-0.002396876458078623,0.0,0.0,0.31651604175567627,-0.01,0.03,0.09,0.0
88.76627100,88766271,2,-0.15,0.43,86.96000000000001,-0.006669274065643549,-0.012776391580700874,0.02691667713224888,0.023867646232247353,0.0,0.0,0.3189242482185364,-0.01,0.03,0.09,0.0
88.86631600,88866316,2,-0.15,0.42,86.95,-0.00653521902859211,-0.011377165094017982,0.02691354788839817,0.043857965618371964,0.0,0.0,0.3226405680179596,-0.01,0.03,0.09,0.0
88.96632700,88966327,2,-0.15,0.42,86.94,-0.006600121036171913,-0.010655405931174755,0.026939159259200096,0.04653731733560562,0.0,0.0,0.3262251615524292,-0.01,0.03,0.09,0.0
89.06635300,89066353,2,-0.15,0.42,86.94,-0.007365955971181393,-0.010021799243986607,0.027888424694538116,0.034490227699279785,0.0,0.0,0.32877910137176514,-0.01,0.03,0.09,0.0
89.16636100,89166361,2,-0.16,0.41000000000000003,86.93,-0.008100814186036587,-0.008523988537490368,0.02828788012266159,0.013277162797749043,0.0,0.0,0.32970908284187317,-0.01,0.03,0.09,0.0
89.26628000,89266280,2,-0.16,0.41000000000000003,86.91,-0.007864226587116718,-0.008146506734192371,0.028843257576227188,0.00313323806039989,0.0,0.0,0.3306770622730255,-0.01,0.03,0.09,0.0
89.36625000,89366250,2,-0.15,0.41000000000000003,86.9,-0.007631655316799879,-0.005711562931537628,0.029538650065660477,-0.0027034934610128403,0.0,0.0,0.3304925262928009,-0.01,0.03,0.09,0.0
89.46624700,89466247,2,-0.15,0.4,86.9,-0.007113187573850155,-0.0036783735267817974,0.02771882154047489,-0.02156391367316246,0.0,0.0,0.3288004696369171,-0.01,0.03,0.09,0.0
89.56625000,89566250,2,-0.16,0.4,86.88,-0.006911718752235174,-0.0031693915370851755,0.02752213180065155,-0.021533779799938202,0.0,0.0,0.3275846242904663,-0.01,0.03,0.09,0.0
89.66626900,89666269,2,-0.16,0.4,86.86,-0.0069247218780219555,-0.0017792739672586322,0.027495073154568672,-0.028002995997667313,0.0,0.0,0.32461485266685486,-0.01,0.03,0.09,0.0
89.76633100,89766331,2,-0.16,0.4,86.86,-0.006259801331907511,-0.0007561541278846562,0.02706007845699787,-0.03998187556862831,0.0,0.0,0.32148176431655884,-0.01,0.03,0.09,0.0
89.86631600,89866316,2,-0.16,0.4,86.85000000000001,-0.006136683747172356,-7.701938011450693e-05,0.027158983051776886,-0.027928868308663368,0.0,0.0,0.31946736574172974,-0.01,0.03,0.09,0.0
89.96635700,89966357,2,-0.15,0.39,86.84,-0.007042284589260817,0.001522859907709062,0.026819493621587753,-0.02211463451385498,0.0,0.0,0.3172222971916199,-0.01,0.03,0.09,0.0
90.06633900,90066339,2,-0.15,0.39,86.84,-0.007939310744404793,0.0026467135176062584,0.027194423601031303,-0.019237643107771873,0.0,0.0,0.31539928913116455,-0.01,0.03,0.09,0.0
90.16628100,90166281,2,-0.15,0.39,86.83,-0.008339272812008858,0.003171679563820362,0.027587171643972397,0.006672841962426901,0.0,0.0,0.31670305132865906,-0.01,0.03,0.09,0.0
90.26625000,90266250,2,-0.15,0.39,86.82000000000001,-0.00928585883229971,0.004930467810481787,0.028373533859848976,0.031780168414115906,0.0,0.0,0.3191940188407898,-0.01,0.03,0.09,0.0
90.36624700,90366247,2,-0.15,0.4,86.82000000000001,-0.009976739063858986,0.005322713404893875,0.028301848098635674,0.04034500569105148,0.0,0.0,0.3224346935749054,-0.01,0.03,0.09,0.0
90.46625100,90466251,2,-0.15,0.4,86.8,-0.009692924097180367,0.005508271977305412,0.028219861909747124,0.04527788236737251,0.0,0.0,0.3263055086135864,-0.01,0.03,0.09,0.0
90.56627700,90566277,2,-0.15,0.4,86.79,-0.009928934276103973,0.006761766970157623,0.029348867014050484,0.04312516376376152,0.0,0.0,0.32983097434043884,-0.01,0.03,0.09,0.0
90.66633200,90666332,2,-0.15,0.4,86.78,-0.009306831285357475,0.00720512168481946,0.029200809076428413,0.03584231808781624,0.0,0.0,0.33305880427360535,-0.01,0.03,0.09,0.0
90.76632500,90766325,2,-0.15,0.41000000000000003,86.77,-0.008827914483845234,0.00795416533946991,0.029779773205518723,0.017972899600863457,0.0,0.0,0.3342028260231018,-0.01,0.03,0.09,0.0
90.86635000,90866350,2,-0.15,0.41000000000000003,86.76,-0.008504506200551987,0.00898931734263897,0.028833383694291115,0.003075118875131011,0.0,0.0,0.335346519947052,-0.01,0.03,0.09,0.0
90.96634800,90966348,2,-0.16,0.41000000000000003,86.75,-0.008292930200695992,0.009802489541471004,0.02868937887251377,0.004032524768263102,0.0,0.0,0.3363405168056488,-0.01,0.03,0.09,0.0
91.06627900,91066279,2,-0.15,0.41000000000000003,86.74,-0.007957590743899345,0.010215697810053825,0.02919866517186165,0.0008873449405655265,0.0,0.0,0.33656829595565796,-0.01,0.03,0.09,0.0
91.16625400,91166254,2,-0.15,0.41000000000000003,86.74,-0.008430331945419312,0.010069914162158966,0.02796715870499611,-0.009653155691921711,0.0,0.0,0.3359344005584717,-0.01,0.03,0.09,0.0
91.26625100,91266251,2,-0.15,0.41000000000000003,86.72,-0.008321182802319527,0.00963444635272026,0.028558500111103058,-0.012114581651985645,0.0,0.0,0.335244357585907,-0.01,0.03,0.09,0.0
91.36625000,91366250,2,-0.15,0.42,86.72,-0.008925138972699642,0.009555129334330559,0.029494309797883034,-0.000834536855109036,0.0,0.0,0.3356598913669586,-0.01,0.03,0.09,0.0
91.46628300,91466283,2,-0.15,0.42,86.71000000000001,-0.00904549565166235,0.010627335868775845,0.028227997943758965,0.004978966899216175,0.0,0.0,0.33609360456466675,-0.01,0.03,0.09,0.0
91.56633200,91566332,2,-0.16,0.42,86.71000000000001,-0.009452548809349537,0.010663913562893867,0.027957716956734657,0.020065857097506523,0.0,0.0,0.338336706161499,-0.01,0.03,0.09,0.0
91.66633200,91666332,2,-0.17,0.43,86.69,-0.009829453192651272,0.011246881447732449,0.029420755803585052,0.03152726963162422,0.0,0.0,0.3406946659088135,-0.01,0.03,0.09,0.0
91.76634900,91766349,2,-0.16,0.43,86.68,-0.009656592272222042,0.01087221410125494,0.029793348163366318,0.013936592265963554,0.0,0.0,0.3413729667663574,-0.01,0.03,0.09,0.0
91.86632000,91866320,2,-0.16,0.43,86.68,-0.009542848914861679,0.01056793425232172,0.030171789228916168,0.01041418220847845,0.0,0.0,0.3428121507167816,-0.01,0.03,0.09,0.0
91.96628200,91966282,2,-0.16,0.43,86.66,-0.008360733278095722,0.010653563775122166,0.029530925676226616,0.006752261891961098,0.0,0.0,0.3433001935482025,-0.01,0.03,0.09,0.0
92.06625500,92066255,2,-0.16,0.43,86.65,-0.007803254295140505,0.011255287565290928,0.029170338064432144,-0.004635858349502087,0.0,0.0,0.3431713879108429,-0.01,0.03,0.09,0.0
92.16624900,92166249,2,-0.16,0.43,86.65,-0.006774218752980232,0.01095636561512947,0.027434324845671654,-0.029435938224196434,0.0,0.0,0.34008458256721497,-0.01,0.03,0.09,0.0
92.26625000,92266250,2,-0.16,0.42,86.63,-0.0060478923842310905,0.011138119734823704,0.026324715465307236,-0.048952195793390274,0.0,0.0,0.3364151120185852,-0.01,0.03,0.09,0.0
92.36626600,92366266,2,-0.17,0.42,86.63,-0.005834363400936127,0.011359953321516514,0.02595854550600052,-0.04461048170924187,0.0,0.0,0.33263930678367615,-0.01,0.03,0.09,0.0
92.46632900,92466329,2,-0.17,0.42,86.63,-0.006924787536263466,0.01015138067305088,0.025698956102132797,-0.04245368391275406,0.0,0.0,0.32906362414360046,-0.01,0.03,0.09,0.0
92.56630900,92566309,2,-0.17,0.42,86.62,-0.006521892733871937,0.00923925917595625,0.02367519401013851,-0.039286233484745026,0.0,0.0,0.3255159258842468,-0.01,0.03,0.09,0.0
