timestamp,TimeUS,C,Roll,Pitch,Yaw,VN,VE,VD,dPD,PN,PE,PD,GX,GY,GZ,OH
1388.48296700,1388482967,1,0.35000000000000003,-0.2,222.46,0.013693033717572689,-0.011088012717664242,-0.04895123094320297,-0.33721479773521423,0.0,0.0,0.27798208594322205,0.2,-0.04,-0.03,0.0
1388.58302600,1388583026,1,0.36,-0.2,222.47,0.013723202981054783,-0.010182023979723454,-0.04787394776940346,-1.048370599746704,0.0,0.0,0.1785290539264679,0.2,-0.04,-0.03,0.0
1388.68297300,1388682973,1,0.36,-0.2,222.46,0.013561628758907318,-0.010288489051163197,-0.04700726643204689,-0.9673346877098083,0.0,0.0,0.10962515324354172,0.2,-0.04,-0.03,0.0
1388.78296100,1388782961,1,0.35000000000000003,-0.19,222.46,0.014273385517299175,-0.010878292843699455,-0.0461181104183197,-0.6117790937423706,0.0,0.0,0.06221114099025726,0.2,-0.04,-0.03,0.0
1388.88297400,1388882974,1,0.35000000000000003,-0.19,222.46,0.013679688796401024,-0.01022034790366888,-0.04534077271819115,-0.3381752669811249,0.0,0.0,0.02857384644448757,0.2,-0.04,-0.03,0.0
1388.98298200,1388982982,1,0.35000000000000003,-0.19,222.46,0.014134516008198261,-0.010586638003587723,-0.044316235929727554,-0.18763628602027893,0.0,0.0,0.004336708225309849,0.2,-0.04,-0.03,0.0
1389.08296600,1389082966,1,0.35000000000000003,-0.18,222.46,0.014482538215816021,-0.011352857574820518,-0.045162782073020935,-0.12341377139091492,0.0,0.0,-0.014843274839222431,0.2,-0.04,-0.03,0.0
1389.18299400,1389182994,1,0.35000000000000003,-0.19,222.46,0.014768543653190136,-0.011341382749378681,-0.045567888766527176,-0.09572861343622208,0.0,0.0,-0.02982093021273613,0.2,-0.04,-0.03,0.0
1389.28296800,1389282968,1,0.36,-0.19,222.45000000000002,0.016012724488973618,-0.011681352742016315,-0.045646581798791885,-0.07970834523439407,0.0,0.0,-0.04192303121089935,0.2,-0.04,-0.03,0.0
1389.38296000,1389382960,1,0.36,-0.18,222.46,0.016767170280218124,-0.011590993031859398,-0.04601578041911125,-0.07426375895738602,0.0,0.0,-0.0524679571390152,0.2,-0.04,-0.03,0.0
1389.48291400,1389482914,1,0.36,-0.19,222.46,0.017806505784392357,-0.01153598353266716,-0.04620460420846939,-0.067539282143116,0.0,0.0,-0.06111527606844902,0.2,-0.04,-0.03,0.0
1389.58297500,1389582975,1,0.36,-0.19,222.47,0.01850440353155136,-0.012156609445810318,-0.0464627668261528,-0.05400339514017105,0.0,0.0,-0.06780698150396347,0.2,-0.04,-0.03,0.0
1389.68292900,1389682929,1,0.36,-0.19,222.47,0.01917504332959652,-0.012879949994385242,-0.04589337855577469,-0.04250664263963699,0.0,0.0,-0.07339291274547577,0.2,-0.04,-0.03,0.0
1389.78296400,1389782964,1,0.36,-0.18,222.47,0.019618751481175423,-0.012574170716106892,-0.044904738664627075,-0.03784080594778061,0.0,0.0,-0.07829738408327103,0.2,-0.04,-0.03,0.0
1389.88296800,1389882968,1,0.36,-0.18,222.47,0.01965700089931488,-0.012315831147134304,-0.04456990957260132,-0.03984948992729187,0.0,0.0,-0.08316457271575928,0.2,-0.04,-0.03,0.0
1389.98296800,1389982968,1,0.36,-0.18,222.48000000000002,0.01938806101679802,-0.01245833095163107,-0.04437679797410965,-0.04466266185045242,0.0,0.0,-0.08810873329639435,0.2,-0.04,-0.03,0.0
1390.08298800,1390082988,1,0.36,-0.18,222.49,0.01971244253218174,-0.012323204427957535,-0.04372275620698929,-0.04295474663376808,0.0,0.0,-0.09249462932348251,0.2,-0.04,-0.03,0.0
1390.18297100,1390182971,1,0.35000000000000003,-0.18,222.5,0.020249150693416595,-0.012105151079595089,-0.04310354217886925,-0.03578638285398483,0.0,0.0,-0.09617921710014343,0.2,-0.04,-0.03,0.0
1390.28296900,1390282969,1,0.35000000000000003,-0.18,222.51,0.021130474284291267,-0.012658222578465939,-0.042796455323696136,-0.04073140397667885,0.0,0.0,-0.10080616921186447,0.2,-0.04,-0.03,0.0
1390.38296100,1390382961,1,0.35000000000000003,-0.18,222.51,0.02168235182762146,-0.012924153357744217,-0.04272812232375145,-0.04339761286973953,0.0,0.0,-0.1049569845199585,0.2,-0.04,-0.03,0.0
1390.48298200,1390482982,1,0.35000000000000003,-0.17,222.51,0.022997165098786354,-0.012898429296910763,-0.04186136648058891,-0.03650350868701935,0.0,0.0,-0.10856536030769348,0.2,-0.04,-0.03,0.0
1390.58298900,1390582989,1,0.34,-0.17,222.51,0.023811975494027138,-0.012791180983185768,-0.0421120710670948,-0.029663288965821266,0.0,0.0,-0.11151432991027832,0.2,-0.04,-0.03,0.0
1390.68299600,1390682996,1,0.34,-0.17,222.51,0.024176327511668205,-0.012310683727264404,-0.04092675819993019,-0.018216338008642197,0.0,0.0,-0.11350922286510468,0.2,-0.04,-0.03,0.0
1390.78296900,1390782969,1,0.34,-0.17,222.5,0.02443561889231205,-0.012383303605020046,-0.04018229991197586,-0.010664872825145721,0.0,0.0,-0.11499710381031036,0.2,-0.04,-0.03,0.0
1390.88298500,1390882985,1,0.34,-0.17,222.5,0.02502281591296196,-0.011128265410661697,-0.040240198373794556,-0.009082104079425335,0.0,0.0,-0.11630930751562119,0.2,-0.04,-0.03,0.0
1390.98298900,1390982989,1,0.35000000000000003,-0.17,222.5,0.025325829163193703,-0.010738554410636425,-0.03950515016913414,-0.005382343661040068,0.0,0.0,-0.11709404736757278,0.2,-0.04,-0.03,0.0
1391.08300000,1391083000,1,0.34,-0.16,222.5,0.025349052622914314,-0.009670120663940907,-0.038907039910554886,0.0033560185693204403,0.0,0.0,-0.11692862212657928,0.2,-0.04,-0.03,0.0
1391.18296700,1391182967,1,0.34,-0.16,222.51,0.025574052706360817,-0.010957090184092522,-0.037185732275247574,0.008394450880587101,0.0,0.0,-0.11665226519107819,0.2,-0.04,-0.03,0.0
1391.28297800,1391282978,1,0.34,-0.17,222.51,0.026490261778235435,-0.010430829599499702,-0.037009675055742264,-0.003844326827675104,0.0,0.0,-0.11770295351743698,0.2,-0.04,-0.03,0.0
1391.38297400,1391382974,1,0.36,-0.16,222.51,0.026682771742343903,-0.010120523162186146,-0.035871636122465134,-0.009516113437712193,0.0,0.0,-0.11847241967916489,0.2,-0.04,-0.03,0.0
1391.48297700,1391482977,1,0.35000000000000003,-0.16,222.5,0.0274745374917984,-0.008685685694217682,-0.0347888320684433,-0.016586491838097572,0.0,0.0,-0.12035920470952988,0.2,-0.04,-0.03,0.0
1391.58295300,1391582953,1,0.34,-0.16,222.49,0.026018401607871056,-0.007695311214774847,-0.03483150526881218,-0.019031696021556854,0.0,0.0,-0.12172657251358032,0.2,-0.04,-0.03,0.0
1391.68297900,1391682979,1,0.35000000000000003,-0.16,222.47,0.02650882862508297,-0.004657899495214224,-0.034635528922080994,-0.01801554299890995,0.0,0.0,-0.12350210547447205,0.2,-0.04,-0.03,0.0
1391.78298100,1391782981,1,0.36,-0.16,222.44,0.027602652087807655,-0.006458731833845377,-0.033602744340896606,-0.018641136586666107,0.0,0.0,-0.12523990869522095,0.2,-0.04,-0.03,0.0
1391.88298400,1391882984,1,0.34,-0.16,222.41,0.02826308086514473,-0.006037252023816109,-0.03329191729426384,-0.014976173639297485,0.0,0.0,-0.1265607327222824,0.2,-0.04,-0.02,0.0
1391.98297700,1391982977,1,0.35000000000000003,-0.16,222.38,0.019729608669877052,0.001529991626739502,-0.033223818987607956,-0.003855395130813122,0.0,0.0,-0.12673309445381165,0.2,-0.04,-0.02,0.0
1392.08297900,1392082979,1,0.35000000000000003,-0.16,222.35,0.01141518447548151,0.006715924944728613,-0.03262323886156082,0.015737367793917656,0.0,0.0,-0.12517176568508148,0.2,-0.04,-0.02,0.0
1392.18295500,1392182955,1,0.34,-0.16,222.31,0.0062345825135707855,0.0103816669434309,-0.03145674243569374,0.032452043145895004,0.0,0.0,-0.12259769439697266,0.2,-0.04,-0.02,0.0
1392.28299300,1392282993,1,0.34,-0.17,222.28,0.0023409195709973574,0.015263481996953487,-0.030583137646317482,0.04340001195669174,0.0,0.0,-0.11885607242584229,0.2,-0.04,-0.02,0.0
1392.38292700,1392382927,1,0.35000000000000003,-0.17,222.27,-0.0009011811926029623,0.01635841466486454,-0.029965955764055252,0.026181038469076157,0.0,0.0,-0.11774375289678574,0.2,-0.04,-0.02,0.0
1392.48291100,1392482911,1,0.34,-0.17,222.25,-0.0012499410659074783,0.0184563510119915,-0.03063422441482544,-0.031042780727148056,0.0,0.0,-0.12177710980176926,0.2,-0.04,-0.02,0.0
1392.58291500,1392582915,1,0.33,-0.17,222.25,-0.003407444804906845,0.01969832181930542,-0.03051506169140339,-0.045951031148433685,0.0,0.0,-0.12424251437187195,0.2,-0.04,-0.02,0.0
1392.68297900,1392682979,1,0.35000000000000003,-0.17,222.24,-0.003915898036211729,0.020288722589612007,-0.028969258069992065,-0.005420466419309378,0.0,0.0,-0.1232038140296936,0.2,-0.04,-0.02,0.0
1392.78298500,1392782985,1,0.35000000000000003,-0.17,222.24,-0.0031946173403412104,0.019064370542764664,-0.02802048996090889,0.01938210055232048,0.0,0.0,-0.12185664474964142,0.2,-0.04,-0.02,0.0
1392.88291300,1392882913,1,0.35000000000000003,-0.17,222.23000000000002,-0.0035350776743143797,0.018874168395996094,-0.026964221149683,0.022925641387701035,0.0,0.0,-0.12025205790996552,0.2,-0.04,-0.02,0.0
1392.98296400,1392982964,1,0.36,-0.16,222.23000000000002,-0.003758420702069998,0.019390558823943138,-0.025029469281435013,0.05641855672001839,0.0,0.0,-0.11418014764785767,0.2,-0.04,-0.02,0.0
1393.08295600,1393082956,1,0.36,-0.16,222.23000000000002,-0.0021501618903130293,0.018097717314958572,-0.02254420891404152,0.08487183600664139,0.0,0.0,-0.10719700902700424,0.2,-0.04,-0.02,0.0
1393.18297000,1393182970,1,0.35000000000000003,-0.16,222.22,-0.001606892910785973,0.017718255519866943,-0.021884379908442497,0.04799383878707886,0.0,0.0,-0.10490435361862183,0.2,-0.04,-0.02,0.0
1393.28296800,1393282968,1,0.35000000000000003,-0.16,222.22,-0.002030440839007497,0.018287621438503265,-0.021746337413787842,0.00010311379446648061,0.0,0.0,-0.10488438606262207,0.2,-0.04,-0.02,0.0
1393.38298000,1393382980,1,0.36,-0.17,222.22,-0.001059945672750473,0.017393415793776512,-0.021074051037430763,-0.016978122293949127,0.0,0.0,-0.10551527142524719,0.2,-0.04,-0.02,0.0
1393.48295400,1393482954,1,0.35000000000000003,-0.17,222.22,2.129571839759592e-05,0.016602663323283195,-0.020941894501447678,-0.03452586010098457,0.0,0.0,-0.10841325670480728,0.2,-0.04,-0.02,0.0
1393.58298400,1393582984,1,0.35000000000000003,-0.16,222.22,-0.0002355360920773819,0.01678660325706005,-0.020421061664819717,-0.02648903615772724,0.0,0.0,-0.10927553474903107,0.2,-0.04,-0.02,0.0
1393.68297700,1393682977,1,0.36,-0.16,222.22,0.0008281963528133929,0.015996824949979782,-0.019400080665946007,0.01600339636206627,0.0,0.0,-0.10670197755098343,0.2,-0.04,-0.02,0.0
1393.78298100,1393782981,1,0.35000000000000003,-0.15,222.22,0.002529309829697013,0.01519570779055357,-0.018940594047307968,0.02665545977652073,0.0,0.0,-0.1053917407989502,0.2,-0.04,-0.02,0.0
1393.88296300,1393882963,1,0.35000000000000003,-0.15,222.22,0.0025295603554695845,0.01552554126828909,-0.018191173672676086,0.019672879949212074,0.0,0.0,-0.10384233295917511,0.2,-0.04,-0.02,0.0
1393.98294200,1393982942,1,0.36,-0.15,222.22,0.0026490630116313696,0.015105928294360638,-0.017637738958001137,0.010201926343142986,0.0,0.0,-0.10339272767305374,0.2,-0.04,-0.02,0.0
1394.08298100,1394082981,1,0.35000000000000003,-0.15,222.22,0.003944487776607275,0.013891198672354221,-0.01690615341067314,0.01471647433936596,0.0,0.0,-0.10139679163694382,0.2,-0.04,-0.02,0.0
1394.18296500,1394182965,1,0.34,-0.14,222.22,0.004560145083814859,0.014416946098208427,-0.016457265242934227,0.007223122753202915,0.0,0.0,-0.10145626962184906,0.2,-0.04,-0.02,0.0
1394.28299300,1394282993,1,0.35000000000000003,-0.14,222.22,0.00561238918453455,0.014202424325048923,-0.015810327604413033,0.006090779323130846,0.0,0.0,-0.10017367452383041,0.2,-0.04,-0.02,0.0
1394.38298100,1394382981,1,0.35000000000000003,-0.14,222.22,0.0072186971083283424,0.012782658450305462,-0.015665067359805107,0.019393840804696083,0.0,0.0,-0.09818711131811142,0.2,-0.04,-0.02,0.0
1394.48296500,1394482965,1,0.35000000000000003,-0.14,222.22,0.007827140390872955,0.013666864484548569,-0.014538127928972244,0.024440186098217964,0.0,0.0,-0.09609851986169815,0.2,-0.04,-0.02,0.0
1394.58296200,1394582962,1,0.35000000000000003,-0.14,222.23000000000002,0.007962939329445362,0.013357849791646004,-0.013497286476194859,0.027141796424984932,0.0,0.0,-0.09361343085765839,0.2,-0.04,-0.02,0.0
1394.68296900,1394682969,1,0.36,-0.14,222.23000000000002,0.009935848414897919,0.011322840116918087,-0.012706886976957321,0.03484787419438362,0.0,0.0,-0.09021609276533127,0.2,-0.04,-0.02,0.0
1394.78298200,1394782982,1,0.35000000000000003,-0.14,222.24,0.010631569661200047,0.010828742757439613,-0.011766876094043255,0.03621296212077141,0.0,0.0,-0.08715762943029404,0.2,-0.04,-0.02,0.0
1394.88296600,1394882966,1,0.35000000000000003,-0.14,222.25,0.010330519638955593,0.010308418422937393,-0.011113671585917473,0.03705726936459541,0.0,0.0,-0.08350009471178055,0.2,-0.04,-0.02,0.0
1394.98297300,1394982973,1,0.36,-0.14,222.26,0.011111038736999035,0.00927350576967001,-0.009147796779870987,0.04576081037521362,0.0,0.0,-0.0791267454624176,0.2,-0.04,-0.02,0.0
1395.08297900,1395082979,1,0.35000000000000003,-0.14,222.26,0.01120819617062807,0.008836708962917328,-0.008848081342875957,0.040476832538843155,0.0,0.0,-0.07570239156484604,0.2,-0.04,-0.02,0.0
1395.18298000,1395182980,1,0.35000000000000003,-0.14,222.27,0.010421765968203545,0.009173989295959473,-0.0076473914086818695,0.03516974672675133,0.0,0.0,-0.07220469415187836,0.2,-0.04,-0.02,0.0
1395.28297500,1395282975,1,0.35000000000000003,-0.15,222.28,0.010340460576117039,0.008760319091379642,-0.007184959016740322,0.02707996405661106,0.0,0.0,-0.06972672045230865,0.2,-0.04,-0.02,0.0
1395.38294800,1395382948,1,0.35000000000000003,-0.14,222.29,0.011009987443685532,0.007419039029628038,-0.006687588058412075,0.013992128893733025,0.0,0.0,-0.0682310163974762,0.2,-0.04,-0.02,0.0
1395.48296100,1395482961,1,0.35000000000000003,-0.14,222.3,0.010347272269427776,0.008511079475283623,-0.006007099989801645,0.0009039327851496637,0.0,0.0,-0.06795350462198257,0.2,-0.04,-0.02,0.0
1395.58298100,1395582981,1,0.36,-0.14,222.31,0.010355470702052116,0.008642642758786678,-0.00616725068539381,-0.02428295649588108,0.0,0.0,-0.07030833512544632,0.2,-0.04,-0.02,0.0
1395.68292500,1395682925,1,0.35000000000000003,-0.14,222.32,0.010661431588232517,0.007571786176413298,-0.006620250176638365,-0.04201776161789894,0.0,0.0,-0.07344288378953934,0.2,-0.04,-0.02,0.0
1395.78298400,1395782984,1,0.35000000000000003,-0.14,222.32,0.010130505077540874,0.007681672926992178,-0.008242113515734673,-0.04526129737496376,0.0,0.0,-0.07690372318029404,0.2,-0.04,-0.02,0.0
1395.88297900,1395882979,1,0.36,-0.14,222.32,0.010044028051197529,0.0075286030769348145,-0.008529984392225742,-0.027977583929896355,0.0,0.0,-0.07852803170681,0.2,-0.04,-0.02,0.0
1395.98297200,1395982972,1,0.36,-0.14,222.33,0.010889925062656403,0.007003916893154383,-0.0077023315243422985,0.003108908189460635,0.0,0.0,-0.07795871049165726,0.2,-0.04,-0.02,0.0
1396.08296100,1396082961,1,0.35000000000000003,-0.13,222.33,0.011750077828764915,0.0073180836625397205,-0.007834420539438725,0.010417785495519638,0.0,0.0,-0.07790727913379669,0.2,-0.04,-0.02,0.0
1396.18296100,1396182961,1,0.35000000000000003,-0.14,222.33,0.011803621426224709,0.007768644951283932,-0.007142837159335613,0.02095615305006504,0.0,0.0,-0.07583820819854736,0.2,-0.04,-0.02,0.0
1396.28296200,1396282962,1,0.35000000000000003,-0.14,222.33,0.013328634202480316,0.007071589585393667,-0.0058693778701126575,0.05123821273446083,0.0,0.0,-0.07097872346639633,0.2,-0.04,-0.02,0.0
1396.38296700,1396382967,1,0.35000000000000003,-0.14,222.32,0.014002473093569279,0.007192498538643122,-0.0043721976689994335,0.06045345589518547,0.0,0.0,-0.06642337143421173,0.2,-0.04,-0.02,0.0
1396.48298900,1396482989,1,0.35000000000000003,-0.14,222.32,0.014196963980793953,0.007655074819922447,-0.002870751777663827,0.06177607923746109,0.0,0.0,-0.06091699376702309,0.2,-0.04,-0.02,0.0
1396.58294600,1396582946,1,0.35000000000000003,-0.14,222.31,0.014864573255181313,0.007302796933799982,-0.001027853460982442,0.07087236642837524,0.0,0.0,-0.05437525361776352,0.2,-0.04,-0.02,0.0
1396.68298000,1396682980,1,0.34,-0.14,222.31,0.015482716262340546,0.006782345473766327,0.0009189796983264387,0.07060832530260086,0.0,0.0,-0.04819326475262642,0.2,-0.04,-0.02,0.0
1396.78298600,1396782986,1,0.34,-0.14,222.31,0.01441876869648695,0.00743304705247283,0.0026346121449023485,0.057115338742733,0.0,0.0,-0.04316267371177673,0.2,-0.04,-0.02,0.0
1396.88295100,1396882951,1,0.35000000000000003,-0.14,222.31,0.015287660993635654,0.006917549297213554,0.0034958741161972284,0.031080305576324463,0.0,0.0,-0.04044804722070694,0.2,-0.04,-0.02,0.0
1396.98296800,1396982968,1,0.34,-0.14,222.31,0.016491122543811798,0.005846165586262941,0.005090552847832441,0.023708267137408257,0.0,0.0,-0.03712952882051468,0.2,-0.04,-0.02,0.0
1397.08292200,1397082922,1,0.34,-0.14,222.31,0.016781698912382126,0.006783319637179375,0.006996814627200365,0.043896082788705826,0.0,0.0,-0.03193124756217003,0.2,-0.04,-0.02,0.0
1397.18291400,1397182914,1,0.34,-0.15,222.31,0.017116885632276535,0.006864410359412432,0.009336067363619804,0.06509207934141159,0.0,0.0,-0.0255891066044569,0.2,-0.04,-0.02,0.0
1397.28298700,1397282987,1,0.34,-0.15,222.31,0.018009768798947334,0.0067050522193312645,0.011097551323473454,0.115920789539814,0.0,0.0,-0.013578669168055058,0.2,-0.04,-0.02,0.0
1397.38296500,1397382965,1,0.34,-0.15,222.31,0.018824564293026924,0.00735049182549119,0.012407613918185234,0.11905081570148468,0.0,0.0,-0.0041748047806322575,0.2,-0.04,-0.02,0.0
1397.48298500,1397482985,1,0.35000000000000003,-0.15,222.3,0.01886315457522869,0.007454181555658579,0.012832004576921463,0.08644869923591614,0.0,0.0,0.003255935152992606,0.2,-0.04,-0.02,0.0
1397.58292700,1397582927,1,0.35000000000000003,-0.15,222.3,0.020218828693032265,0.006853022612631321,0.013521609827876091,0.05779369920492172,0.0,0.0,0.008870910853147507,0.2,-0.04,-0.02,0.0
1397.68296800,1397682968,1,0.34,-0.15,222.3,0.021276356652379036,0.006496265064924955,0.014267737045884132,0.04195195063948631,0.0,0.0,0.013695620000362396,0.2,-0.04,-0.02,0.0
1397.78293700,1397782937,1,0.34,-0.15,222.31,0.02138318307697773,0.007478410843759775,0.015623277053236961,0.04184911400079727,0.0,0.0,0.018695984035730362,0.2,-0.04,-0.02,0.0
1397.88297200,1397882972,1,0.35000000000000003,-0.15,222.31,0.02246810309588909,0.007271985523402691,0.016194773837924004,0.038119323551654816,0.0,0.0,0.022721068933606148,0.2,-0.04,-0.02,0.0
1397.98298900,1397982989,1,0.34,-0.15,222.32,0.022603509947657585,0.00816248543560505,0.016543174162507057,0.02981170453131199,0.0,0.0,0.026055505499243736,0.2,-0.04,-0.02,0.0
1398.08297800,1398082978,1,0.34,-0.15,222.33,0.023201962932944298,0.009253909811377525,0.01702425628900528,0.021928204223513603,0.0,0.0,0.028521759435534477,0.2,-0.04,-0.02,0.0
1398.18296500,1398182965,1,0.34,-0.15,222.33,0.02428371086716652,0.008976244367659092,0.017882078886032104,0.017146488651633263,0.0,0.0,0.030665230005979538,0.2,-0.04,-0.02,0.0
1398.28298800,1398282988,1,0.34,-0.15,222.33,0.025802895426750183,0.009012698195874691,0.01952984929084778,0.014900324866175652,0.0,0.0,0.03240777552127838,0.2,-0.04,-0.02,0.0
1398.38296600,1398382966,1,0.33,-0.15,222.32,0.02680632285773754,0.009825468063354492,0.019700922071933746,0.01150888204574585,0.0,0.0,0.03387998789548874,0.2,-0.04,-0.02,0.0
1398.48298800,1398482988,1,0.34,-0.15,222.32,0.028965558856725693,0.010576643981039524,0.02095790207386017,0.019540423527359962,0.0,0.0,0.036332763731479645,0.2,-0.04,-0.02,0.0
1398.58297100,1398582971,1,0.34,-0.15,222.33,0.030996762216091156,0.01048634946346283,0.022026769816875458,0.030429262667894363,0.0,0.0,0.03938295319676399,0.2,-0.04,-0.02,0.0
1398.68298400,1398682984,1,0.34,-0.15,222.33,0.03272011876106262,0.011568719521164894,0.02352282591164112,0.03453616797924042,0.0,0.0,0.04253428801894188,0.2,-0.04,-0.02,0.0
1398.78296300,1398782963,1,0.34,-0.15,222.33,0.03457832336425781,0.012582486495375633,0.024846939370036125,0.03826078027486801,0.0,0.0,0.04622122272849083,0.2,-0.04,-0.02,0.0
1398.88292700,1398882927,1,0.34,-0.16,222.33,0.03588410094380379,0.011995007283985615,0.025456219911575317,0.043421670794487,0.0,0.0,0.050411906093358994,0.2,-0.04,-0.02,0.0
1398.98291900,1398982919,1,0.33,-0.16,222.34,0.03703971952199936,0.012540635652840137,0.02581886760890484,0.04584573581814766,0.0,0.0,0.05475368723273277,0.2,-0.04,-0.02,0.0
1399.08297500,1399082975,1,0.33,-0.16,222.34,0.03730947896838188,0.01294640265405178,0.026695266366004944,0.038813523948192596,0.0,0.0,0.05810766667127609,0.2,-0.04,-0.02,0.0
1399.18291700,1399182917,1,0.34,-0.16,222.34,0.03863586485385895,0.013492264784872532,0.027441922575235367,0.03207596763968468,0.0,0.0,0.06143011897802353,0.2,-0.04,-0.02,0.0
1399.28297200,1399282972,1,0.33,-0.16,222.34,0.03845745325088501,0.013770367950201035,0.027731945738196373,0.029350517317652702,0.0,0.0,0.06448902189731598,0.2,-0.04,-0.02,0.0
1399.38296700,1399382967,1,0.34,-0.17,222.35,0.03858714550733566,0.01433763187378645,0.02866474725306034,0.03218722343444824,0.0,0.0,0.06795583665370941,0.2,-0.04,-0.02,0.0
1399.48298500,1399482985,1,0.34,-0.17,222.35,0.03942689672112465,0.013712148182094097,0.02937033772468567,0.04249177873134613,0.0,0.0,0.07241310924291611,0.2,-0.04,-0.02,0.0
1399.58297700,1399582977,1,0.34,-0.17,222.34,0.03960523009300232,0.014242318458855152,0.029966864734888077,0.04372574761509895,0.0,0.0,0.07632283121347427,0.2,-0.04,-0.02,0.0
1399.68297400,1399682974,1,0.34,-0.17,222.34,0.03955096751451492,0.014217480085790157,0.030978314578533173,0.04692799597978592,0.0,0.0,0.08111490309238434,0.2,-0.04,-0.02,0.0
1399.78300300,1399783003,1,0.34,-0.17,222.33,0.04024316370487213,0.014487742446362972,0.03179274871945381,0.056123264133930206,0.0,0.0,0.08657720685005188,0.2,-0.04,-0.02,0.0
1399.88299100,1399882991,1,0.33,-0.16,222.32,0.042860984802246094,0.011843034997582436,0.03269558772444725,0.06020360440015793,0.0,0.0,0.09223230183124542,0.2,-0.04,-0.02,0.0
1399.98298600,1399982986,1,0.33,-0.17,222.32,0.04020869731903076,0.014710860326886177,0.0338587686419487,0.045832112431526184,0.0,0.0,0.09597598761320114,0.2,-0.04,-0.02,0.0
1400.08295300,1400082953,1,0.35000000000000003,-0.16,222.32,0.039557069540023804,0.013877920806407928,0.034412186592817307,0.04081147536635399,0.0,0.0,0.10061593353748322,0.2,-0.04,-0.02,0.0
1400.18296900,1400182969,1,0.34,-0.16,222.3,0.04218379780650139,0.014449822716414928,0.03500969707965851,0.047330133616924286,0.0,0.0,0.1054740622639656,0.2,-0.04,-0.02,0.0
1400.28299900,1400282999,1,0.32,-0.16,222.29,0.038997482508420944,0.014747010543942451,0.0353289395570755,0.05144059285521507,0.0,0.0,0.11069837957620621,0.2,-0.04,-0.02,0.0
1400.38298800,1400382988,1,0.34,-0.17,222.27,0.040048062801361084,0.017339853569865227,0.035983674228191376,0.05822107940912247,0.0,0.0,0.11645939946174622,0.2,-0.04,-0.02,0.0
1400.48291300,1400482913,1,0.34,-0.17,222.25,0.029020963236689568,0.01056954450905323,0.03528547286987305,0.0007504640379920602,0.0,0.0,0.11449147015810013,0.2,-0.04,-0.02,0.0
1400.58298100,1400582981,1,0.31,-0.16,222.22,0.015470282174646854,0.006308593787252903,0.03523581102490425,-0.04850340262055397,0.0,0.0,0.11147209256887436,0.2,-0.04,-0.02,0.0
1400.68295800,1400682958,1,0.32,-0.17,222.18,0.0059546614065766335,0.005485439673066139,0.03594837710261345,-0.007539927493780851,0.0,0.0,0.11382383108139038,0.2,-0.04,-0.02,0.0
1400.78294500,1400782945,1,0.34,-0.16,222.15,-0.0013281130231916904,0.002366974949836731,0.036962028592824936,0.01622481644153595,0.0,0.0,0.11469486355781555,0.2,-0.04,-0.02,0.0
1400.88299200,1400882992,1,0.32,-0.17,222.14000000000001,-0.003954143729060888,0.0011993695516139269,0.03789960965514183,0.03605176508426666,0.0,0.0,0.11897619068622589,0.2,-0.04,-0.02,0.0
1400.98296000,1400982960,1,0.32,-0.17,222.13,-0.006875399500131607,0.0014985129237174988,0.039494894444942474,0.06982282549142838,0.0,0.0,0.12528210878372192,0.2,-0.04,-0.02,0.0
1401.08298600,1401082986,1,0.33,-0.17,222.12,-0.008434518240392208,-0.00046153253060765564,0.03914988413453102,0.04840252920985222,0.0,0.0,0.12796233594417572,0.2,-0.04,-0.02,0.0
1401.18298000,1401182980,1,0.32,-0.17,222.12,-0.008475874550640583,-0.0018856804817914963,0.03938702866435051,0.025281956419348717,0.0,0.0,0.130715474486351,0.2,-0.04,-0.02,0.0
1401.28295000,1401282950,1,0.31,-0.17,222.13,-0.009288564324378967,0.0009206049144268036,0.0389212965965271,0.010466537438333035,0.0,0.0,0.13167375326156616,0.2,-0.04,-0.02,0.0
1401.38297700,1401382977,1,0.33,-0.17,222.13,-0.010887837037444115,0.0001980350789381191,0.03933699056506157,0.03188218176364899,0.0,0.0,0.13658751547336578,0.2,-0.04,-0.02,0.0
1401.48297300,1401482973,1,0.32,-0.16,222.13,-0.008507156744599342,-4.0971452108351514e-05,0.04050865396857262,0.09234371781349182,0.0,0.0,0.14626191556453705,0.2,-0.04,-0.02,0.0
1401.58294000,1401582940,1,0.31,-0.16,222.13,-0.009220286272466183,0.0015509809600189328,0.041439205408096313,0.10121268033981323,0.0,0.0,0.15393345057964325,0.2,-0.04,-0.02,0.0
1401.68294100,1401682941,1,0.32,-0.17,222.14000000000001,-0.010556008666753769,0.0028161276131868362,0.042395271360874176,0.08353031426668167,0.0,0.0,0.16139742732048035,0.2,-0.04,-0.02,0.0
1401.78296200,1401782962,1,0.32,-0.17,222.15,-0.008594891987740993,0.002988561987876892,0.043379299342632294,0.10290621221065521,0.0,0.0,0.17212706804275513,0.2,-0.04,-0.02,0.0
1401.88296000,1401882960,1,0.3,-0.16,222.15,-0.008925730362534523,0.0029000721406191587,0.04457026720046997,0.10115714371204376,0.0,0.0,0.18063098192214966,0.2,-0.04,-0.02,0.0
1401.98293100,1401982931,1,0.31,-0.16,222.14000000000001,-0.01012633740901947,0.004192459862679243,0.045275069773197174,0.09187100827693939,0.0,0.0,0.18988017737865448,0.2,-0.04,-0.02,0.0
1402.08298000,1402082980,1,0.32,-0.16,222.14000000000001,-0.009329956024885178,0.004617823753505945,0.04608609527349472,0.09706385433673859,0.0,0.0,0.19942928850650787,0.2,-0.04,-0.02,0.0
1402.18298200,1402182982,1,0.3,-0.16,222.14000000000001,-0.010141116566956043,0.004895689897239208,0.04698466509580612,0.08903536200523376,0.0,0.0,0.2078377604484558,0.2,-0.04,-0.02,0.0
1402.28296700,1402282967,1,0.3,-0.17,222.13,-0.01073834765702486,0.007222591899335384,0.04811142757534981,0.08250024914741516,0.0,0.0,0.21624183654785156,0.2,-0.04,-0.02,0.0
1402.38296000,1402382960,1,0.32,-0.16,222.12,-0.009885510429739952,0.00725853955373168,0.04899006709456444,0.06501650810241699,0.0,0.0,0.22234563529491425,0.2,-0.04,-0.02,0.0
1402.48293700,1402482937,1,0.3,-0.16,222.12,-0.009813915938138962,0.0074922977946698666,0.049429383128881454,0.04621170461177826,0.0,0.0,0.22751930356025696,0.2,-0.04,-0.02,0.0
1402.58294600,1402582946,1,0.29,-0.16,222.12,-0.010920754633843899,0.009914315305650234,0.05008535832166672,0.06584471464157104,0.0,0.0,0.2355879545211792,0.2,-0.04,-0.02,0.0
1402.68297800,1402682978,1,0.31,-0.16,222.12,-0.010158063843846321,0.010469108819961548,0.05076336860656738,0.08421843498945236,0.0,0.0,0.24364541471004486,0.2,-0.04,-0.02,0.0
1402.78296600,1402782966,1,0.3,-0.16,222.11,-0.009032607078552246,0.01005299761891365,0.05119127407670021,0.06453905254602432,0.0,0.0,0.2491150200366974,0.2,-0.04,-0.02,0.0
1402.88297100,1402882971,1,0.29,-0.15,222.11,-0.009358200244605541,0.012361151166260242,0.051896631717681885,0.04713357612490654,0.0,0.0,0.2542060315608978,0.2,-0.04,-0.02,0.0
1402.98296800,1402982968,1,0.31,-0.15,222.11,-0.010264158248901367,0.013074170798063278,0.05109886825084686,0.012240363284945488,0.0,0.0,0.25497791171073914,0.2,-0.04,-0.02,0.0
1403.08294600,1403082946,1,0.31,-0.15,222.1,-0.009145878255367279,0.012232090346515179,0.050375696271657944,-0.021574970334768295,0.0,0.0,0.25411558151245117,0.2,-0.04,-0.02,0.0
1403.18300500,1403183005,1,0.31,-0.15,222.1,-0.009701876901090145,0.013315879739820957,0.04854285344481468,-0.044129323214292526,0.0,0.0,0.25088226795196533,0.2,-0.04,-0.02,0.0
1403.28298300,1403282983,1,0.32,-0.14,222.1,-0.010199371725320816,0.014354937709867954,0.047239311039447784,-0.04548744857311249,0.0,0.0,0.24827101826667786,0.2,-0.04,-0.02,0.0
1403.38296600,1403382966,1,0.32,-0.14,222.11,-0.008229605853557587,0.013659119606018066,0.04660090431571007,-0.007595151197165251,0.0,0.0,0.24922721087932587,0.2,-0.04,-0.02,0.0
1403.48296700,1403482967,1,0.31,-0.14,222.11,-0.007580050732940435,0.014065239578485489,0.046034280210733414,0.031045647338032722,0.0,0.0,0.25219982862472534,0.2,-0.04,-0.02,0.0
1403.58292400,1403582924,1,0.32,-0.14,222.12,-0.008009827695786953,0.014838121831417084,0.04639345407485962,0.043268028646707535,0.0,0.0,0.25537198781967163,0.2,-0.04,-0.02,0.0
1403.68296200,1403682962,1,0.33,-0.14,222.12,-0.006087497808039188,0.014473620802164078,0.04686938226222992,0.03861309960484505,0.0,0.0,0.25824451446533203,0.2,-0.04,-0.02,0.0
1403.78294400,1403782944,1,0.32,-0.14,222.12,-0.004087005741894245,0.014302605763077736,0.046948254108428955,0.02116568572819233,0.0,0.0,0.2596111297607422,0.2,-0.04,-0.02,0.0
1403.88296900,1403882969,1,0.32,-0.13,222.12,-0.0036861442495137453,0.015071511268615723,0.04617749899625778,0.007358891423791647,0.0,0.0,0.26060110330581665,0.2,-0.04,-0.02,0.0
1403.98294700,1403982947,1,0.33,-0.13,222.12,-0.0022564048413187265,0.015333500690758228,0.045930810272693634,0.012754116207361221,0.0,0.0,0.26248428225517273,0.2,-0.04,-0.02,0.0
1404.08293300,1404082933,1,0.32,-0.14,222.12,-0.0009208036353811622,0.014933940023183823,0.04581315442919731,0.029104096814990044,0.0,0.0,0.2657575011253357,0.2,-0.04,-0.02,0.0
1404.18298400,1404182984,1,0.32,-0.14,222.11,-0.0004788544028997421,0.015267849899828434,0.04679207503795624,0.04224304482340813,0.0,0.0,0.26962152123451233,0.2,-0.04,-0.02,0.0
1404.28297700,1404282977,1,0.33,-0.14,222.11,0.001250024070031941,0.015165604650974274,0.04753558710217476,0.05265005677938461,0.0,0.0,0.27460405230522156,0.2,-0.04,-0.02,0.0
1404.38294300,1404382943,1,0.32,-0.14,222.11,0.0035415964666754007,0.01425059512257576,0.04755941405892372,0.053391821682453156,0.0,0.0,0.27925828099250793,0.2,-0.04,-0.02,0.0
1404.48298000,1404482980,1,0.31,-0.14,222.11,0.004500021692365408,0.01573127694427967,0.047700244933366776,0.03261079639196396,0.0,0.0,0.2817312777042389,0.2,-0.04,-0.02,0.0
1404.58296800,1404582968,1,0.33,-0.14,222.11,0.004821023438125849,0.015570303425192833,0.04747151583433151,0.0056550647132098675,0.0,0.0,0.2823595106601715,0.2,-0.04,-0.02,0.0
1404.68295800,1404682958,1,0.33,-0.14,222.12,0.006843424402177334,0.014475134201347828,0.04812491685152054,0.004069340880960226,0.0,0.0,0.283903032541275,0.2,-0.04,-0.02,0.0
1404.78295400,1404782954,1,0.32,-0.15,222.13,0.008507750928401947,0.015003279782831669,0.04849117249250412,0.027491167187690735,0.0,0.0,0.2875884473323822,0.2,-0.04,-0.02,0.0
1404.88292100,1404882921,1,0.33,-0.15,222.13,0.009722738526761532,0.014966538175940514,0.04963906481862068,0.04424126818776131,0.0,0.0,0.2916390597820282,0.2,-0.04,-0.02,0.0
1404.98296200,1404982962,1,0.34,-0.15,222.13,0.011246525682508945,0.014299524016678333,0.048972781747579575,0.014230488799512386,0.0,0.0,0.2916870415210724,0.2,-0.04,-0.02,0.0
1405.08298300,1405082983,1,0.33,-0.16,222.13,0.013025767169892788,0.013480212539434433,0.0486379973590374,-0.005204302258789539,0.0,0.0,0.2921881377696991,0.2,-0.04,-0.02,0.0
1405.18295900,1405182959,1,0.33,-0.16,222.13,0.014023330062627792,0.01427401416003704,0.04916448891162872,0.016738934442400932,0.0,0.0,0.29496049880981445,0.2,-0.04,-0.02,0.0
1405.28296800,1405282968,1,0.34,-0.16,222.13,0.01530466414988041,0.013291113078594208,0.049201056361198425,0.0334109365940094,0.0,0.0,0.2981259524822235,0.2,-0.04,-0.02,0.0
1405.38298400,1405382984,1,0.33,-0.16,222.13,0.016922244802117348,0.012099516578018665,0.05004896968603134,0.03879234939813614,0.0,0.0,0.30163413286209106,0.2,-0.04,-0.02,0.0
1405.48294400,1405482944,1,0.34,-0.17,222.13,0.016204876825213432,0.012600143440067768,0.0502840057015419,0.04553257301449776,0.0,0.0,0.30602532625198364,0.2,-0.04,-0.02,0.0
1405.58296000,1405582960,1,0.35000000000000003,-0.17,222.12,0.017232179641723633,0.01107871625572443,0.04975087568163872,0.0351819209754467,0.0,0.0,0.3087523877620697,0.2,-0.04,-0.02,0.0
1405.68297100,1405682971,1,0.34,-0.17,222.12,0.01830424927175045,0.009910562075674534,0.04998807609081268,0.024342389777302742,0.0,0.0,0.3113586902618408,0.2,-0.04,-0.02,0.0
1405.78295400,1405782954,1,0.34,-0.17,222.12,0.018068579956889153,0.009855000302195549,0.050384242087602615,0.02897246554493904,0.0,0.0,0.3146059811115265,0.2,-0.04,-0.02,0.0
1405.88297100,1405882971,1,0.35000000000000003,-0.18,222.12,0.018838798627257347,0.009019038639962673,0.05044003948569298,0.025329209864139557,0.0,0.0,0.3168952465057373,0.2,-0.04,-0.02,0.0
1405.98297000,1405982970,1,0.34,-0.18,222.12,0.0200389102101326,0.007653533946722746,0.0504261739552021,0.0200565904378891,0.0,0.0,0.31916534900665283,0.2,-0.04,-0.02,0.0
1406.08296900,1406082969,1,0.34,-0.18,222.12,0.019340602681040764,0.007075423840433359,0.05092222988605499,0.01684677228331566,0.0,0.0,0.32089537382125854,0.2,-0.04,-0.02,0.0
1406.18297900,1406182979,1,0.35000000000000003,-0.19,222.12,0.01879998855292797,0.006828538607805967,0.05030843988060951,-0.00855940580368042,0.0,0.0,0.3196079432964325,0.2,-0.04,-0.02,0.0
1406.28298900,1406282989,1,0.35000000000000003,-0.19,222.12,0.01946483924984932,0.005151841323822737,0.049110960215330124,-0.02376760169863701,0.0,0.0,0.3184336721897125,0.2,-0.04,-0.02,0.0
1406.38296600,1406382966,1,0.34,-0.2,222.12,0.019309306517243385,0.0042738961055874825,0.04894338175654411,-0.006007073912769556,0.0,0.0,0.3190311789512634,0.2,-0.04,-0.02,0.0
1406.48292600,1406482926,1,0.35000000000000003,-0.2,222.13,0.019464533776044846,0.003822986502200365,0.049228325486183167,0.018779465928673744,0.0,0.0,0.3212060034275055,0.2,-0.04,-0.02,0.0
1406.58296300,1406582963,1,0.35000000000000003,-0.21,222.13,0.02003457397222519,0.0025489935651421547,0.050016239285469055,0.016103558242321014,0.0,0.0,0.3217490017414093,0.2,-0.04,-0.02,0.0
1406.68297700,1406682977,1,0.35000000000000003,-0.21,222.14000000000001,0.02062857523560524,0.002362245926633477,0.049694083631038666,0.0023379868362098932,0.0,0.0,0.32196861505508423,0.2,-0.04,-0.02,0.0
1406.78292000,1406782920,1,0.35000000000000003,-0.21,222.14000000000001,0.020114757120609283,0.001992950914427638,0.049329712986946106,0.007746461778879166,0.0,0.0,0.3232484459877014,0.2,-0.04,-0.02,0.0
1406.88298000,1406882980,1,0.35000000000000003,-0.21,222.14000000000001,0.02124234102666378,0.0008293743594549596,0.04941520839929581,0.003480000654235482,0.0,0.0,0.32315412163734436,0.2,-0.04,-0.02,0.0
1406.98295900,1406982959,1,0.34,-0.21,222.15,0.021405337378382683,0.0002467668382450938,0.04870786517858505,-0.029074760153889656,0.0,0.0,0.3197985887527466,0.2,-0.04,-0.02,0.0
1407.08296700,1407082967,1,0.34,-0.21,222.15,0.020702561363577843,0.0003415101964492351,0.0470951572060585,-0.056961286813020706,0.0,0.0,0.3149937391281128,0.2,-0.04,-0.02,0.0
1407.18294200,1407182942,1,0.35000000000000003,-0.22,222.16,0.02091751992702484,-0.00022465093934442848,0.04634065181016922,-0.03607887402176857,0.0,0.0,0.31353461742401123,0.2,-0.04,-0.02,0.0
1407.28296300,1407282963,1,0.34,-0.23,222.16,0.02104596421122551,-0.0017366184620186687,0.044910039752721786,-0.012225799262523651,0.0,0.0,0.312313050031662,0.2,-0.04,-0.02,0.0
1407.38298200,1407382982,1,0.34,-0.22,222.17000000000002,0.01941349171102047,-0.0024848603643476963,0.04484771937131882,-0.0035046101547777653,0.0,0.0,0.3117634952068329,0.2,-0.04,-0.02,0.0
1407.48297500,1407482975,1,0.35000000000000003,-0.23,222.17000000000002,0.01876702904701233,-0.002915424294769764,0.04435540363192558,0.0032448016572743654,0.0,0.0,0.31177830696105957,0.2,-0.04,-0.02,0.0
1407.58298800,1407582988,1,0.35000000000000003,-0.23,222.18,0.018926342949271202,-0.0031368774361908436,0.044339023530483246,0.0057455552741885185,0.0,0.0,0.31195539236068726,0.2,-0.04,-0.02,0.0
1407.68297200,1407682972,1,0.34,-0.23,222.18,0.017495473846793175,-0.0030942047014832497,0.043915726244449615,0.004198349546641111,0.0,0.0,0.3120839595794678,0.2,-0.04,-0.02,0.0
1407.78295100,1407782951,1,0.35000000000000003,-0.23,222.18,0.015714069828391075,-0.0033983245957642794,0.04291709512472153,0.011387372389435768,0.0,0.0,0.31345701217651367,0.2,-0.04,-0.02,0.0
1407.88296100,1407882961,1,0.35000000000000003,-0.23,222.18,0.015124241821467876,-0.004580213688313961,0.042575471103191376,0.008447093889117241,0.0,0.0,0.31367018818855286,0.2,-0.04,-0.02,0.0
1407.98292800,1407982928,1,0.34,-0.24,222.18,0.01401293184608221,-0.004348690155893564,0.04225505143404007,0.01645905151963234,0.0,0.0,0.31588906049728394,0.2,-0.04,-0.02,0.0
1408.08297800,1408082978,1,0.35000000000000003,-0.24,222.19,0.01293148472905159,-0.0037522809579968452,0.041865356266498566,0.020143652334809303,0.0,0.0,0.3172411024570465,0.2,-0.04,-0.02,0.0
1408.18297700,1408182977,1,0.35000000000000003,-0.24,222.18,0.012350303120911121,-0.005241498816758394,0.04092951864004135,0.009369653649628162,0.0,0.0,0.3180041015148163,0.2,-0.04,-0.02,0.0
1408.28298300,1408282983,1,0.34,-0.25,222.19,0.011146081611514091,-0.005965640768408775,0.04030255228281021,-0.011738280765712261,0.0,0.0,0.31644850969314575,0.2,-0.04,-0.02,0.0
1408.38295900,1408382959,1,0.34,-0.25,222.19,0.009203331544995308,-0.005584924481809139,0.04031840339303017,-0.01354896742850542,0.0,0.0,0.31624576449394226,0.2,-0.04,-0.02,0.0
1408.48299100,1408482991,1,0.35000000000000003,-0.25,222.19,0.008078138343989849,-0.006358270533382893,0.039534833282232285,-0.006873521953821182,0.0,0.0,0.31572428345680237,0.2,-0.04,-0.02,0.0
1408.58291700,1408582917,1,0.34,-0.25,222.19,0.007232584524899721,-0.006992736831307411,0.039177652448415756,-0.0032528217416256666,0.0,0.0,0.3156965374946594,0.2,-0.04,-0.02,0.0
1408.68296100,1408682961,1,0.34,-0.25,222.19,0.006264014169573784,-0.00710892491042614,0.03734119236469269,-0.019676541909575462,0.0,0.0,0.3131699562072754,0.2,-0.04,-0.02,0.0
1408.78296000,1408782960,1,0.35000000000000003,-0.25,222.20000000000002,0.005126345902681351,-0.008314931765198708,0.037457019090652466,-0.015236829407513142,0.0,0.0,0.3128384053707123,0.2,-0.04,-0.02,0.0
1408.88297000,1408882970,1,0.34,-0.25,222.20000000000002,0.003955475986003876,-0.00843746867030859,0.03586912155151367,-0.02995600551366806,0.0,0.0,0.3089480996131897,0.2,-0.04,-0.02,0.0
1408.98296500,1408982965,1,0.34,-0.26,222.21,0.002385850762948394,-0.007792965974658728,0.03337980806827545,-0.06457498669624329,0.0,0.0,0.30300042033195496,0.2,-0.04,-0.02,0.0
1409.08301000,1409083010,1,0.35000000000000003,-0.26,222.22,0.0012249327264726162,-0.008596760220825672,0.030695440247654915,-0.06072467193007469,0.0,0.0,0.2987087666988373,0.2,-0.04,-0.02,0.0
1409.18297100,1409182971,1,0.35000000000000003,-0.26,222.22,0.0015309946611523628,-0.009722912684082985,0.02985546365380287,-0.0375177301466465,0.0,0.0,0.2956366539001465,0.2,-0.04,-0.02,0.0
1409.28298600,1409282986,1,0.34,-0.26,222.23000000000002,0.0005737741012126207,-0.00968797504901886,0.02850998193025589,-0.024259867146611214,0.0,0.0,0.29314449429512024,0.2,-0.04,-0.02,0.0
1409.38299000,1409382990,1,0.35000000000000003,-0.26,222.23000000000002,0.0012910041259601712,-0.009832444600760937,0.02726970799267292,-0.034166984260082245,0.0,0.0,0.28893396258354187,0.2,-0.04,-0.02,0.0
1409.48298200,1409482982,1,0.35000000000000003,-0.27,222.23000000000002,0.0011415384942665696,-0.010824906639754772,0.025782017037272453,-0.05261123180389404,0.0,0.0,0.2837337553501129,0.2,-0.04,-0.02,0.0
1409.58296100,1409582961,1,0.34,-0.26,222.23000000000002,9.910940570989624e-05,-0.01112775132060051,0.024480178952217102,-0.04490964487195015,0.0,0.0,0.28026503324508667,0.2,-0.04,-0.02,0.0
1409.68297200,1409682972,1,0.35000000000000003,-0.26,222.23000000000002,-0.0012650972930714488,-0.010650414042174816,0.023463772609829903,-0.02892114967107773,0.0,0.0,0.2774539589881897,0.2,-0.04,-0.02,0.0
1409.78294400,1409782944,1,0.35000000000000003,-0.26,222.23000000000002,-0.0020382984075695276,-0.012225042097270489,0.022800419479608536,-0.02565227448940277,0.0,0.0,0.27455756068229675,0.2,-0.04,-0.02,0.0
1409.88297800,1409882978,1,0.34,-0.26,222.23000000000002,-0.002226775512099266,-0.01259920559823513,0.02235434763133526,-0.01986578479409218,0.0,0.0,0.2725795805454254,0.2,-0.04,-0.02,0.0
1409.98296800,1409982968,1,0.34,-0.26,222.23000000000002,-0.003335099434480071,-0.012910679914057255,0.021821865811944008,-0.009960098192095757,0.0,0.0,0.2714425325393677,0.2,-0.04,-0.02,0.0
1410.08294500,1410082945,1,0.35000000000000003,-0.27,222.24,-0.004331756848841906,-0.013682395219802856,0.021717872470617294,0.010553229600191116,0.0,0.0,0.2725936472415924,0.2,-0.04,-0.02,0.0
1410.18294300,1410182943,1,0.34,-0.27,222.24,-0.005176876205950975,-0.014199402183294296,0.02083629183471203,0.009791706688702106,0.0,0.0,0.272350937128067,0.2,-0.04,-0.02,0.0
1410.28295400,1410282954,1,0.34,-0.27,222.24,-0.006490328814834356,-0.014047144912183285,0.01975259743630886,-0.011735423468053341,0.0,0.0,0.270699143409729,0.2,-0.04,-0.02,0.0
1410.38296700,1410382967,1,0.34,-0.28,222.25,-0.007834373041987419,-0.014982805587351322,0.019785448908805847,-0.016686536371707916,0.0,0.0,0.26946690678596497,0.2,-0.04,-0.02,0.0
1410.48297100,1410482971,1,0.34,-0.28,222.25,-0.007939592003822327,-0.015955252572894096,0.01824266090989113,-0.03188294172286987,0.0,0.0,0.2660033404827118,0.2,-0.04,-0.02,0.0
1410.58298500,1410582985,1,0.34,-0.29,222.24,-0.00921539030969143,-0.015597056597471237,0.016718311235308647,-0.059979960322380066,0.0,0.0,0.2603069245815277,0.2,-0.04,-0.02,0.0
1410.68295800,1410682958,1,0.34,-0.29,222.24,-0.00976147036999464,-0.016384655609726906,0.01589423604309559,-0.04884377121925354,0.0,0.0,0.2572408616542816,0.2,-0.04,-0.02,0.0
1410.78297200,1410782972,1,0.34,-0.29,222.24,-0.009419373236596584,-0.017468275502324104,0.01520503219217062,-0.030288372188806534,0.0,0.0,0.2543010413646698,0.2,-0.04,-0.02,0.0
1410.88297900,1410882979,1,0.34,-0.29,222.24,-0.010168283246457577,-0.017685187980532646,0.014394199475646019,-0.023591257631778717,0.0,0.0,0.2519860565662384,0.2,-0.04,-0.02,0.0
1410.98294500,1410982945,1,0.34,-0.3,222.24,-0.011427643708884716,-0.01793650910258293,0.013585451059043407,-0.01660572551190853,0.0,0.0,0.25018617510795593,0.2,-0.04,-0.02,0.0
1411.08296800,1411082968,1,0.34,-0.3,222.24,-0.011207562871277332,-0.019350560382008553,0.011737906374037266,-0.03536156937479973,0.0,0.0,0.24577772617340088,0.2,-0.04,-0.02,0.0
1411.18297800,1411182978,1,0.34,-0.3,222.23000000000002,-0.011157078668475151,-0.020010001957416534,0.01123574748635292,-0.04789808392524719,0.0,0.0,0.24158518016338348,0.2,-0.04,-0.02,0.0
1411.28296300,1411282963,1,0.35000000000000003,-0.3,222.24,-0.011688095517456532,-0.018997931852936745,0.010211948305368423,-0.037643808871507645,0.0,0.0,0.2385144829750061,0.2,-0.04,-0.02,0.0
1411.38298100,1411382981,1,0.35000000000000003,-0.3,222.24,-0.011535444296896458,-0.020139284431934357,0.009861139580607414,-0.006681233644485474,0.0,0.0,0.23852786421775818,0.2,-0.04,-0.02,0.0
1411.48298000,1411482980,1,0.34,-0.3,222.24,-0.01193391066044569,-0.021739011630415916,0.00911665428429842,0.009854401461780071,0.0,0.0,0.23852473497390747,0.2,-0.04,-0.02,0.0
1411.58295900,1411582959,1,0.34,-0.3,222.25,-0.013090921565890312,-0.02156146988272667,0.008983282372355461,-0.010328753851354122,0.0,0.0,0.23618626594543457,0.2,-0.04,-0.02,0.0
1411.68296400,1411682964,1,0.35000000000000003,-0.3,222.26,-0.01340515073388815,-0.022130651399493217,0.007743173744529486,-0.0273291002959013,0.0,0.0,0.2337259203195572,0.2,-0.04,-0.02,0.0
1411.78296800,1411782968,1,0.35000000000000003,-0.3,222.26,-0.013070899061858654,-0.022559061646461487,0.007574860937893391,-0.038913436233997345,0.0,0.0,0.2298211306333542,0.2,-0.04,-0.02,0.0
1411.88295300,1411882953,1,0.35000000000000003,-0.29,222.27,-0.01404915377497673,-0.023678738623857498,0.007382860407233238,-0.03085835836827755,0.0,0.0,0.22786463797092438,0.2,-0.04,-0.02,0.0
1411.98297200,1411982972,1,0.35000000000000003,-0.29,222.27,-0.014585261233150959,-0.023740757256746292,0.007011412642896175,-0.03497103974223137,0.0,0.0,0.22375568747520447,0.2,-0.04,-0.02,0.0
1412.08297800,1412082978,1,0.34,-0.3,222.27,-0.014402545057237148,-0.02450224757194519,0.0058402325958013535,-0.053314514458179474,0.0,0.0,0.2187650501728058,0.2,-0.04,-0.02,0.0
1412.18295400,1412182954,1,0.34,-0.29,222.28,-0.015481206588447094,-0.02455047331750393,0.004363685380667448,-0.05173276737332344,0.0,0.0,0.2144639790058136,0.2,-0.04,-0.02,0.0
1412.28297700,1412282977,1,0.35000000000000003,-0.29,222.28,-0.015879860147833824,-0.024680040776729584,0.0035625924356281757,-0.037996597588062286,0.0,0.0,0.2111583650112152,0.2,-0.04,-0.02,0.0
1412.38299800,1412382998,1,0.35000000000000003,-0.29,222.28,-0.015256434679031372,-0.025529293343424797,0.0022788832429796457,-0.05071977153420448,0.0,0.0,0.205296128988266,0.2,-0.04,-0.02,0.0
1412.48295200,1412482952,1,0.34,-0.29,222.28,-0.015394571237266064,-0.024927649646997452,0.0006160956108942628,-0.07106277346611023,0.0,0.0,0.19864487648010254,0.2,-0.04,-0.02,0.0
1412.58298900,1412582989,1,0.34,-0.28,222.28,-0.014580830931663513,-0.02471037022769451,-0.0007944964454509318,-0.06509079039096832,0.0,0.0,0.1931457817554474,0.2,-0.04,-0.02,0.0
1412.68296900,1412682969,1,0.34,-0.28,222.28,-0.014270930550992489,-0.025282971560955048,-0.0027582733891904354,-0.05852087214589119,0.0,0.0,0.18748466670513153,0.2,-0.04,-0.02,0.0
1412.78298000,1412782980,1,0.34,-0.28,222.28,-0.014798678457736969,-0.024628736078739166,-0.003709317184984684,-0.04842672497034073,0.0,0.0,0.18298032879829407,0.2,-0.04,-0.02,0.0
1412.88296000,1412882960,1,0.34,-0.28,222.29,-0.015338596887886524,-0.02381189540028572,-0.004373685922473669,-0.026346124708652496,0.0,0.0,0.18050804734230042,0.2,-0.04,-0.02,0.0
1412.98298200,1412982982,1,0.35000000000000003,-0.28,222.29,-0.015247486531734467,-0.02360762283205986,-0.004315975122153759,-0.006431058049201965,0.0,0.0,0.1793208122253418,0.2,-0.04,-0.02,0.0
1413.08298200,1413082982,1,0.34,-0.29,222.29,-0.01477761659771204,-0.02349037677049637,-0.004646142013370991,-0.011228037066757679,0.0,0.0,0.17696604132652283,0.2,-0.04,-0.02,0.0
1413.18291500,1413182915,1,0.34,-0.29,222.29,-0.014595084823668003,-0.023022552952170372,-0.004838989581912756,-0.010571135208010674,0.0,0.0,0.17598478496074677,0.2,-0.04,-0.02,0.0
1413.28294500,1413282945,1,0.35000000000000003,-0.28,222.29,-0.013595238327980042,-0.023373227566480637,-0.004461616277694702,2.621704334160313e-05,0.0,0.0,0.17566613852977753,0.2,-0.04,-0.02,0.0
1413.38294400,1413382944,1,0.34,-0.28,222.3,-0.013338390737771988,-0.023877711966633797,-0.00463041802868247,-0.008700250647962093,0.0,0.0,0.17401134967803955,0.2,-0.04,-0.02,0.0
1413.48296400,1413482964,1,0.34,-0.28,222.3,-0.01388534251600504,-0.02256152778863907,-0.0046415445394814014,-0.02346130833029747,0.0,0.0,0.17155663669109344,0.2,-0.04,-0.02,0.0
1413.58295600,1413582956,1,0.34,-0.28,222.31,-0.013390274718403816,-0.022065795958042145,-0.005930873099714518,-0.03175335377454758,0.0,0.0,0.1687423288822174,0.2,-0.04,-0.02,0.0
1413.68299100,1413682991,1,0.34,-0.28,222.31,-0.01297498494386673,-0.021592289209365845,-0.005942074581980705,-0.02529643476009369,0.0,0.0,0.16682611405849457,0.2,-0.04,-0.02,0.0
1413.78295400,1413782954,1,0.34,-0.28,222.31,-0.013989387080073357,-0.02020036056637764,-0.007135898340493441,-0.019684121012687683,0.0,0.0,0.16487643122673035,0.2,-0.04,-0.02,0.0
1413.88298000,1413882980,1,0.34,-0.27,222.31,-0.014339806511998177,-0.019536606967449188,-0.008303886279463768,-0.026407534256577492,0.0,0.0,0.16201627254486084,0.2,-0.04,-0.02,0.0
1413.98298400,1413982984,1,0.34,-0.27,222.31,-0.014334998093545437,-0.019523875787854195,-0.009213865734636784,-0.028179462999105453,0.0,0.0,0.15952931344509125,0.2,-0.04,-0.02,0.0
1414.08295700,1414082957,1,0.33,-0.26,222.31,-0.014193315990269184,-0.01883961632847786,-0.009011970832943916,-0.011615329422056675,0.0,0.0,0.1587996631860733,0.2,-0.04,-0.02,0.0
1414.18294500,1414182945,1,0.34,-0.26,222.31,-0.014178081415593624,-0.01841842755675316,-0.009231384843587875,-0.009179653599858284,0.0,0.0,0.15717196464538574,0.2,-0.04,-0.02,0.0
1414.28298600,1414282986,1,0.34,-0.26,222.31,-0.014088611118495464,-0.01785890944302082,-0.00962805189192295,-0.022688347846269608,0.0,0.0,0.15455536544322968,0.2,-0.04,-0.02,0.0
1414.38297900,1414382979,1,0.33,-0.26,222.31,-0.014054141007363796,-0.016803545877337456,-0.010063905268907547,-0.018850941210985184,0.0,0.0,0.15324214100837708,0.2,-0.04,-0.02,0.0
1414.48297900,1414482979,1,0.33,-0.26,222.32,-0.015190727077424526,-0.016399173066020012,-0.010141505859792233,-0.0050199078395962715,0.0,0.0,0.15278330445289612,0.2,-0.04,-0.02,0.0
1414.58292600,1414582926,1,0.34,-0.27,222.32,-0.014865778386592865,-0.016317550092935562,-0.009777751751244068,0.012885911390185356,0.0,0.0,0.15406976640224457,0.2,-0.04,-0.02,0.0
1414.68297900,1414682979,1,0.33,-0.27,222.32,-0.0156208211556077,-0.016479305922985077,-0.009910752065479755,0.012972832657396793,0.0,0.0,0.15432694554328918,0.2,-0.04,-0.02,0.0
1414.78293100,1414782931,1,0.33,-0.27,222.33,-0.015779513865709305,-0.01606970652937889,-0.009189372882246971,-0.0017814525635913014,0.0,0.0,0.15362824499607086,0.2,-0.04,-0.02,0.0
1414.88296300,1414882963,1,0.34,-0.27,222.33,-0.01571512408554554,-0.015423806384205818,-0.008588025346398354,0.02060874179005623,0.0,0.0,0.15675967931747437,0.2,-0.04,-0.02,0.0
1414.98295200,1414982952,1,0.34,-0.27,222.33,-0.01549658551812172,-0.015264632180333138,-0.006902808323502541,0.044029220938682556,0.0,0.0,0.16025808453559875,0.2,-0.04,-0.02,0.0
1415.08294700,1415082947,1,0.34,-0.27,222.33,-0.01598852314054966,-0.014724311418831348,-0.006180313415825367,0.04223820939660072,0.0,0.0,0.16360421478748322,0.2,-0.04,-0.02,0.0
1415.18296900,1415182969,1,0.34,-0.27,222.33,-0.015872642397880554,-0.014560782350599766,-0.005762780085206032,0.03055625781416893,0.0,0.0,0.16594932973384857,0.2,-0.04,-0.02,0.0
1415.28298200,1415282982,1,0.34,-0.27,222.33,-0.015333200804889202,-0.01502538938075304,-0.004944749176502228,0.029593242332339287,0.0,0.0,0.16914048790931702,0.2,-0.04,-0.02,0.0
1415.38297600,1415382976,1,0.34,-0.27,222.33,-0.015007519163191319,-0.014532817527651787,-0.003906859550625086,0.037774719297885895,0.0,0.0,0.17287425696849823,0.2,-0.04,-0.02,0.0
