timestamp,TimeUS,DesRoll,Roll,DesPitch,Pitch,DesYaw,Yaw,ErrRP,ErrYaw,AEKF
10.49337700,10493377,0.0,0.07,0.0,0.28,359.99,0.0,1.0,1.0,0
10.59312800,10593128,0.0,0.07,0.0,0.28,359.99,0.0,1.0,1.0,0
10.69318500,10693185,0.0,0.06,0.0,0.28,359.99,0.0,0.8,1.0,0
10.79314800,10793148,0.0,0.06,0.0,0.28,359.99,0.0,0.8,1.0,0
10.89316300,10893163,0.0,0.05,0.0,0.28,359.99,0.0,0.64,1.0,0
10.99308300,10993083,0.0,0.05,0.0,0.27,359.99,0.0,0.64,1.0,0
11.09299200,11092992,0.0,0.05,0.0,0.27,359.99,0.0,0.51,1.0,0
11.19296000,11192960,0.0,0.05,0.0,0.26,359.99,0.0,0.51,1.0,0
11.29298300,11292983,0.0,0.05,0.0,0.26,0.0,0.0,0.4,1.0,0
11.39310800,11393108,0.0,0.05,0.0,0.25,0.0,0.0,0.4,1.0,0
11.49318300,11493183,0.0,0.05,0.0,0.25,0.0,0.0,0.32,1.0,0
11.59323000,11593230,0.0,0.05,0.0,0.25,0.0,0.0,0.32,1.0,0
11.69320200,11693202,0.0,0.05,0.0,0.25,0.0,0.0,0.26,1.0,0
11.79319600,11793196,0.0,0.04,0.0,0.25,0.0,0.0,0.26,1.0,0
11.89313000,11893130,0.0,0.04,0.0,0.25,0.0,0.0,0.2,1.0,0
11.99303900,11993039,0.0,0.04,0.0,0.25,0.0,0.0,0.2,1.0,0
12.09300800,12093008,0.0,0.04,0.0,0.25,0.0,0.0,0.16,1.0,0
12.19304600,12193046,0.0,0.04,0.0,0.25,0.0,0.0,0.16,1.0,0
12.29311900,12293119,0.0,0.05,0.0,0.24,0.0,0.0,0.13,1.0,0
12.39319400,12393194,0.0,0.05,0.0,0.24,0.0,0.0,0.13,1.0,0
12.49323900,12493239,0.0,0.05,0.0,0.23,0.0,0.0,0.1,1.0,0
12.59324800,12593248,0.0,0.04,0.0,0.23,0.01,0.01,0.1,1.0,0
12.69319400,12693194,0.0,0.04,0.0,0.23,0.01,0.01,0.08,1.0,0
12.79312900,12793129,0.0,0.04,0.0,0.24,0.01,0.01,0.08,1.0,0
12.89303300,12893033,0.0,0.04,0.0,0.24,0.01,0.01,0.06,1.0,0
12.99300500,12993005,0.0,0.04,0.0,0.25,0.01,0.01,0.06,1.0,0
13.09305300,13093053,0.0,0.04,0.0,0.25,0.01,0.01,0.05,1.0,0
13.19313600,13193136,0.0,0.04,0.0,0.24,0.01,0.01,0.05,1.0,0
13.29320100,13293201,0.0,0.04,0.0,0.24,0.01,0.01,0.04,1.0,0
13.39326900,13393269,0.0,0.04,0.0,0.24,0.01,0.01,0.04,1.0,0
13.49321300,13493213,0.0,0.04,0.0,0.24,0.02,0.02,0.03,1.0,0
13.59321200,13593212,0.0,0.04,0.0,0.24,0.01,0.01,0.03,1.0,0
13.69313500,13693135,0.0,0.04,0.0,0.24,0.01,0.01,0.02,1.0,0
13.79305000,13793050,0.0,0.04,0.0,0.24,0.02,0.02,0.02,1.0,0
13.89300800,13893008,0.0,0.04,0.0,0.24,0.01,0.01,0.02,1.0,0
13.99305000,13993050,0.0,0.03,0.0,0.24,0.02,0.02,0.02,1.0,0
14.09312800,14093128,0.0,0.03,0.0,0.24,0.02,0.02,0.01,1.0,0
14.19317700,14193177,0.0,0.04,0.0,0.24,0.02,0.02,0.01,1.0,0
14.29323800,14293238,0.0,0.04,0.0,0.24,0.02,0.02,0.01,1.0,0
14.39322500,14393225,0.0,0.04,0.0,0.24,0.02,0.02,0.01,1.0,0
14.49318100,14493181,0.0,0.04,0.0,0.24,0.02,0.02,0.01,1.0,0
14.59312900,14593129,0.0,0.04,0.0,0.23,0.02,0.02,0.01,1.0,0
14.69305200,14693052,0.0,0.03,0.0,0.24,0.02,0.02,0.0,1.0,0
14.79300500,14793005,0.0,0.03,0.0,0.24,0.02,0.02,0.0,1.0,0
14.89305500,14893055,0.0,0.03,0.0,0.24,0.03,0.03,0.0,1.0,0
14.99313100,14993131,0.0,0.03,0.0,0.24,0.03,0.03,0.0,1.0,0
15.09321200,15093212,0.0,0.03,0.0,0.24,0.03,0.03,0.0,1.0,0
15.19324500,15193245,0.0,0.03,0.0,0.24,0.03,0.03,0.0,1.0,0
15.29320700,15293207,0.0,0.03,0.0,0.24,0.03,0.03,0.0,1.0,0
15.39323700,15393237,0.0,0.02,0.0,0.24,0.03,0.03,0.0,1.0,0
15.49313100,15493131,0.0,0.02,0.0,0.25,0.03,0.03,0.0,1.0,0
15.59303800,15593038,0.0,0.02,0.0,0.25,0.04,0.04,0.0,1.0,0
15.69300700,15693007,0.0,0.02,0.0,0.25,0.04,0.04,0.0,1.0,0
15.79304600,15793046,0.0,0.02,0.0,0.25,0.04,0.04,0.0,1.0,0
15.89312800,15893128,0.0,0.02,0.0,0.25,0.04,0.04,0.0,1.0,0
15.99319100,15993191,0.0,0.02,0.0,0.24,0.04,0.04,0.0,1.0,0
16.09323200,16093232,0.0,0.02,0.0,0.24,0.04,0.04,0.0,1.0,0
16.19319300,16193193,0.0,0.02,0.0,0.24,0.04,0.04,0.0,1.0,0
16.29317600,16293176,0.0,0.02,0.0,0.24,0.05,0.05,0.0,1.0,0
16.39315400,16393154,0.0,0.03,0.0,0.24,0.05,0.05,0.0,1.0,0
16.49305200,16493052,0.0,0.03,0.0,0.24,0.05,0.05,0.0,1.0,0
16.59301600,16593016,0.0,0.03,0.0,0.24,0.05,0.05,0.0,1.0,0
16.69303500,16693035,0.0,0.03,0.0,0.24,0.05,0.05,0.0,1.0,0
16.79315800,16793158,0.0,0.03,0.0,0.24,0.05,0.05,0.0,1.0,0
16.89320400,16893204,0.0,0.03,0.0,0.24,0.05,0.05,0.0,1.0,0
16.99323000,16993230,0.0,0.03,0.0,0.24,0.05,0.05,0.0,1.0,0
17.09320900,17093209,0.0,0.03,0.0,0.24,0.06,0.06,0.0,1.0,0
17.19319900,17193199,0.0,0.03,0.0,0.24,0.06,0.06,0.0,1.0,0
17.29312200,17293122,0.0,0.03,0.0,0.25,0.06,0.06,0.0,1.0,0
17.39306100,17393061,0.0,0.03,0.0,0.25,0.06,0.06,0.0,1.0,0
17.49300800,17493008,0.0,0.03,0.0,0.25,0.06,0.06,0.0,1.0,0
17.59304300,17593043,0.0,0.03,0.0,0.25,0.06,0.06,0.0,1.0,0
17.69312600,17693126,0.0,0.02,0.0,0.25,0.07,0.07,0.0,1.0,0
17.79317100,17793171,0.0,0.03,0.0,0.25,0.07,0.07,0.0,1.0,0
17.89324300,17893243,0.0,0.02,0.0,0.25,0.07,0.07,0.0,1.0,0
17.99318900,17993189,0.0,0.02,0.0,0.25,0.07,0.07,0.0,1.0,0
18.09318700,18093187,0.0,0.02,0.0,0.25,0.07,0.07,0.0,1.0,0
18.19313700,18193137,0.0,0.02,0.0,0.25,0.08,0.08,0.0,1.0,0
18.29303800,18293038,0.0,0.03,0.0,0.26,0.08,0.08,0.0,1.0,0
18.39303600,18393036,0.0,0.03,0.0,0.26,0.08,0.08,0.0,1.0,0
18.49303600,18493036,0.0,0.03,0.0,0.26,0.08,0.08,0.0,1.0,0
18.59312200,18593122,0.0,0.03,0.0,0.26,0.08,0.08,0.0,1.0,0
18.69320100,18693201,0.0,0.02,0.0,0.26,0.08,0.08,0.0,1.0,0
18.79323200,18793232,0.0,0.02,0.0,0.25,0.08,0.08,0.0,1.0,0
18.89326400,18893264,0.0,0.02,0.0,0.25,0.08,0.08,0.0,1.0,0
18.99317700,18993177,0.0,0.02,0.0,0.25,0.08,0.08,0.0,1.0,0
19.09312800,19093128,0.0,0.02,0.0,0.25,0.08,0.08,0.0,1.0,0
19.19303900,19193039,0.0,0.02,0.0,0.25,0.09,0.09,0.0,1.0,0
19.29300700,19293007,0.0,0.02,0.0,0.25,0.09,0.09,0.0,1.0,0
19.39309000,19393090,0.0,0.02,0.0,0.25,0.09,0.09,0.0,1.0,0
19.49312300,19493123,0.0,0.02,0.0,0.25,0.09,0.09,0.0,1.0,0
19.59318000,19593180,0.0,0.02,0.0,0.26,0.09,0.09,0.0,1.0,0
19.69322600,19693226,0.0,0.02,0.0,0.26,0.09,0.09,0.0,1.0,0
19.79319900,19793199,0.0,0.02,0.0,0.26,0.1,0.1,0.0,1.0,0
19.89317000,19893170,0.0,0.02,0.0,0.25,0.1,0.1,0.0,1.0,0
19.99312000,19993120,0.0,0.02,0.0,0.25,0.1,0.1,0.0,1.0,0
20.09303500,20093035,0.0,0.02,0.0,0.25,0.1,0.1,0.0,1.0,0
20.19301200,20193012,0.0,0.02,0.0,0.25,0.1,0.1,0.0,1.0,0
20.29303100,20293031,0.0,0.02,0.0,0.25,0.1,0.1,0.0,1.0,0
20.39315400,20393154,0.0,0.02,0.0,0.25,0.1,0.1,0.0,1.0,0
20.49317700,20493177,0.0,0.02,0.0,0.25,0.1,0.1,0.0,1.0,0
20.59323300,20593233,0.0,0.02,0.0,0.25,0.1,0.1,0.0,1.0,0
20.69320100,20693201,0.0,0.02,0.0,0.24,0.11,0.11,0.0,1.0,0
20.79317400,20793174,0.0,0.02,0.0,0.24,0.11,0.11,0.0,1.0,0
20.89312600,20893126,0.0,0.02,0.0,0.24,0.11,0.11,0.0,1.0,0
20.99305300,20993053,0.0,0.02,0.0,0.24,0.11,0.11,0.0,1.0,0
21.09301200,21093012,0.0,0.02,0.0,0.24,0.12,0.12,0.0,1.0,0
21.19304300,21193043,0.0,0.01,0.0,0.24,0.12,0.12,0.0,1.0,0
21.29312300,21293123,0.0,0.01,0.0,0.24,0.12,0.12,0.0,1.0,0
21.39320300,21393203,0.0,0.01,0.0,0.25,0.12,0.12,0.0,1.0,0
21.49322900,21493229,0.0,0.01,0.0,0.25,0.12,0.12,0.0,1.0,0
21.59318800,21593188,0.0,0.01,0.0,0.25,0.13,0.13,0.0,1.0,0
21.69317000,21693170,0.0,0.01,0.0,0.25,0.13,0.13,0.0,1.0,0
21.79313300,21793133,0.0,0.01,0.0,0.25,0.13,0.13,0.0,1.0,0
21.89304200,21893042,0.0,0.01,0.0,0.25,0.13,0.13,0.0,1.0,0
21.99301000,21993010,0.0,0.01,0.0,0.25,0.13,0.13,0.0,1.0,0
22.09303900,22093039,0.0,0.02,0.0,0.25,0.13,0.13,0.0,1.0,0
22.19311200,22193112,0.0,0.02,0.0,0.25,0.13,0.13,0.0,1.0,0
22.29316200,22293162,0.0,0.02,0.0,0.25,0.14,0.14,0.0,1.0,0
22.39325300,22393253,0.0,0.02,0.0,0.25,0.14,0.14,0.0,1.0,0
22.49318700,22493187,0.0,0.02,0.0,0.25,0.14,0.14,0.0,1.0,0
22.59317500,22593175,0.0,0.03,0.0,0.25,0.14,0.14,0.0,1.0,0
22.69312500,22693125,0.0,0.03,0.0,0.25,0.15,0.15,0.0,1.0,0
22.79304000,22793040,0.0,0.03,0.0,0.26,0.15,0.15,0.0,1.0,0
22.89300800,22893008,0.0,0.03,0.0,0.26,0.15,0.15,0.0,1.0,0
22.99303300,22993033,0.0,0.02,0.0,0.26,0.15,0.15,0.0,1.0,0
23.09312800,23093128,0.0,0.02,0.0,0.26,0.15,0.15,0.0,1.0,0
23.19317100,23193171,0.0,0.02,0.0,0.25,0.16,0.16,0.0,1.0,0
23.29323900,23293239,0.0,0.02,0.0,0.25,0.16,0.16,0.0,1.0,0
23.39322600,23393226,0.0,0.01,0.0,0.25,0.16,0.16,0.0,1.0,0
23.49316800,23493168,0.0,0.01,0.0,0.25,0.16,0.16,0.0,1.0,0
23.59312100,23593121,0.0,0.01,0.0,0.25,0.17,0.17,0.0,1.0,0
23.69304500,23693045,0.0,0.02,0.0,0.24,0.17,0.17,0.0,1.0,0
23.79301200,23793012,0.0,0.02,0.0,0.24,0.17,0.17,0.0,1.0,0
23.89303100,23893031,0.0,0.02,0.0,0.24,0.18,0.18,0.0,1.0,0
23.99311300,23993113,0.0,0.02,0.0,0.24,0.18,0.18,0.0,1.0,0
24.09318700,24093187,0.0,0.02,0.0,0.25,0.18,0.18,0.0,1.0,0
24.19322600,24193226,0.0,0.02,0.0,0.25,0.18,0.18,0.0,1.0,0
24.29318400,24293184,0.0,0.02,0.0,0.25,0.18,0.18,0.0,1.0,0
24.39321600,24393216,0.0,0.02,0.0,0.25,0.19,0.19,0.0,1.0,0
24.49313100,24493131,0.0,0.02,0.0,0.25,0.19,0.19,0.0,1.0,0
24.59304200,24593042,0.0,0.02,0.0,0.25,0.19,0.19,0.0,1.0,0
24.69301100,24693011,0.0,0.02,0.0,0.25,0.19,0.19,0.0,1.0,0
24.79302700,24793027,0.0,0.02,0.0,0.25,0.19,0.19,0.0,1.0,0
24.89310700,24893107,0.0,0.02,0.0,0.25,0.2,0.2,0.0,1.0,0
24.99318400,24993184,0.0,0.02,0.0,0.25,0.2,0.2,0.0,1.0,0
25.09322400,25093224,0.0,0.01,0.0,0.25,0.2,0.2,0.0,1.0,0
25.19326300,25193263,0.0,0.01,0.0,0.25,0.2,0.2,0.0,1.0,0
25.29317200,25293172,0.0,0.01,0.0,0.25,0.2,0.2,0.0,1.0,0
25.39316400,25393164,0.0,0.01,0.0,0.26,0.2,0.2,0.0,1.0,0
25.49303600,25493036,0.0,0.02,0.0,0.26,0.21,0.21,0.0,1.0,0
25.59301000,25593010,0.0,0.02,0.0,0.26,0.21,0.21,0.0,1.0,0
25.69302800,25693028,0.0,0.02,0.0,0.26,0.21,0.21,0.0,1.0,0
25.79311300,25793113,0.0,0.02,0.0,0.26,0.21,0.21,0.0,1.0,0
25.89315100,25893151,0.0,0.02,0.0,0.25,0.22,0.22,0.0,1.0,0
25.99322700,25993227,0.0,0.02,0.0,0.25,0.22,0.22,0.0,1.0,0
26.09320900,26093209,0.0,0.01,0.0,0.25,0.22,0.22,0.0,1.0,0
26.19317100,26193171,0.0,0.01,0.0,0.25,0.22,0.22,0.0,1.0,0
26.29312900,26293129,0.0,0.01,0.0,0.25,0.23,0.23,0.0,1.0,0
26.39307000,26393070,0.0,0.01,0.0,0.24,0.23,0.23,0.0,1.0,0
26.49300300,26493003,0.0,0.01,0.0,0.24,0.23,0.23,0.0,1.0,0
26.59302500,26593025,0.0,0.01,0.0,0.25,0.23,0.23,0.0,1.0,0
26.69311800,26693118,0.0,0.02,0.0,0.25,0.23,0.23,0.0,1.0,0
26.79319600,26793196,0.0,0.02,0.0,0.25,0.23,0.23,0.0,1.0,0
26.89323800,26893238,0.0,0.02,0.0,0.25,0.23,0.23,0.0,1.0,0
26.99320800,26993208,0.0,0.02,0.0,0.25,0.24,0.24,0.0,1.0,0
27.09317700,27093177,0.0,0.03,0.0,0.25,0.24,0.24,0.0,1.0,0
27.19312900,27193129,0.0,0.03,0.0,0.25,0.24,0.24,0.0,1.0,0
27.29305300,27293053,0.0,0.03,0.0,0.25,0.24,0.24,0.0,1.0,0
27.39303700,27393037,0.0,0.03,0.0,0.26,0.24,0.24,0.0,1.0,0
27.49302800,27493028,0.0,0.03,0.0,0.26,0.24,0.24,0.0,1.0,0
27.59310600,27593106,0.0,0.03,0.0,0.26,0.25,0.25,0.0,1.0,0
27.69314500,27693145,0.0,0.03,0.0,0.26,0.25,0.25,0.0,1.0,0
27.79323600,27793236,0.0,0.03,0.0,0.26,0.25,0.25,0.0,1.0,0
27.89317800,27893178,0.0,0.03,0.0,0.26,0.25,0.25,0.0,1.0,0
27.99317300,27993173,0.0,0.03,0.0,0.25,0.25,0.25,0.0,1.0,0
28.09312600,28093126,0.0,0.03,0.0,0.25,0.26,0.26,0.0,1.0,0
28.19303300,28193033,0.0,0.03,0.0,0.25,0.26,0.26,0.0,1.0,0
28.29301000,28293010,0.0,0.03,0.0,0.26,0.26,0.26,0.0,1.0,0
28.39305800,28393058,0.0,0.03,0.0,0.26,0.26,0.26,0.0,1.0,0
28.49311700,28493117,0.0,0.03,0.0,0.26,0.27,0.27,0.0,1.0,0
28.59317500,28593175,0.0,0.02,0.0,0.26,0.27,0.27,0.0,1.0,0
28.69323000,28693230,0.0,0.02,0.0,0.26,0.27,0.27,0.0,1.0,0
28.79318800,28793188,0.0,0.02,0.0,0.26,0.27,0.27,0.0,1.0,0
28.89316800,28893168,0.0,0.01,0.0,0.26,0.27,0.27,0.0,1.0,0
28.99313200,28993132,0.0,0.01,0.0,0.26,0.28,0.28,0.0,1.0,0
29.09304300,29093043,0.0,0.01,0.0,0.26,0.28,0.28,0.0,1.0,0
29.19300600,29193006,0.0,0.01,0.0,0.26,0.28,0.28,0.0,1.0,0
29.29302700,29293027,0.0,0.01,0.0,0.26,0.28,0.28,0.0,1.0,0
29.39314800,29393148,0.0,0.01,0.0,0.26,0.29,0.29,0.0,1.0,0
29.49318600,29493186,0.0,0.01,0.0,0.26,0.29,0.29,0.0,1.0,0
29.59323800,29593238,0.0,0.01,0.0,0.27,0.29,0.29,0.0,1.0,0
29.69319400,29693194,0.0,0.01,0.0,0.26,0.29,0.29,0.0,1.0,0
29.79318200,29793182,0.0,0.01,0.0,0.26,0.29,0.29,0.0,1.0,0
29.89312200,29893122,0.0,0.01,0.0,0.26,0.29,0.29,0.0,1.0,0
29.99304100,29993041,0.0,0.01,0.0,0.26,0.3,0.3,0.0,1.0,0
30.09299900,30092999,0.0,0.01,0.0,0.26,0.3,0.3,0.0,1.0,0
30.19301500,30193015,0.0,0.01,0.0,0.26,0.3,0.3,0.0,1.0,0
30.29310800,30293108,0.0,0.01,0.0,0.26,0.3,0.3,0.0,1.0,0
30.39318100,30393181,0.0,0.01,0.0,0.26,0.31,0.31,0.0,1.0,0
30.49321300,30493213,0.0,0.02,0.0,0.26,0.31,0.31,0.0,1.0,0
30.59316600,30593166,0.0,0.02,0.0,0.27,0.31,0.31,0.0,1.0,0
30.69314600,30693146,0.0,0.01,0.0,0.26,0.31,0.31,0.0,1.0,0
30.79311400,30793114,0.0,0.01,0.0,0.26,0.32,0.32,0.0,1.0,0
30.89303200,30893032,0.0,0.0,0.0,0.26,0.32,0.32,0.0,1.0,0
30.99299700,30992997,0.0,0.0,0.0,0.25,0.32,0.32,0.0,1.0,0
31.09301700,31093017,0.0,0.0,0.0,0.25,0.33,0.33,0.0,1.0,0
31.19310100,31193101,0.0,0.0,0.0,0.25,0.33,0.33,0.0,1.0,0
31.29317000,31293170,0.0,0.0,0.0,0.25,0.33,0.33,0.0,1.0,0
31.39328300,31393283,0.0,-0.01,0.0,0.24,0.33,0.33,0.0,1.0,0
31.49324300,31493243,0.0,-0.01,0.0,0.24,0.33,0.33,0.0,1.0,0
31.59314500,31593145,0.0,-0.02,0.0,0.24,0.34,0.34,0.0,1.0,0
31.69311800,31693118,0.0,-0.02,0.0,0.24,0.34,0.34,0.0,1.0,0
31.79303600,31793036,0.0,-0.02,0.0,0.24,0.34,0.34,0.0,1.0,0
31.89299700,31892997,0.0,-0.03,0.0,0.23,0.34,0.34,0.0,1.0,0
31.99302900,31993029,0.0,-0.03,0.0,0.23,0.35000000000000003,0.35000000000000003,0.0,1.0,0
32.09309600,32093096,0.0,-0.04,0.0,0.23,0.35000000000000003,0.35000000000000003,0.0,1.0,0
32.19316000,32193160,0.0,-0.04,0.0,0.23,0.35000000000000003,0.35000000000000003,0.0,1.0,0
32.29320700,32293207,0.0,-0.04,0.0,0.23,0.35000000000000003,0.35000000000000003,0.0,1.0,0
32.39320000,32393200,0.0,-0.05,0.0,0.22,0.36,0.36,0.0,1.0,0
32.49316200,32493162,0.0,-0.05,0.0,0.22,0.36,0.36,0.0,1.0,0
32.59311300,32593113,0.0,-0.06,0.0,0.22,0.36,0.36,0.0,1.0,0
32.69302600,32693026,0.0,-0.06,0.0,0.22,0.37,0.37,0.0,1.0,0
32.79299900,32792999,0.0,-0.06,0.0,0.21,0.37,0.37,0.0,1.0,0
32.89303100,32893031,0.0,-0.06,0.0,0.21,0.37,0.37,0.0,1.0,0
32.99310400,32993104,0.0,-0.07,0.0,0.21,0.37,0.37,0.0,1.0,0
33.09318100,33093181,0.0,-0.07,0.0,0.21,0.38,0.38,0.0,1.0,0
33.19322800,33193228,0.0,-0.07,0.0,0.21,0.38,0.38,0.0,1.0,0
33.29319000,33293190,0.0,-0.07,0.0,0.21,0.38,0.38,0.0,1.0,0
33.39320100,33393201,0.0,-0.08,0.0,0.2,0.38,0.38,0.0,1.0,0
33.49312200,33493122,0.0,-0.08,0.0,0.2,0.39,0.39,0.0,1.0,0
33.59303900,33593039,0.0,-0.08,0.0,0.2,0.39,0.39,0.0,1.0,0
33.69300200,33693002,0.0,-0.08,0.0,0.19,0.39,0.39,0.0,1.0,0
33.79302900,33793029,0.0,-0.09,0.0,0.19,0.39,0.39,0.0,1.0,0
33.89310300,33893103,0.0,-0.09,0.0,0.19,0.4,0.4,0.0,1.0,0
33.99315100,33993151,0.0,-0.09,0.0,0.19,0.4,0.4,0.0,1.0,0
34.09321700,34093217,0.0,-0.09,0.0,0.18,0.4,0.4,0.0,1.0,0
34.19317600,34193176,0.0,-0.09,0.0,0.18,0.4,0.4,0.0,1.0,0
34.29315300,34293153,0.0,-0.1,0.0,0.18,0.4,0.4,0.0,1.0,0
34.39313200,34393132,0.0,-0.1,0.0,0.18,0.41000000000000003,0.41000000000000003,0.0,1.0,0
34.49302200,34493022,0.0,-0.1,0.0,0.18,0.41000000000000003,0.41000000000000003,0.0,1.0,0
34.59299700,34592997,0.0,-0.1,0.0,0.18,0.41000000000000003,0.41000000000000003,0.0,1.0,0
34.69301700,34693017,0.0,-0.1,0.0,0.18,0.41000000000000003,0.41000000000000003,0.0,1.0,0
34.79310800,34793108,0.0,-0.11,0.0,0.17,0.41000000000000003,0.41000000000000003,0.0,1.0,0
34.89316700,34893167,0.0,-0.11,0.0,0.17,0.41000000000000003,0.41000000000000003,0.0,1.0,0
34.99320700,34993207,0.0,-0.11,0.0,0.17,0.41000000000000003,0.41000000000000003,0.0,1.0,0
35.09317100,35093171,0.0,-0.11,0.0,0.17,0.42,0.42,0.0,1.0,0
35.19316800,35193168,0.0,-0.11,0.0,0.17,0.42,0.42,0.0,1.0,0
35.29311100,35293111,0.0,-0.12,0.0,0.17,0.42,0.42,0.0,1.0,0
35.39305200,35393052,0.0,-0.13,0.0,0.17,0.42,0.42,0.0,1.0,0
35.49299900,35492999,0.0,-0.14,0.0,0.16,0.43,0.43,0.0,1.0,0
35.59302100,35593021,0.0,-0.15,0.0,0.16,0.43,0.43,0.0,1.0,0
35.69311700,35693117,0.0,-0.16,0.0,0.16,0.43,0.43,0.0,1.0,0
35.79316600,35793166,0.0,-0.16,0.0,0.15,0.43,0.43,0.0,1.0,0
35.89323000,35893230,0.0,-0.17,0.0,0.15,0.44,0.44,0.0,1.0,0
35.99318500,35993185,0.0,-0.18,0.0,0.15,0.44,0.44,0.0,1.0,0
36.09315800,36093158,0.0,-0.18,0.0,0.15,0.44,0.44,0.0,1.0,0
36.19309600,36193096,0.0,-0.19,0.0,0.14,0.44,0.44,0.0,1.0,0
36.29303400,36293034,0.0,-0.2,0.0,0.14,0.44,0.44,0.0,1.0,0
36.39302600,36393026,0.0,-0.2,0.0,0.14,0.45,0.45,0.0,1.0,0
36.49304200,36493042,0.0,-0.21,0.0,0.13,0.45,0.45,0.0,1.0,0
36.59310900,36593109,0.0,-0.22,0.0,0.13,0.45,0.45,0.0,1.0,0
36.69314700,36693147,0.0,-0.22,0.0,0.13,0.45,0.45,0.0,1.0,0
36.79321400,36793214,0.0,-0.23,0.0,0.13,0.45,0.45,0.0,1.0,0
36.89315900,36893159,0.0,-0.24,0.0,0.13,0.46,0.46,0.0,1.0,0
36.99315300,36993153,0.0,-0.24,0.0,0.13,0.46,0.46,0.0,1.0,0
37.09307200,37093072,0.0,-0.25,0.0,0.13,0.46,0.46,0.0,1.0,0
37.19303900,37193039,0.0,-0.25,0.0,0.13,0.46,0.46,0.0,1.0,0
37.29300100,37293001,0.0,-0.26,0.0,0.13,0.47000000000000003,0.47000000000000003,0.0,1.0,0
37.39305800,37393058,0.0,-0.26,0.0,0.13,0.47000000000000003,0.47000000000000003,0.0,1.0,0
37.49312600,37493126,0.0,-0.27,0.0,0.13,0.47000000000000003,0.47000000000000003,0.0,1.0,0
37.59319000,37593190,0.0,-0.27,0.0,0.13,0.48,0.48,0.0,1.0,0
37.69322300,37693223,0.0,-0.27,0.0,0.13,0.48,0.48,0.0,1.0,0
37.79324600,37793246,0.0,-0.28,0.0,0.12,0.48,0.48,0.0,1.0,0
37.89317800,37893178,0.0,-0.29,0.0,0.12,0.48,0.48,0.0,1.0,0
37.99311000,37993110,0.0,-0.29,0.0,0.12,0.48,0.48,0.0,1.0,0
38.09303600,38093036,0.0,-0.29,0.0,0.12,0.49,0.49,0.0,1.0,0
38.19300300,38193003,0.0,-0.3,0.0,0.12,0.49,0.49,0.0,1.0,0
38.29303600,38293036,0.0,-0.3,0.0,0.12,0.49,0.49,0.0,1.0,0
38.39314600,38393146,0.0,-0.3,0.0,0.12,0.49,0.49,0.0,1.0,0
38.49316500,38493165,0.0,-0.31,0.0,0.11,0.5,0.5,0.0,1.0,0
38.59321900,38593219,0.0,-0.31,0.0,0.11,0.5,0.5,0.0,1.0,0
38.69317700,38693177,0.0,-0.31,0.0,0.11,0.5,0.5,0.0,1.0,0
38.79315600,38793156,0.0,-0.32,0.0,0.11,0.51,0.51,0.0,1.0,0
38.89305400,38893054,0.0,-0.32,0.0,0.11,0.51,0.51,0.0,1.0,0
38.99303700,38993037,0.0,-0.32,0.0,0.11,0.51,0.51,0.0,1.0,0
39.09300300,39093003,0.0,-0.33,0.0,0.11,0.52,0.52,0.0,1.0,0
39.19303800,39193038,0.0,-0.33,0.0,0.11,0.52,0.52,0.0,1.0,0
39.29312600,39293126,0.0,-0.33,0.0,0.11,0.52,0.52,0.0,1.0,0
39.39318700,39393187,0.0,-0.34,0.0,0.1,0.52,0.52,0.0,1.0,0
39.49321400,39493214,0.0,-0.34,0.0,0.11,0.53,0.53,0.0,1.0,0
39.59318900,39593189,0.0,-0.34,0.0,0.11,0.53,0.53,0.0,1.0,0
39.69315100,39693151,0.0,-0.35000000000000003,0.0,0.1,0.53,0.53,0.0,1.0,0
39.79310700,39793107,0.0,-0.35000000000000003,0.0,0.1,0.53,0.53,0.0,1.0,0
39.89305100,39893051,0.0,-0.35000000000000003,0.0,0.1,0.53,0.53,0.0,1.0,0
39.99300800,39993008,0.0,-0.35000000000000003,0.0,0.1,0.54,0.54,0.0,1.0,0
40.09303200,40093032,0.0,-0.36,0.0,0.1,0.54,0.54,0.0,1.0,0
40.19311800,40193118,0.0,-0.36,0.0,0.1,0.54,0.54,0.0,1.0,0
40.29318400,40293184,0.0,-0.36,0.0,0.1,0.54,0.54,0.0,1.0,0
40.39328800,40393288,0.0,-0.36,0.0,0.1,0.55,0.55,0.0,1.0,0
40.49318800,40493188,0.0,-0.37,0.0,0.1,0.55,0.55,0.0,1.0,0
40.59314800,40593148,0.0,-0.37,0.0,0.09,0.55,0.55,0.0,1.0,0
40.69312000,40693120,0.0,-0.37,0.0,0.09,0.55,0.55,0.0,1.0,0
40.79303500,40793035,0.0,-0.38,0.0,0.09,0.56,0.56,0.0,1.0,0
40.89300200,40893002,0.0,-0.38,0.0,0.09,0.56,0.56,0.0,1.0,0
40.99305600,40993056,0.0,-0.38,0.0,0.09,0.56,0.56,0.0,1.0,0
41.09311400,41093114,0.0,-0.38,0.0,0.09,0.5700000000000001,0.5700000000000001,0.0,1.0,0
41.19315000,41193150,0.0,-0.38,0.0,0.09,0.5700000000000001,0.5700000000000001,0.0,1.0,0
41.29320600,41293206,0.0,-0.39,0.0,0.09,0.5700000000000001,0.5700000000000001,0.0,1.0,0
41.39319200,41393192,0.0,-0.39,0.0,0.09,0.5700000000000001,0.5700000000000001,0.0,1.0,0
41.49315000,41493150,0.0,-0.39,0.0,0.09,0.58,0.58,0.0,1.0,0
41.59310600,41593106,0.0,-0.4,0.0,0.09,0.58,0.58,0.0,1.0,0
41.69304200,41693042,0.0,-0.4,0.0,0.08,0.58,0.58,0.0,1.0,0
41.79300900,41793009,0.0,-0.4,0.0,0.08,0.58,0.58,0.0,1.0,0
41.89303400,41893034,0.0,-0.4,0.0,0.08,0.59,0.59,0.0,1.0,0
41.99313200,41993132,0.0,-0.41000000000000003,0.0,0.08,0.59,0.59,0.0,1.0,0
42.09317000,42093170,0.0,-0.41000000000000003,0.0,0.08,0.59,0.59,0.0,1.0,0
42.19321100,42193211,0.0,-0.41000000000000003,0.0,0.08,0.59,0.59,0.0,1.0,0
42.29318600,42293186,0.0,-0.41000000000000003,0.0,0.08,0.59,0.59,0.0,1.0,0
42.39323100,42393231,0.0,-0.42,0.0,0.08,0.6,0.6,0.0,1.0,0
42.49311200,42493112,0.0,-0.42,0.0,0.08,0.6,0.6,0.0,1.0,0
42.59303500,42593035,0.0,-0.42,0.0,0.07,0.6,0.6,0.0,1.0,0
42.69300600,42693006,0.0,-0.42,0.0,0.07,0.6,0.6,0.0,1.0,0
42.79302300,42793023,0.0,-0.43,0.0,0.07,0.6,0.6,0.0,1.0,0
42.89310600,42893106,0.0,-0.43,0.0,0.07,0.61,0.61,0.0,1.0,0
42.99317200,42993172,0.0,-0.43,0.0,0.07,0.61,0.61,0.0,1.0,0
43.09322900,43093229,0.0,-0.43,0.0,0.07,0.61,0.61,0.0,1.0,0
43.19317300,43193173,0.0,-0.43,0.0,0.07,0.62,0.62,0.0,1.0,0
43.29316000,43293160,0.0,-0.44,0.0,0.06,0.62,0.62,0.0,1.0,0
43.39313200,43393132,0.0,-0.44,0.0,0.07,0.62,0.62,0.0,1.0,0
43.49305400,43493054,0.0,-0.44,0.0,0.07,0.62,0.62,0.0,1.0,0
43.59301000,43593010,0.0,-0.44,0.0,0.07,0.63,0.63,0.0,1.0,0
43.69302400,43693024,0.0,-0.44,0.0,0.07,0.63,0.63,0.0,1.0,0
43.79311000,43793110,0.0,-0.44,0.0,0.07,0.63,0.63,0.0,1.0,0
43.89316100,43893161,0.0,-0.45,0.0,0.06,0.64,0.64,0.0,1.0,0
43.99322800,43993228,0.0,-0.45,0.0,0.06,0.64,0.64,0.0,1.0,0
44.09321100,44093211,0.0,-0.45,0.0,0.06,0.64,0.64,0.0,1.0,0
44.19315400,44193154,0.0,-0.45,0.0,0.06,0.64,0.64,0.0,1.0,0
44.29310400,44293104,0.0,-0.45,0.0,0.06,0.65,0.65,0.0,1.0,0
44.39305700,44393057,0.0,-0.45,0.0,0.06,0.65,0.65,0.0,1.0,0
44.49300800,44493008,0.0,-0.45,0.0,0.06,0.65,0.65,0.0,1.0,0
44.59302300,44593023,0.0,-0.45,0.0,0.06,0.65,0.65,0.0,1.0,0
44.69311200,44693112,0.0,-0.45,0.0,0.06,0.66,0.66,0.0,1.0,0
44.79320500,44793205,0.0,-0.45,0.0,0.06,0.66,0.66,0.0,1.0,0
44.89322400,44893224,0.0,-0.45,0.0,0.06,0.66,0.66,0.0,1.0,0
44.99318400,44993184,0.0,-0.45,0.0,0.05,0.66,0.66,0.0,1.0,0
45.09316600,45093166,0.0,-0.45,0.0,0.05,0.67,0.67,0.0,1.0,0
45.19311400,45193114,0.0,-0.45,0.0,0.05,0.67,0.67,0.0,1.0,0
45.29304700,45293047,0.0,-0.45,0.0,0.05,0.67,0.67,0.0,1.0,0
45.39303400,45393034,0.0,-0.45,0.0,0.05,0.67,0.67,0.0,1.0,0
45.49303200,45493032,0.0,-0.45,0.0,0.05,0.67,0.67,0.0,1.0,0
45.59309400,45593094,0.0,-0.45,0.0,0.05,0.68,0.68,0.0,1.0,0
45.69315000,45693150,0.0,-0.45,0.0,0.04,0.68,0.68,0.0,1.0,0
45.79319600,45793196,0.0,-0.45,0.0,0.04,0.68,0.68,0.0,1.0,0
45.89316400,45893164,0.0,-0.45,0.0,0.04,0.68,0.68,0.0,1.0,0
45.99315400,45993154,0.0,-0.45,0.0,0.04,0.6900000000000001,0.6900000000000001,0.0,1.0,0
46.09310800,46093108,0.0,-0.45,0.0,0.04,0.6900000000000001,0.6900000000000001,0.0,1.0,0
46.19304800,46193048,0.0,-0.45,0.0,0.04,0.6900000000000001,0.6900000000000001,0.0,1.0,0
46.29301000,46293010,0.0,-0.45,0.0,0.04,0.6900000000000001,0.6900000000000001,0.0,1.0,0
46.39304900,46393049,0.0,-0.45,0.0,0.04,0.7000000000000001,0.7000000000000001,0.0,1.0,0
46.49310900,46493109,0.0,-0.45,0.0,0.04,0.7000000000000001,0.7000000000000001,0.0,1.0,0
46.59316000,46593160,0.0,-0.45,0.0,0.04,0.7000000000000001,0.7000000000000001,0.0,1.0,0
46.69320100,46693201,0.0,-0.45,0.0,0.04,0.7000000000000001,0.7000000000000001,0.0,1.0,0
46.79317700,46793177,0.0,-0.45,0.0,0.04,0.71,0.71,0.0,1.0,0
46.89317800,46893178,0.0,-0.45,0.0,0.04,0.71,0.71,0.0,1.0,0
46.99310400,46993104,0.0,-0.45,0.0,0.04,0.71,0.71,0.0,1.0,0
47.09304300,47093043,0.0,-0.44,0.0,0.04,0.72,0.72,0.0,1.0,0
47.19300500,47193005,0.0,-0.44,0.0,0.04,0.72,0.72,0.0,1.0,0
47.29302900,47293029,0.0,-0.44,0.0,0.04,0.72,0.72,0.0,1.0,0
47.39313200,47393132,0.0,-0.44,0.0,0.04,0.73,0.73,0.0,1.0,0
47.49314200,47493142,0.0,-0.44,0.0,0.04,0.73,0.73,0.0,1.0,0
47.59321300,47593213,0.0,-0.43,0.0,0.04,0.73,0.73,0.0,1.0,0
47.69318300,47693183,0.0,-0.43,0.0,0.04,0.74,0.74,0.0,1.0,0
47.79315000,47793150,0.0,-0.43,0.0,0.04,0.74,0.74,0.0,1.0,0
47.89311200,47893112,0.0,-0.43,0.0,0.04,0.74,0.74,0.0,1.0,0
47.99304400,47993044,0.0,-0.43,0.0,0.04,0.74,0.74,0.0,1.0,0
48.09299900,48092999,0.0,-0.43,0.0,0.04,0.75,0.75,0.0,1.0,0
48.19303000,48193030,0.0,-0.43,0.0,0.04,0.75,0.75,0.0,1.0,0
48.29312100,48293121,0.0,-0.43,0.0,0.04,0.75,0.75,0.0,1.0,0
48.39318700,48393187,0.0,-0.43,0.0,0.04,0.75,0.75,0.0,1.0,0
48.49320200,48493202,0.0,-0.42,0.0,0.04,0.76,0.76,0.0,1.0,0
48.59316000,48593160,0.0,-0.42,0.0,0.04,0.76,0.76,0.0,1.0,0
48.69315700,48693157,0.0,-0.42,0.0,0.04,0.76,0.76,0.0,1.0,0
48.79305100,48793051,0.0,-0.42,0.0,0.04,0.77,0.77,0.0,1.0,0
48.89303500,48893035,0.0,-0.42,0.0,0.04,0.77,0.77,0.0,1.0,0
48.99301100,48993011,0.0,-0.42,0.0,0.04,0.77,0.77,0.0,1.0,0
49.09301700,49093017,0.0,-0.42,0.0,0.04,0.78,0.78,0.0,1.0,0
49.19310100,49193101,0.0,-0.42,0.0,0.04,0.78,0.78,0.0,1.0,0
49.29317100,49293171,0.0,-0.42,0.0,0.04,0.78,0.78,0.0,1.0,0
49.39323100,49393231,0.0,-0.42,0.0,0.04,0.78,0.78,0.0,1.0,0
49.49318100,49493181,0.0,-0.41000000000000003,0.0,0.04,0.79,0.79,0.0,1.0,0
49.59316000,49593160,0.0,-0.41000000000000003,0.0,0.04,0.79,0.79,0.0,1.0,0
49.69310700,49693107,0.0,-0.41000000000000003,0.0,0.04,0.79,0.79,0.0,1.0,0
49.79304200,49793042,0.0,-0.41000000000000003,0.0,0.04,0.79,0.79,0.0,1.0,0
49.89300200,49893002,0.0,-0.41000000000000003,0.0,0.03,0.8,0.8,0.0,1.0,0
49.99304000,49993040,0.0,-0.41000000000000003,0.0,0.03,0.8,0.8,0.0,1.0,0
50.09309800,50093098,0.0,-0.4,0.0,0.03,0.8,0.8,0.0,1.0,0
50.19314700,50193147,0.0,-0.4,0.0,0.04,0.8,0.8,0.0,1.0,0
50.29321100,50293211,0.0,-0.4,0.0,0.03,0.81,0.81,0.0,1.0,0
50.39326000,50393260,0.0,-0.4,0.0,0.03,0.81,0.81,0.0,1.0,0
50.49315300,50493153,0.0,-0.4,0.0,0.03,0.81,0.81,0.0,1.0,0
50.59311400,50593114,0.0,-0.4,0.0,0.03,0.81,0.81,0.0,1.0,0
50.69304100,50693041,0.0,-0.4,0.0,0.03,0.81,0.81,0.0,1.0,0
50.79299900,50792999,0.0,-0.4,0.0,0.03,0.8200000000000001,0.8200000000000001,0.0,1.0,0
50.89304100,50893041,0.0,-0.39,0.0,0.03,0.8200000000000001,0.8200000000000001,0.0,1.0,0
50.99311600,50993116,0.0,-0.39,0.0,0.03,0.8200000000000001,0.8200000000000001,0.0,1.0,0
51.09317300,51093173,0.0,-0.39,0.0,0.04,0.8200000000000001,0.8200000000000001,0.0,1.0,0
51.19323200,51193232,0.0,-0.39,0.0,0.04,0.8300000000000001,0.8300000000000001,0.0,1.0,0
51.29315900,51293159,0.0,-0.39,0.0,0.04,0.8300000000000001,0.8300000000000001,0.0,1.0,0
51.39320600,51393206,0.0,-0.39,0.0,0.04,0.8300000000000001,0.8300000000000001,0.0,1.0,0
51.49310400,51493104,0.0,-0.39,0.0,0.04,0.84,0.84,0.0,1.0,0
51.59307100,51593071,0.0,-0.39,0.0,0.04,0.84,0.84,0.0,1.0,0
51.69300700,51693007,0.0,-0.39,0.0,0.04,0.84,0.84,0.0,1.0,0
51.79303900,51793039,0.0,-0.38,0.0,0.04,0.84,0.84,0.0,1.0,0
51.89313100,51893131,0.0,-0.38,0.0,0.04,0.84,0.84,0.0,1.0,0
51.99316700,51993167,0.0,-0.38,0.0,0.05,0.85,0.85,0.0,1.0,0
52.09321700,52093217,0.0,-0.38,0.0,0.05,0.85,0.85,0.0,1.0,0
52.19318200,52193182,0.0,-0.38,0.0,0.05,0.85,0.85,0.0,1.0,0
52.29315000,52293150,0.0,-0.38,0.0,0.05,0.85,0.85,0.0,1.0,0
52.39313400,52393134,0.0,-0.38,0.0,0.05,0.85,0.85,0.0,1.0,0
52.49306300,52493063,0.0,-0.38,0.0,0.05,0.86,0.86,0.0,1.0,0
52.59300500,52593005,0.0,-0.37,0.0,0.05,0.86,0.86,0.0,1.0,0
52.69304300,52693043,0.0,-0.37,0.0,0.05,0.86,0.86,0.0,1.0,0
52.79312400,52793124,0.0,-0.37,0.0,0.05,0.86,0.86,0.0,1.0,0
52.89316100,52893161,0.0,-0.37,0.0,0.05,0.87,0.87,0.0,1.0,0
52.99322000,52993220,0.0,-0.37,0.0,0.05,0.87,0.87,0.0,1.0,0
53.09318000,53093180,0.0,-0.37,0.0,0.05,0.87,0.87,0.0,1.0,0
53.19315500,53193155,0.0,-0.37,0.0,0.05,0.87,0.87,0.0,1.0,0
53.29311400,53293114,0.0,-0.37,0.0,0.05,0.88,0.88,0.0,1.0,0
53.39306800,53393068,0.0,-0.36,0.0,0.05,0.88,0.88,0.0,1.0,0
53.49300300,53493003,0.0,-0.36,0.0,0.05,0.88,0.88,0.0,1.0,0
53.59302800,53593028,0.0,-0.36,0.0,0.05,0.88,0.88,0.0,1.0,0
53.69312500,53693125,0.0,-0.36,0.0,0.05,0.89,0.89,0.0,1.0,0
53.79317100,53793171,0.0,-0.36,0.0,0.06,0.89,0.89,0.0,1.0,0
53.89321400,53893214,0.0,-0.36,0.0,0.06,0.89,0.89,0.0,1.0,0
53.99317300,53993173,0.0,-0.36,0.0,0.06,0.89,0.89,0.0,1.0,0
54.09315300,54093153,0.0,-0.36,0.0,0.06,0.9,0.9,0.0,1.0,0
54.19311800,54193118,0.0,-0.36,0.0,0.06,0.9,0.9,0.0,1.0,0
54.29304400,54293044,0.0,-0.36,0.0,0.06,0.9,0.9,0.0,1.0,0
54.39303300,54393033,0.0,-0.35000000000000003,0.0,0.06,0.9,0.9,0.0,1.0,0
54.49304800,54493048,0.0,-0.35000000000000003,0.0,0.06,0.91,0.91,0.0,1.0,0
54.59312300,54593123,0.0,-0.35000000000000003,0.0,0.06,0.91,0.91,0.0,1.0,0
54.69317100,54693171,0.0,-0.35000000000000003,0.0,0.06,0.91,0.91,0.0,1.0,0
54.79321900,54793219,0.0,-0.35000000000000003,0.0,0.06,0.91,0.91,0.0,1.0,0
54.89318400,54893184,0.0,-0.35000000000000003,0.0,0.06,0.92,0.92,0.0,1.0,0
54.99315100,54993151,0.0,-0.35000000000000003,0.0,0.06,0.92,0.92,0.0,1.0,0
55.09311600,55093116,0.0,-0.35000000000000003,0.0,0.06,0.92,0.92,0.0,1.0,0
55.19304700,55193047,0.0,-0.35000000000000003,0.0,0.06,0.92,0.92,0.0,1.0,0
55.29300300,55293003,0.0,-0.35000000000000003,0.0,0.06,0.93,0.93,0.0,1.0,0
55.39305200,55393052,0.0,-0.34,0.0,0.06,0.93,0.93,0.0,1.0,0
55.49310800,55493108,0.0,-0.34,0.0,0.06,0.93,0.93,0.0,1.0,0
55.59313600,55593136,0.0,-0.34,0.0,0.06,0.93,0.93,0.0,1.0,0
55.69320500,55693205,0.0,-0.34,0.0,0.06,0.9400000000000001,0.9400000000000001,0.0,1.0,0
55.79316100,55793161,0.0,-0.34,0.0,0.06,0.9400000000000001,0.9400000000000001,0.0,1.0,0
55.89316400,55893164,0.0,-0.34,0.0,0.06,0.9400000000000001,0.9400000000000001,0.0,1.0,0
55.99311800,55993118,0.0,-0.34,0.0,0.06,0.9400000000000001,0.9400000000000001,0.0,1.0,0
56.09304100,56093041,0.0,-0.34,0.0,0.06,0.9500000000000001,0.9500000000000001,0.0,1.0,0
56.19299700,56192997,0.0,-0.34,0.0,0.06,0.9500000000000001,0.9500000000000001,0.0,1.0,0
56.29302300,56293023,0.0,-0.33,0.0,0.07,0.9500000000000001,0.9500000000000001,0.0,1.0,0
56.39313800,56393138,0.0,-0.33,0.0,0.07,0.9500000000000001,0.9500000000000001,0.0,1.0,0
56.49316400,56493164,0.0,-0.33,0.0,0.07,0.96,0.96,0.0,1.0,0
56.59319500,56593195,0.0,-0.33,0.0,0.07,0.96,0.96,0.0,1.0,0
56.69322600,56693226,0.0,-0.33,0.0,0.07,0.96,0.96,0.0,1.0,0
56.79315700,56793157,0.0,-0.33,0.0,0.07,0.97,0.97,0.0,1.0,0
56.89310300,56893103,0.0,-0.33,0.0,0.07,0.97,0.97,0.0,1.0,0
56.99304100,56993041,0.0,-0.33,0.0,0.07,0.97,0.97,0.0,1.0,0
57.09300500,57093005,0.0,-0.33,0.0,0.07,0.98,0.98,0.0,1.0,0
57.19302200,57193022,0.0,-0.33,0.0,0.07,0.98,0.98,0.0,1.0,0
57.29310600,57293106,0.0,-0.33,0.0,0.08,0.98,0.98,0.0,1.0,0
57.39317500,57393175,0.0,-0.33,0.0,0.08,0.98,0.98,0.0,1.0,0
57.49321700,57493217,0.0,-0.33,0.0,0.08,0.99,0.99,0.0,1.0,0
57.59318200,57593182,0.0,-0.33,0.0,0.08,0.99,0.99,0.0,1.0,0
57.69316600,57693166,0.0,-0.33,0.0,0.08,0.99,0.99,0.0,1.0,0
57.79311100,57793111,0.0,-0.33,0.0,0.08,1.0,1.0,0.0,1.0,0
57.89304900,57893049,0.0,-0.33,0.0,0.08,1.0,1.0,0.0,1.0,0
57.99300700,57993007,0.0,-0.33,0.0,0.08,1.0,1.0,0.0,1.0,0
58.09302200,58093022,0.0,-0.32,0.0,0.08,1.01,1.01,0.0,1.0,0
58.19309300,58193093,0.0,-0.32,0.0,0.09,1.01,1.01,0.0,1.0,0
58.29316100,58293161,0.0,-0.32,0.0,0.08,1.01,1.01,0.0,1.0,0
58.39323400,58393234,0.0,-0.32,0.0,0.09,1.02,1.02,0.0,1.0,0
58.49316500,58493165,0.0,-0.32,0.0,0.09,1.02,1.02,0.0,1.0,0
58.59314900,58593149,0.0,-0.32,0.0,0.09,1.02,1.02,0.0,1.0,0
58.69312100,58693121,0.0,-0.32,0.0,0.09,1.03,1.03,0.0,1.0,0
58.79306000,58793060,0.0,-0.31,0.0,0.09,1.03,1.03,0.0,1.0,0
58.89300000,58893000,0.0,-0.31,0.0,0.09,1.03,1.03,0.0,1.0,0
58.99302700,58993027,0.0,-0.31,0.0,0.09,1.03,1.03,0.0,1.0,0
59.09311500,59093115,0.0,-0.31,0.0,0.09,1.04,1.04,0.0,1.0,0
59.19316700,59193167,0.0,-0.31,0.0,0.09,1.04,1.04,0.0,1.0,0
59.29319700,59293197,0.0,-0.31,0.0,0.09,1.04,1.04,0.0,1.0,0
59.39319400,59393194,0.0,-0.3,0.0,0.09,1.05,1.05,0.0,1.0,0
59.49315500,59493155,0.0,-0.3,0.0,0.09,1.05,1.05,0.0,1.0,0
59.59310200,59593102,0.0,-0.3,0.0,0.09,1.05,1.05,0.0,1.0,0
59.69304400,59693044,0.0,-0.3,0.0,0.09,1.06,1.06,0.0,1.0,0
59.79300600,59793006,0.0,-0.29,0.0,0.09,1.06,1.06,0.0,1.0,0
59.89302700,59893027,0.0,-0.3,0.0,0.09,1.06,1.06,0.0,1.0,0
59.99310600,59993106,0.0,-0.3,0.0,0.09,1.07,1.07,0.0,1.0,0
60.09316200,60093162,0.0,-0.29,0.0,0.09,1.07,1.07,0.0,1.0,0
60.19320600,60193206,0.0,-0.29,0.0,0.09,1.07,1.07,0.0,1.0,0
60.29317900,60293179,0.0,-0.29,0.0,0.09,1.07,1.07,0.0,1.0,0
60.39321100,60393211,0.0,-0.3,0.0,0.09,1.08,1.08,0.0,1.0,0
60.49310800,60493108,0.0,-0.29,0.0,0.09,1.08,1.08,0.0,1.0,0
60.59303600,60593036,0.0,-0.29,0.0,0.09,1.08,1.08,0.0,1.0,0
60.69300400,60693004,0.0,-0.29,0.0,0.09,1.08,1.08,0.0,1.0,0
60.79304100,60793041,0.0,-0.29,0.0,0.09,1.09,1.09,0.0,1.0,0
60.89311900,60893119,0.0,-0.29,0.0,0.09,1.09,1.09,0.0,1.0,0
60.99316500,60993165,0.0,-0.29,0.0,0.09,1.09,1.09,0.0,1.0,0
61.09321100,61093211,0.0,-0.29,0.0,0.09,1.09,1.09,0.0,1.0,0
61.19317400,61193174,0.0,-0.28,0.0,0.1,1.1,1.1,0.0,1.0,0
61.29316500,61293165,0.0,-0.28,0.0,0.1,1.1,1.1,0.0,1.0,0
61.39314100,61393141,0.0,-0.28,0.0,0.1,1.1,1.1,0.0,1.0,0
61.49304300,61493043,0.0,-0.28,0.0,0.1,1.11,1.11,0.0,1.0,0
61.59300000,61593000,0.0,-0.28,0.0,0.1,1.11,1.11,0.0,1.0,0
61.69303500,61693035,0.0,-0.28,0.0,0.1,1.11,1.11,0.0,1.0,0
61.79313200,61793132,0.0,-0.28,0.0,0.1,1.11,1.11,0.0,1.0,0
61.89318500,61893185,0.0,-0.28,0.0,0.1,1.12,1.12,0.0,1.0,0
61.99320600,61993206,0.0,-0.28,0.0,0.1,1.12,1.12,0.0,1.0,0
62.09318500,62093185,0.0,-0.28,0.0,0.1,1.12,1.12,0.0,1.0,0
62.19315900,62193159,0.0,-0.27,0.0,0.1,1.1300000000000001,1.1300000000000001,0.0,1.0,0
62.29305400,62293054,0.0,-0.27,0.0,0.1,1.1300000000000001,1.1300000000000001,0.0,1.0,0
62.39306700,62393067,0.0,-0.27,0.0,0.1,1.1300000000000001,1.1300000000000001,0.0,1.0,0
62.49299900,62492999,0.0,-0.27,0.0,0.1,1.1300000000000001,1.1300000000000001,0.0,1.0,0
62.59302900,62593029,0.0,-0.27,0.0,0.1,1.1400000000000001,1.1400000000000001,0.0,1.0,0
62.69310500,62693105,0.0,-0.27,0.0,0.1,1.1400000000000001,1.1400000000000001,0.0,1.0,0
62.79315100,62793151,0.0,-0.27,0.0,0.1,1.1400000000000001,1.1400000000000001,0.0,1.0,0
62.89322100,62893221,0.0,-0.27,0.0,0.1,1.1500000000000001,1.1500000000000001,0.0,1.0,0
62.99324400,62993244,0.0,-0.27,0.0,0.1,1.1500000000000001,1.1500000000000001,0.0,1.0,0
63.09316300,63093163,0.0,-0.27,0.0,0.1,1.1500000000000001,1.1500000000000001,0.0,1.0,0
63.19310700,63193107,0.0,-0.27,0.0,0.1,1.1500000000000001,1.1500000000000001,0.0,1.0,0
63.29303600,63293036,0.0,-0.26,0.0,0.1,1.16,1.16,0.0,1.0,0
63.39303200,63393032,0.0,-0.26,0.0,0.1,1.16,1.16,0.0,1.0,0
63.49303100,63493031,0.0,-0.26,0.0,0.1,1.16,1.16,0.0,1.0,0
63.59310700,63593107,0.0,-0.26,0.0,0.1,1.16,1.16,0.0,1.0,0
63.69316400,63693164,0.0,-0.26,0.0,0.1,1.17,1.17,0.0,1.0,0
63.79321700,63793217,0.0,-0.26,0.0,0.1,1.17,1.17,0.0,1.0,0
63.89317700,63893177,0.0,-0.26,0.0,0.1,1.17,1.17,0.0,1.0,0
63.99315600,63993156,0.0,-0.26,0.0,0.1,1.18,1.18,0.0,1.0,0
64.09312100,64093121,0.0,-0.26,0.0,0.1,1.18,1.18,0.0,1.0,0
64.19303800,64193038,0.0,-0.26,0.0,0.1,1.18,1.18,0.0,1.0,0
64.29300200,64293002,0.0,-0.25,0.0,0.1,1.19,1.19,0.0,1.0,0
64.39305000,64393050,0.0,-0.25,0.0,0.1,1.19,1.19,0.0,1.0,0
64.49310900,64493109,0.0,-0.25,0.0,0.1,1.19,1.19,0.0,1.0,0
64.59314800,64593148,0.0,-0.25,0.0,0.1,1.19,1.19,0.0,1.0,0
64.69319800,64693198,0.0,-0.25,0.0,0.09,1.2,1.2,0.0,1.0,0
64.79317100,64793171,0.0,-0.26,0.0,0.09,1.2,1.2,0.0,1.0,0
64.89315800,64893158,0.0,-0.26,0.0,0.09,1.21,1.21,0.0,1.0,0
64.99310600,64993106,0.0,-0.25,0.0,0.09,1.21,1.21,0.0,1.0,0
65.09306300,65093063,0.0,-0.25,0.0,0.09,1.21,1.21,0.0,1.0,0
65.19300400,65193004,0.0,-0.25,0.0,0.09,1.21,1.21,0.0,1.0,0
65.29303700,65293037,0.0,-0.25,0.0,0.09,1.21,1.21,0.0,1.0,0
65.39312800,65393128,0.0,-0.25,0.0,0.09,1.22,1.22,0.0,1.0,0
65.49314300,65493143,0.0,-0.25,0.0,0.1,1.22,1.22,0.0,1.0,0
65.59320300,65593203,0.0,-0.25,0.0,0.1,1.22,1.22,0.0,1.0,0
65.69316400,65693164,0.0,-0.24,0.0,0.09,1.23,1.23,0.0,1.0,0
65.79315400,65793154,0.0,-0.24,0.0,0.1,1.23,1.23,0.0,1.0,0
65.89310300,65893103,0.0,-0.24,0.0,0.09,1.23,1.23,0.0,1.0,0
65.99303500,65993035,0.0,-0.24,0.0,0.09,1.24,1.24,0.0,1.0,0
66.09300900,66093009,0.0,-0.24,0.0,0.1,1.24,1.24,0.0,1.0,0
66.19304900,66193049,0.0,-0.24,0.0,0.1,1.24,1.24,0.0,1.0,0
66.29310700,66293107,0.0,-0.24,0.0,0.1,1.25,1.25,0.0,1.0,0
66.39319000,66393190,0.0,-0.24,0.0,0.1,1.25,1.25,0.0,1.0,0
66.49321300,66493213,0.0,-0.24,0.0,0.1,1.25,1.25,0.0,1.0,0
66.59317100,66593171,0.0,-0.24,0.0,0.1,1.26,1.26,0.0,1.0,0
66.69317000,66693170,0.0,-0.24,0.0,0.1,1.26,1.26,0.0,1.0,0
66.79311600,66793116,0.0,-0.24,0.0,0.1,1.26,1.26,0.0,1.0,0
66.89302400,66893024,0.0,-0.24,0.0,0.1,1.26,1.26,0.0,1.0,0
66.99299800,66992998,0.0,-0.24,0.0,0.1,1.27,1.27,0.0,1.0,0
67.09301600,67093016,0.0,-0.24,0.0,0.1,1.27,1.27,0.0,1.0,0
67.19311600,67193116,0.0,-0.23,0.0,0.11,1.28,1.28,0.0,1.0,0
67.29315600,67293156,0.0,-0.23,0.0,0.11,1.28,1.28,0.0,1.0,0
67.39327600,67393276,0.0,-0.23,0.0,0.11,1.28,1.28,0.0,1.0,0
67.49317800,67493178,0.0,-0.23,0.0,0.11,1.29,1.29,0.0,1.0,0
67.59315700,67593157,0.0,-0.23,0.0,0.11,1.29,1.29,0.0,1.0,0
67.69312200,67693122,0.0,-0.23,0.0,0.11,1.29,1.29,0.0,1.0,0
67.79302600,67793026,0.0,-0.23,0.0,0.11,1.3,1.3,0.0,1.0,0
67.89299200,67892992,0.0,-0.23,0.0,0.11,1.3,1.3,0.0,1.0,0
67.99303000,67993030,0.0,-0.23,0.0,0.11,1.3,1.3,0.0,1.0,0
68.09310400,68093104,0.0,-0.23,0.0,0.11,1.31,1.31,0.0,1.0,0
68.19316300,68193163,0.0,-0.23,0.0,0.11,1.31,1.31,0.0,1.0,0
68.29321500,68293215,0.0,-0.23,0.0,0.11,1.31,1.31,0.0,1.0,0
68.39321200,68393212,0.0,-0.23,0.0,0.11,1.32,1.32,0.0,1.0,0
68.49316200,68493162,0.0,-0.23,0.0,0.11,1.32,1.32,0.0,1.0,0
68.59309600,68593096,0.0,-0.23,0.0,0.11,1.32,1.32,0.0,1.0,0
68.69302600,68693026,0.0,-0.23,0.0,0.11,1.33,1.33,0.0,1.0,0
68.79299800,68792998,0.0,-0.23,0.0,0.11,1.33,1.33,0.0,1.0,0
68.89303600,68893036,0.0,-0.23,0.0,0.11,1.33,1.33,0.0,1.0,0
68.99311200,68993112,0.0,-0.23,0.0,0.11,1.34,1.34,0.0,1.0,0
69.09316300,69093163,0.0,-0.23,0.0,0.1,1.34,1.34,0.0,1.0,0
69.19322200,69193222,0.0,-0.23,0.0,0.1,1.34,1.34,0.0,1.0,0
69.29323300,69293233,0.0,-0.23,0.0,0.1,1.35,1.35,0.0,1.0,0
69.39322400,69393224,0.0,-0.23,0.0,0.1,1.35,1.35,0.0,1.0,0
69.49310600,69493106,0.0,-0.23,0.0,0.1,1.35,1.35,0.0,1.0,0
69.59302400,69593024,0.0,-0.23,0.0,0.1,1.36,1.36,0.0,1.0,0
69.69300000,69693000,0.0,-0.23,0.0,0.1,1.36,1.36,0.0,1.0,0
69.79302600,69793026,0.0,-0.23,0.0,0.1,1.36,1.36,0.0,1.0,0
69.89310300,69893103,0.0,-0.23,0.0,0.1,1.37,1.37,0.0,1.0,0
69.99318000,69993180,0.0,-0.23,0.0,0.11,1.37,1.37,0.0,1.0,0
70.09326600,70093266,0.0,-0.23,0.0,0.11,1.37,1.37,0.0,1.0,0
70.19320300,70193203,0.0,-0.23,0.0,0.1,1.3800000000000001,1.3800000000000001,0.0,1.0,0
70.29316600,70293166,0.0,-0.23,0.0,0.1,1.3800000000000001,1.3800000000000001,0.0,1.0,0
70.39315200,70393152,0.0,-0.23,0.0,0.1,1.3800000000000001,1.3800000000000001,0.0,1.0,0
70.49302100,70493021,0.0,-0.23,0.0,0.1,1.3900000000000001,1.3900000000000001,0.0,1.0,0
70.59300100,70593001,0.0,-0.23,0.0,0.1,1.3900000000000001,1.3900000000000001,0.0,1.0,0
70.69302200,70693022,0.0,-0.23,0.0,0.1,1.3900000000000001,1.3900000000000001,0.0,1.0,0
70.79310600,70793106,0.0,-0.23,0.0,0.1,1.4000000000000001,1.4000000000000001,0.0,1.0,0
70.89313800,70893138,0.0,-0.23,0.0,0.1,1.4000000000000001,1.4000000000000001,0.0,1.0,0
70.99322500,70993225,0.0,-0.23,0.0,0.1,1.4000000000000001,1.4000000000000001,0.0,1.0,0
71.09318400,71093184,0.0,-0.23,0.0,0.1,1.4000000000000001,1.4000000000000001,0.0,1.0,0
71.19316200,71193162,0.0,-0.23,0.0,0.1,1.41,1.41,0.0,1.0,0
71.29311000,71293110,0.0,-0.23,0.0,0.1,1.41,1.41,0.0,1.0,0
71.39306900,71393069,0.0,-0.23,0.0,0.1,1.42,1.42,0.0,1.0,0
71.49299800,71492998,0.0,-0.23,0.0,0.1,1.42,1.42,0.0,1.0,0
71.59301000,71593010,0.0,-0.23,0.0,0.1,1.42,1.42,0.0,1.0,0
71.69309600,71693096,0.0,-0.23,0.0,0.1,1.43,1.43,0.0,1.0,0
71.79315100,71793151,0.0,-0.23,0.0,0.1,1.43,1.43,0.0,1.0,0
71.89320600,71893206,0.0,-0.23,0.0,0.1,1.43,1.43,0.0,1.0,0
71.99316500,71993165,0.0,-0.23,0.0,0.1,1.43,1.43,0.0,1.0,0
72.09316100,72093161,0.0,-0.23,0.0,0.1,1.44,1.44,0.0,1.0,0
72.19311100,72193111,0.0,-0.23,0.0,0.1,1.44,1.44,0.0,1.0,0
72.29302400,72293024,0.0,-0.23,0.0,0.1,1.44,1.44,0.0,1.0,0
72.39302300,72393023,0.0,-0.23,0.0,0.1,1.44,1.44,0.0,1.0,0
72.49302200,72493022,0.0,-0.23,0.0,0.1,1.45,1.45,0.0,1.0,0
72.59309700,72593097,0.0,-0.23,0.0,0.1,1.45,1.45,0.0,1.0,0
72.69316500,72693165,0.0,-0.23,0.0,0.1,1.45,1.45,0.0,1.0,0
72.79321600,72793216,0.0,-0.23,0.0,0.1,1.45,1.45,0.0,1.0,0
72.89317700,72893177,0.0,-0.23,0.0,0.1,1.46,1.46,0.0,1.0,0
72.99317300,72993173,0.0,-0.22,0.0,0.1,1.46,1.46,0.0,1.0,0
73.09311500,73093115,0.0,-0.22,0.0,0.1,1.46,1.46,0.0,1.0,0
73.19302900,73193029,0.0,-0.22,0.0,0.11,1.46,1.46,0.0,1.0,0
73.29300000,73293000,0.0,-0.22,0.0,0.11,1.47,1.47,0.0,1.0,0
73.39304400,73393044,0.0,-0.22,0.0,0.11,1.47,1.47,0.0,1.0,0
73.49310900,73493109,0.0,-0.23,0.0,0.11,1.47,1.47,0.0,1.0,0
73.59316500,73593165,0.0,-0.23,0.0,0.11,1.48,1.48,0.0,1.0,0
73.69320800,73693208,0.0,-0.23,0.0,0.11,1.48,1.48,0.0,1.0,0
73.79319200,73793192,0.0,-0.23,0.0,0.11,1.48,1.48,0.0,1.0,0
73.89317400,73893174,0.0,-0.22,0.0,0.11,1.49,1.49,0.0,1.0,0
73.99311700,73993117,0.0,-0.22,0.0,0.11,1.49,1.49,0.0,1.0,0
74.09302200,74093022,0.0,-0.22,0.0,0.11,1.49,1.49,0.0,1.0,0
74.19299900,74192999,0.0,-0.22,0.0,0.11,1.49,1.49,0.0,1.0,0
74.29302400,74293024,0.0,-0.22,0.0,0.11,1.5,1.5,0.0,1.0,0
74.39313600,74393136,0.0,-0.22,0.0,0.11,1.5,1.5,0.0,1.0,0
74.49316000,74493160,0.0,-0.22,0.0,0.11,1.51,1.51,0.0,1.0,0
74.59320400,74593204,0.0,-0.22,0.0,0.11,1.51,1.51,0.0,1.0,0
74.69316400,74693164,0.0,-0.22,0.0,0.1,1.52,1.52,0.0,1.0,0
74.79315200,74793152,0.0,-0.22,0.0,0.1,1.52,1.52,0.0,1.0,0
74.89311700,74893117,0.0,-0.22,0.0,0.1,1.52,1.52,0.0,1.0,0
74.99302400,74993024,0.0,-0.22,0.0,0.1,1.53,1.53,0.0,1.0,0
75.09300700,75093007,0.0,-0.22,0.0,0.1,1.53,1.53,0.0,1.0,0
75.19302600,75193026,0.0,-0.22,0.0,0.1,1.53,1.53,0.0,1.0,0
75.29311700,75293117,0.0,-0.22,0.0,0.1,1.54,1.54,0.0,1.0,0
75.39320500,75393205,0.0,-0.22,0.0,0.1,1.54,1.54,0.0,1.0,0
75.49322200,75493222,0.0,-0.22,0.0,0.1,1.54,1.54,0.0,1.0,0
75.59323600,75593236,0.0,-0.22,0.0,0.1,1.55,1.55,0.0,1.0,0
75.69315800,75693158,0.0,-0.22,0.0,0.1,1.55,1.55,0.0,1.0,0
75.79311700,75793117,0.0,-0.22,0.0,0.1,1.56,1.56,0.0,1.0,0
75.89302200,75893022,0.0,-0.22,0.0,0.1,1.56,1.56,0.0,1.0,0
75.99299600,75992996,0.0,-0.22,0.0,0.1,1.56,1.56,0.0,1.0,0
76.09302600,76093026,0.0,-0.22,0.0,0.1,1.57,1.57,0.0,1.0,0
76.19310100,76193101,0.0,-0.22,0.0,0.1,1.57,1.57,0.0,1.0,0
76.29318100,76293181,0.0,-0.22,0.0,0.1,1.57,1.57,0.0,1.0,0
76.39329300,76393293,0.0,-0.22,0.0,0.11,1.58,1.58,0.0,1.0,0
76.49320200,76493202,0.0,-0.22,0.0,0.11,1.58,1.58,0.0,1.0,0
76.59317000,76593170,0.0,-0.22,0.0,0.11,1.58,1.58,0.0,1.0,0
76.69313100,76693131,0.0,-0.22,0.0,0.11,1.59,1.59,0.0,1.0,0
76.79302000,76793020,0.0,-0.22,0.0,0.11,1.59,1.59,0.0,1.0,0
76.89300600,76893006,0.0,-0.22,0.0,0.11,1.59,1.59,0.0,1.0,0
76.99301600,76993016,0.0,-0.22,0.0,0.11,1.6,1.6,0.0,1.0,0
77.09310200,77093102,0.0,-0.22,0.0,0.11,1.6,1.6,0.0,1.0,0
77.19314300,77193143,0.0,-0.22,0.0,0.11,1.61,1.61,0.0,1.0,0
77.29322000,77293220,0.0,-0.21,0.0,0.11,1.61,1.61,0.0,1.0,0
77.39320900,77393209,0.0,-0.21,0.0,0.12,1.61,1.61,0.0,1.0,0
77.49315600,77493156,0.0,-0.21,0.0,0.12,1.62,1.62,0.0,1.0,0
77.59311700,77593117,0.0,-0.21,0.0,0.12,1.62,1.62,0.0,1.0,0
77.69304600,77693046,0.0,-0.21,0.0,0.12,1.62,1.62,0.0,1.0,0
77.79300600,77793006,0.0,-0.21,0.0,0.12,1.6300000000000001,1.6300000000000001,0.0,1.0,0
77.89302400,77893024,0.0,-0.21,0.0,0.12,1.6300000000000001,1.6300000000000001,0.0,1.0,0
77.99310400,77993104,0.0,-0.21,0.0,0.12,1.6300000000000001,1.6300000000000001,0.0,1.0,0
78.09316200,78093162,0.0,-0.2,0.0,0.13,1.6400000000000001,1.6400000000000001,0.0,1.0,0
78.19320600,78193206,0.0,-0.2,0.0,0.13,1.6400000000000001,1.6400000000000001,0.0,1.0,0
78.29316000,78293160,0.0,-0.2,0.0,0.13,1.6400000000000001,1.6400000000000001,0.0,1.0,0
78.39320500,78393205,0.0,-0.2,0.0,0.13,1.6500000000000001,1.6500000000000001,0.0,1.0,0
78.49312200,78493122,0.0,-0.2,0.0,0.13,1.6500000000000001,1.6500000000000001,0.0,1.0,0
78.59302200,78593022,0.0,-0.2,0.0,0.13,1.6500000000000001,1.6500000000000001,0.0,1.0,0
78.69299900,78692999,0.0,-0.2,0.0,0.13,1.6600000000000001,1.6600000000000001,0.0,1.0,0
78.79301600,78793016,0.0,-0.2,0.0,0.13,1.6600000000000001,1.6600000000000001,0.0,1.0,0
78.89310600,78893106,0.0,-0.2,0.0,0.13,1.6600000000000001,1.6600000000000001,0.0,1.0,0
78.99315100,78993151,0.0,-0.2,0.0,0.13,1.67,1.67,0.0,1.0,0
79.09320800,79093208,0.0,-0.19,0.0,0.14,1.67,1.67,0.0,1.0,0
79.19318900,79193189,0.0,-0.19,0.0,0.14,1.68,1.68,0.0,1.0,0
79.29315600,79293156,0.0,-0.19,0.0,0.14,1.68,1.68,0.0,1.0,0
79.39314200,79393142,0.0,-0.19,0.0,0.14,1.68,1.68,0.0,1.0,0
79.49302300,79493023,0.0,-0.19,0.0,0.14,1.69,1.69,0.0,1.0,0
79.59299600,79592996,0.0,-0.19,0.0,0.14,1.69,1.69,0.0,1.0,0
79.69301700,79693017,0.0,-0.19,0.0,0.14,1.69,1.69,0.0,1.0,0
79.79311100,79793111,0.0,-0.19,0.0,0.14,1.69,1.69,0.0,1.0,0
79.89317400,79893174,0.0,-0.19,0.0,0.14,1.7,1.7,0.0,1.0,0
79.99322300,79993223,0.0,-0.19,0.0,0.14,1.7,1.7,0.0,1.0,0
80.09318700,80093187,0.0,-0.2,0.0,0.14,1.7,1.7,0.0,1.0,0
80.19318000,80193180,0.0,-0.2,0.0,0.13,1.71,1.71,0.0,1.0,0
80.29311600,80293116,0.0,-0.19,0.0,0.13,1.71,1.71,0.0,1.0,0
80.39305500,80393055,0.0,-0.2,0.0,0.13,1.71,1.71,0.0,1.0,0
80.49299500,80492995,0.0,-0.2,0.0,0.13,1.72,1.72,0.0,1.0,0
80.59302100,80593021,0.0,-0.19,0.0,0.14,1.72,1.72,0.0,1.0,0
80.69310000,80693100,0.0,-0.19,0.0,0.14,1.73,1.73,0.0,1.0,0
80.79316800,80793168,0.0,-0.19,0.0,0.14,1.73,1.73,0.0,1.0,0
80.89322500,80893225,0.0,-0.19,0.0,0.14,1.73,1.73,0.0,1.0,0
80.99317600,80993176,0.0,-0.19,0.0,0.14,1.73,1.73,0.0,1.0,0
81.09315800,81093158,0.0,-0.19,0.0,0.14,1.74,1.74,0.0,1.0,0
81.19312200,81193122,0.0,-0.19,0.0,0.14,1.74,1.74,0.0,1.0,0
81.29302100,81293021,0.0,-0.19,0.0,0.14,1.74,1.74,0.0,1.0,0
81.39302100,81393021,0.0,-0.19,0.0,0.14,1.75,1.75,0.0,1.0,0
81.49303100,81493031,0.0,-0.19,0.0,0.14,1.75,1.75,0.0,1.0,0
81.59311500,81593115,0.0,-0.19,0.0,0.14,1.76,1.76,0.0,1.0,0
81.69316600,81693166,0.0,-0.19,0.0,0.15,1.76,1.76,0.0,1.0,0
81.79321500,81793215,0.0,-0.19,0.0,0.15,1.76,1.76,0.0,1.0,0
81.89323400,81893234,0.0,-0.19,0.0,0.15,1.77,1.77,0.0,1.0,0
81.99315500,81993155,0.0,-0.19,0.0,0.15,1.77,1.77,0.0,1.0,0
82.09311400,82093114,0.0,-0.19,0.0,0.15,1.78,1.78,0.0,1.0,0
82.19302500,82193025,0.0,-0.19,0.0,0.15,1.78,1.78,0.0,1.0,0
82.29299500,82292995,0.0,-0.19,0.0,0.15,1.78,1.78,0.0,1.0,0
82.39304300,82393043,0.0,-0.19,0.0,0.15,1.79,1.79,0.0,1.0,0
82.49309500,82493095,0.0,-0.19,0.0,0.15,1.79,1.79,0.0,1.0,0
82.59317700,82593177,0.0,-0.19,0.0,0.15,1.79,1.79,0.0,1.0,0
82.69320600,82693206,0.0,-0.19,0.0,0.15,1.8,1.8,0.0,1.0,0
82.79318700,82793187,0.0,-0.19,0.0,0.15,1.8,1.8,0.0,1.0,0
82.89315700,82893157,0.0,-0.19,0.0,0.15,1.8,1.8,0.0,1.0,0
82.99311700,82993117,0.0,-0.19,0.0,0.15,1.81,1.81,0.0,1.0,0
83.09302600,83093026,0.0,-0.19,0.0,0.15,1.81,1.81,0.0,1.0,0
83.19300000,83193000,0.0,-0.19,0.0,0.14,1.81,1.81,0.0,1.0,0
83.29301800,83293018,0.0,-0.19,0.0,0.15,1.82,1.82,0.0,1.0,0
83.39312500,83393125,0.0,-0.19,0.0,0.15,1.82,1.82,0.0,1.0,0
83.49317600,83493176,0.0,-0.19,0.0,0.15,1.82,1.82,0.0,1.0,0
83.59322600,83593226,0.0,-0.18,0.0,0.15,1.83,1.83,0.0,1.0,0
83.69319000,83693190,0.0,-0.18,0.0,0.15,1.83,1.83,0.0,1.0,0
83.79316400,83793164,0.0,-0.18,0.0,0.15,1.83,1.83,0.0,1.0,0
83.89310100,83893101,0.0,-0.18,0.0,0.15,1.84,1.84,0.0,1.0,0
83.99304200,83993042,0.0,-0.18,0.0,0.15,1.84,1.84,0.0,1.0,0
84.09299800,84092998,0.0,-0.18,0.0,0.15,1.84,1.84,0.0,1.0,0
84.19302400,84193024,0.0,-0.18,0.0,0.15,1.85,1.85,0.0,1.0,0
84.29310400,84293104,0.0,-0.18,0.0,0.15,1.85,1.85,0.0,1.0,0
84.39319300,84393193,0.0,-0.18,0.0,0.15,1.85,1.85,0.0,1.0,0
84.49322300,84493223,0.0,-0.18,0.0,0.15,1.86,1.86,0.0,1.0,0
84.59317300,84593173,0.0,-0.18,0.0,0.15,1.86,1.86,0.0,1.0,0
84.69318000,84693180,0.0,-0.18,0.0,0.15,1.87,1.87,0.0,1.0,0
84.79311700,84793117,0.0,-0.18,0.0,0.15,1.87,1.87,0.0,1.0,0
84.89305500,84893055,0.0,-0.18,0.0,0.15,1.8800000000000001,1.8800000000000001,0.0,1.0,0
84.99299900,84992999,0.0,-0.18,0.0,0.15,1.8800000000000001,1.8800000000000001,0.0,1.0,0
85.09301900,85093019,0.0,-0.18,0.0,0.15,1.8900000000000001,1.8900000000000001,0.0,1.0,0
85.19310800,85193108,0.0,-0.18,0.0,0.15,1.8900000000000001,1.8900000000000001,0.0,1.0,0
85.29315000,85293150,0.0,-0.18,0.0,0.15,1.9000000000000001,1.9000000000000001,0.0,1.0,0
85.39327000,85393270,0.0,-0.18,0.0,0.15,1.9000000000000001,1.9000000000000001,0.0,1.0,0
85.49317300,85493173,0.0,-0.18,0.0,0.15,1.9000000000000001,1.9000000000000001,0.0,1.0,0
85.59316100,85593161,0.0,-0.18,0.0,0.15,1.9100000000000001,1.9100000000000001,0.0,1.0,0
85.69311400,85693114,0.0,-0.18,0.0,0.15,1.9100000000000001,1.9100000000000001,0.0,1.0,0
85.79303200,85793032,0.0,-0.18,0.0,0.15,1.92,1.92,0.0,1.0,0
85.89299900,85892999,0.0,-0.18,0.0,0.15,1.92,1.92,0.0,1.0,0
85.99302700,85993027,0.0,-0.18,0.0,0.15,1.93,1.93,0.0,1.0,0
86.09312100,86093121,0.0,-0.18,0.0,0.15,1.93,1.93,0.0,1.0,0
86.19317400,86193174,0.0,-0.17,0.0,0.15,1.94,1.94,0.0,1.0,0
86.29321900,86293219,0.0,-0.17,0.0,0.15,1.94,1.94,0.0,1.0,0
86.39320600,86393206,0.0,-0.18,0.0,0.15,1.95,1.95,0.0,1.0,0
86.49315900,86493159,0.0,-0.18,0.0,0.15,1.95,1.95,0.0,1.0,0
86.59311900,86593119,0.0,-0.18,0.0,0.15,1.95,1.95,0.0,1.0,0
86.69303000,86693030,0.0,-0.17,0.0,0.15,1.96,1.96,0.0,1.0,0
86.79299300,86792993,0.0,-0.17,0.0,0.15,1.96,1.96,0.0,1.0,0
86.89303600,86893036,0.0,-0.17,0.0,0.15,1.96,1.96,0.0,1.0,0
86.99311700,86993117,0.0,-0.17,0.0,0.15,1.97,1.97,0.0,1.0,0
87.09318800,87093188,0.0,-0.17,0.0,0.16,1.97,1.97,0.0,1.0,0
87.19322600,87193226,0.0,-0.17,0.0,0.16,1.98,1.98,0.0,1.0,0
87.29319600,87293196,0.0,-0.17,0.0,0.16,1.98,1.98,0.0,1.0,0
87.39321300,87393213,0.0,-0.17,0.0,0.16,1.98,1.98,0.0,1.0,0
87.49311300,87493113,0.0,-0.17,0.0,0.16,1.98,1.98,0.0,1.0,0
87.59303300,87593033,0.0,-0.17,0.0,0.16,1.99,1.99,0.0,1.0,0
87.69299400,87692994,0.0,-0.17,0.0,0.16,1.99,1.99,0.0,1.0,0
87.79302500,87793025,0.0,-0.17,0.0,0.16,1.99,1.99,0.0,1.0,0
87.89310800,87893108,0.0,-0.17,0.0,0.16,2.0,2.0,0.0,1.0,0
87.99315900,87993159,0.0,-0.17,0.0,0.16,2.0,2.0,0.0,1.0,0
88.09323200,88093232,0.0,-0.17,0.0,0.16,2.0100000000000002,2.0100000000000002,0.0,1.0,0
88.19323900,88193239,0.0,-0.17,0.0,0.16,2.0100000000000002,2.0100000000000002,0.0,1.0,0
88.29316700,88293167,0.0,-0.17,0.0,0.16,2.02,2.02,0.0,1.0,0
88.39316400,88393164,0.0,-0.17,0.0,0.16,2.02,2.02,0.0,1.0,0
88.49302600,88493026,0.0,-0.17,0.0,0.16,2.0300000000000002,2.0300000000000002,0.0,1.0,0
88.59300200,88593002,0.0,-0.16,0.0,0.17,2.0300000000000002,2.0300000000000002,0.0,1.0,0
88.69301900,88693019,0.0,-0.16,0.0,0.17,2.0300000000000002,2.0300000000000002,0.0,1.0,0
88.79310600,88793106,0.0,-0.16,0.0,0.17,2.04,2.04,0.0,1.0,0
88.89317400,88893174,0.0,-0.16,0.0,0.17,2.04,2.04,0.0,1.0,0
88.99321500,88993215,0.0,-0.16,0.0,0.17,2.04,2.04,0.0,1.0,0
89.09317900,89093179,0.0,-0.16,0.0,0.17,2.05,2.05,0.0,1.0,0
89.19316000,89193160,0.0,-0.16,0.0,0.17,2.05,2.05,0.0,1.0,0
89.29311900,89293119,0.0,-0.16,0.0,0.17,2.06,2.06,0.0,1.0,0
89.39305400,89393054,0.0,-0.16,0.0,0.17,2.06,2.06,0.0,1.0,0
89.49299600,89492996,0.0,-0.16,0.0,0.17,2.06,2.06,0.0,1.0,0
89.59302100,89593021,0.0,-0.16,0.0,0.17,2.07,2.07,0.0,1.0,0
89.69309500,89693095,0.0,-0.16,0.0,0.17,2.07,2.07,0.0,1.0,0
89.79315100,89793151,0.0,-0.16,0.0,0.17,2.07,2.07,0.0,1.0,0
89.89321300,89893213,0.0,-0.16,0.0,0.17,2.08,2.08,0.0,1.0,0
89.99318000,89993180,0.0,-0.16,0.0,0.17,2.08,2.08,0.0,1.0,0
90.09316500,90093165,0.0,-0.16,0.0,0.17,2.08,2.08,0.0,1.0,0
90.19312100,90193121,0.0,-0.15,0.0,0.17,2.09,2.09,0.0,1.0,0
90.29303900,90293039,0.0,-0.15,0.0,0.17,2.09,2.09,0.0,1.0,0
90.39302500,90393025,0.0,-0.15,0.0,0.17,2.1,2.1,0.0,1.0,0
90.49302300,90493023,0.0,-0.15,0.0,0.17,2.1,2.1,0.0,1.0,0
90.59310100,90593101,0.0,-0.15,0.0,0.17,2.1,2.1,0.0,1.0,0
90.69315100,90693151,0.0,-0.15,0.0,0.17,2.11,2.11,0.0,1.0,0
90.79320000,90793200,0.0,-0.15,0.0,0.18,2.11,2.11,0.0,1.0,0
90.89317300,90893173,0.0,-0.15,0.0,0.17,2.11,2.11,0.0,1.0,0
90.99317000,90993170,0.0,-0.15,0.0,0.17,2.12,2.12,0.0,1.0,0
91.09310900,91093109,0.0,-0.15,0.0,0.17,2.12,2.12,0.0,1.0,0
91.19302500,91193025,0.0,-0.15,0.0,0.17,2.12,2.12,0.0,1.0,0
91.29300700,91293007,0.0,-0.15,0.0,0.17,2.13,2.13,0.0,1.0,0
91.39305800,91393058,0.0,-0.15,0.0,0.17,2.13,2.13,0.0,1.0,0
91.49312100,91493121,0.0,-0.15,0.0,0.18,2.14,2.14,0.0,1.0,0
91.59318800,91593188,0.0,-0.15,0.0,0.18,2.14,2.14,0.0,1.0,0
91.69322400,91693224,0.0,-0.15,0.0,0.18,2.14,2.14,0.0,1.0,0
91.79318500,91793185,0.0,-0.15,0.0,0.18,2.15,2.15,0.0,1.0,0
91.89322100,91893221,0.0,-0.15,0.0,0.18,2.15,2.15,0.0,1.0,0
91.99311600,91993116,0.0,-0.15,0.0,0.18,2.15,2.15,0.0,1.0,0
92.09301900,92093019,0.0,-0.15,0.0,0.18,2.16,2.16,0.0,1.0,0
92.19299500,92192995,0.0,-0.15,0.0,0.18,2.16,2.16,0.0,1.0,0
92.29303300,92293033,0.0,-0.15,0.0,0.18,2.17,2.17,0.0,1.0,0
92.39313900,92393139,0.0,-0.15,0.0,0.18,2.17,2.17,0.0,1.0,0
92.49318200,92493182,0.0,-0.15,0.0,0.18,2.17,2.17,0.0,1.0,0
92.59322400,92593224,0.0,-0.15,0.0,0.18,2.18,2.18,0.0,1.0,0
92.69319800,92693198,0.0,-0.15,0.0,0.18,2.18,2.18,0.0,1.0,0
92.79316300,92793163,0.0,-0.15,0.0,0.19,2.19,2.19,0.0,1.0,0
92.89311600,92893116,0.0,-0.15,0.0,0.19,2.19,2.19,0.0,1.0,0
92.99303300,92993033,0.0,-0.15,0.0,0.19,2.19,2.19,0.0,1.0,0
93.09299500,93092995,0.0,-0.15,0.0,0.19,2.2,2.2,0.0,1.0,0
93.19302600,93193026,0.0,-0.15,0.0,0.19,2.2,2.2,0.0,1.0,0
93.29310200,93293102,0.0,-0.15,0.0,0.19,2.2,2.2,0.0,1.0,0
93.39317400,93393174,0.0,-0.15,0.0,0.19,2.21,2.21,0.0,1.0,0
93.49321400,93493214,0.0,-0.15,0.0,0.19,2.21,2.21,0.0,1.0,0
93.59318100,93593181,0.0,-0.15,0.0,0.19,2.22,2.22,0.0,1.0,0
93.69315600,93693156,0.0,-0.15,0.0,0.19,2.22,2.22,0.0,1.0,0
93.79310700,93793107,0.0,-0.15,0.0,0.19,2.22,2.22,0.0,1.0,0
93.89302500,93893025,0.0,-0.15,0.0,0.19,2.23,2.23,0.0,1.0,0
93.99299900,93992999,0.0,-0.15,0.0,0.19,2.23,2.23,0.0,1.0,0
94.09301500,94093015,0.0,-0.15,0.0,0.19,2.24,2.24,0.0,1.0,0
94.19310400,94193104,0.0,-0.15,0.0,0.19,2.24,2.24,0.0,1.0,0
94.29316300,94293163,0.0,-0.15,0.0,0.19,2.25,2.25,0.0,1.0,0
94.39327400,94393274,0.0,-0.15,0.0,0.19,2.25,2.25,0.0,1.0,0
94.49321700,94493217,0.0,-0.15,0.0,0.19,2.2600000000000002,2.2600000000000002,0.0,1.0,0
94.59315600,94593156,0.0,-0.15,0.0,0.19,2.2600000000000002,2.2600000000000002,0.0,1.0,0
94.69310600,94693106,0.0,-0.15,0.0,0.19,2.27,2.27,0.0,1.0,0
94.79302100,94793021,0.0,-0.15,0.0,0.19,2.27,2.27,0.0,1.0,0
94.89300500,94893005,0.0,-0.15,0.0,0.19,2.2800000000000002,2.2800000000000002,0.0,1.0,0
94.99303000,94993030,0.0,-0.15,0.0,0.19,2.2800000000000002,2.2800000000000002,0.0,1.0,0
95.09310800,95093108,0.0,-0.15,0.0,0.19,2.29,2.29,0.0,1.0,0
95.19316500,95193165,0.0,-0.15,0.0,0.19,2.29,2.29,0.0,1.0,0
95.29320200,95293202,0.0,-0.15,0.0,0.19,2.29,2.29,0.0,1.0,0
95.39317700,95393177,0.0,-0.14,0.0,0.19,2.3000000000000003,2.3000000000000003,0.0,1.0,0
95.49323600,95493236,0.0,-0.14,0.0,0.19,2.3000000000000003,2.3000000000000003,0.0,1.0,0
95.59305700,95593057,0.0,-0.14,0.0,0.19,2.31,2.31,0.0,1.0,0
95.69303900,95693039,0.0,-0.14,0.0,0.2,2.31,2.31,0.0,1.0,0
95.79299800,95792998,0.0,-0.14,0.0,0.2,2.32,2.32,0.0,1.0,0
95.89303300,95893033,0.0,-0.14,0.0,0.2,2.32,2.32,0.0,1.0,0
95.99311000,95993110,0.0,-0.14,0.0,0.2,2.33,2.33,0.0,1.0,0
96.09317100,96093171,0.0,-0.14,0.0,0.19,2.33,2.33,0.0,1.0,0
96.19321400,96193214,0.0,-0.14,0.0,0.19,2.34,2.34,0.0,1.0,0
96.29318500,96293185,0.0,-0.14,0.0,0.19,2.34,2.34,0.0,1.0,0
96.39320800,96393208,0.0,-0.14,0.0,0.2,2.34,2.34,0.0,1.0,0
96.49310400,96493104,0.0,-0.14,0.0,0.2,2.35,2.35,0.0,1.0,0
96.59305600,96593056,0.0,-0.15,0.0,0.2,2.35,2.35,0.0,1.0,0
96.69300800,96693008,0.0,-0.15,0.0,0.2,2.36,2.36,0.0,1.0,0
96.79302800,96793028,0.0,-0.15,0.0,0.2,2.36,2.36,0.0,1.0,0
96.89311200,96893112,0.0,-0.15,0.0,0.2,2.37,2.37,0.0,1.0,0
96.99319100,96993191,0.0,-0.15,0.0,0.2,2.37,2.37,0.0,1.0,0
97.09322600,97093226,0.0,-0.15,0.0,0.2,2.38,2.38,0.0,1.0,0
97.19319100,97193191,0.0,-0.15,0.0,0.2,2.38,2.38,0.0,1.0,0
97.29316200,97293162,0.0,-0.15,0.0,0.2,2.38,2.38,0.0,1.0,0
97.39313200,97393132,0.0,-0.15,0.0,0.2,2.39,2.39,0.0,1.0,0
97.49305600,97493056,0.0,-0.15,0.0,0.2,2.39,2.39,0.0,1.0,0
97.59300400,97593004,0.0,-0.15,0.0,0.2,2.4,2.4,0.0,1.0,0
97.69302200,97693022,0.0,-0.15,0.0,0.2,2.41,2.41,0.0,1.0,0
97.79310100,97793101,0.0,-0.15,0.0,0.2,2.41,2.41,0.0,1.0,0
97.89314600,97893146,0.0,-0.15,0.0,0.2,2.41,2.41,0.0,1.0,0
97.99319800,97993198,0.0,-0.15,0.0,0.2,2.42,2.42,0.0,1.0,0
98.09316400,98093164,0.0,-0.15,0.0,0.2,2.42,2.42,0.0,1.0,0
98.19315300,98193153,0.0,-0.15,0.0,0.2,2.42,2.42,0.0,1.0,0
98.29311500,98293115,0.0,-0.15,0.0,0.2,2.43,2.43,0.0,1.0,0
98.39308400,98393084,0.0,-0.15,0.0,0.2,2.43,2.43,0.0,1.0,0
98.49300000,98493000,0.0,-0.16,0.0,0.2,2.44,2.44,0.0,1.0,0
98.59303100,98593031,0.0,-0.16,0.0,0.2,2.44,2.44,0.0,1.0,0
98.69312200,98693122,0.0,-0.16,0.0,0.19,2.45,2.45,0.0,1.0,0
98.79314900,98793149,0.0,-0.16,0.0,0.19,2.45,2.45,0.0,1.0,0
98.89320500,98893205,0.0,-0.16,0.0,0.19,2.46,2.46,0.0,1.0,0
98.99316000,98993160,0.0,-0.16,0.0,0.19,2.46,2.46,0.0,1.0,0
99.09315000,99093150,0.0,-0.16,0.0,0.19,2.46,2.46,0.0,1.0,0
99.19311100,99193111,0.0,-0.16,0.0,0.19,2.47,2.47,0.0,1.0,0
99.29303900,99293039,0.0,-0.17,0.0,0.19,2.47,2.47,0.0,1.0,0
99.39302800,99393028,0.0,-0.17,0.0,0.19,2.48,2.48,0.0,1.0,0
99.49302700,99493027,0.0,-0.17,0.0,0.19,2.48,2.48,0.0,1.0,0
99.59310300,99593103,0.0,-0.17,0.0,0.19,2.49,2.49,0.0,1.0,0
99.69317500,99693175,0.0,-0.17,0.0,0.18,2.49,2.49,0.0,1.0,0
99.79319800,99793198,0.0,-0.17,0.0,0.19,2.49,2.49,0.0,1.0,0
99.89317100,99893171,0.0,-0.17,0.0,0.19,2.5,2.5,0.0,1.0,0
99.99315200,99993152,0.0,-0.17,0.0,0.19,2.5,2.5,0.0,1.0,0
100.09311000,100093110,0.0,-0.17,0.0,0.19,2.5100000000000002,2.5100000000000002,0.0,1.0,0
100.19303400,100193034,0.0,-0.17,0.0,0.19,2.5100000000000002,2.5100000000000002,0.0,1.0,0
100.29300600,100293006,0.0,-0.17,0.0,0.19,2.5100000000000002,2.5100000000000002,0.0,1.0,0
100.39307300,100393073,0.0,-0.17,0.0,0.19,2.52,2.52,0.0,1.0,0
100.49311000,100493110,0.0,-0.17,0.0,0.19,2.52,2.52,0.0,1.0,0
100.59318000,100593180,0.0,-0.17,0.0,0.19,2.52,2.52,0.0,1.0,0
100.69320500,100693205,0.0,-0.17,0.0,0.19,2.5300000000000002,2.5300000000000002,0.0,1.0,0
100.79323700,100793237,0.0,-0.17,0.0,0.19,2.5300000000000002,2.5300000000000002,0.0,1.0,0
100.89316100,100893161,0.0,-0.17,0.0,0.19,2.54,2.54,0.0,1.0,0
100.99305700,100993057,0.0,-0.17,0.0,0.19,2.54,2.54,0.0,1.0,0
101.09303900,101093039,0.0,-0.17,0.0,0.19,2.5500000000000003,2.5500000000000003,0.0,1.0,0
101.19301000,101193010,0.0,-0.17,0.0,0.19,2.5500000000000003,2.5500000000000003,0.0,1.0,0
101.29303000,101293030,0.0,-0.17,0.0,0.19,2.5500000000000003,2.5500000000000003,0.0,1.0,0
101.39314700,101393147,0.0,-0.17,0.0,0.19,2.56,2.56,0.0,1.0,0
101.49317600,101493176,0.0,-0.18,0.0,0.19,2.56,2.56,0.0,1.0,0
101.59321700,101593217,0.0,-0.18,0.0,0.19,2.57,2.57,0.0,1.0,0
101.69318200,101693182,0.0,-0.18,0.0,0.19,2.57,2.57,0.0,1.0,0
101.79317300,101793173,0.0,-0.18,0.0,0.19,2.58,2.58,0.0,1.0,0
101.89311500,101893115,0.0,-0.18,0.0,0.19,2.58,2.58,0.0,1.0,0
101.99304100,101993041,0.0,-0.18,0.0,0.19,2.59,2.59,0.0,1.0,0
102.09299900,102092999,0.0,-0.18,0.0,0.19,2.59,2.59,0.0,1.0,0
102.19302900,102193029,0.0,-0.18,0.0,0.19,2.6,2.6,0.0,1.0,0
102.29311800,102293118,0.0,-0.18,0.0,0.19,2.6,2.6,0.0,1.0,0
102.39318600,102393186,0.0,-0.18,0.0,0.19,2.6,2.6,0.0,1.0,0
102.49320500,102493205,0.0,-0.18,0.0,0.19,2.61,2.61,0.0,1.0,0
102.59317200,102593172,0.0,-0.18,0.0,0.19,2.61,2.61,0.0,1.0,0
102.69316500,102693165,0.0,-0.18,0.0,0.19,2.62,2.62,0.0,1.0,0
102.79310900,102793109,0.0,-0.18,0.0,0.2,2.62,2.62,0.0,1.0,0
102.89305700,102893057,0.0,-0.18,0.0,0.2,2.63,2.63,0.0,1.0,0
102.99299900,102992999,0.0,-0.18,0.0,0.2,2.63,2.63,0.0,1.0,0
103.09302300,103093023,0.0,-0.18,0.0,0.2,2.64,2.64,0.0,1.0,0
103.19310000,103193100,0.0,-0.18,0.0,0.2,2.64,2.64,0.0,1.0,0
103.29316700,103293167,0.0,-0.18,0.0,0.2,2.65,2.65,0.0,1.0,0
103.39322400,103393224,0.0,-0.18,0.0,0.2,2.65,2.65,0.0,1.0,0
103.49317700,103493177,0.0,-0.18,0.0,0.2,2.65,2.65,0.0,1.0,0
103.59315300,103593153,0.0,-0.19,0.0,0.2,2.66,2.66,0.0,1.0,0
103.69311000,103693110,0.0,-0.19,0.0,0.2,2.66,2.66,0.0,1.0,0
103.79303300,103793033,0.0,-0.18,0.0,0.2,2.67,2.67,0.0,1.0,0
103.89300300,103893003,0.0,-0.19,0.0,0.2,2.67,2.67,0.0,1.0,0
103.99303300,103993033,0.0,-0.19,0.0,0.2,2.68,2.68,0.0,1.0,0
104.09310300,104093103,0.0,-0.19,0.0,0.2,2.68,2.68,0.0,1.0,0
104.19314500,104193145,0.0,-0.19,0.0,0.2,2.69,2.69,0.0,1.0,0
104.29320600,104293206,0.0,-0.19,0.0,0.2,2.69,2.69,0.0,1.0,0
104.39319700,104393197,0.0,-0.19,0.0,0.2,2.7,2.7,0.0,1.0,0
104.49315100,104493151,0.0,-0.19,0.0,0.2,2.7,2.7,0.0,1.0,0
104.59310700,104593107,0.0,-0.19,0.0,0.2,2.7,2.7,0.0,1.0,0
104.69303700,104693037,0.0,-0.19,0.0,0.2,2.71,2.71,0.0,1.0,0
104.79300200,104793002,0.0,-0.19,0.0,0.19,2.71,2.71,0.0,1.0,0
104.89305100,104893051,0.0,-0.19,0.0,0.19,2.72,2.72,0.0,1.0,0
104.99312600,104993126,0.0,-0.19,0.0,0.19,2.72,2.72,0.0,1.0,0
105.09316800,105093168,0.0,-0.19,0.0,0.19,2.73,2.73,0.0,1.0,0
105.19320000,105193200,0.0,-0.19,0.0,0.19,2.73,2.73,0.0,1.0,0
105.29318200,105293182,0.0,-0.19,0.0,0.19,2.74,2.74,0.0,1.0,0
105.39321200,105393212,0.0,-0.19,0.0,0.19,2.74,2.74,0.0,1.0,0
105.49310500,105493105,0.0,-0.2,0.0,0.19,2.74,2.74,0.0,1.0,0
105.59304000,105593040,0.0,-0.2,0.0,0.19,2.75,2.75,0.0,1.0,0
