timestamp,TimeUS,DesRoll,Roll,DesPitch,Pitch,DesYaw,Yaw,ErrRP,ErrYaw,AEKF
115.90307500,115903075,0.0,0.7000000000000001,0.0,-0.9,247.53,247.54,0.0,0.04,0
116.00302500,116003025,0.0,0.7000000000000001,0.0,-0.9,247.51000000000002,247.52,0.0,0.04,0
116.10299200,116102992,0.0,0.7000000000000001,0.0,-0.9,247.52,247.53,0.0,0.03,0
116.20298800,116202988,0.0,0.7000000000000001,0.0,-0.9,247.51000000000002,247.52,0.0,0.03,0
116.30298700,116302987,0.0,0.71,0.0,-0.9,247.45000000000002,247.46,0.0,0.05,0
116.40326700,116403267,0.0,0.7000000000000001,0.0,-0.89,247.46,247.47,0.0,0.04,0
116.50294500,116502945,0.0,0.7000000000000001,0.0,-0.89,247.47,247.48000000000002,0.0,0.03,0
116.60294600,116602946,0.0,0.7000000000000001,0.0,-0.89,247.46,247.47,0.0,0.03,0
116.70295100,116702951,0.0,0.71,0.0,-0.89,247.49,247.5,0.0,0.03,0
116.80292300,116802923,0.0,0.7000000000000001,0.0,-0.89,247.5,247.51000000000002,0.0,0.02,0
116.90294700,116902947,0.0,0.6900000000000001,0.0,-0.89,247.55,247.56,0.0,0.04,0
117.00295600,117002956,0.0,0.71,0.0,-0.89,247.59,247.6,0.0,0.04,0
117.10297800,117102978,0.0,0.7000000000000001,0.0,-0.89,247.59,247.6,0.0,0.03,0
117.20294300,117202943,0.0,0.6900000000000001,0.0,-0.89,247.6,247.61,0.0,0.03,0
117.30291800,117302918,0.0,0.7000000000000001,0.0,-0.89,247.62,247.63,0.0,0.02,0
117.40317300,117403173,0.0,0.7000000000000001,0.0,-0.88,247.55,247.56,0.0,0.04,0
117.50291700,117502917,0.0,0.7000000000000001,0.0,-0.89,247.6,247.61,0.0,0.05,0
117.60301500,117603015,0.0,0.7000000000000001,0.0,-0.88,247.6,247.61,0.0,0.04,0
117.70297800,117702978,0.0,0.7000000000000001,0.0,-0.88,247.6,247.61,0.0,0.03,0
117.80299300,117802993,0.0,0.7000000000000001,0.0,-0.88,247.62,247.63,0.0,0.02,0
117.90301000,117903010,0.0,0.7000000000000001,0.0,-0.89,247.63,247.64000000000001,0.0,0.02,0
118.00297200,118002972,0.0,0.6900000000000001,0.0,-0.88,247.68,247.69,0.0,0.03,0
118.10306100,118103061,0.0,0.6900000000000001,0.0,-0.89,247.71,247.72,0.0,0.03,0
118.20298500,118202985,0.0,0.7000000000000001,0.0,-0.89,247.76000000000002,247.77,0.0,0.04,0
118.30296800,118302968,0.0,0.7000000000000001,0.0,-0.89,247.74,247.75,0.0,0.04,0
118.40312500,118403125,0.0,0.6900000000000001,0.0,-0.89,247.72,247.73000000000002,0.0,0.04,0
118.50295300,118502953,0.0,0.6900000000000001,0.0,-0.89,247.70000000000002,247.71,0.0,0.04,0
118.60296700,118602967,0.0,0.7000000000000001,0.0,-0.88,247.71,247.72,0.0,0.03,0
118.70298000,118702980,0.0,0.7000000000000001,0.0,-0.88,247.69,247.70000000000002,0.0,0.03,0
118.80295000,118802950,0.0,0.6900000000000001,0.0,-0.88,247.69,247.70000000000002,0.0,0.03,0
118.90294300,118902943,0.0,0.7000000000000001,0.0,-0.88,247.69,247.70000000000002,0.0,0.02,0
119.00303000,119003030,0.0,0.7000000000000001,0.0,-0.88,247.67000000000002,247.68,0.0,0.02,0
119.10303000,119103030,0.0,0.7000000000000001,0.0,-0.87,247.67000000000002,247.68,0.0,0.02,0
119.20298500,119202985,0.0,0.7000000000000001,0.0,-0.87,247.65,247.66,0.0,0.02,0
119.30294600,119302946,0.0,0.7000000000000001,0.0,-0.87,247.64000000000001,247.65,0.0,0.02,0
119.40323600,119403236,0.0,0.7000000000000001,0.0,-0.87,247.59,247.6,0.0,0.04,0
119.50292400,119502924,0.0,0.7000000000000001,0.0,-0.88,247.59,247.6,0.0,0.03,0
119.60294800,119602948,0.0,0.7000000000000001,0.0,-0.88,247.65,247.66,0.0,0.04,0
119.70294700,119702947,0.0,0.7000000000000001,0.0,-0.88,247.69,247.70000000000002,0.0,0.04,0
119.80299200,119802992,0.0,0.7000000000000001,0.0,-0.88,247.71,247.72,0.0,0.04,0
119.90294500,119902945,0.0,0.7000000000000001,0.0,-0.88,247.76000000000002,247.77,0.0,0.04,0
120.00295900,120002959,0.0,0.7000000000000001,0.0,-0.88,247.74,247.75,0.0,0.04,0
120.10295100,120102951,0.0,0.7000000000000001,0.0,-0.88,247.75,247.76000000000002,0.0,0.03,0
120.20294600,120202946,0.0,0.7000000000000001,0.0,-0.88,247.78,247.79,0.0,0.04,0
120.30297800,120302978,0.0,0.6900000000000001,0.0,-0.87,247.81,247.82,0.0,0.04,0
120.40314400,120403144,0.0,0.6900000000000001,0.0,-0.88,247.81,247.82,0.0,0.03,0
120.50291000,120502910,0.0,0.7000000000000001,0.0,-0.88,247.81,247.81,0.0,0.03,0
120.60302800,120603028,0.0,0.6900000000000001,0.0,-0.88,247.83,247.84,0.0,0.03,0
120.70303800,120703038,0.0,0.6900000000000001,0.0,-0.88,247.86,247.87,0.0,0.03,0
120.80298500,120802985,0.0,0.6900000000000001,0.0,-0.88,247.88,247.89000000000001,0.0,0.03,0
120.90297900,120902979,0.0,0.6900000000000001,0.0,-0.88,247.91,247.92000000000002,0.0,0.03,0
121.00294400,121002944,0.0,0.6900000000000001,0.0,-0.88,247.92000000000002,247.93,0.0,0.02,0
121.10294300,121102943,0.0,0.6900000000000001,0.0,-0.88,247.89000000000001,247.9,0.0,0.03,0
121.20296500,121202965,0.0,0.7000000000000001,0.0,-0.88,247.88,247.89000000000001,0.0,0.03,0
121.30295300,121302953,0.0,0.6900000000000001,0.0,-0.88,247.89000000000001,247.9,0.0,0.02,0
121.40321500,121403215,0.0,0.6900000000000001,0.0,-0.88,247.92000000000002,247.93,0.0,0.03,0
121.50301300,121503013,0.0,0.6900000000000001,0.0,-0.88,247.96,247.97,0.0,0.03,0
121.60299700,121602997,0.0,0.6900000000000001,0.0,-0.88,247.99,248.0,0.0,0.03,0
121.70295700,121702957,0.0,0.6900000000000001,0.0,-0.88,248.03,248.04,0.0,0.03,0
121.80294500,121802945,0.0,0.6900000000000001,0.0,-0.88,248.02,248.03,0.0,0.03,0
121.90298800,121902988,0.0,0.6900000000000001,0.0,-0.88,248.03,248.04,0.0,0.02,0
122.00294100,122002941,0.0,0.6900000000000001,0.0,-0.88,248.05,248.06,0.0,0.02,0
122.10290500,122102905,0.0,0.6900000000000001,0.0,-0.88,248.1,248.11,0.0,0.03,0
122.20302900,122203029,0.0,0.6900000000000001,0.0,-0.88,248.14000000000001,248.15,0.0,0.03,0
122.30301800,122303018,0.0,0.6900000000000001,0.0,-0.88,248.15,248.16,0.0,0.03,0
122.40325400,122403254,0.0,0.6900000000000001,0.0,-0.88,248.17000000000002,248.18,0.0,0.03,0
122.50304200,122503042,0.0,0.68,0.0,-0.88,248.18,248.19,0.0,0.02,0
122.60296000,122602960,0.0,0.68,0.0,-0.88,248.15,248.16,0.0,0.03,0
122.70294000,122702940,0.0,0.68,0.0,-0.88,248.19,248.20000000000002,0.0,0.03,0
122.80293900,122802939,0.0,0.68,0.0,-0.88,248.20000000000002,248.21,0.0,0.03,0
122.90295400,122902954,0.0,0.68,0.0,-0.88,248.17000000000002,248.18,0.0,0.03,0
123.00295400,123002954,0.0,0.68,0.0,-0.88,248.17000000000002,248.18,0.0,0.02,0
123.10294100,123102941,0.0,0.68,0.0,-0.88,248.18,248.19,0.0,0.02,0
123.20300300,123203003,0.0,0.68,0.0,-0.88,248.19,248.20000000000002,0.0,0.02,0
123.30295700,123302957,0.0,0.67,0.0,-0.88,248.19,248.20000000000002,0.0,0.02,0
123.40323200,123403232,0.0,0.68,0.0,-0.88,248.20000000000002,248.21,0.0,0.01,0
123.50295800,123502958,0.0,0.68,0.0,-0.87,248.18,248.19,0.0,0.02,0
123.60297600,123602976,0.0,0.67,0.0,-0.88,248.20000000000002,248.21,0.0,0.02,0
123.70302700,123703027,0.0,0.67,0.0,-0.88,248.26000000000002,248.27,0.0,0.04,0
123.80302200,123803022,0.0,0.68,0.0,-0.87,248.25,248.26000000000002,0.0,0.04,0
123.90298200,123902982,0.0,0.68,0.0,-0.87,248.22,248.23000000000002,0.0,0.04,0
124.00297800,124002978,0.0,0.67,0.0,-0.87,248.24,248.25,0.0,0.03,0
124.10299100,124102991,0.0,0.67,0.0,-0.87,248.23000000000002,248.24,0.0,0.03,0
124.20294200,124202942,0.0,0.68,0.0,-0.88,248.26000000000002,248.27,0.0,0.03,0
124.30296700,124302967,0.0,0.68,0.0,-0.88,248.28,248.29,0.0,0.03,0
124.40319600,124403196,0.0,0.68,0.0,-0.87,248.29,248.3,0.0,0.02,0
124.50296000,124502960,0.0,0.68,0.0,-0.88,248.32,248.33,0.0,0.03,0
124.60294800,124602948,0.0,0.68,0.0,-0.88,248.3,248.31,0.0,0.03,0
124.70296600,124702966,0.0,0.68,0.0,-0.88,248.3,248.31,0.0,0.02,0
126.80291300,126802913,0.0,0.68,0.0,-0.89,248.57,248.58,0.0,0.07,0
126.90302100,126903021,0.0,0.67,0.0,-0.89,248.63,248.64000000000001,0.0,0.07,0
127.00303900,127003039,0.0,0.67,0.0,-0.89,248.72,248.73000000000002,0.0,0.08,0
127.10298500,127102985,0.0,0.68,0.0,-0.89,248.74,248.75,0.0,0.07,0
127.20295400,127202954,0.0,0.68,0.0,-0.89,248.99,249.0,0.0,0.14,0
127.30295800,127302958,0.0,0.68,0.0,-0.89,249.01000000000002,249.02,0.0,0.11,0
127.40322000,127403220,0.0,0.67,0.0,-0.89,249.02,249.03,0.0,0.09,0
129.50296000,129502960,0.0,0.66,0.0,-0.9,248.85,248.86,0.0,0.08,0
129.60293600,129602936,0.0,0.67,0.0,-0.9,248.72,248.73000000000002,0.0,0.11,0
129.70298000,129702980,0.0,0.6900000000000001,0.0,-0.91,248.66,248.67000000000002,0.0,0.11,0
129.80298900,129802989,0.0,0.6900000000000001,0.0,-0.91,248.73000000000002,248.74,0.0,0.1,0
129.90296100,129902961,0.0,0.6900000000000001,0.0,-0.9,248.74,248.75,0.0,0.08,0
130.00304100,130003041,0.0,0.68,0.0,-0.9,248.75,248.76000000000002,0.0,0.07,0
130.10298300,130102983,0.0,0.67,0.0,-0.91,248.76000000000002,248.77,0.0,0.05,0
130.20291000,130202910,0.0,0.66,0.0,-0.9,248.74,248.75,0.0,0.05,0
130.30302900,130303029,0.0,0.67,0.0,-0.89,248.79,248.8,0.0,0.05,0
130.40322600,130403226,0.0,0.67,0.0,-0.9,248.89000000000001,248.9,0.0,0.07,0
130.50296200,130502962,0.0,0.65,0.0,-0.9,248.8,248.81,0.0,0.08,0
130.60293300,130602933,0.0,0.67,0.0,-0.9,248.84,248.85,0.0,0.07,0
130.70297300,130702973,0.0,0.68,0.0,-0.9,248.81,248.82,0.0,0.07,0
130.80293800,130802938,0.0,0.68,0.0,-0.9,249.01000000000002,249.02,0.0,0.12,0
130.90291300,130902913,0.0,0.67,0.0,-0.9,248.9,248.91,0.0,0.13,0
131.00296900,131002969,0.0,0.67,0.0,-0.9,248.89000000000001,248.9,0.0,0.11,0
131.10294300,131102943,0.0,0.7000000000000001,0.0,-0.9,248.85,248.86,0.0,0.11,0
131.20297000,131202970,0.0,0.68,0.0,-0.91,248.84,248.85,0.0,0.09,0
131.30293900,131302939,0.0,0.68,0.0,-0.9,248.6,248.61,0.0,0.15,0
131.40316700,131403167,0.0,0.6900000000000001,0.0,-0.9,248.59,248.6,0.0,0.13,0
131.50302900,131503029,0.0,0.68,0.0,-0.91,248.77,248.78,0.0,0.16,0
131.60301100,131603011,0.0,0.6900000000000001,0.0,-0.91,248.78,248.79,0.0,0.13,0
131.70297200,131702972,0.0,0.68,0.0,-0.92,248.81,248.82,0.0,0.11,0
131.80294900,131802949,0.0,0.68,0.0,-0.91,248.79,248.8,0.0,0.1,0
131.90305100,131903051,0.0,0.7000000000000001,0.0,-0.91,248.81,248.82,0.0,0.08,0
134.00296400,134002964,0.0,0.7000000000000001,0.0,-0.92,248.49,248.5,0.0,0.1,0
134.10296200,134102962,0.0,0.6900000000000001,0.0,-0.92,248.69,248.70000000000002,0.0,0.14,0
134.20296400,134202964,0.0,0.71,0.0,-0.92,248.68,248.69,0.0,0.12,0
134.30296000,134302960,0.0,0.7000000000000001,0.0,-0.92,248.77,248.78,0.0,0.13,0
134.40313200,134403132,0.0,0.6900000000000001,0.0,-0.92,248.92000000000002,248.93,0.0,0.15,0
134.50288100,134502881,0.0,0.71,0.0,-0.92,248.79,248.8,0.0,0.17,0
134.60301400,134603014,0.0,0.71,0.0,-0.92,248.66,248.67000000000002,0.0,0.18,0
134.70301500,134703015,0.0,0.7000000000000001,0.0,-0.91,248.76000000000002,248.77,0.0,0.18,0
134.80306500,134803065,0.0,0.7000000000000001,0.0,-0.92,248.8,248.81,0.0,0.15,0
134.90300200,134903002,0.0,0.71,0.0,-0.92,248.64000000000001,248.65,0.0,0.18,0
135.00298100,135002981,0.0,0.72,0.0,-0.91,248.56,248.57,0.0,0.17,0
135.10294900,135102949,0.0,0.71,0.0,-0.91,248.51000000000002,248.52,0.0,0.15,0
135.20304400,135203044,0.0,0.71,0.0,-0.91,248.53,248.54,0.0,0.13,0
135.30290500,135302905,0.0,0.72,0.0,-0.91,248.47,248.48000000000002,0.0,0.13,0
135.40316400,135403164,0.0,0.72,0.0,-0.91,248.43,248.44,0.0,0.11,0
135.50297300,135502973,0.0,0.71,0.0,-0.91,248.38,248.39000000000001,0.0,0.11,0
135.60296000,135602960,0.0,0.72,0.0,-0.91,248.62,248.63,0.0,0.16,0
135.70295900,135702959,0.0,0.72,0.0,-0.91,248.65,248.66,0.0,0.14,0
135.80297800,135802978,0.0,0.72,0.0,-0.91,248.70000000000002,248.71,0.0,0.12,0
135.90292600,135902926,0.0,0.71,0.0,-0.91,248.63,248.64000000000001,0.0,0.12,0
136.00296700,136002967,0.0,0.71,0.0,-0.91,248.69,248.70000000000002,0.0,0.11,0
136.10294900,136102949,0.0,0.73,0.0,-0.91,248.6,248.61,0.0,0.13,0
138.20295700,138202957,0.0,0.72,0.0,-0.92,248.64000000000001,248.65,0.0,0.21,0
138.30294800,138302948,0.0,0.74,0.0,-0.91,248.61,248.62,0.0,0.18,0
138.40322100,138403221,0.0,0.72,0.0,-0.9,248.64000000000001,248.65,0.0,0.16,0
138.50295900,138502959,0.0,0.73,0.0,-0.91,248.65,248.66,0.0,0.13,0
138.60292900,138602929,0.0,0.73,0.0,-0.91,248.66,248.67000000000002,0.0,0.1,0
138.70296900,138702969,0.0,0.71,0.0,-0.91,248.8,248.81,0.0,0.13,0
138.80296900,138802969,0.0,0.72,0.0,-0.91,248.85,248.86,0.0,0.12,0
138.90295000,138902950,0.0,0.71,0.0,-0.91,248.96,248.97,0.0,0.13,0
139.00294900,139002949,0.0,0.71,0.0,-0.91,248.77,248.78,0.0,0.17,0
139.10293900,139102939,0.0,0.73,0.0,-0.92,248.93,248.94,0.0,0.18,0
139.20293600,139202936,0.0,0.73,0.0,-0.91,248.72,248.73000000000002,0.0,0.22,0
139.30299900,139302999,0.0,0.73,0.0,-0.91,248.49,248.5,0.0,0.25,0
139.40323500,139403235,0.0,0.73,0.0,-0.91,248.5,248.51000000000002,0.0,0.2,0
139.50299200,139502992,0.0,0.73,0.0,-0.91,248.69,248.70000000000002,0.0,0.22,0
139.60296700,139602967,0.0,0.74,0.0,-0.91,248.8,248.81,0.0,0.22,0
139.70302800,139703028,0.0,0.72,0.0,-0.91,248.8,248.81,0.0,0.17,0
139.80294900,139802949,0.0,0.72,0.0,-0.91,248.63,248.64000000000001,0.0,0.2,0
139.90295600,139902956,0.0,0.74,0.0,-0.91,248.48000000000002,248.49,0.0,0.21,0
140.00295500,140002955,0.0,0.73,0.0,-0.91,248.4,248.41,0.0,0.19,0
142.10298900,142102989,0.0,0.74,0.0,-0.9,248.02,248.03,0.0,0.23,0
142.20294600,142202946,0.0,0.75,0.0,-0.89,247.8,247.81,0.0,0.26,0
142.30294300,142302943,0.0,0.74,0.0,-0.89,247.79,247.8,0.0,0.21,0
142.40317300,142403173,0.0,0.73,0.0,-0.9,247.76000000000002,247.77,0.0,0.18,0
142.50303300,142503033,0.0,0.74,0.0,-0.89,247.78,247.79,0.0,0.14,0
142.60303900,142603039,0.0,0.74,0.0,-0.89,247.70000000000002,247.71,0.0,0.14,0
142.70291200,142702912,0.0,0.75,0.0,-0.89,247.44,247.45000000000002,0.0,0.2,0
142.80303600,142803036,0.0,0.78,0.0,-0.87,247.37,247.38,0.0,0.19,0
142.90292500,142902925,0.0,0.77,0.0,-0.88,247.46,247.47,0.0,0.18,0
143.00293500,143002935,0.0,0.71,0.0,-0.89,247.25,247.26000000000002,0.0,0.21,0
143.10293700,143102937,0.0,0.73,0.0,-0.88,247.20000000000002,247.21,0.0,0.19,0
143.20297200,143202972,0.0,0.75,0.0,-0.89,247.32,247.33,0.0,0.19,0
143.30294100,143302941,0.0,0.73,0.0,-0.9,247.35,247.36,0.0,0.16,0
143.40320000,143403200,0.0,0.73,0.0,-0.89,247.57,247.58,0.0,0.2,0
143.50297000,143502970,0.0,0.72,0.0,-0.89,247.57,247.58,0.0,0.16,0
143.60295900,143602959,0.0,0.74,0.0,-0.89,247.34,247.35,0.0,0.21,0
143.70295300,143702953,0.0,0.74,0.0,-0.88,247.44,247.45000000000002,0.0,0.2,0
143.80297200,143802972,0.0,0.72,0.0,-0.89,247.29,247.3,0.0,0.21,0
143.90298800,143902988,0.0,0.74,0.0,-0.89,247.25,247.26000000000002,0.0,0.19,0
144.00302500,144003025,0.0,0.74,0.0,-0.88,247.16,247.17000000000002,0.0,0.18,0
144.10304800,144103048,0.0,0.73,0.0,-0.89,247.22,247.23000000000002,0.0,0.16,0
144.20294200,144202942,0.0,0.74,0.0,-0.89,247.1,247.11,0.0,0.17,0
144.30295400,144302954,0.0,0.72,0.0,-0.88,247.1,247.11,0.0,0.14,0
144.40329200,144403292,0.0,0.74,0.0,-0.88,247.04,247.05,0.0,0.14,0
144.50296600,144502966,0.0,0.74,0.0,-0.88,247.22,247.23000000000002,0.0,0.17,0
144.60295000,144602950,0.0,0.72,0.0,-0.88,247.26000000000002,247.27,0.0,0.15,0
144.70295500,144702955,0.0,0.73,0.0,-0.88,247.31,247.32,0.0,0.13,0
144.80295100,144802951,0.0,0.74,0.0,-0.89,247.4,247.41,0.0,0.14,0
144.90293700,144902937,0.0,0.73,0.0,-0.89,247.43,247.44,0.0,0.12,0
145.00295200,145002952,0.0,0.73,0.0,-0.89,247.48000000000002,247.49,0.0,0.11,0
145.10294100,145102941,0.0,0.72,0.0,-0.89,247.75,247.76000000000002,0.0,0.18,0
145.20296500,145202965,0.0,0.73,0.0,-0.89,247.88,247.89000000000001,0.0,0.18,0
145.30296700,145302967,0.0,0.72,0.0,-0.9,247.97,247.98000000000002,0.0,0.17,0
145.40336500,145403365,0.0,0.7000000000000001,0.0,-0.9,248.15,248.16,0.0,0.2,0
145.50300300,145503003,0.0,0.73,0.0,-0.9,248.32,248.33,0.0,0.21,0
145.60302400,145603024,0.0,0.71,0.0,-0.91,248.5,248.51000000000002,0.0,0.23,0
145.70303200,145703032,0.0,0.7000000000000001,0.0,-0.9,248.38,248.39000000000001,0.0,0.22,0
145.80295200,145802952,0.0,0.72,0.0,-0.9,248.20000000000002,248.21,0.0,0.24,0
145.90299700,145902997,0.0,0.7000000000000001,0.0,-0.9,248.16,248.17000000000002,0.0,0.2,0
146.00294600,146002946,0.0,0.71,0.0,-0.9,248.38,248.39000000000001,0.0,0.23,0
146.10294600,146102946,0.0,0.7000000000000001,0.0,-0.9,248.52,248.53,0.0,0.23,0
146.20293800,146202938,0.0,0.68,0.0,-0.91,248.64000000000001,248.65,0.0,0.22,0
146.30294200,146302942,0.0,0.72,0.0,-0.9,248.51000000000002,248.52,0.0,0.23,0
146.40326300,146403263,0.0,0.71,0.0,-0.91,248.67000000000002,248.68,0.0,0.24,0
146.50295000,146502950,0.0,0.7000000000000001,0.0,-0.91,248.78,248.79,0.0,0.23,0
146.60296100,146602961,0.0,0.71,0.0,-0.9,248.73000000000002,248.74,0.0,0.21,0
146.70297300,146702973,0.0,0.7000000000000001,0.0,-0.91,248.84,248.85,0.0,0.21,0
146.80295500,146802955,0.0,0.71,0.0,-0.91,248.95000000000002,248.96,0.0,0.2,0
146.90295200,146902952,0.0,0.7000000000000001,0.0,-0.9,248.81,248.82,0.0,0.2,0
147.00296700,147002967,0.0,0.6900000000000001,0.0,-0.91,248.69,248.70000000000002,0.0,0.2,0
147.10299900,147102999,0.0,0.72,0.0,-0.9,248.65,248.66,0.0,0.18,0
147.20302000,147203020,0.0,0.7000000000000001,0.0,-0.9,248.49,248.5,0.0,0.19,0
147.30298200,147302982,0.0,0.7000000000000001,0.0,-0.9,248.54,248.55,0.0,0.17,0
147.40327000,147403270,0.0,0.72,0.0,-0.9,248.51000000000002,248.52,0.0,0.15,0
147.50291200,147502912,0.0,0.7000000000000001,0.0,-0.9,248.52,248.53,0.0,0.13,0
147.60297000,147602970,0.0,0.71,0.0,-0.9,248.41,248.42000000000002,0.0,0.14,0
147.70295800,147702958,0.0,0.71,0.0,-0.9,248.24,248.25,0.0,0.17,0
147.80293400,147802934,0.0,0.7000000000000001,0.0,-0.9,248.36,248.37,0.0,0.18,0
147.90296600,147902966,0.0,0.72,0.0,-0.9,248.37,248.38,0.0,0.15,0
148.00295500,148002955,0.0,0.7000000000000001,0.0,-0.89,248.51000000000002,248.52,0.0,0.17,0
148.10295600,148102956,0.0,0.7000000000000001,0.0,-0.89,248.39000000000001,248.4,0.0,0.18,0
148.20296100,148202961,0.0,0.72,0.0,-0.89,248.36,248.37,0.0,0.16,0
148.30294700,148302947,0.0,0.7000000000000001,0.0,-0.89,248.41,248.42000000000002,0.0,0.14,0
148.40317800,148403178,0.0,0.72,0.0,-0.89,248.35,248.36,0.0,0.14,0
148.50287600,148502876,0.0,0.7000000000000001,0.0,-0.89,248.53,248.54,0.0,0.17,0
148.60300300,148603003,0.0,0.7000000000000001,0.0,-0.88,248.48000000000002,248.49,0.0,0.15,0
148.70290100,148702901,0.0,0.73,0.0,-0.89,248.53,248.54,0.0,0.13,0
148.80300500,148803005,0.0,0.7000000000000001,0.0,-0.89,248.44,248.45000000000002,0.0,0.13,0
148.90297000,148902970,0.0,0.71,0.0,-0.88,248.26000000000002,248.27,0.0,0.17,0
149.00296800,149002968,0.0,0.72,0.0,-0.89,248.48000000000002,248.49,0.0,0.2,0
149.10294000,149102940,0.0,0.7000000000000001,0.0,-0.89,248.61,248.62,0.0,0.21,0
149.20295300,149202953,0.0,0.7000000000000001,0.0,-0.89,248.73000000000002,248.74,0.0,0.2,0
149.30296500,149302965,0.0,0.7000000000000001,0.0,-0.89,248.68,248.69,0.0,0.18,0
149.40315900,149403159,0.0,0.7000000000000001,0.0,-0.89,248.64000000000001,248.65,0.0,0.15,0
149.50297200,149502972,0.0,0.71,0.0,-0.89,248.8,248.81,0.0,0.17,0
149.60294800,149602948,0.0,0.7000000000000001,0.0,-0.89,248.67000000000002,248.68,0.0,0.18,0
149.70295600,149702956,0.0,0.71,0.0,-0.89,248.74,248.75,0.0,0.16,0
149.80295200,149802952,0.0,0.71,0.0,-0.89,248.75,248.76000000000002,0.0,0.13,0
149.90296000,149902960,0.0,0.7000000000000001,0.0,-0.89,248.94,248.95000000000002,0.0,0.17,0
150.00295100,150002951,0.0,0.71,0.0,-0.89,248.95000000000002,248.96,0.0,0.13,0
150.10298500,150102985,0.0,0.71,0.0,-0.89,248.97,248.98000000000002,0.0,0.12,0
150.20301100,150203011,0.0,0.71,0.0,-0.89,248.95000000000002,248.96,0.0,0.1,0
150.30303400,150303034,0.0,0.71,0.0,-0.89,249.12,249.13,0.0,0.14,0
150.40327200,150403272,0.0,0.6900000000000001,0.0,-0.89,249.18,249.19,0.0,0.13,0
150.50296400,150502964,0.0,0.71,0.0,-0.89,249.03,249.04,0.0,0.15,0
152.60293900,152602939,0.0,0.68,0.0,-0.87,249.82,249.83,0.0,0.21,0
152.70292400,152702924,0.0,0.68,0.0,-0.88,249.71,249.72,0.0,0.21,0
152.80296400,152802964,0.0,0.68,0.0,-0.87,249.56,249.57,0.0,0.22,0
152.90296400,152902964,0.0,0.6900000000000001,0.0,-0.87,249.39000000000001,249.4,0.0,0.23,0
153.00296000,153002960,0.0,0.68,0.0,-0.87,249.19,249.20000000000002,0.0,0.26,0
153.10294100,153102941,0.0,0.6900000000000001,0.0,-0.87,248.97,248.98000000000002,0.0,0.28,0
153.20295400,153202954,0.0,0.6900000000000001,0.0,-0.87,249.15,249.16,0.0,0.28,0
153.30291300,153302913,0.0,0.6900000000000001,0.0,-0.87,249.02,249.03,0.0,0.26,0
153.40323000,153403230,0.0,0.6900000000000001,0.0,-0.87,249.29,249.3,0.0,0.3,0
153.50305000,153503050,0.0,0.6900000000000001,0.0,-0.88,249.37,249.38,0.0,0.26,0
153.60295200,153602952,0.0,0.6900000000000001,0.0,-0.87,249.38,249.39000000000001,0.0,0.21,0
153.70298300,153702983,0.0,0.6900000000000001,0.0,-0.87,249.53,249.54,0.0,0.21,0
153.80295000,153802950,0.0,0.68,0.0,-0.87,249.48000000000002,249.49,0.0,0.19,0
153.90292200,153902922,0.0,0.6900000000000001,0.0,-0.87,249.5,249.51000000000002,0.0,0.15,0
154.00295800,154002958,0.0,0.6900000000000001,0.0,-0.87,249.45000000000002,249.46,0.0,0.14,0
156.10296200,156102962,0.0,0.7000000000000001,0.0,-0.86,248.70000000000002,248.71,0.0,0.17,0
156.20294600,156202946,0.0,0.7000000000000001,0.0,-0.86,248.49,248.5,0.0,0.21,0
156.30286900,156302869,0.0,0.71,0.0,-0.85,248.19,248.20000000000002,0.0,0.27,0
156.40318500,156403185,0.0,0.71,0.0,-0.85,248.11,248.12,0.0,0.24,0
156.50301000,156503010,0.0,0.7000000000000001,0.0,-0.85,248.32,248.33,0.0,0.26,0
156.60302400,156603024,0.0,0.71,0.0,-0.85,248.20000000000002,248.21,0.0,0.25,0
156.70295800,156702958,0.0,0.7000000000000001,0.0,-0.85,248.32,248.33,0.0,0.24,0
156.80298400,156802984,0.0,0.7000000000000001,0.0,-0.85,248.16,248.17000000000002,0.0,0.25,0
156.90302100,156903021,0.0,0.7000000000000001,0.0,-0.84,248.3,248.31,0.0,0.25,0
157.00294600,157002946,0.0,0.7000000000000001,0.0,-0.85,248.22,248.23000000000002,0.0,0.22,0
157.10296500,157102965,0.0,0.7000000000000001,0.0,-0.84,248.05,248.06,0.0,0.24,0
157.20293400,157202934,0.0,0.6900000000000001,0.0,-0.84,248.03,248.04,0.0,0.2,0
157.30294300,157302943,0.0,0.7000000000000001,0.0,-0.84,248.03,248.04,0.0,0.16,0
157.40320800,157403208,0.0,0.7000000000000001,0.0,-0.84,248.1,248.11,0.0,0.14,0
157.50293600,157502936,0.0,0.6900000000000001,0.0,-0.84,248.17000000000002,248.18,0.0,0.14,0
157.60297100,157602971,0.0,0.6900000000000001,0.0,-0.84,248.16,248.17000000000002,0.0,0.12,0
157.70294200,157702942,0.0,0.7000000000000001,0.0,-0.84,248.12,248.13,0.0,0.11,0
157.80295300,157802953,0.0,0.6900000000000001,0.0,-0.84,248.12,248.13,0.0,0.09,0
157.90294900,157902949,0.0,0.6900000000000001,0.0,-0.8300000000000001,247.97,247.98000000000002,0.0,0.12,0
158.00290700,158002907,0.0,0.6900000000000001,0.0,-0.8300000000000001,248.02,248.03,0.0,0.11,0
158.10303300,158103033,0.0,0.68,0.0,-0.84,248.3,248.31,0.0,0.19,0
158.20296900,158202969,0.0,0.68,0.0,-0.84,248.47,248.48000000000002,0.0,0.2,0
158.30296300,158302963,0.0,0.67,0.0,-0.84,248.49,248.5,0.0,0.17,0
158.40323300,158403233,0.0,0.68,0.0,-0.84,248.4,248.41,0.0,0.17,0
158.50295400,158502954,0.0,0.68,0.0,-0.84,248.51000000000002,248.52,0.0,0.17,0
158.60294100,158602941,0.0,0.68,0.0,-0.84,248.43,248.44,0.0,0.16,0
158.70295500,158702955,0.0,0.68,0.0,-0.84,248.33,248.34,0.0,0.17,0
158.80293800,158802938,0.0,0.68,0.0,-0.85,248.42000000000002,248.43,0.0,0.16,0
158.90297800,158902978,0.0,0.68,0.0,-0.85,248.5,248.51000000000002,0.0,0.16,0
159.00294500,159002945,0.0,0.68,0.0,-0.85,248.66,248.67000000000002,0.0,0.17,0
159.10306100,159103061,0.0,0.67,0.0,-0.85,248.68,248.69,0.0,0.15,0
159.20298900,159202989,0.0,0.68,0.0,-0.85,248.57,248.58,0.0,0.16,0
159.30297100,159302971,0.0,0.68,0.0,-0.85,248.66,248.67000000000002,0.0,0.15,0
159.40319300,159403193,0.0,0.67,0.0,-0.85,248.87,248.88,0.0,0.19,0
159.50293100,159502931,0.0,0.68,0.0,-0.85,248.84,248.85,0.0,0.17,0
159.60303000,159603030,0.0,0.67,0.0,-0.85,248.70000000000002,248.71,0.0,0.18,0
159.70302800,159703028,0.0,0.68,0.0,-0.85,248.69,248.70000000000002,0.0,0.15,0
159.80296700,159802967,0.0,0.67,0.0,-0.85,248.81,248.82,0.0,0.16,0
159.90295100,159902951,0.0,0.67,0.0,-0.85,248.71,248.72,0.0,0.16,0
160.00299700,160002997,0.0,0.68,0.0,-0.85,248.63,248.64000000000001,0.0,0.15,0
160.10295300,160102953,0.0,0.68,0.0,-0.85,248.37,248.38,0.0,0.21,0
160.20291400,160202914,0.0,0.68,0.0,-0.85,248.41,248.42000000000002,0.0,0.18,0
160.30297300,160302973,0.0,0.68,0.0,-0.85,248.35,248.36,0.0,0.16,0
160.40325800,160403258,0.0,0.68,0.0,-0.85,248.52,248.53,0.0,0.19,0
160.50293400,160502934,0.0,0.68,0.0,-0.86,248.72,248.73000000000002,0.0,0.22,0
160.60293900,160602939,0.0,0.67,0.0,-0.86,248.8,248.81,0.0,0.2,0
160.70295400,160702954,0.0,0.67,0.0,-0.86,249.01000000000002,249.02,0.0,0.23,0
160.80295500,160802955,0.0,0.67,0.0,-0.86,248.95000000000002,248.96,0.0,0.2,0
160.90295300,160902953,0.0,0.66,0.0,-0.86,248.97,248.98000000000002,0.0,0.17,0
161.00295100,161002951,0.0,0.67,0.0,-0.86,249.07,249.08,0.0,0.17,0
161.10298600,161102986,0.0,0.66,0.0,-0.86,249.18,249.19,0.0,0.17,0
161.20304900,161203049,0.0,0.66,0.0,-0.86,249.34,249.35,0.0,0.19,0
161.30301900,161303019,0.0,0.66,0.0,-0.86,249.4,249.41,0.0,0.17,0
161.40319700,161403197,0.0,0.66,0.0,-0.86,249.33,249.34,0.0,0.16,0
161.50297200,161502972,0.0,0.66,0.0,-0.86,249.35,249.36,0.0,0.13,0
161.60294500,161602945,0.0,0.66,0.0,-0.86,249.33,249.34,0.0,0.11,0
161.70294200,161702942,0.0,0.66,0.0,-0.86,249.05,249.06,0.0,0.18,0
161.80290400,161802904,0.0,0.66,0.0,-0.86,249.26000000000002,249.27,0.0,0.22,0
161.90295500,161902955,0.0,0.66,0.0,-0.86,249.31,249.32,0.0,0.19,0
162.00295400,162002954,0.0,0.66,0.0,-0.85,249.06,249.07,0.0,0.23,0
162.10296100,162102961,0.0,0.66,0.0,-0.85,249.12,249.13,0.0,0.2,0
162.20297300,162202973,0.0,0.66,0.0,-0.85,249.07,249.08,0.0,0.18,0
162.30293800,162302938,0.0,0.67,0.0,-0.85,248.81,248.82,0.0,0.23,0
162.40315800,162403158,0.0,0.67,0.0,-0.85,248.74,248.75,0.0,0.21,0
162.50294400,162502944,0.0,0.66,0.0,-0.85,248.99,249.0,0.0,0.25,0
162.60298400,162602984,0.0,0.66,0.0,-0.85,249.25,249.26000000000002,0.0,0.28,0
162.70291500,162702915,0.0,0.66,0.0,-0.86,249.48000000000002,249.49,0.0,0.3,0
162.80302300,162803023,0.0,0.65,0.0,-0.86,249.48000000000002,249.49,0.0,0.24,0
162.90303100,162903031,0.0,0.65,0.0,-0.86,249.38,249.39000000000001,0.0,0.23,0
163.00295600,163002956,0.0,0.65,0.0,-0.86,249.44,249.45000000000002,0.0,0.21,0
163.10302900,163103029,0.0,0.65,0.0,-0.86,249.46,249.47,0.0,0.17,0
163.20296700,163202967,0.0,0.65,0.0,-0.86,249.3,249.31,0.0,0.19,0
163.30294200,163302942,0.0,0.65,0.0,-0.86,249.16,249.17000000000002,0.0,0.2,0
163.40317100,163403171,0.0,0.65,0.0,-0.86,249.09,249.1,0.0,0.18,0
163.50297700,163502977,0.0,0.65,0.0,-0.86,249.3,249.31,0.0,0.22,0
163.60293500,163602935,0.0,0.65,0.0,-0.86,249.33,249.34,0.0,0.18,0
163.70293200,163702932,0.0,0.64,0.0,-0.87,249.58,249.59,0.0,0.22,0
163.80294700,163802947,0.0,0.64,0.0,-0.87,249.76000000000002,249.77,0.0,0.24,0
163.90298200,163902982,0.0,0.64,0.0,-0.87,249.73000000000002,249.74,0.0,0.2,0
164.00296400,164002964,0.0,0.64,0.0,-0.87,249.82,249.83,0.0,0.19,0
164.10286300,164102863,0.0,0.64,0.0,-0.87,249.91,249.92000000000002,0.0,0.18,0
164.20295400,164202954,0.0,0.64,0.0,-0.86,249.87,249.88,0.0,0.16,0
164.30289800,164302898,0.0,0.64,0.0,-0.86,250.01000000000002,250.02,0.0,0.17,0
164.40323000,164403230,0.0,0.64,0.0,-0.87,250.07,250.08,0.0,0.15,0
164.50298500,164502985,0.0,0.64,0.0,-0.86,250.17000000000002,250.18,0.0,0.15,0
164.60294200,164602942,0.0,0.64,0.0,-0.86,250.12,250.13,0.0,0.14,0
164.70299300,164702993,0.0,0.64,0.0,-0.86,250.16,250.17000000000002,0.0,0.12,0
164.80298600,164802986,0.0,0.64,0.0,-0.86,250.16,250.17000000000002,0.0,0.09,0
164.90293900,164902939,0.0,0.64,0.0,-0.86,250.14000000000001,250.15,0.0,0.08,0
165.00294900,165002949,0.0,0.64,0.0,-0.86,250.15,250.16,0.0,0.07,0
165.10296600,165102966,0.0,0.64,0.0,-0.86,250.03,250.04,0.0,0.1,0
165.20297500,165202975,0.0,0.65,0.0,-0.85,249.72,249.73000000000002,0.0,0.18,0
165.30293400,165302934,0.0,0.65,0.0,-0.85,249.55,249.56,0.0,0.2,0
165.40327800,165403278,0.0,0.65,0.0,-0.85,249.74,249.75,0.0,0.23,0
165.50292700,165502927,0.0,0.65,0.0,-0.85,249.69,249.70000000000002,0.0,0.2,0
165.60295500,165602955,0.0,0.65,0.0,-0.85,249.76000000000002,249.77,0.0,0.18,0
165.70294100,165702941,0.0,0.65,0.0,-0.85,249.62,249.63,0.0,0.2,0
165.80304300,165803043,0.0,0.65,0.0,-0.85,249.63,249.64000000000001,0.0,0.16,0
165.90302800,165903028,0.0,0.65,0.0,-0.85,249.77,249.78,0.0,0.17,0
166.00297900,166002979,0.0,0.66,0.0,-0.85,249.75,249.76000000000002,0.0,0.14,0
166.10297300,166102973,0.0,0.66,0.0,-0.85,249.70000000000002,249.71,0.0,0.13,0
166.20299300,166202993,0.0,0.65,0.0,-0.85,249.78,249.79,0.0,0.13,0
166.30295300,166302953,0.0,0.66,0.0,-0.85,249.74,249.75,0.0,0.12,0
166.40322700,166403227,0.0,0.66,0.0,-0.85,249.72,249.73000000000002,0.0,0.1,0
166.50293400,166502934,0.0,0.66,0.0,-0.85,249.51000000000002,249.52,0.0,0.16,0
166.60296300,166602963,0.0,0.66,0.0,-0.85,249.53,249.54,0.0,0.13,0
166.70294700,166702947,0.0,0.66,0.0,-0.85,249.4,249.41,0.0,0.15,0
166.80294700,166802947,0.0,0.66,0.0,-0.84,249.61,249.62,0.0,0.19,0
166.90295200,166902952,0.0,0.66,0.0,-0.84,249.57,249.58,0.0,0.17,0
167.00296600,167002966,0.0,0.65,0.0,-0.84,249.74,249.75,0.0,0.19,0
167.10295000,167102950,0.0,0.65,0.0,-0.84,249.95000000000002,249.96,0.0,0.21,0
167.20294500,167202945,0.0,0.65,0.0,-0.85,250.08,250.09,0.0,0.21,0
167.30287400,167302874,0.0,0.65,0.0,-0.85,250.25,250.26000000000002,0.0,0.22,0
167.40322800,167403228,0.0,0.64,0.0,-0.85,250.35,250.36,0.0,0.21,0
167.50303600,167503036,0.0,0.65,0.0,-0.84,250.31,250.32,0.0,0.18,0
167.60298000,167602980,0.0,0.65,0.0,-0.84,250.35,250.36,0.0,0.16,0
167.70297300,167702973,0.0,0.64,0.0,-0.84,250.3,250.31,0.0,0.14,0
167.80303300,167803033,0.0,0.64,0.0,-0.85,250.41,250.42000000000002,0.0,0.15,0
167.90293200,167902932,0.0,0.65,0.0,-0.85,250.25,250.26000000000002,0.0,0.18,0
168.00294700,168002947,0.0,0.65,0.0,-0.84,250.16,250.17000000000002,0.0,0.17,0
168.10295100,168102951,0.0,0.64,0.0,-0.84,250.23000000000002,250.24,0.0,0.16,0
168.20294100,168202941,0.0,0.65,0.0,-0.84,250.17000000000002,250.18,0.0,0.14,0
168.30296700,168302967,0.0,0.65,0.0,-0.84,250.0,250.01000000000002,0.0,0.18,0
168.40323800,168403238,0.0,0.65,0.0,-0.84,250.13,250.14000000000001,0.0,0.19,0
168.50295700,168502957,0.0,0.64,0.0,-0.85,250.15,250.16,0.0,0.15,0
168.60296000,168602960,0.0,0.65,0.0,-0.85,250.09,250.1,0.0,0.14,0
168.70294800,168702948,0.0,0.65,0.0,-0.85,249.98000000000002,249.99,0.0,0.15,0
168.80286500,168802865,0.0,0.64,0.0,-0.85,250.19,250.20000000000002,0.0,0.19,0
168.90293600,168902936,0.0,0.65,0.0,-0.84,249.82,249.83,0.0,0.28,0
169.00297900,169002979,0.0,0.65,0.0,-0.84,249.79,249.8,0.0,0.24,0
169.10302700,169103027,0.0,0.65,0.0,-0.84,249.67000000000002,249.68,0.0,0.23,0
169.20295900,169202959,0.0,0.65,0.0,-0.84,249.83,249.84,0.0,0.24,0
169.30301000,169303010,0.0,0.66,0.0,-0.84,249.61,249.62,0.0,0.26,0
169.40321600,169403216,0.0,0.66,0.0,-0.84,249.58,249.59,0.0,0.22,0
169.50295800,169502958,0.0,0.66,0.0,-0.84,249.73000000000002,249.74,0.0,0.23,0
169.60296600,169602966,0.0,0.66,0.0,-0.84,249.96,249.97,0.0,0.25,0
169.70295300,169702953,0.0,0.66,0.0,-0.84,249.86,249.87,0.0,0.24,0
169.80295500,169802955,0.0,0.66,0.0,-0.84,250.04,250.05,0.0,0.25,0
169.90292700,169902927,0.0,0.66,0.0,-0.84,249.96,249.97,0.0,0.23,0
170.00294400,170002944,0.0,0.66,0.0,-0.84,250.02,250.03,0.0,0.2,0
170.10295800,170102958,0.0,0.65,0.0,-0.84,250.20000000000002,250.21,0.0,0.22,0
170.20297400,170202974,0.0,0.65,0.0,-0.84,250.36,250.37,0.0,0.22,0
170.30295100,170302951,0.0,0.65,0.0,-0.84,250.46,250.47,0.0,0.21,0
170.40314700,170403147,0.0,0.65,0.0,-0.84,250.73000000000002,250.74,0.0,0.26,0
170.50299900,170502999,0.0,0.65,0.0,-0.84,250.54,250.55,0.0,0.27,0
170.60304000,170603040,0.0,0.65,0.0,-0.84,250.52,250.53,0.0,0.22,0
170.70298500,170702985,0.0,0.65,0.0,-0.84,250.57,250.58,0.0,0.19,0
170.80289500,170802895,0.0,0.65,0.0,-0.85,250.69,250.70000000000002,0.0,0.19,0
170.90301800,170903018,0.0,0.65,0.0,-0.84,250.67000000000002,250.68,0.0,0.16,0
171.00295500,171002955,0.0,0.65,0.0,-0.84,250.51000000000002,250.52,0.0,0.18,0
