timestamp,TimeUS,DesRoll,Roll,DesPitch,Pitch,DesYaw,Yaw,ErrRP,ErrYaw,AEKF
1682448561.17998695,19896483,0.0,-0.93,0.0,0.34,0.05,0.05,1.0,1.0,0
1682448561.27976799,19996264,0.0,-1.01,0.0,0.35000000000000003,265.03000000000003,265.04,1.0,0.64,0
1682448561.37981296,20096309,0.0,-0.98,0.0,0.42,264.99,265.0,0.8,0.51,0
1682448561.47983503,20196331,0.0,-1.03,0.0,0.54,264.96,264.97,0.8,0.41000000000000003,0
1682448561.57985592,20296352,0.0,-1.05,0.0,0.61,264.92,264.93,0.64,0.33,0
1682448561.67980289,20396299,0.0,-1.01,0.0,0.6900000000000001,265.01,265.02,0.64,0.26,0
1682448561.77980399,20496300,0.0,-1.06,0.0,0.8,264.98,264.99,0.51,0.21,0
1682448561.87969208,20596188,0.0,-1.06,0.0,1.07,264.79,264.8,0.51,0.17,0
1682448561.97970510,20696201,0.0,-0.9400000000000001,0.0,1.07,264.75,264.76,0.41000000000000003,0.13,0
1682448562.07973695,20796233,0.0,-0.85,0.0,1.0,264.81,264.82,0.41000000000000003,0.11,0
1682448562.17991495,20896411,0.0,-0.86,0.0,1.16,264.73,264.74,0.33,0.09,0
1682448562.27990508,20996401,0.0,-0.9,0.0,1.24,264.7,264.71,0.33,0.07,0
1682448562.37999105,21096487,0.0,-0.9400000000000001,0.0,1.36,264.71,264.72,0.27,0.06,0
1682448562.48004794,21196544,0.0,-0.97,0.0,1.45,264.66,264.67,0.27,0.04,0
1682448562.58001304,21296509,0.0,-1.03,0.0,1.43,264.65,264.66,0.21,0.04,0
1682448562.67997599,21396472,0.0,-1.04,0.0,1.43,264.81,264.82,0.21,0.03,0
1682448562.77987194,21496368,0.0,-1.07,0.0,1.37,264.78000000000003,264.79,0.17,0.03,0
1682448562.87984991,21596346,0.0,-1.08,0.0,1.27,264.76,264.77,0.17,0.02,0
1682448562.97981906,21696315,0.0,-1.1,0.0,1.25,264.79,264.8,0.14,0.02,0
1682448563.07995510,21796451,0.0,-1.09,0.0,1.25,264.75,264.76,0.14,0.01,0
1682448563.18013597,21896632,-0.42,-1.87,0.32,1.81,359.99,0.0,0.11,0.01,3
1682448563.28018403,21996680,-0.21,-1.84,0.16,1.79,0.08,0.08,0.11,0.01,3
1682448563.38021111,22096707,-0.1,-1.82,0.08,1.8900000000000001,359.99,0.0,0.09,0.01,3
1682448563.48025608,22196752,-0.05,-1.84,0.04,1.9000000000000001,359.93,359.94,0.09,0.01,3
1682448563.58027101,22296767,-0.02,-1.81,0.02,1.84,0.08,0.08,0.07,0.01,3
1682448563.68023992,22396736,-0.01,-1.84,0.01,1.83,0.01,0.01,0.07,0.01,3
1682448563.78023100,22496727,0.0,-1.81,0.0,1.82,359.95,359.96,0.06,0.01,3
1682448563.87988210,22596378,0.0,-1.82,0.0,1.8,0.05,0.05,0.06,0.0,3
1682448563.97995400,22696450,0.0,-1.83,0.0,1.76,0.05,0.05,0.05,0.0,3
1682448564.07997894,22796475,0.0,-1.76,0.0,1.72,0.02,0.02,0.05,0.0,3
1682448564.18002391,22896520,0.0,-1.78,0.0,1.67,0.05,0.05,0.04,0.0,3
1682448564.28002000,22996516,0.0,-1.6400000000000001,0.0,1.6300000000000001,359.99,0.0,0.04,0.0,3
1682448564.38007903,23096575,0.0,-1.59,0.0,1.57,359.93,359.94,0.03,0.0,3
1682448564.48003697,23196533,0.0,-1.5,0.0,1.62,359.98,359.99,0.03,0.0,3
1682448564.57997513,23296471,0.0,-1.35,0.0,1.61,359.91,359.92,0.03,0.0,3
1682448564.67990112,23396397,-0.09,-1.48,-0.24,1.22,265.29,265.3,0.03,0.0,3
1682448564.77988791,23496384,-0.04,-1.4000000000000001,-0.12,1.3800000000000001,265.43,265.44,0.02,0.0,3
1682448564.87996602,23596462,-0.02,-1.37,-0.06,1.4000000000000001,265.4,265.41,0.02,0.0,3
1682448564.97994900,23696445,-0.01,-1.31,-0.03,1.47,265.41,265.42,0.02,0.0,3
1682448565.08004308,23796539,0.0,-1.26,-0.01,1.53,265.45,265.46,0.02,0.0,3
1682448565.18002391,23896520,0.0,-1.27,0.0,1.51,265.37,265.38,0.01,0.0,3
1682448565.28007793,23996574,0.0,-1.27,0.0,1.54,265.39,265.4,0.01,0.0,3
1682448565.38003397,24096530,0.0,-1.27,0.0,1.52,265.38,265.39,0.01,0.0,3
1682448565.47991991,24196416,0.0,-1.2,0.0,1.54,265.22,265.23,0.01,0.0,3
1682448565.57989502,24296391,0.0,-1.21,0.0,1.53,265.24,265.25,0.01,0.01,3
1682448565.67983413,24396330,0.0,-1.1300000000000001,0.0,1.54,265.28000000000003,265.29,0.01,0.0,3
1682448565.77996111,24496457,0.0,-1.11,0.0,1.53,265.23,265.24,0.01,0.0,3
1682448565.87993813,24596434,0.0,-1.1300000000000001,0.0,1.52,265.29,265.3,0.01,0.0,3
1682448565.98002410,24696520,0.0,-1.03,0.0,1.5,265.36,265.37,0.0,0.0,3
1682448566.08005095,24796547,0.0,-1.09,0.0,1.5,265.3,265.31,0.0,0.0,3
1682448566.18008304,24896579,0.0,-0.98,0.0,1.48,265.34000000000003,265.35,0.0,0.0,3
1682448566.28002000,24996516,0.0,-1.03,0.0,1.46,265.38,265.39,0.0,0.0,3
1682448566.37993312,25096429,0.0,-0.93,0.0,1.43,265.28000000000003,265.29,0.0,0.0,3
1682448566.48024201,25196738,0.0,-0.9400000000000001,0.0,1.41,265.29,265.3,0.0,0.0,3
1682448566.58009601,25296592,0.0,-0.93,0.0,1.36,265.31,265.32,0.0,0.0,3
1682448566.68029189,25396788,0.0,-0.88,0.0,1.35,265.2,265.21,0.0,0.0,3
1682448566.78015304,25496649,0.0,-0.96,0.0,1.32,265.19,265.2,0.0,0.0,3
1682448566.88004112,25596537,0.0,-0.88,0.0,1.29,265.23,265.24,0.0,0.0,3
1682448566.98003697,25696533,0.0,-1.0,0.0,1.25,265.13,265.14,0.0,0.02,3
1682448567.08014512,25796641,0.0,-0.87,0.0,1.23,264.99,265.0,0.0,0.04,3
1682448567.18002009,25896516,0.0,-0.9400000000000001,0.0,1.21,264.78000000000003,264.79,0.0,0.05,3
1682448567.27993512,25996431,0.0,-0.9,0.0,1.2,264.46,264.47,0.0,0.06,3
1682448567.37990594,26096402,0.0,-0.9400000000000001,0.0,1.16,264.18,264.19,0.0,0.06,3
1682448567.47990704,26196403,0.0,-0.9500000000000001,0.0,1.17,263.91,263.92,0.0,0.06,3
1682448567.57995892,26296455,0.0,-0.86,0.0,1.17,263.42,263.43,0.0,0.06,3
1682448567.67996907,26396465,0.0,-0.92,0.0,1.11,263.1,263.11,0.0,0.06,3
1682448567.78005409,26496550,0.0,-0.89,0.0,1.09,262.93,262.94,0.0,0.06,3
1682448567.88004708,26596543,0.0,-0.93,0.0,1.08,262.53000000000003,262.54,0.0,0.06,3
1682448567.98008394,26696580,0.0,-0.9400000000000001,0.0,1.06,262.24,262.25,0.0,0.06,3
1682448568.08009195,26796588,0.0,-0.9500000000000001,0.0,1.03,262.08,262.09000000000003,0.0,0.06,3
1682448568.17992806,26896424,0.0,-0.97,0.0,1.01,261.73,261.74,0.0,0.05,3
1682448568.27990007,26996396,0.0,-1.0,0.0,1.01,261.47,261.48,0.0,0.05,3
1682448568.37990308,27096399,0.0,-1.01,0.0,1.01,261.28000000000003,261.29,0.0,0.05,3
1682448568.47997403,27196470,0.0,-1.04,0.0,1.0,260.97,260.98,0.0,0.05,3
1682448568.57996202,27296458,0.0,-1.05,0.0,0.98,260.75,260.76,0.0,0.04,3
1682448568.68003607,27396532,0.0,-1.06,0.0,0.98,260.54,260.55,0.0,0.04,3
1682448568.78027606,27496772,0.0,-1.06,0.0,0.97,260.22,260.23,0.0,0.04,3
1682448568.88027000,27596766,0.0,-1.06,0.0,0.97,260.02,260.03000000000003,0.0,0.04,3
1682448568.98028493,27696781,0.0,-1.06,0.0,0.97,259.79,259.8,0.0,0.03,3
1682448569.08033204,27796828,0.0,-1.09,0.0,0.99,259.56,259.57,0.0,0.03,3
1682448569.17990303,27896399,0.0,-1.09,0.0,1.02,259.4,259.41,0.0,0.02,3
1682448569.27989912,27996395,0.0,-1.12,0.0,0.99,259.19,259.2,0.0,0.02,3
1682448569.37996912,28096465,0.0,-1.1300000000000001,0.0,1.0,259.0,259.01,0.0,0.02,3
1682448569.47994804,28196444,0.0,-1.1,0.0,1.0,258.91,258.92,0.0,0.01,3
1682448569.58003306,28296529,0.0,-1.1400000000000001,0.0,1.01,258.73,258.74,0.0,0.01,3
1682448569.68002295,28396519,0.0,-1.07,0.0,1.0,258.55,258.56,0.0,0.01,3
1682448569.78022099,28496717,0.0,-1.24,0.0,1.0,258.51,258.52,0.0,0.01,3
1682448569.88024306,28596739,0.0,-1.06,0.0,1.02,258.33,258.34000000000003,0.0,0.01,3
1682448569.98021007,28696706,0.0,-1.16,0.0,1.01,258.15,258.16,0.0,0.01,3
1682448570.08024311,28796739,0.0,-1.1400000000000001,0.0,1.03,258.14,258.15,0.0,0.01,3
1682448570.18010092,28896597,0.0,-1.1300000000000001,0.0,1.05,257.95,257.96,0.0,0.01,3
1682448570.28016901,28996665,0.0,-1.16,0.0,0.99,257.77,257.78000000000003,0.0,0.01,3
1682448570.38011599,29096612,0.0,-0.98,0.0,1.04,257.71,257.72,0.0,0.01,3
1682448570.48017192,29196668,0.0,-1.12,0.0,1.04,257.54,257.55,0.0,0.01,3
1682448570.58017492,29296671,0.0,-0.99,0.0,1.03,257.46,257.47,0.0,0.01,3
1682448570.68022490,29396721,0.0,-1.04,0.0,1.05,257.47,257.48,0.0,0.01,3
1682448570.78026295,29496759,0.0,-1.1,0.0,1.03,257.33,257.34000000000003,0.0,0.01,3
1682448570.88050389,29597000,0.0,-1.01,0.0,1.1,257.18,257.19,0.0,0.01,3
1682448570.98025799,29696754,0.0,-1.12,0.0,1.08,257.18,257.19,0.0,0.01,3
1682448571.08023500,29796731,0.0,-1.0,0.0,1.07,257.07,257.08,0.0,0.01,3
1682448571.18029499,29896791,0.0,-1.19,0.0,1.07,256.99,257.0,0.0,0.01,3
1682448571.27995205,29996448,0.0,-1.07,0.0,1.03,257.06,257.07,0.0,0.01,3
1682448571.38003898,30096535,0.0,-1.11,0.0,1.04,257.03000000000003,257.04,0.0,0.0,3
1682448571.48002791,30196524,0.0,-1.03,0.0,1.07,256.8,256.81,0.0,0.0,3
1682448571.58009195,30296588,0.0,-1.11,0.0,1.07,256.57,256.58,0.0,0.0,3
1682448571.68005204,30396548,0.0,-0.97,0.0,1.08,256.75,256.76,0.0,0.0,3
1682448571.77994490,30496441,0.0,-1.02,0.0,1.08,256.85,256.86,0.0,0.0,3
1682448571.87989092,30596387,0.0,-1.06,0.0,1.06,256.59000000000003,256.6,0.0,0.0,3
1682448571.97991991,30696416,0.0,-1.07,0.0,1.07,256.49,256.5,0.0,0.0,3
1682448572.08008409,30796580,0.0,-1.1,0.0,1.06,256.53000000000003,256.54,0.0,0.0,3
1682448572.17995191,30896448,0.0,-0.97,0.0,1.06,256.58,256.59000000000003,0.0,0.0,3
1682448572.28002310,30996519,0.0,-1.11,0.0,1.08,256.57,256.58,0.0,0.0,3
1682448572.38003206,31096528,0.0,-1.05,0.0,1.05,256.4,256.41,0.0,0.0,3
1682448572.48008013,31196576,0.0,-1.1500000000000001,0.0,1.07,256.24,256.25,0.0,0.0,3
1682448572.58001804,31296514,0.0,-1.0,0.0,1.04,256.38,256.39,0.0,0.0,3
1682448572.67992306,31396419,0.0,-1.06,0.0,1.08,256.52,256.53000000000003,0.0,0.0,3
1682448572.78012609,31496622,0.0,-1.06,0.0,1.05,256.32,256.33,0.0,0.0,3
1682448572.88014913,31596645,0.0,-1.1,0.0,1.04,256.26,256.27,0.0,0.0,3
1682448572.98029590,31696792,0.0,-1.06,0.0,1.06,256.34000000000003,256.35,0.0,0.0,3
1682448573.08020401,31796700,0.0,-1.1,0.0,1.05,256.16,256.17,0.0,0.01,3
1682448573.18019700,31896693,0.0,-1.1,0.0,1.02,256.16,256.17,0.0,0.0,3
1682448573.28021097,31996707,0.0,-1.06,0.0,0.99,256.35,256.36,0.0,0.0,3
1682448573.38025594,32096752,0.0,-1.03,0.0,1.02,256.32,256.33,0.0,0.0,3
1682448573.48029208,32196788,0.0,-1.01,0.0,0.99,256.24,256.25,0.0,0.0,3
1682448573.57994008,32296436,0.0,-1.16,0.0,0.92,256.33,256.34000000000003,0.0,0.0,3
1682448573.67988610,32396382,0.0,-1.04,0.0,0.93,256.34000000000003,256.35,0.0,0.0,3
1682448573.77983308,32496329,0.0,-1.06,0.0,1.02,256.19,256.2,0.01,0.01,3
1682448573.87994790,32596444,0.0,-1.03,0.0,1.05,256.16,256.17,0.01,0.01,3
1682448573.97994494,32696441,0.0,-1.03,0.0,1.07,256.25,256.26,0.01,0.0,3
1682448574.08005595,32796552,0.0,-1.01,0.0,1.08,256.16,256.17,0.01,0.0,3
1682448574.18002701,32896523,0.0,-1.0,0.0,1.08,256.14,256.15,0.0,0.0,3
1682448574.28007007,32996566,0.0,-1.0,0.0,1.1,256.22,256.23,0.0,0.0,3
1682448574.38002992,33096526,0.0,-1.02,0.0,1.08,256.15,256.16,0.0,0.0,3
1682448574.47992396,33196420,0.0,-1.01,0.0,1.1,256.14,256.15,0.0,0.0,3
1682448574.57991004,33296406,0.0,-1.01,0.0,1.07,256.18,256.19,0.0,0.0,3
1682448574.67982602,33396322,0.0,-1.04,0.0,1.06,256.1,256.11,0.0,0.0,3
1682448574.77995205,33496448,0.0,-1.03,0.0,1.02,256.11,256.12,0.0,0.0,3
1682448574.87994790,33596444,0.0,-1.07,0.0,1.0,256.17,256.18,0.0,0.0,3
1682448574.98001409,33696510,0.0,-1.08,0.0,1.0,256.09000000000003,256.1,0.0,0.0,3
1682448575.08012199,33796618,0.0,-1.05,0.0,1.01,256.06,256.07,0.0,0.0,3
1682448575.18005204,33896548,0.0,-1.01,0.0,0.99,256.1,256.11,0.0,0.0,3
1682448575.28001308,33996509,0.0,-1.09,0.0,0.9500000000000001,256.08,256.09000000000003,0.0,0.0,3
1682448575.38025093,34096747,0.0,-1.04,0.0,0.93,256.12,256.13,0.0,0.0,3
1682448575.48017097,34196667,0.0,-1.09,0.0,0.97,256.13,256.14,0.0,0.0,3
1682448575.58013606,34296632,0.0,-1.07,0.0,1.01,256.08,256.09000000000003,0.0,0.0,3
1682448575.67994404,34396440,0.0,-1.03,0.0,1.05,256.12,256.13,0.0,0.0,3
1682448575.77994394,34496440,0.0,-1.01,0.0,1.08,256.13,256.14,0.0,0.0,3
1682448575.88004994,34596546,0.0,-0.98,0.0,1.08,256.1,256.11,0.0,0.0,3
1682448575.98002410,34696520,0.0,-1.03,0.0,1.09,256.15,256.16,0.0,0.0,3
1682448576.08013892,34796635,0.0,-1.0,0.0,1.08,256.16,256.17,0.0,0.0,3
1682448576.18005204,34896548,0.0,-1.02,0.0,1.07,256.11,256.12,0.0,0.0,3
1682448576.28016996,34996666,0.0,-1.0,0.0,1.08,256.16,256.17,0.0,0.0,3
1682448576.38008404,35096580,0.0,-1.01,0.0,1.09,256.13,256.14,0.0,0.0,3
1682448576.48006606,35196562,0.0,-0.99,0.0,1.1,256.1,256.11,0.0,0.0,3
1682448576.58016706,35296663,0.0,-0.99,0.0,1.11,256.16,256.17,0.0,0.0,3
1682448576.68012404,35396620,0.0,-0.99,0.0,1.1,256.16,256.17,0.0,0.0,3
1682448576.78017402,35496670,0.0,-1.0,0.0,1.1,256.15,256.16,0.0,0.0,3
1682448576.88039613,35596892,0.0,-1.04,0.0,1.11,256.2,256.21,0.0,0.0,3
1682448576.98025513,35696751,0.0,-1.03,0.0,1.1,256.23,256.24,0.0,0.0,3
1682448577.08030796,35796804,0.0,-1.05,0.0,1.11,256.24,256.25,0.0,0.0,3
1682448577.18034196,35896838,0.0,-1.05,0.0,1.11,256.26,256.27,0.0,0.0,3
1682448577.28022099,35996717,0.0,-1.06,0.0,1.12,256.28000000000003,256.29,0.0,0.0,3
1682448577.38013005,36096626,0.0,-1.07,0.0,1.1,256.27,256.28000000000003,0.0,0.0,3
1682448577.48028111,36196777,0.0,-1.07,0.0,1.09,256.3,256.31,0.0,0.01,3
1682448577.57994390,36296440,0.0,-1.06,0.0,1.1400000000000001,256.28000000000003,256.29,0.0,0.0,3
1682448577.68002796,36396524,0.0,-1.1,0.0,1.12,256.26,256.27,0.0,0.0,3
1682448577.78004003,36496536,0.0,-1.08,0.0,1.12,256.33,256.34000000000003,0.0,0.0,3
1682448577.88008595,36596582,0.0,-1.05,0.0,1.1300000000000001,256.32,256.33,0.0,0.0,3
1682448577.98003101,36696527,0.0,-1.02,0.0,1.11,256.29,256.3,0.0,0.0,3
1682448578.08000612,36796502,0.0,-1.03,0.0,1.1300000000000001,256.37,256.38,0.0,0.0,3
1682448578.17989302,36896389,0.0,-0.99,0.0,1.1,256.33,256.34000000000003,0.0,0.0,3
1682448578.27988291,36996379,0.0,-1.02,0.0,1.11,256.31,256.32,0.0,0.0,3
1682448578.37996602,37096462,0.0,-0.98,0.0,1.1300000000000001,256.37,256.38,0.0,0.0,3
1682448578.47994494,37196441,0.0,-1.01,0.0,1.11,256.35,256.36,0.0,0.0,3
1682448578.58001995,37296516,0.0,-0.99,0.0,1.1400000000000001,256.34000000000003,256.35,0.0,0.0,3
1682448578.68001699,37396513,0.0,-1.07,0.0,1.19,256.33,256.34000000000003,0.0,0.0,3
1682448578.78006506,37496561,0.0,-0.99,0.0,1.18,256.32,256.33,0.0,0.0,3
1682448578.88002896,37596525,0.0,-1.02,0.0,1.17,256.39,256.4,0.0,0.0,3
1682448578.97992492,37696421,0.0,-1.09,0.0,1.1400000000000001,256.28000000000003,256.29,0.0,0.0,3
1682448579.07994890,37796445,0.0,-1.1,0.0,1.1300000000000001,256.21,256.22,0.0,0.0,3
1682448579.17983890,37896335,0.0,-1.03,0.0,1.18,256.44,256.45,0.0,0.0,3
1682448579.27995610,37996452,0.0,-1.01,0.0,1.17,256.54,256.55,0.0,0.0,3
1682448579.38015199,38096648,0.0,-1.03,0.0,1.1500000000000001,256.36,256.37,0.0,0.0,3
1682448579.48019600,38196692,0.0,-1.06,0.0,1.17,256.46,256.47,0.0,0.0,3
1682448579.58019996,38296696,0.0,-1.0,0.0,1.1500000000000001,256.5,256.51,0.0,0.0,3
1682448579.68025994,38396756,0.0,-0.98,0.0,1.12,256.46,256.47,0.0,0.0,3
1682448579.78026700,38496763,0.0,-0.97,0.0,1.1500000000000001,256.49,256.5,0.0,0.0,3
1682448579.88026190,38596758,0.0,-0.96,0.0,1.1300000000000001,256.47,256.48,0.0,0.0,3
1682448579.98025393,38696750,0.0,-0.97,0.0,1.1400000000000001,256.47,256.48,0.0,0.0,3
1682448580.07995009,38796446,0.0,-0.88,0.0,1.1500000000000001,256.53000000000003,256.54,0.0,0.0,3
1682448580.17995191,38896448,0.0,-0.9400000000000001,0.0,1.17,256.57,256.58,0.0,0.0,3
1682448580.27993298,38996429,0.0,-0.8300000000000001,0.0,1.17,256.55,256.56,0.0,0.0,3
1682448580.38005304,39096549,0.0,-1.04,0.0,1.12,256.51,256.52,0.0,0.0,3
1682448580.48002100,39196517,0.0,-0.88,0.0,1.1300000000000001,256.52,256.53000000000003,0.0,0.0,3
1682448580.58006692,39296563,0.0,-0.9500000000000001,0.0,1.1300000000000001,256.57,256.58,0.0,0.0,3
1682448580.68003607,39396532,0.0,-0.9,0.0,1.11,256.53000000000003,256.54,0.0,0.0,3
1682448580.77993011,39496426,0.0,-0.91,0.0,1.1300000000000001,256.56,256.57,0.0,0.0,3
1682448580.87988901,39596385,0.0,-0.96,0.0,1.1300000000000001,256.59000000000003,256.6,0.0,0.0,3
1682448580.97988796,39696384,0.0,-0.97,0.0,1.1500000000000001,256.54,256.55,0.0,0.0,3
1682448581.08006597,39796562,0.0,-1.01,0.0,1.1500000000000001,256.54,256.55,0.0,0.0,3
1682448581.17995000,39896446,0.0,-0.9400000000000001,0.0,1.12,256.6,256.61,0.0,0.0,3
1682448581.28003192,39996528,0.0,-0.97,0.0,1.1500000000000001,256.64,256.65,0.0,0.0,3
1682448581.38009310,40096589,0.0,-0.85,0.0,1.16,256.64,256.65,0.0,0.0,3
1682448581.48008990,40196586,0.0,-0.93,0.0,1.17,256.64,256.65,0.0,0.0,3
1682448581.58001995,40296516,0.0,-0.85,0.0,1.1500000000000001,256.62,256.63,0.0,0.0,3
1682448581.67992806,40396424,0.0,-0.9500000000000001,0.0,1.19,256.67,256.68,0.0,0.0,3
1682448581.77990294,40496399,0.0,-0.85,0.0,1.18,256.67,256.68,0.0,0.0,3
1682448581.87988210,40596378,0.0,-0.98,0.0,1.2,256.62,256.63,0.0,0.0,3
1682448581.97996593,40696462,0.0,-0.97,0.0,1.1400000000000001,256.6,256.61,0.0,0.0,3
1682448582.08021593,40796712,0.0,-0.98,0.0,1.16,256.61,256.62,0.0,0.0,3
1682448582.18023705,40896733,0.0,-0.91,0.0,1.21,256.76,256.77,0.0,0.0,3
1682448582.28020310,40996699,0.0,-1.0,0.0,1.12,256.71,256.72,0.0,0.0,3
1682448582.38007998,41096576,0.0,-0.99,0.0,1.16,256.59000000000003,256.6,0.0,0.0,3
1682448582.48003507,41196531,0.0,-0.9500000000000001,0.0,1.2,256.74,256.75,0.0,0.0,3
1682448582.58026004,41296756,0.0,-0.91,0.0,1.2,256.6,256.61,0.0,0.0,3
1682448582.68024111,41396737,0.0,-1.02,0.0,1.18,256.6,256.61,0.0,0.0,3
1682448582.78015804,41496654,0.0,-0.93,0.0,1.19,256.7,256.71,0.0,0.0,3
1682448582.88029504,41596791,0.0,-1.01,0.0,1.16,256.61,256.62,0.0,0.0,3
1682448582.98016596,41696662,0.0,-0.96,0.0,1.1400000000000001,256.7,256.71,0.0,0.0,3
1682448583.08028698,41796783,0.0,-0.9400000000000001,0.0,1.18,256.66,256.67,0.0,0.0,3
1682448583.18019390,41896690,0.0,-1.02,0.0,1.16,256.58,256.59000000000003,0.0,0.0,3
1682448583.28025603,41996752,0.0,-0.9500000000000001,0.0,1.17,256.68,256.69,0.0,0.0,3
1682448583.38025999,42096756,0.0,-0.9500000000000001,0.0,1.17,256.63,256.64,0.0,0.0,3
1682448583.48034811,42196844,0.0,-0.97,0.0,1.17,256.56,256.57,0.0,0.0,3
1682448583.58013296,42296629,0.0,-0.96,0.0,1.18,256.66,256.67,0.0,0.0,3
1682448583.68012595,42396622,0.0,-0.99,0.0,1.1500000000000001,256.6,256.61,0.0,0.0,3
1682448583.78027892,42496775,0.0,-0.97,0.0,1.17,256.68,256.69,0.0,0.0,3
1682448583.88015389,42596650,0.0,-0.98,0.0,1.17,256.75,256.76,0.0,0.0,3
1682448583.98019791,42696694,0.0,-0.98,0.0,1.18,256.62,256.63,0.0,0.0,3
1682448584.08025503,42796751,0.0,-0.99,0.0,1.17,256.71,256.72,0.0,0.0,3
1682448584.18008494,42896581,0.0,-1.01,0.0,1.17,256.82,256.83,0.0,0.01,3
1682448584.28004193,42996538,0.0,-1.01,0.0,1.16,256.76,256.77,0.0,0.0,3
1682448584.37993693,43096433,0.0,-1.02,0.0,1.16,256.8,256.81,0.0,0.0,3
1682448584.47987509,43196371,0.0,-0.98,0.0,1.1400000000000001,256.89,256.9,0.0,0.0,3
1682448584.57983398,43296330,0.0,-0.97,0.0,1.16,256.83,256.84000000000003,0.0,0.0,3
1682448584.67995000,43396446,0.0,-0.9500000000000001,0.0,1.1400000000000001,256.84000000000003,256.85,0.0,0.0,3
1682448584.77994609,43496442,0.0,-0.97,0.0,1.16,256.87,256.88,0.0,0.0,3
1682448584.88001490,43596511,0.0,-0.87,0.0,1.1300000000000001,256.78000000000003,256.79,0.0,0.0,3
1682448584.98001790,43696514,0.0,-0.9,0.0,1.1500000000000001,256.76,256.77,0.0,0.0,3
1682448585.08012009,43796616,0.0,-0.9,0.0,1.17,256.77,256.78000000000003,0.0,0.0,3
1682448585.18001390,43896510,0.0,-0.87,0.0,1.16,256.71,256.72,0.0,0.0,3
1682448585.27992892,43996425,0.0,-0.93,0.0,1.17,256.75,256.76,0.0,0.0,3
1682448585.37990093,44096397,0.0,-0.84,0.0,1.18,256.63,256.64,0.0,0.0,3
1682448585.47989297,44196389,0.0,-0.87,0.0,1.19,256.63,256.64,0.0,0.0,3
1682448585.57994604,44296442,0.0,-0.85,0.0,1.19,256.69,256.7,0.0,0.0,3
1682448585.67994595,44396442,0.0,-0.84,0.0,1.18,256.7,256.71,0.0,0.0,3
1682448585.78002095,44496517,0.0,-0.86,0.0,1.17,256.7,256.71,0.0,0.0,3
1682448585.88003397,44596530,0.0,-0.84,0.0,1.18,256.67,256.68,0.0,0.0,3
1682448585.98025894,44696755,0.0,-0.81,0.0,1.18,256.69,256.7,0.0,0.01,3
1682448586.08031702,44796813,0.0,-0.87,0.0,1.21,256.7,256.71,0.0,0.0,3
1682448586.18026495,44896761,0.0,-0.81,0.0,1.19,256.72,256.73,0.0,0.01,3
1682448586.28022909,44996725,0.0,-0.9,0.0,1.21,256.77,256.78000000000003,0.0,0.01,3
1682448586.37989402,45096390,0.0,-0.85,0.0,1.17,256.76,256.77,0.0,0.01,3
1682448586.47995090,45196447,0.0,-0.88,0.0,1.19,256.79,256.8,0.0,0.01,3
1682448586.57994008,45296436,0.0,-0.87,0.0,1.19,256.85,256.86,0.0,0.01,3
1682448586.68003011,45396526,0.0,-0.86,0.0,1.17,256.86,256.87,0.0,0.01,3
1682448586.78003502,45496531,0.0,-0.89,0.0,1.16,256.89,256.9,0.0,0.01,3
1682448586.88008595,45596582,0.0,-0.87,0.0,1.16,256.93,256.94,0.0,0.01,3
1682448586.98002195,45696518,0.0,-0.87,0.0,1.12,256.98,256.99,0.0,0.01,3
1682448587.07998800,45796484,0.0,-0.89,0.0,1.1300000000000001,256.97,256.98,0.0,0.01,3
1682448587.17990112,45896397,0.0,-0.89,0.0,1.11,256.93,256.94,0.0,0.01,3
1682448587.27989006,45996386,0.0,-0.89,0.0,1.12,256.95,256.96,0.0,0.01,3
1682448587.37996602,46096462,0.0,-0.86,0.0,1.12,256.99,257.0,0.0,0.0,3
1682448587.47995806,46196454,0.0,-0.89,0.0,1.12,256.92,256.93,0.0,0.01,3
1682448587.58002400,46296520,0.0,-0.92,0.0,1.1400000000000001,257.0,257.01,0.0,0.01,3
1682448587.68009996,46396596,0.0,-0.9,0.0,1.12,257.05,257.06,0.0,0.0,3
1682448587.78007293,46496569,0.0,-0.93,0.0,1.1,257.01,257.02,0.0,0.0,3
1682448587.88003397,46596530,0.0,-0.92,0.0,1.11,257.05,257.06,0.0,0.0,3
1682448587.97992492,46696421,0.0,-0.96,0.0,1.09,257.03000000000003,257.04,0.0,0.0,3
1682448588.08000493,46796501,0.0,-1.0,0.0,1.09,257.04,257.05,0.0,0.0,3
1682448588.18013096,46896627,0.0,-1.01,0.0,1.09,257.1,257.11,0.0,0.0,3
1682448588.28028607,46996782,0.0,-1.03,0.0,1.07,257.06,257.07,0.0,0.0,3
1682448588.38016510,47096661,0.0,-1.03,0.0,1.1,257.06,257.07,0.0,0.0,3
1682448588.48019910,47196695,0.0,-1.09,0.0,1.1,257.09000000000003,257.1,0.0,0.0,3
1682448588.58004212,47296538,0.0,-1.07,0.0,1.09,257.08,257.09000000000003,0.0,0.0,3
1682448588.68009806,47396594,0.0,-1.12,0.0,1.11,257.07,257.08,0.0,0.0,3
1682448588.78002000,47496516,0.0,-1.07,0.0,1.12,257.07,257.08,0.0,0.0,3
1682448588.87992096,47596417,0.0,-1.09,0.0,1.12,257.07,257.08,0.0,0.0,3
1682448588.97990489,47696401,0.0,-1.05,0.0,1.11,257.1,257.11,0.0,0.0,3
1682448589.07993412,47796430,0.0,-0.97,0.0,1.1400000000000001,257.08,257.09000000000003,0.0,0.0,3
1682448589.17995501,47896451,0.0,-0.98,0.0,1.1300000000000001,257.06,257.07,0.0,0.0,3
1682448589.27994108,47996437,0.0,-0.9,0.0,1.1400000000000001,257.07,257.08,0.0,0.0,3
1682448589.38001490,48096511,0.0,-0.91,0.0,1.1400000000000001,257.05,257.06,0.0,0.01,3
1682448589.48001194,48196508,0.0,-0.98,0.0,1.1400000000000001,257.07,257.08,0.0,0.0,3
1682448589.58007193,48296568,0.0,-0.98,0.0,1.1400000000000001,257.1,257.11,0.0,0.0,3
1682448589.68026400,48396760,0.0,-1.06,0.0,1.16,257.08,257.09000000000003,0.0,0.01,3
1682448589.78033710,48496833,0.0,-1.01,0.0,1.16,257.09000000000003,257.1,0.0,0.01,3
1682448589.88021612,48596712,0.0,-0.84,0.0,1.1400000000000001,257.1,257.11,0.0,0.01,3
1682448589.98012900,48696625,0.0,-0.96,0.0,1.12,257.04,257.05,0.0,0.01,3
1682448590.08006811,48796564,0.0,-0.8200000000000001,0.0,1.1400000000000001,257.11,257.12,0.0,0.01,3
1682448590.17994499,48896441,0.0,-0.98,0.0,1.09,257.16,257.17,0.0,0.01,3
1682448590.28003192,48996528,0.0,-0.78,0.0,1.12,257.1,257.11,0.0,0.01,3
1682448590.38002491,49096521,0.0,-0.96,0.0,1.1400000000000001,257.12,257.13,0.0,0.01,3
1682448590.48006392,49196560,0.0,-0.8,0.0,1.1300000000000001,257.15,257.16,0.0,0.01,3
1682448590.58011889,49296615,0.0,-0.93,0.0,1.1400000000000001,257.12,257.13,0.0,0.01,3
1682448590.68020511,49396701,0.0,-0.8300000000000001,0.0,1.1400000000000001,257.12,257.13,0.0,0.01,3
1682448590.78010511,49496601,0.0,-0.89,0.0,1.1400000000000001,257.15,257.16,0.0,0.01,3
1682448590.88008690,49596583,0.0,-0.87,0.0,1.1400000000000001,257.13,257.14,0.0,0.0,3
1682448590.98017597,49696672,0.0,-0.84,0.0,1.1300000000000001,257.14,257.15,0.0,0.0,3
1682448591.08016896,49796665,0.0,-0.91,0.0,1.1300000000000001,257.17,257.18,0.0,0.0,3
1682448591.18017793,49896674,0.0,-0.8200000000000001,0.0,1.1300000000000001,257.15,257.16,0.0,0.0,3
1682448591.28016710,49996663,0.0,-0.92,0.0,1.1300000000000001,257.15,257.16,0.0,0.0,3
1682448591.38021898,50096715,0.0,-0.81,0.0,1.12,257.18,257.19,0.0,0.01,3
1682448591.48041201,50196908,0.0,-0.91,0.0,1.1300000000000001,257.16,257.17,0.0,0.01,3
1682448591.58025312,50296749,0.0,-0.81,0.0,1.12,257.17,257.18,0.0,0.01,3
1682448591.68023300,50396729,0.0,-0.89,0.0,1.1300000000000001,257.19,257.2,0.0,0.01,3
1682448591.78013301,50496629,0.0,-0.81,0.0,1.1300000000000001,257.17,257.18,0.0,0.0,3
1682448591.87994599,50596442,0.0,-0.88,0.0,1.12,257.18,257.19,0.0,0.0,3
1682448591.97993898,50696435,0.0,-0.8200000000000001,0.0,1.12,257.2,257.21,0.0,0.0,3
1682448592.08007002,50796566,0.0,-0.86,0.0,1.11,257.18,257.19,0.0,0.0,3
1682448592.18003392,50896530,0.0,-0.87,0.0,1.11,257.19,257.2,0.0,0.0,3
1682448592.28008604,50996582,0.0,-0.85,0.0,1.1300000000000001,257.19,257.2,0.0,0.0,3
1682448592.38005304,51096549,0.0,-0.88,0.0,1.11,257.18,257.19,0.0,0.0,3
1682448592.47993994,51196436,0.0,-0.81,0.0,1.1300000000000001,257.19,257.2,0.0,0.01,3
1682448592.57990193,51296398,0.0,-0.88,0.0,1.12,257.18,257.19,0.0,0.01,3
1682448592.67989802,51396394,0.0,-0.81,0.0,1.1,257.2,257.21,0.0,0.01,3
1682448592.77995706,51496453,0.0,-0.88,0.0,1.11,257.22,257.23,0.0,0.01,3
1682448592.87993908,51596435,0.0,-0.81,0.0,1.11,257.2,257.21,0.0,0.01,3
1682448592.98002195,51696518,0.0,-0.86,0.0,1.11,257.22,257.23,0.0,0.01,3
1682448593.08006597,51796562,0.0,-0.8200000000000001,0.0,1.1,257.22,257.23,0.0,0.01,3
1682448593.18007898,51896575,0.0,-0.84,0.0,1.12,257.2,257.21,0.0,0.01,3
1682448593.28026700,51996763,0.0,-0.8200000000000001,0.0,1.1,257.26,257.27,0.0,0.0,3
1682448593.38025808,52096754,0.0,-0.8300000000000001,0.0,1.11,257.23,257.24,0.0,0.0,3
1682448593.48023391,52196730,0.0,-0.85,0.0,1.1,257.2,257.21,0.0,0.0,3
1682448593.58016109,52296657,0.0,-0.85,0.0,1.1,257.24,257.25,0.0,0.0,3
1682448593.67997313,52396469,0.0,-0.84,0.0,1.1,257.21,257.22,0.0,0.0,3
1682448593.77996206,52496458,0.0,-0.85,0.0,1.1,257.19,257.2,0.0,0.0,3
1682448593.88004208,52596538,0.0,-0.81,0.0,1.1300000000000001,257.2,257.21,0.0,0.0,3
1682448593.98010802,52696604,0.0,-0.8,0.0,1.1,257.18,257.19,0.0,0.0,3
1682448594.08014107,52796637,0.0,-0.84,0.0,1.12,257.16,257.17,0.0,0.0,3
1682448594.18004704,52896543,0.0,-0.78,0.0,1.1,257.21,257.22,0.0,0.0,3
1682448594.27993798,52996434,0.0,-0.77,0.0,1.1,257.22,257.23,0.0,0.0,3
1682448594.37990308,53096399,0.0,-0.73,0.0,1.11,257.19,257.2,0.0,0.0,3
1682448594.47992706,53196423,0.0,-0.76,0.0,1.08,257.23,257.24,0.0,0.0,3
1682448594.57997012,53296466,0.0,-0.68,0.0,1.1300000000000001,257.19,257.2,0.0,0.0,3
1682448594.67996001,53396456,0.0,-0.74,0.0,1.11,257.19,257.2,0.0,0.0,3
1682448594.78002810,53496524,0.0,-0.6900000000000001,0.0,1.1500000000000001,257.24,257.25,0.0,0.0,3
1682448594.88002110,53596517,0.0,-0.7000000000000001,0.0,1.09,257.23,257.24,0.0,0.0,3
1682448594.98009205,53696588,0.0,-0.72,0.0,1.12,257.25,257.26,0.0,0.0,3
1682448595.08007693,53796573,0.0,-0.68,0.0,1.12,257.24,257.25,0.0,0.0,3
1682448595.17992592,53896422,0.0,-0.76,0.0,1.1500000000000001,257.22,257.23,0.0,0.0,3
1682448595.27990294,53996399,0.0,-0.6900000000000001,0.0,1.1500000000000001,257.29,257.3,0.0,0.0,3
1682448595.37991190,54096408,0.0,-0.75,0.0,1.1300000000000001,257.29,257.3,0.0,0.0,3
1682448595.48029208,54196788,0.0,-0.78,0.0,1.12,257.21,257.22,0.0,0.0,3
1682448595.58017111,54296667,0.0,-0.75,0.0,1.18,257.25,257.26,0.0,0.0,3
1682448595.68020010,54396696,0.0,-0.81,0.0,1.16,257.25,257.26,0.0,0.0,3
1682448595.78002691,54496523,0.0,-0.86,0.0,1.1400000000000001,257.19,257.2,0.0,0.0,3
1682448595.88007712,54596573,0.0,-0.89,0.0,1.19,257.16,257.17,0.0,0.0,3
1682448595.98003602,54696532,0.0,-0.92,0.0,1.1500000000000001,257.12,257.13,0.0,0.0,3
1682448596.08012390,54796620,0.0,-0.88,0.0,1.19,257.18,257.19,0.0,0.0,3
1682448596.17990208,54896398,0.0,-0.93,0.0,1.16,257.19,257.2,0.0,0.01,3
1682448596.27990699,54996403,0.0,-0.9400000000000001,0.0,1.18,257.11,257.12,0.0,0.0,3
1682448596.37996697,55096463,0.0,-0.93,0.0,1.19,257.16,257.17,0.0,0.0,3
1682448596.47994590,55196442,0.0,-0.9400000000000001,0.0,1.16,257.16,257.17,0.0,0.0,3
1682448596.58001995,55296516,0.0,-0.91,0.0,1.12,257.12,257.13,0.0,0.0,3
1682448596.68001890,55396515,0.0,-0.86,0.0,1.1400000000000001,257.18,257.19,0.0,0.0,3
1682448596.78005409,55496550,0.0,-0.8200000000000001,0.0,1.09,257.23,257.24,0.0,0.0,3
1682448596.88022399,55596720,0.0,-0.77,0.0,1.09,257.28000000000003,257.29,0.0,0.0,3
1682448596.98020506,55696701,0.0,-0.79,0.0,1.09,257.27,257.28000000000003,0.0,0.0,3
1682448597.08023906,55796735,0.0,-0.84,0.0,1.1,257.23,257.24,0.0,0.0,3
1682448597.18011594,55896612,0.0,-0.77,0.0,1.12,257.23,257.24,0.0,0.0,3
1682448597.28028297,55996779,0.0,-0.8300000000000001,0.0,1.08,257.27,257.28000000000003,0.0,0.0,3
1682448597.38015604,56096652,0.0,-0.8,0.0,1.11,257.27,257.28000000000003,0.0,0.0,3
1682448597.48022294,56196719,0.0,-0.76,0.0,1.1,257.23,257.24,0.0,0.0,3
1682448597.58005190,56296548,0.0,-0.8200000000000001,0.0,1.05,257.33,257.34000000000003,0.0,0.0,3
1682448597.68007898,56396575,0.0,-0.79,0.0,1.08,257.22,257.23,0.0,0.0,3
1682448597.78004503,56496541,0.0,-0.99,0.0,1.03,257.19,257.2,0.0,0.0,3
1682448597.87994194,56596438,0.0,-0.88,0.0,1.1,257.32,257.33,0.0,0.0,3
1682448597.97991800,56696414,0.0,-0.84,0.0,1.06,257.26,257.27,0.0,0.0,3
1682448598.07994509,56796441,0.0,-0.8,0.0,1.1,257.2,257.21,0.0,0.0,3
1682448598.17996097,56896457,0.0,-0.87,0.0,1.05,257.22,257.23,0.0,0.0,3
1682448598.27994895,56996445,0.0,-0.6900000000000001,0.0,1.06,257.21,257.22,0.0,0.01,3
1682448598.38002706,57096523,0.0,-0.84,0.0,1.08,257.23,257.24,0.0,0.01,3
1682448598.48002005,57196516,0.0,-0.91,0.0,1.06,257.27,257.28000000000003,0.0,0.01,3
1682448598.58005190,57296548,0.0,-0.77,0.0,1.07,257.28000000000003,257.29,0.0,0.01,3
1682448598.68002701,57396523,0.0,-0.81,0.0,1.09,257.27,257.28000000000003,0.0,0.01,3
1682448598.77993202,57496428,0.0,-0.67,0.0,1.06,257.22,257.23,0.0,0.0,3
1682448598.88003707,57596533,0.0,-0.87,0.0,1.09,257.27,257.28000000000003,0.0,0.0,3
1682448598.97990704,57696403,0.0,-0.72,0.0,1.1,257.31,257.32,0.0,0.0,3
1682448599.08033299,57796829,0.0,-0.91,0.0,1.06,257.29,257.3,0.0,0.0,3
1682448599.18017101,57896667,0.0,-0.81,0.0,1.12,257.32,257.33,0.0,0.0,3
1682448599.28019905,57996695,0.0,-0.96,0.0,1.06,257.39,257.4,0.0,0.01,3
1682448599.38021111,58096707,0.0,-0.81,0.0,1.1,257.37,257.38,0.0,0.01,3
1682448599.48008490,58196581,0.0,-0.77,0.0,1.08,257.24,257.25,0.0,0.0,3
1682448599.58009601,58296592,0.0,-0.77,0.0,1.05,257.24,257.25,0.0,0.0,3
1682448599.67992306,58396419,0.0,-0.81,0.0,1.08,257.28000000000003,257.29,0.0,0.0,3
1682448599.77990890,58496405,0.0,-0.85,0.0,1.08,257.32,257.33,0.0,0.0,3
1682448599.87990093,58596397,0.0,-0.72,0.0,1.11,257.45,257.46,0.0,0.0,3
1682448599.97996712,58696463,0.0,-0.98,0.0,1.05,257.21,257.21,0.0,0.0,3
1682448600.07998395,58796480,0.0,-0.49,0.0,1.1,257.25,257.26,0.0,0.0,3
1682448600.18002796,58896524,0.0,-1.05,0.0,1.1300000000000001,257.45,257.46,0.0,0.0,3
1682448600.28010011,58996596,0.0,-0.56,0.0,1.03,257.21,257.22,0.0,0.0,3
1682448600.38009095,59096587,0.0,-0.98,0.0,1.16,257.29,257.3,0.01,0.0,3
1682448600.48003006,59196526,0.0,-0.6,0.0,1.08,257.42,257.43,0.01,0.0,3
1682448600.57992911,59296425,0.0,-0.92,0.0,1.1,257.26,257.27,0.01,0.0,3
1682448600.67990899,59396405,0.0,-0.67,0.0,1.1,257.3,257.31,0.01,0.0,3
1682448600.77989411,59496390,0.0,-0.8200000000000001,0.0,1.07,257.42,257.43,0.0,0.0,3
1682448600.88029909,59596795,0.0,-0.65,0.0,1.1500000000000001,257.33,257.34000000000003,0.0,0.0,3
1682448600.98017097,59696667,0.0,-0.74,0.0,1.12,257.36,257.37,0.0,0.01,3
1682448601.08029199,59796788,0.0,-0.84,0.0,1.06,257.38,257.39,0.0,0.01,3
1682448601.18022490,59896721,0.0,-0.68,0.0,1.1,257.34000000000003,257.35,0.0,0.01,3
1682448601.28009605,59996592,0.0,-0.85,0.0,1.05,257.4,257.41,0.0,0.01,3
1682448601.38027906,60096775,0.0,-0.62,0.0,1.06,257.5,257.51,0.0,0.01,3
1682448601.48030996,60196806,0.0,-0.87,0.0,1.07,257.43,257.44,0.0,0.01,3
1682448601.58024001,60296736,0.0,-0.62,0.0,1.05,257.33,257.34000000000003,0.0,0.0,3
1682448601.68014193,60396638,0.0,-0.84,0.0,1.05,257.48,257.49,0.0,0.0,3
1682448601.78031492,60496811,0.0,-0.62,0.0,1.07,257.54,257.55,0.0,0.0,3
1682448601.88018107,60596677,0.0,-0.81,0.0,1.07,257.29,257.3,0.0,0.0,3
1682448601.98022103,60696717,0.0,-0.6900000000000001,0.0,1.0,257.4,257.41,0.0,0.0,3
1682448602.08028412,60796780,0.0,-0.67,0.0,1.06,257.69,257.7,0.0,0.0,3
1682448602.18029690,60896793,0.0,-0.86,0.0,1.03,257.28000000000003,257.29,0.0,0.0,3
1682448602.28030705,60996803,0.0,-0.63,0.0,1.03,257.27,257.28000000000003,0.0,0.0,3
1682448602.38035607,61096852,0.0,-0.75,0.0,1.09,257.67,257.68,0.0,0.0,3
1682448602.48023510,61196731,0.0,-0.61,0.0,1.03,257.49,257.5,0.0,0.0,3
1682448602.58013797,61296634,0.0,-0.79,0.0,1.07,257.28000000000003,257.29,0.0,0.0,3
1682448602.68029404,61396790,0.0,-0.74,0.0,1.0,257.48,257.49,0.0,0.0,3
1682448602.78018403,61496680,0.0,-0.68,0.0,1.06,257.5,257.51,0.0,0.0,3
1682448602.88020992,61596706,0.0,-0.7000000000000001,0.0,1.11,257.24,257.25,0.0,0.01,3
1682448602.98029804,61696794,0.0,-0.71,0.0,1.03,257.41,257.42,0.0,0.0,3
1682448603.08031106,61796807,0.0,-0.67,0.0,1.1,257.49,257.5,0.0,0.0,3
1682448603.18030000,61896796,0.0,-0.73,0.0,1.05,257.24,257.25,0.0,0.0,3
1682448603.28028202,61996778,0.0,-0.66,0.0,1.08,257.4,257.41,0.0,0.0,3
1682448603.38023806,62096734,0.0,-0.74,0.0,1.07,257.46,257.47,0.0,0.0,3
1682448603.48015094,62196647,0.0,-0.66,0.0,1.05,257.25,257.26,0.0,0.0,3
1682448603.58030009,62296796,0.0,-0.73,0.0,1.09,257.39,257.4,0.0,0.0,3
1682448603.68043900,62396935,0.0,-0.67,0.0,1.04,257.44,257.45,0.0,0.0,3
1682448603.78021312,62496709,0.0,-0.73,0.0,1.04,257.3,257.31,0.0,0.01,3
1682448603.88020611,62596702,0.0,-0.68,0.0,1.01,257.45,257.46,0.0,0.0,3
1682448603.98027396,62696770,0.0,-0.7000000000000001,0.0,1.0,257.52,257.53000000000003,0.0,0.0,3
1682448604.08030891,62796805,0.0,-0.7000000000000001,0.0,1.02,257.38,257.39,0.0,0.01,3
1682448604.18026090,62896757,0.0,-0.68,0.0,1.0,257.47,257.48,0.0,0.0,3
1682448604.28031993,62996816,0.0,-0.72,0.0,1.03,257.5,257.51,0.0,0.0,3
1682448604.38016605,63096662,0.0,-0.6900000000000001,0.0,1.08,257.29,257.3,0.0,0.0,3
1682448604.47996497,63196461,0.0,-0.74,0.0,1.05,257.39,257.4,0.0,0.0,3
1682448604.58008790,63296584,0.0,-0.7000000000000001,0.0,1.09,257.48,257.49,0.0,0.0,3
1682448604.68016696,63396663,0.0,-0.75,0.0,1.07,257.3,257.31,0.0,0.0,3
1682448604.78018689,63496683,0.0,-0.72,0.0,1.08,257.4,257.41,0.0,0.0,3
1682448604.88024592,63596742,0.0,-0.74,0.0,1.09,257.46,257.47,0.0,0.0,3
1682448604.98024106,63696737,0.0,-0.77,0.0,1.05,257.33,257.34000000000003,0.0,0.0,3
1682448605.08027601,63796772,0.0,-0.72,0.0,1.11,257.42,257.43,0.0,0.0,3
1682448605.18016505,63896661,0.0,-0.78,0.0,1.09,257.42,257.43,0.0,0.0,3
1682448605.28023005,63996726,0.0,-0.71,0.0,1.09,257.34000000000003,257.35,0.0,0.0,3
1682448605.38016009,64096656,0.0,-0.77,0.0,1.11,257.44,257.45,0.0,0.0,3
1682448605.48008394,64196580,0.0,-0.73,0.0,1.08,257.42,257.43,0.0,0.0,3
1682448605.58017111,64296667,0.0,-0.76,0.0,1.1,257.36,257.37,0.0,0.0,3
1682448605.68017602,64396672,0.0,-0.74,0.0,1.08,257.45,257.46,0.0,0.0,3
1682448605.78024793,64496744,0.0,-0.74,0.0,1.08,257.43,257.44,0.0,0.0,3
1682448605.88042307,64596919,0.0,-0.77,0.0,1.09,257.38,257.39,0.0,0.0,3
1682448605.98025799,64696754,0.0,-0.74,0.0,1.09,257.46,257.47,0.0,0.0,3
1682448606.08030796,64796804,0.0,-0.8,0.0,1.09,257.44,257.45,0.0,0.0,3
1682448606.18014407,64896640,0.0,-0.76,0.0,1.09,257.37,257.38,0.0,0.0,3
1682448606.28028107,64996777,0.0,-0.8200000000000001,0.0,1.09,257.45,257.46,0.0,0.0,3
1682448606.38021302,65096709,0.0,-0.71,0.0,1.09,257.42,257.43,0.0,0.0,3
1682448606.48038292,65196879,0.0,-0.81,0.0,1.08,257.38,257.39,0.0,0.0,3
1682448606.58010411,65296600,0.0,-0.74,0.0,1.09,257.45,257.46,0.0,0.0,3
1682448606.68009710,65396593,0.0,-0.8200000000000001,0.0,1.08,257.42,257.43,0.0,0.0,3
1682448606.78004599,65496542,0.0,-0.74,0.0,1.1,257.39,257.4,0.0,0.0,3
1682448606.87993908,65596435,0.0,-0.79,0.0,1.11,257.42,257.43,0.0,0.0,3
1682448606.97993207,65696428,0.0,-0.8,0.0,1.1,257.4,257.41,0.0,0.0,3
1682448607.07995009,65796446,0.0,-0.79,0.0,1.11,257.38,257.39,0.0,0.0,3
1682448607.17996407,65896460,0.0,-0.85,0.0,1.11,257.39,257.4,0.0,0.0,3
1682448607.27994704,65996443,0.0,-0.79,0.0,1.12,257.38,257.39,0.0,0.0,3
1682448607.38002706,66096523,0.0,-0.9,0.0,1.1300000000000001,257.37,257.38,0.0,0.0,3
1682448607.48003197,66196528,0.0,-0.8200000000000001,0.0,1.1300000000000001,257.37,257.38,0.0,0.0,3
1682448607.58010197,66296598,0.0,-0.88,0.0,1.1300000000000001,257.37,257.38,0.0,0.0,3
1682448607.68002391,66396520,0.0,-0.87,0.0,1.12,257.38,257.39,0.0,0.0,3
1682448607.77992010,66496416,0.0,-0.89,0.0,1.1400000000000001,257.38,257.39,0.0,0.0,3
1682448607.87990093,66596397,0.0,-0.92,0.0,1.1300000000000001,257.37,257.38,0.0,0.0,3
1682448607.98013806,66696634,0.0,-0.89,0.0,1.1400000000000001,257.39,257.4,0.0,0.0,3
1682448608.08035111,66796847,0.0,-0.9,0.0,1.1400000000000001,257.38,257.39,0.0,0.0,3
1682448608.18016791,66896664,0.0,-0.89,0.0,1.1500000000000001,257.38,257.39,0.0,0.0,3
1682448608.28002691,66996523,0.0,-0.91,0.0,1.1400000000000001,257.39,257.4,0.0,0.0,3
1682448608.38003898,67096535,0.0,-0.88,0.0,1.1500000000000001,257.39,257.4,0.0,0.0,3
1682448608.48009896,67196595,0.0,-0.9,0.0,1.1400000000000001,257.4,257.41,0.0,0.0,3
1682448608.58003092,67296527,0.0,-0.91,0.0,1.17,257.39,257.4,0.0,0.0,3
1682448608.68003798,67396534,0.0,-0.87,0.0,1.1500000000000001,257.38,257.39,0.0,0.0,3
1682448608.77991509,67496411,0.0,-0.88,0.0,1.1500000000000001,257.43,257.44,0.0,0.0,3
1682448608.87989211,67596388,0.0,-0.81,0.0,1.1500000000000001,257.44,257.45,0.0,0.0,3
1682448608.97996902,67696465,0.0,-0.85,0.0,1.1400000000000001,257.43,257.44,0.0,0.01,3
1682448609.08000493,67796501,0.0,-0.88,0.0,1.1300000000000001,257.46,257.47,0.0,0.01,3
1682448609.18005109,67896547,0.0,-0.88,0.0,1.1400000000000001,257.43,257.44,0.0,0.01,3
1682448609.28003502,67996531,0.0,-0.84,0.0,1.1400000000000001,257.43,257.44,0.0,0.01,3
1682448609.38007212,68096568,0.0,-0.8200000000000001,0.0,1.16,257.45,257.46,0.0,0.01,3
1682448609.48004103,68196537,0.0,-0.8200000000000001,0.0,1.16,257.41,257.42,0.0,0.01,3
1682448609.57995510,68296451,0.0,-0.84,0.0,1.1400000000000001,257.44,257.45,0.0,0.01,3
1682448609.67989612,68396392,0.0,-0.79,0.0,1.1500000000000001,257.45,257.46,0.0,0.01,3
1682448609.77990103,68496397,0.0,-0.81,0.0,1.1300000000000001,257.41,257.42,0.0,0.01,3
1682448609.87996507,68596461,0.0,-0.78,0.0,1.1500000000000001,257.44,257.45,0.0,0.01,3
1682448609.97996593,68696462,0.0,-0.81,0.0,1.1300000000000001,257.44,257.45,0.0,0.01,3
1682448610.08008504,68796581,0.0,-0.8,0.0,1.1400000000000001,257.41,257.42,0.0,0.01,3
1682448610.18022203,68896718,0.0,-0.8300000000000001,0.0,1.11,257.44,257.45,0.0,0.01,3
1682448610.28028798,68996784,0.0,-0.8300000000000001,0.0,1.12,257.42,257.43,0.0,0.01,3
1682448610.38031411,69096810,0.0,-0.75,0.0,1.12,257.42,257.43,0.0,0.01,3
1682448610.48029900,69196795,0.0,-0.8,0.0,1.12,257.46,257.47,0.0,0.01,3
1682448610.58022904,69296725,0.0,-0.79,0.0,1.09,257.43,257.44,0.0,0.01,3
1682448610.68014503,69396641,0.0,-0.78,0.0,1.19,257.42,257.43,0.0,0.0,3
1682448610.78031802,69496814,0.0,-0.77,0.0,1.1300000000000001,257.41,257.42,0.0,0.0,3
1682448610.88017297,69596669,0.0,-0.78,0.0,1.12,257.44,257.45,0.0,0.0,3
1682448610.98022199,69696718,0.0,-0.81,0.0,1.17,257.45,257.46,0.0,0.0,3
1682448611.08026910,69796765,0.0,-0.8,0.0,1.1,257.41,257.42,0.0,0.0,3
1682448611.18029499,69896791,0.0,-0.79,0.0,1.17,257.46,257.47,0.0,0.0,3
1682448611.28029990,69996796,0.0,-0.8200000000000001,0.0,1.11,257.43,257.44,0.0,0.0,3
1682448611.38028193,70096778,0.0,-0.78,0.0,1.1400000000000001,257.43,257.44,0.0,0.0,3
1682448611.48023295,70196729,0.0,-0.84,0.0,1.1300000000000001,257.47,257.48,0.0,0.0,3
1682448611.58014607,70296642,0.0,-0.78,0.0,1.12,257.44,257.45,0.0,0.0,3
1682448611.68028903,70396785,0.0,-0.8300000000000001,0.0,1.16,257.43,257.44,0.0,0.0,3
1682448611.78017211,70496668,0.0,-0.81,0.0,1.12,257.46,257.47,0.0,0.0,3
1682448611.88026190,70596758,0.0,-0.8300000000000001,0.0,1.1500000000000001,257.46,257.47,0.0,0.01,3
1682448611.98023105,70696727,0.0,-0.77,0.0,1.1300000000000001,257.43,257.44,0.0,0.01,3
1682448612.08032298,70796819,0.0,-0.81,0.0,1.16,257.46,257.47,0.0,0.01,3
1682448612.18031001,70896806,0.0,-0.79,0.0,1.21,257.44,257.45,0.0,0.01,3
1682448612.27995300,70996449,0.0,-0.79,0.0,1.29,257.39,257.4,0.0,0.01,3
1682448612.38010192,71096598,0.0,-0.8,0.0,1.1400000000000001,257.43,257.44,0.0,0.01,3
1682448612.48013711,71196633,0.0,-0.8200000000000001,0.0,1.09,257.48,257.49,0.0,0.0,3
1682448612.58019209,71296688,0.0,-0.76,0.0,1.28,257.42,257.43,0.01,0.0,3
1682448612.68015003,71396646,0.0,-0.84,0.0,1.1500000000000001,257.35,257.36,0.01,0.0,3
1682448612.78020096,71496697,0.0,-0.73,0.0,1.09,257.52,257.53000000000003,0.01,0.0,3
1682448612.88023901,71596735,0.0,-0.8200000000000001,0.0,1.26,257.48,257.49,0.01,0.01,3
1682448612.98026395,71696760,0.0,-0.73,0.0,1.1,257.33,257.34000000000003,0.01,0.0,3
1682448613.08030701,71796803,0.0,-0.8,0.0,1.21,257.53000000000003,257.54,0.01,0.01,3
1682448613.18016791,71896664,0.0,-0.75,0.0,1.19,257.45,257.46,0.01,0.01,3
1682448613.28022099,71996717,0.0,-0.76,0.0,1.24,257.32,257.33,0.01,0.01,3
1682448613.38009191,72096588,0.0,-0.81,0.0,1.21,257.46,257.47,0.01,0.01,3
1682448613.48028398,72196780,0.0,-0.71,0.0,1.1,257.5,257.51,0.01,0.01,3
1682448613.58014894,72296645,0.0,-0.81,0.0,1.29,257.36,257.37,0.01,0.01,3
1682448613.68038511,72396881,0.0,-0.73,0.0,1.11,257.38,257.39,0.01,0.01,3
1682448613.78041005,72496906,0.0,-0.79,0.0,1.2,257.54,257.55,0.01,0.01,3
1682448613.88043404,72596930,0.0,-0.73,0.0,1.21,257.36,257.37,0.01,0.01,3
1682448613.98028803,72696784,0.0,-0.77,0.0,1.12,257.38,257.39,0.01,0.01,3
1682448614.08003092,72796527,0.0,-0.72,0.0,1.23,257.54,257.55,0.01,0.01,3
1682448614.17992496,72896421,0.0,-0.75,0.0,1.16,257.35,257.36,0.01,0.01,3
1682448614.27990198,72996398,0.0,-0.77,0.0,1.19,257.39,257.4,0.01,0.01,3
1682448614.37997699,73096473,0.0,-0.72,0.0,1.19,257.52,257.53000000000003,0.01,0.01,3
1682448614.47996402,73196460,0.0,-0.79,0.0,1.18,257.36,257.37,0.01,0.0,3
1682448614.58003402,73296530,0.0,-0.72,0.0,1.2,257.4,257.41,0.0,0.0,3
1682448614.68002701,73396523,0.0,-0.78,0.0,1.18,257.51,257.52,0.0,0.0,3
1682448614.78007293,73496569,0.0,-0.71,0.0,1.19,257.38,257.39,0.0,0.0,3
1682448614.88007903,73596575,0.0,-0.77,0.0,1.19,257.43,257.44,0.0,0.0,3
1682448614.98002410,73696520,0.0,-0.72,0.0,1.19,257.52,257.53000000000003,0.0,0.0,3
1682448615.08001590,73796512,0.0,-0.76,0.0,1.19,257.4,257.41,0.0,0.01,3
1682448615.17990208,73896398,0.0,-0.74,0.0,1.19,257.44,257.45,0.0,0.01,3
1682448615.27999306,73996489,0.0,-0.74,0.0,1.2,257.51,257.52,0.0,0.01,3
1682448615.37996101,74096457,0.0,-0.76,0.0,1.19,257.39,257.4,0.0,0.01,3
1682448615.48004699,74196543,0.0,-0.73,0.0,1.19,257.44,257.45,0.0,0.01,3
1682448615.58003998,74296536,0.0,-0.76,0.0,1.2,257.5,257.51,0.0,0.01,3
1682448615.68010402,74396600,0.0,-0.73,0.0,1.2,257.39,257.4,0.0,0.01,3
1682448615.78005004,74496546,0.0,-0.77,0.0,1.2,257.45,257.46,0.0,0.01,3
1682448615.87995291,74596449,0.0,-0.73,0.0,1.2,257.48,257.49,0.0,0.01,3
1682448615.97991300,74696409,0.0,-0.77,0.0,1.21,257.38,257.39,0.0,0.01,3
1682448616.07995701,74796453,0.0,-0.74,0.0,1.2,257.45,257.46,0.0,0.01,3
1682448616.18030500,74896801,0.0,-0.75,0.0,1.2,257.47,257.48,0.0,0.01,3
1682448616.28017497,74996671,0.0,-0.76,0.0,1.2,257.38,257.39,0.0,0.01,3
1682448616.38018799,75096684,0.0,-0.75,0.0,1.2,257.45,257.46,0.0,0.01,3
1682448616.48003602,75196532,0.0,-0.77,0.0,1.21,257.46,257.47,0.0,0.0,3
1682448616.58033109,75296827,0.0,-0.75,0.0,1.2,257.38,257.39,0.0,0.0,3
1682448616.68004608,75396542,0.0,-0.77,0.0,1.21,257.46,257.47,0.0,0.0,3
1682448616.77993703,75496433,0.0,-0.74,0.0,1.21,257.46,257.47,0.0,0.0,3
1682448616.87990403,75596400,0.0,-0.77,0.0,1.2,257.4,257.41,0.0,0.0,3
1682448616.97991610,75696412,0.0,-0.74,0.0,1.2,257.47,257.48,0.0,0.0,3
1682448617.08008790,75796584,0.0,-0.75,0.0,1.2,257.46,257.47,0.0,0.0,3
1682448617.17996001,75896456,0.0,-0.75,0.0,1.21,257.41,257.42,0.0,0.0,3
1682448617.28004503,75996541,0.0,-0.74,0.0,1.21,257.48,257.49,0.0,0.0,3
1682448617.38005710,76096553,0.0,-0.76,0.0,1.21,257.46,257.47,0.0,0.0,3
1682448617.48010612,76196602,0.0,-0.74,0.0,1.21,257.43,257.44,0.0,0.0,3
1682448617.58031607,76296812,0.0,-0.76,0.0,1.21,257.5,257.51,0.0,0.01,3
1682448617.67992401,76396420,0.0,-0.74,0.0,1.22,257.46,257.47,0.0,0.0,3
1682448617.77990198,76496398,0.0,-0.77,0.0,1.22,257.44,257.45,0.0,0.01,3
1682448617.87983799,76596334,0.0,-0.75,0.0,1.22,257.5,257.51,0.0,0.0,3
1682448617.97995591,76696452,0.0,-0.76,0.0,1.22,257.47,257.48,0.0,0.0,3
1682448618.08000398,76796500,0.0,-0.76,0.0,1.22,257.46,257.47,0.0,0.0,3
1682448618.18003893,76896535,0.0,-0.76,0.0,1.22,257.52,257.53000000000003,0.0,0.0,3
1682448618.28022194,76996718,0.0,-0.77,0.0,1.22,257.48,257.49,0.0,0.0,3
1682448618.38024902,77096745,0.0,-0.76,0.0,1.22,257.48,257.49,0.0,0.0,3
1682448618.48026991,77196766,0.0,-0.77,0.0,1.22,257.54,257.55,0.0,0.0,3
1682448618.58054090,77297037,0.0,-0.75,0.0,1.22,257.49,257.5,0.0,0.0,3
1682448618.68024206,77396738,0.0,-0.77,0.0,1.23,257.5,257.51,0.0,0.0,3
1682448618.78014803,77496644,0.0,-0.76,0.0,1.23,257.55,257.56,0.0,0.0,3
1682448618.88030696,77596803,0.0,-0.77,0.0,1.23,257.5,257.51,0.0,0.0,3
1682448618.97996593,77696462,0.0,-0.76,0.0,1.23,257.52,257.53000000000003,0.0,0.0,3
1682448619.08007908,77796575,0.0,-0.76,0.0,1.23,257.55,257.56,0.0,0.01,3
1682448619.18030095,77896797,0.0,-0.77,0.0,1.23,257.51,257.52,0.0,0.01,3
1682448619.28026009,77996756,0.0,-0.76,0.0,1.24,257.53000000000003,257.54,0.0,0.01,3
1682448619.38031507,78096811,0.0,-0.76,0.0,1.24,257.55,257.56,0.0,0.01,3
1682448619.48025799,78196754,0.0,-0.75,0.0,1.24,257.5,257.51,0.0,0.01,3
1682448619.58037806,78296874,0.0,-0.76,0.0,1.23,257.52,257.53000000000003,0.0,0.01,3
1682448619.68014503,78396641,0.0,-0.75,0.0,1.23,257.54,257.55,0.0,0.01,3
1682448619.78028893,78496785,0.0,-0.76,0.0,1.23,257.49,257.5,0.0,0.01,3
1682448619.88017392,78596670,0.0,-0.75,0.0,1.23,257.53000000000003,257.54,0.0,0.0,3
1682448619.98021293,78696709,0.0,-0.76,0.0,1.24,257.53000000000003,257.54,0.0,0.0,3
1682448620.08027291,78796769,0.0,-0.76,0.0,1.24,257.51,257.52,0.0,0.0,3
1682448620.18029690,78896793,0.0,-0.75,0.0,1.24,257.55,257.56,0.0,0.0,3
1682448620.28029799,78996794,0.0,-0.75,0.0,1.24,257.55,257.56,0.0,0.0,3
1682448620.38027906,79096775,0.0,-0.74,0.0,1.24,257.52,257.53000000000003,0.0,0.0,3
1682448620.48023701,79196733,0.0,-0.75,0.0,1.25,257.57,257.58,0.0,0.0,3
1682448620.58026505,79296761,0.0,-0.74,0.0,1.25,257.56,257.57,0.0,0.0,3
1682448620.68029594,79396792,0.0,-0.75,0.0,1.25,257.54,257.55,0.0,0.0,3
1682448620.78016496,79496661,0.0,-0.74,0.0,1.25,257.59000000000003,257.6,0.0,0.0,3
1682448620.88019395,79596690,0.0,-0.74,0.0,1.25,257.58,257.59000000000003,0.0,0.0,3
1682448620.98022509,79696721,0.0,-0.73,0.0,1.25,257.56,257.57,0.0,0.0,3
1682448621.08011508,79796611,0.0,-0.73,0.0,1.25,257.6,257.61,0.0,0.0,3
1682448621.18024802,79896744,0.0,-0.73,0.0,1.24,257.59000000000003,257.6,0.0,0.0,3
1682448621.28033996,79996836,0.0,-0.73,0.0,1.24,257.58,257.59000000000003,0.0,0.0,3
1682448621.38015795,80096654,0.0,-0.73,0.0,1.24,257.62,257.63,0.0,0.0,3
1682448621.48011708,80196613,0.0,-0.72,0.0,1.24,257.6,257.61,0.0,0.0,3
1682448621.58018208,80296678,0.0,-0.73,0.0,1.24,257.6,257.61,0.0,0.0,3
1682448621.68009710,80396593,0.0,-0.72,0.0,1.24,257.63,257.64,0.0,0.0,3
1682448621.78019691,80496693,0.0,-0.72,0.0,1.24,257.61,257.62,0.0,0.0,3
1682448621.88020611,80596702,0.0,-0.72,0.0,1.24,257.62,257.63,0.0,0.0,3
1682448621.98026109,80696757,0.0,-0.72,0.0,1.25,257.64,257.65,0.0,0.0,3
1682448622.08033109,80796827,0.0,-0.73,0.0,1.25,257.62,257.63,0.0,0.0,3
1682448622.18025613,80896752,0.0,-0.72,0.0,1.25,257.63,257.64,0.0,0.0,3
1682448622.28011513,80996611,0.0,-0.72,0.0,1.25,257.66,257.67,0.0,0.0,3
1682448622.38006997,81096566,0.0,-0.72,0.0,1.24,257.64,257.65,0.0,0.0,3
1682448622.48017502,81196671,0.0,-0.72,0.0,1.24,257.66,257.67,0.0,0.0,3
1682448622.58014202,81296638,0.0,-0.71,0.0,1.24,257.68,257.69,0.0,0.0,3
1682448622.68018103,81396677,0.0,-0.72,0.0,1.24,257.66,257.67,0.0,0.0,3
1682448622.78039598,81496892,0.0,-0.71,0.0,1.24,257.68,257.69,0.0,0.0,3
1682448622.88040590,81596902,0.0,-0.71,0.0,1.24,257.69,257.7,0.0,0.0,3
1682448622.98029709,81696793,0.0,-0.72,0.0,1.24,257.67,257.68,0.0,0.0,3
1682448623.08030796,81796804,0.0,-0.72,0.0,1.24,257.7,257.71,0.0,0.0,3
1682448623.17990994,81896406,0.0,-0.72,0.0,1.25,257.7,257.71,0.0,0.0,3
1682448623.27991199,81996408,0.0,-0.71,0.0,1.25,257.68,257.69,0.0,0.0,3
1682448623.37996507,82096461,0.0,-0.72,0.0,1.25,257.71,257.72,0.0,0.0,3
1682448623.47995496,82196451,0.0,-0.71,0.0,1.25,257.71,257.72,0.0,0.0,3
1682448623.58005595,82296552,0.0,-0.72,0.0,1.25,257.69,257.7,0.0,0.0,3
1682448623.68006110,82396557,0.0,-0.71,0.0,1.25,257.72,257.73,0.0,0.0,3
1682448623.78009701,82496593,0.0,-0.72,0.0,1.25,257.71,257.72,0.0,0.0,3
1682448623.88003707,82596533,0.0,-0.71,0.0,1.25,257.7,257.71,0.0,0.0,3
1682448623.97994304,82696439,0.0,-0.7000000000000001,0.0,1.25,257.72,257.73,0.0,0.0,3
1682448624.08001709,82796513,0.0,-0.7000000000000001,0.0,1.24,257.71,257.72,0.0,0.0,3
1682448624.17990398,82896400,0.0,-0.6900000000000001,0.0,1.24,257.7,257.71,0.0,0.01,3
1682448624.27996397,82996460,0.0,-0.6900000000000001,0.0,1.24,257.72,257.73,0.0,0.01,3
1682448624.38000798,83096504,0.0,-0.68,0.0,1.23,257.71,257.72,0.0,0.01,3
1682448624.48013091,83196627,0.0,-0.68,0.0,1.23,257.7,257.71,0.0,0.01,3
1682448624.58004093,83296537,0.0,-0.68,0.0,1.22,257.71,257.72,0.0,0.0,3
1682448624.68010211,83396598,0.0,-0.68,0.0,1.22,257.69,257.7,0.0,0.0,3
1682448624.78010106,83496597,0.0,-0.68,0.0,1.22,257.69,257.7,0.0,0.0,3
1682448624.87992692,83596423,0.0,-0.67,0.0,1.21,257.71,257.72,0.0,0.01,3
1682448624.97991490,83696411,0.0,-0.67,0.0,1.21,257.69,257.7,0.0,0.01,3
1682448625.07995892,83796455,0.0,-0.67,0.0,1.21,257.69,257.7,0.0,0.01,3
1682448625.17997193,83896468,0.0,-0.67,0.0,1.2,257.7,257.71,0.0,0.01,3
1682448625.27994800,83996444,0.0,-0.67,0.0,1.2,257.68,257.69,0.0,0.01,3
1682448625.38004804,84096544,0.0,-0.67,0.0,1.21,257.69,257.7,0.0,0.01,3
1682448625.48009706,84196593,0.0,-0.67,0.0,1.21,257.69,257.7,0.0,0.01,3
1682448625.58009791,84296594,0.0,-0.67,0.0,1.21,257.68,257.69,0.0,0.01,3
1682448625.68008399,84396580,0.0,-0.67,0.0,1.21,257.69,257.7,0.0,0.01,3
1682448625.77993703,84496433,0.0,-0.68,0.0,1.21,257.7,257.71,0.0,0.01,3
1682448625.87989712,84596393,0.0,-0.68,0.0,1.22,257.68,257.69,0.0,0.01,3
1682448625.98016310,84696659,0.0,-0.68,0.0,1.22,257.69,257.7,0.0,0.01,3
1682448626.08034492,84796841,0.0,-0.68,0.0,1.22,257.69,257.7,0.0,0.01,3
1682448626.18017411,84896670,0.0,-0.68,0.0,1.22,257.68,257.69,0.0,0.0,3
1682448626.28026509,84996761,0.0,-0.68,0.0,1.22,257.69,257.7,0.0,0.0,3
1682448626.38004804,85096544,0.0,-0.68,0.0,1.22,257.69,257.7,0.0,0.0,3
1682448626.48010898,85196605,0.0,-0.68,0.0,1.22,257.68,257.69,0.0,0.0,3
1682448626.58005095,85296547,0.0,-0.68,0.0,1.23,257.69,257.7,0.0,0.0,3
1682448626.67992806,85396424,0.0,-0.68,0.0,1.23,257.69,257.7,0.0,0.0,3
1682448626.77990890,85496405,0.0,-0.68,0.0,1.22,257.68,257.69,0.0,0.0,3
1682448626.87988901,85596385,0.0,-0.67,0.0,1.22,257.7,257.71,0.0,0.0,3
1682448626.97996402,85696460,0.0,-0.67,0.0,1.22,257.69,257.7,0.0,0.0,3
1682448627.08004212,85796538,0.0,-0.67,0.0,1.22,257.69,257.7,0.0,0.0,3
1682448627.18005204,85896548,0.0,-0.67,0.0,1.22,257.7,257.71,0.0,0.0,3
1682448627.28005505,85996551,0.0,-0.66,0.0,1.22,257.69,257.7,0.0,0.0,3
1682448627.38007903,86096575,0.0,-0.66,0.0,1.22,257.69,257.7,0.0,0.0,3
1682448627.48003411,86196530,0.0,-0.66,0.0,1.23,257.7,257.71,0.0,0.0,3
1682448627.58003998,86296536,0.0,-0.66,0.0,1.23,257.69,257.7,0.0,0.0,3
1682448627.67989898,86396395,0.0,-0.66,0.0,1.23,257.69,257.7,0.0,0.0,3
1682448627.77989912,86496395,0.0,-0.66,0.0,1.23,257.7,257.71,0.0,0.0,3
1682448627.87998104,86596477,0.0,-0.67,0.0,1.23,257.68,257.69,0.0,0.0,3
1682448627.97997594,86696472,0.0,-0.66,0.0,1.23,257.68,257.69,0.0,0.0,3
1682448628.08031106,86796807,0.0,-0.66,0.0,1.23,257.69,257.7,0.0,0.01,3
1682448628.18023491,86896731,0.0,-0.66,0.0,1.23,257.68,257.69,0.0,0.01,3
1682448628.28028297,86996779,0.0,-0.66,0.0,1.24,257.68,257.69,0.0,0.01,3
1682448628.38029504,87096791,0.0,-0.67,0.0,1.24,257.69,257.7,0.0,0.01,3
1682448628.47995496,87196451,0.0,-0.67,0.0,1.23,257.67,257.68,0.0,0.01,3
1682448628.58027911,87296775,0.0,-0.67,0.0,1.23,257.68,257.69,0.0,0.01,3
1682448628.68020892,87396705,0.0,-0.67,0.0,1.23,257.67,257.68,0.0,0.01,3
1682448628.78030992,87496806,0.0,-0.67,0.0,1.23,257.66,257.67,0.0,0.01,3
1682448628.88017392,87596670,0.0,-0.67,0.0,1.23,257.67,257.68,0.0,0.01,3
1682448628.98026395,87696760,0.0,-0.67,0.0,1.22,257.66,257.67,0.0,0.0,3
1682448629.08027005,87796766,0.0,-0.67,0.0,1.23,257.65,257.66,0.0,0.0,3
1682448629.18026090,87896757,0.0,-0.65,0.0,1.22,257.69,257.7,0.0,0.01,3
1682448629.28036904,87996865,0.0,-0.68,0.0,1.23,257.67,257.68,0.0,0.01,3
1682448629.38025808,88096754,0.0,-0.66,0.0,1.22,257.62,257.63,0.0,0.01,3
1682448629.48024392,88196740,0.0,-0.66,0.0,1.22,257.67,257.68,0.0,0.01,3
1682448629.58015108,88296647,0.0,-0.66,0.0,1.22,257.63,257.64,0.0,0.01,3
1682448629.68031502,88396811,0.0,-0.65,0.0,1.21,257.59000000000003,257.6,0.0,0.0,3
1682448629.78018808,88496684,0.0,-0.66,0.0,1.22,257.63,257.64,0.0,0.0,3
1682448629.88027406,88596770,0.0,-0.65,0.0,1.21,257.61,257.62,0.0,0.0,3
1682448629.98023009,88696726,0.0,-0.65,0.0,1.21,257.6,257.61,0.0,0.0,3
1682448630.08033299,88796829,0.0,-0.65,0.0,1.21,257.62,257.63,0.0,0.0,3
1682448630.18029404,88896790,0.0,-0.66,0.0,1.22,257.6,257.61,0.0,0.0,3
1682448630.28026605,88996762,0.0,-0.65,0.0,1.22,257.59000000000003,257.6,0.0,0.0,3
1682448630.38024092,89096737,0.0,-0.66,0.0,1.22,257.62,257.63,0.0,0.0,3
1682448630.48014212,89196638,0.0,-0.67,0.0,1.23,257.59000000000003,257.6,0.0,0.0,3
1682448630.58031702,89296813,0.0,-0.67,0.0,1.23,257.63,257.64,0.0,0.0,3
1682448630.68017507,89396671,0.0,-0.63,0.0,1.23,257.67,257.68,0.0,0.0,3
1682448630.78021812,89496714,0.0,-0.64,0.0,1.22,257.64,257.65,0.0,0.0,3
1682448630.88020992,89596706,0.0,-0.62,0.0,1.22,257.67,257.68,0.0,0.0,3
1682448630.98026896,89696765,0.0,-0.62,0.0,1.23,257.68,257.69,0.0,0.0,3
1682448631.08030796,89796804,0.0,-0.64,0.0,1.23,257.62,257.63,0.0,0.0,3
1682448631.18045402,89896950,0.0,-0.64,0.0,1.25,257.61,257.62,0.0,0.0,3
1682448631.28044701,89996943,0.0,-0.65,0.0,1.24,257.63,257.64,0.0,0.0,3
1682448631.38014293,90096639,0.0,-0.65,0.0,1.25,257.6,257.61,0.0,0.0,3
1682448631.48029208,90196788,0.0,-0.66,0.0,1.24,257.59000000000003,257.6,0.0,0.0,3
1682448631.57996297,90296459,0.0,-0.65,0.0,1.24,257.61,257.62,0.0,0.0,3
1682448631.68004298,90396539,0.0,-0.64,0.0,1.23,257.63,257.64,0.0,0.0,3
1682448631.78025413,90496750,0.0,-0.67,0.0,1.22,257.62,257.63,0.0,0.0,3
1682448631.88023591,90596732,0.0,-0.64,0.0,1.24,257.69,257.7,0.0,0.0,3
1682448631.98024011,90696736,0.0,-0.67,0.0,1.24,257.65,257.66,0.0,0.0,3
1682448632.08026099,90796757,0.0,-0.66,0.0,1.24,257.62,257.63,0.0,0.0,3
1682448632.18015289,90896649,0.0,-0.67,0.0,1.24,257.67,257.68,0.0,0.0,3
1682448632.28012490,90996621,0.0,-0.66,0.0,1.23,257.61,257.62,0.0,0.0,3
1682448632.38017511,91096671,0.0,-0.67,0.0,1.24,257.63,257.64,0.0,0.0,3
1682448632.48009801,91196594,0.0,-0.66,0.0,1.24,257.67,257.68,0.0,0.0,3
1682448632.58019805,91296694,0.0,-0.66,0.0,1.24,257.62,257.63,0.0,0.0,3
1682448632.68019199,91396688,0.0,-0.66,0.0,1.25,257.66,257.67,0.0,0.0,3
1682448632.78021598,91496712,0.0,-0.65,0.0,1.24,257.64,257.65,0.0,0.0,3
1682448632.88026595,91596762,0.0,-0.66,0.0,1.24,257.62,257.63,0.0,0.0,3
1682448632.98023391,91696730,0.0,-0.64,0.0,1.24,257.65,257.66,0.0,0.0,3
1682448633.08024311,91796739,0.0,-0.67,0.0,1.23,257.63,257.64,0.0,0.0,3
1682448633.18012905,91896625,0.0,-0.65,0.0,1.24,257.63,257.64,0.0,0.0,3
1682448633.28018904,91996685,0.0,-0.66,0.0,1.23,257.66,257.67,0.0,0.0,3
1682448633.38014102,92096637,0.0,-0.65,0.0,1.23,257.64,257.65,0.0,0.0,3
1682448633.48019290,92196689,0.0,-0.66,0.0,1.23,257.64,257.65,0.0,0.0,3
1682448633.58018994,92296686,0.0,-0.66,0.0,1.23,257.66,257.67,0.0,0.0,3
1682448633.68022299,92396719,0.0,-0.65,0.0,1.23,257.65,257.66,0.0,0.0,3
1682448633.78024697,92496743,0.0,-0.67,0.0,1.23,257.65,257.66,0.0,0.0,3
1682448633.88031912,92596815,0.0,-0.65,0.0,1.24,257.66,257.67,0.0,0.0,3
1682448633.98014808,92696644,0.0,-0.67,0.0,1.24,257.64,257.65,0.0,0.0,3
1682448634.08015203,92796648,0.0,-0.66,0.0,1.24,257.64,257.65,0.0,0.0,3
1682448634.18018103,92896677,0.0,-0.66,0.0,1.24,257.65,257.66,0.0,0.0,3
1682448634.28013706,92996633,0.0,-0.66,0.0,1.24,257.64,257.65,0.0,0.0,3
1682448634.38039494,93096891,0.0,-0.66,0.0,1.24,257.64,257.65,0.0,0.0,3
1682448634.48034191,93196838,0.0,-0.66,0.0,1.24,257.65,257.66,0.0,0.0,3
1682448634.58027911,93296775,0.0,-0.67,0.0,1.23,257.64,257.65,0.0,0.0,3
1682448634.68028402,93396780,0.0,-0.66,0.0,1.23,257.65,257.66,0.0,0.0,3
1682448634.78026390,93496760,0.0,-0.6900000000000001,0.0,1.21,257.68,257.69,0.0,0.0,3
1682448634.88027096,93596767,0.0,-0.68,0.0,1.22,257.66,257.67,0.0,0.0,3
1682448634.98014307,93696639,0.0,-0.68,0.0,1.21,257.63,257.64,0.0,0.0,3
1682448635.08033109,93796827,0.0,-0.68,0.0,1.23,257.64,257.65,0.0,0.0,3
1682448635.18017602,93896672,0.0,-0.65,0.0,1.24,257.67,257.68,0.0,0.0,3
1682448635.28021908,93996715,0.0,-0.68,0.0,1.24,257.67,257.68,0.0,0.0,3
1682448635.38003707,94096533,0.0,-0.65,0.0,1.25,257.63,257.64,0.0,0.0,3
1682448635.48007512,94196571,0.0,-0.6900000000000001,0.0,1.23,257.67,257.68,0.0,0.0,3
1682448635.58004403,94296540,0.0,-0.66,0.0,1.24,257.66,257.67,0.0,0.0,3
1682448635.67992711,94396423,0.0,-0.67,0.0,1.25,257.65,257.66,0.0,0.0,3
1682448635.77990198,94496398,0.0,-0.66,0.0,1.25,257.67,257.68,0.0,0.0,3
1682448635.87988591,94596382,0.0,-0.67,0.0,1.26,257.65,257.66,0.0,0.01,3
1682448635.97996902,94696465,0.0,-0.66,0.0,1.25,257.66,257.67,0.0,0.01,3
1682448636.07998800,94796484,0.0,-0.67,0.0,1.26,257.68,257.69,0.0,0.01,3
1682448636.18003511,94896531,0.0,-0.68,0.0,1.26,257.66,257.67,0.0,0.01,3
1682448636.28004193,94996538,0.0,-0.68,0.0,1.26,257.67,257.68,0.0,0.0,3
1682448636.38008809,95096584,0.0,-0.68,0.0,1.27,257.69,257.7,0.0,0.0,3
1682448636.48008013,95196576,0.0,-0.68,0.0,1.27,257.67,257.68,0.0,0.0,3
1682448636.58021212,95296708,0.0,-0.6900000000000001,0.0,1.28,257.68,257.69,0.0,0.0,3
1682448636.67989898,95396395,0.0,-0.68,0.0,1.28,257.7,257.71,0.0,0.0,3
1682448636.77989507,95496391,0.0,-0.6900000000000001,0.0,1.28,257.68,257.69,0.0,0.0,3
1682448636.87996697,95596463,0.0,-0.68,0.0,1.27,257.7,257.71,0.0,0.0,3
1682448636.97995210,95696448,0.0,-0.6900000000000001,0.0,1.27,257.71,257.72,0.0,0.01,3
1682448637.08009911,95796595,0.0,-0.68,0.0,1.27,257.69,257.7,0.0,0.01,3
1682448637.18004203,95896538,0.0,-0.68,0.0,1.27,257.7,257.71,0.0,0.0,3
1682448637.28010893,95996605,0.0,-0.68,0.0,1.27,257.71,257.72,0.0,0.01,3
1682448637.38004112,96096537,0.0,-0.66,0.0,1.27,257.69,257.7,0.0,0.01,3
1682448637.47993207,96196428,0.0,-0.68,0.0,1.27,257.71,257.72,0.0,0.01,3
1682448637.57990408,96296400,0.0,-0.66,0.0,1.27,257.71,257.72,0.0,0.0,3
1682448637.67990589,96396402,0.0,-0.68,0.0,1.27,257.7,257.71,0.0,0.0,3
1682448637.77995110,96496447,0.0,-0.67,0.0,1.28,257.72,257.73,0.0,0.0,3
1682448637.88023710,96596733,0.0,-0.68,0.0,1.28,257.72,257.73,0.0,0.0,3
1682448637.98003793,96696534,0.0,-0.68,0.0,1.27,257.7,257.71,0.0,0.0,3
1682448638.08013606,96796632,0.0,-0.6900000000000001,0.0,1.26,257.71,257.72,0.0,0.0,3
1682448638.18007612,96896572,0.0,-0.6900000000000001,0.0,1.26,257.71,257.72,0.0,0.0,3
1682448638.28004193,96996538,0.0,-0.68,0.0,1.26,257.69,257.7,0.0,0.01,3
1682448638.37993002,97096426,0.0,-0.6900000000000001,0.0,1.25,257.71,257.72,0.0,0.0,3
1682448638.48023391,97196730,0.0,-0.68,0.0,1.25,257.71,257.72,0.0,0.0,3
1682448638.58014894,97296645,0.0,-0.7000000000000001,0.0,1.25,257.69,257.7,0.0,0.0,3
1682448638.68027902,97396775,0.0,-0.68,0.0,1.26,257.71,257.72,0.0,0.0,3
1682448638.78015494,97496651,0.0,-0.7000000000000001,0.0,1.26,257.7,257.71,0.0,0.0,3
1682448638.88003612,97596532,0.0,-0.6900000000000001,0.0,1.26,257.69,257.7,0.0,0.01,3
1682448638.98004699,97696543,0.0,-0.6900000000000001,0.0,1.26,257.7,257.71,0.0,0.0,3
1682448639.08014607,97796642,0.0,-0.6900000000000001,0.0,1.26,257.69,257.7,0.0,0.01,3
1682448639.18004394,97896540,0.0,-0.6900000000000001,0.0,1.26,257.68,257.69,0.0,0.0,3
