timestamp,TimeUS,I,Status,GMS,GWk,NSats,HDop,Lat,Lng,Alt,Spd,GCrs,VZ,Yaw,U
1682448561.23950005,19955996,0,1,0,0,0,100.0,0.0,0.0,0.0,0.0,0.0,0.0,0.0,1
1682448561.45954609,20176042,0,1,0,0,0,100.0,0.0,0.0,0.0,0.0,0.0,0.0,0.0,1
1682448561.89948106,20615977,0,1,0,0,0,100.0,0.0,0.0,0.0,0.0,0.0,0.0,0.0,1
1682448562.27964497,20996141,0,1,0,0,0,100.0,0.0,0.0,0.0,0.0,0.0,0.0,0.0,1
1682448562.69960403,21416100,0,1,0,0,0,100.0,0.0,0.0,0.0,0.0,0.0,0.0,0.0,1
1682448563.07969904,21796195,0,1,0,0,0,100.0,0.0,0.0,0.0,0.0,0.0,0.0,0.0,1
1682448563.48006606,22196562,0,1,0,0,0,100.0,0.0,0.0,0.0,0.0,0.0,0.0,0.0,1
1682448563.89971590,22616212,0,1,0,0,0,100.0,0.0,0.0,0.0,0.0,0.0,0.0,0.0,1
1682448564.22027898,22936775,0,1,0,0,0,100.0,0.0,0.0,0.0,0.0,0.0,0.0,0.0,1
1682448564.47975707,23196253,0,1,0,0,0,100.0,0.0,0.0,0.0,0.0,0.0,0.0,0.0,1
1682448564.87973905,23596235,0,1,0,0,0,100.0,0.0,0.0,0.0,0.0,0.0,0.0,0.0,1
1682448565.29965711,24016153,0,1,0,0,0,100.0,0.0,0.0,0.0,0.0,0.0,0.0,0.0,1
1682448565.72030997,24436806,0,1,0,0,0,100.0,0.0,0.0,0.0,0.0,0.0,0.0,0.0,1
1682448566.12090397,24837400,0,1,0,0,0,100.0,0.0,0.0,0.0,0.0,0.0,0.0,0.0,1
1682448566.51977611,25236272,0,1,0,0,0,100.0,0.0,0.0,0.0,0.0,0.0,0.0,0.0,1
1682448566.79999995,25516496,0,3,240584800,2259,7,100.0,42.7075136,-84.4779373,260.78000000000003,0.031144823879003525,185.52755737304688,-0.0820000022649765,0.0,1
1682448566.93983793,25656334,0,3,240585000,2259,7,100.0,42.7075136,-84.4779365,260.6,0.020223749801516533,261.46923828125,-0.06200000271201134,0.0,1
1682448567.13995194,25856448,0,3,240585200,2259,7,100.0,42.7075118,-84.4779379,260.29,0.027073971927165985,94.23638916015625,0.07800000160932541,0.0,1
1682448567.34004307,26056539,0,3,240585400,2259,7,100.0,42.7075136,-84.4779365,260.31,0.05510898306965828,168.4861602783203,0.15200001001358032,0.0,1
1682448567.54003811,26256534,0,3,240585600,2259,7,1.1300000000000001,42.7075144,-84.47793569999999,260.32,0.03716181218624115,336.1940612792969,0.11800000816583633,0.0,1
1682448567.73963308,26456129,0,3,240585800,2259,7,1.1300000000000001,42.7075136,-84.4779361,260.16,0.017804494127631187,38.1572265625,0.12700000405311584,0.0,1
1682448567.93992996,26656426,0,3,240586000,2259,7,1.1300000000000001,42.707513399999996,-84.47793569999999,260.07,0.04753945767879486,75.3791275024414,0.11900000274181366,0.0,1
1682448568.13999295,26856489,0,3,240586200,2259,7,1.1300000000000001,42.7075138,-84.477935,260.06,0.11053507030010223,331.3481750488281,0.1980000138282776,0.0,1
1682448568.34003496,27056531,0,3,240586400,2259,7,1.1300000000000001,42.7075138,-84.4779346,260.0,0.08417245000600815,133.55587768554688,0.14600001275539398,0.0,1
1682448568.53989697,27256393,0,3,240586600,2259,7,1.1300000000000001,42.7075138,-84.4779339,259.97,0.0546717494726181,39.805564880371094,0.13500000536441803,0.0,1
1682448568.73980689,27456303,0,3,240586800,2259,7,1.1300000000000001,42.707513899999995,-84.47793329999999,259.92,0.012369317002594471,284.0362548828125,0.23800000548362732,0.0,1
1682448568.93992710,27656423,0,3,240587000,2259,7,1.1300000000000001,42.707513899999995,-84.477933,259.88,0.06307139247655869,64.65382385253906,0.2200000137090683,0.0,1
1682448569.11970997,27836206,0,3,240587200,2259,7,1.1300000000000001,42.7075138,-84.4779329,259.81,0.03551056236028671,9.727578163146973,0.242000013589859,0.0,1
1682448569.31977797,28036274,0,3,240587400,2259,7,1.1300000000000001,42.7075138,-84.47793279999999,259.78000000000003,0.051078375428915024,23.051300048828125,0.2070000171661377,0.0,1
1682448569.51973891,28236235,0,3,240587600,2259,7,1.1300000000000001,42.707513399999996,-84.477933,259.67,0.03931920602917671,97.30575561523438,0.11300000548362732,0.0,1
1682448569.71966910,28436165,0,3,240587800,2259,7,1.1300000000000001,42.707513299999995,-84.4779331,259.62,0.07025667279958725,4.899092674255371,0.13300000131130219,0.0,1
1682448569.91972899,28636225,0,3,240588000,2259,7,1.1300000000000001,42.7075131,-84.47793349999999,259.56,0.004242640919983387,45.0,0.11900000274181366,0.0,1
1682448570.11981010,28836306,0,3,240588200,2259,8,1.1300000000000001,42.707513,-84.4779339,259.45,0.036055512726306915,176.82015991210938,-0.007000000216066837,0.0,1
1682448570.31975794,29036254,0,3,240588400,2259,8,1.1300000000000001,42.7075129,-84.4779343,259.37,0.03551056236028671,170.2724151611328,0.07800000160932541,0.0,1
1682448570.52036405,29236860,0,3,240588600,2259,8,1.1300000000000001,42.7075129,-84.47793449999999,259.3,0.02102379873394966,92.72630310058594,0.029000001028180122,0.0,1
1682448570.72028589,29436782,0,3,240588800,2259,8,1.1300000000000001,42.7075129,-84.47793469999999,259.24,0.03584689646959305,67.01127624511719,0.1600000113248825,0.0,1
1682448570.92009211,29636588,0,3,240589000,2259,8,1.1300000000000001,42.707513,-84.4779348,259.18,0.045177433639764786,332.300537109375,0.06599999964237213,0.0,1
1682448571.12026000,29836756,0,3,240589200,2259,8,1.1300000000000001,42.7075132,-84.4779351,259.14,0.04623851552605629,291.5713195800781,0.15200001001358032,0.0,1
1682448571.32031012,30036806,0,3,240589400,2259,8,1.1300000000000001,42.707513399999996,-84.4779353,259.1,0.04244997352361679,313.0908508300781,0.023000001907348633,0.0,1
1682448571.52029395,30236790,0,3,240589600,2259,8,1.0,42.7075135,-84.4779355,259.06,0.03195309266448021,20.136302947998047,0.0650000050663948,0.0,1
1682448571.72035003,30436846,0,3,240589800,2259,8,1.0,42.7075137,-84.4779356,259.02,0.0070710680447518826,98.13009643554688,0.049000002443790436,0.0,1
1682448571.92028499,30636781,0,3,240590000,2259,8,1.0,42.707513899999995,-84.47793569999999,259.01,0.0382099486887455,42.878902435302734,0.08700000494718552,0.0,1
1682448572.19978905,30916285,0,3,240590200,2259,15,1.0,42.707514599999996,-84.47793709999999,259.2,0.007615773007273674,246.80142211914062,0.07600000500679016,0.0,1
1682448572.32030201,31036798,0,3,240590400,2259,15,1.0,42.7075153,-84.4779384,259.37,0.03413209691643715,58.17254638671875,0.018000001087784767,0.0,1
1682448572.52079201,31237288,0,3,240590600,2259,15,1.0,42.707516,-84.47793949999999,259.52,0.027073973789811134,184.2364044189453,0.08000000566244125,0.0,1
1682448572.72023201,31436728,0,3,240590800,2259,15,1.0,42.7075166,-84.4779405,259.65,0.0462709479033947,173.79653930664062,0.05000000074505806,0.0,1
1682448572.91978693,31636283,0,3,240591000,2259,15,1.0,42.7075172,-84.47794139999999,259.77,0.023086795583367348,72.3498764038086,0.01900000125169754,0.0,1
1682448573.11964607,31836142,0,3,240591200,2259,15,1.0,42.7075178,-84.47794209999999,259.89,0.03860051929950714,126.57302856445312,0.017000000923871994,0.0,1
1682448573.31962299,32036119,0,3,240591400,2259,15,1.0,42.7075183,-84.4779427,259.98,0.004000000189989805,270.0,0.10600000619888306,0.0,1
1682448573.51971698,32236213,0,3,240591600,2259,15,0.7000000000000001,42.707518799999995,-84.4779435,260.08,0.019209373742341995,51.34019088745117,0.07200000435113907,0.0,1
1682448573.71979308,32436289,0,3,240591800,2259,15,0.7000000000000001,42.7075193,-84.4779442,260.18,0.009899495169520378,225.0,0.04800000041723251,0.0,1
1682448573.91972804,32636224,0,3,240592000,2259,15,0.7000000000000001,42.7075197,-84.47794499999999,260.28000000000003,0.04052159935235977,15.751173973083496,0.08500000089406967,0.0,1
1682448574.15992904,32876425,0,3,240592200,2259,15,0.7000000000000001,42.707520099999996,-84.47794569999999,260.36,0.013416407629847527,153.43495178222656,0.027000000700354576,0.0,1
1682448574.32028198,33036778,0,3,240592400,2259,15,0.7000000000000001,42.7075204,-84.4779463,260.46,0.027313001453876495,156.25050354003906,0.06300000101327896,0.0,1
1682448574.52023292,33236729,0,3,240592600,2259,15,0.7000000000000001,42.7075208,-84.477947,260.52,0.05371220037341118,335.8208923339844,0.027000000700354576,0.0,1
1682448574.72031403,33436810,0,3,240592800,2259,15,0.7000000000000001,42.7075211,-84.4779476,260.59000000000003,0.0070710680447518826,45.0,0.032999999821186066,0.0,1
1682448574.92035294,33636849,0,3,240593000,2259,15,0.7000000000000001,42.7075214,-84.4779482,260.64,0.033105891197919846,244.98312377929688,0.027000000700354576,0.0,1
1682448575.12033701,33836833,0,3,240593200,2259,15,0.7000000000000001,42.7075217,-84.4779488,260.7,0.0430116280913353,342.4075927734375,0.06100000441074371,0.0,1
1682448575.31973505,34036231,0,3,240593400,2259,15,0.7000000000000001,42.707522,-84.4779494,260.74,0.01702938787639141,273.366455078125,0.09200000762939453,0.0,1
1682448575.51978898,34236285,0,3,240593600,2259,15,0.7000000000000001,42.7075222,-84.4779499,260.78000000000003,0.013152946718037128,81.25382995605469,0.07600000500679016,0.0,1
1682448575.71972489,34436221,0,3,240593800,2259,15,0.7000000000000001,42.707522499999996,-84.47795029999999,260.81,0.02202271670103073,87.3974380493164,0.06200000271201134,0.0,1
1682448575.95971298,34676209,0,3,240594000,2259,15,0.7000000000000001,42.7075227,-84.4779507,260.85,0.052354563027620316,151.47686767578125,0.05400000140070915,0.0,1
1682448576.11964798,34836144,0,3,240594200,2259,15,0.7000000000000001,42.7075229,-84.47795119999999,260.9,0.02325940877199173,154.53663635253906,0.058000002056360245,0.0,1
1682448576.31970811,35036204,0,3,240594400,2259,15,0.7000000000000001,42.707523099999996,-84.4779516,260.93,0.03324154391884804,195.70864868164062,0.08700000494718552,0.0,1
1682448576.52028203,35236778,0,3,240594600,2259,15,0.7000000000000001,42.7075232,-84.477952,260.96,0.008602325804531574,144.46231079101562,0.0010000000474974513,0.0,1
1682448576.72035193,35436848,0,3,240594800,2259,15,0.7000000000000001,42.7075234,-84.47795239999999,261.0,0.012369317002594471,14.036242485046387,0.055000003427267075,0.0,1
1682448576.92008305,35636579,0,3,240595000,2259,15,0.7000000000000001,42.707523699999996,-84.4779528,261.04,0.01900000125169754,0.0,0.015000000596046448,0.0,1
1682448577.12033010,35836826,0,3,240595200,2259,15,0.7000000000000001,42.7075239,-84.4779532,261.07,0.009999999776482582,36.869895935058594,0.09200000762939453,0.0,1
1682448577.32029510,36036791,0,3,240595400,2259,15,0.7000000000000001,42.7075241,-84.4779535,261.09000000000003,0.008485281839966774,225.0,0.04100000113248825,0.0,1
1682448577.52030110,36236797,0,3,240595599,2259,15,0.7000000000000001,42.707524199999995,-84.4779539,261.12,0.041109610348939896,228.9451904296875,-0.012000000104308128,0.0,1
1682448577.72029090,36436787,0,3,240595799,2259,15,0.7000000000000001,42.7075244,-84.4779543,261.16,0.009486833587288857,71.56504821777344,0.05300000309944153,0.0,1
1682448577.92025208,36636748,0,3,240596000,2259,15,0.7000000000000001,42.7075246,-84.4779545,261.18,0.05154610052704811,71.91654968261719,0.09400000423192978,0.0,1
1682448578.14001894,36856515,0,3,240596199,2259,16,0.7000000000000001,42.7075246,-84.47795479999999,261.25,0.03847077116370201,117.89725494384766,0.08700000494718552,0.0,1
1682448578.32025290,37036749,0,3,240596399,2259,16,0.7000000000000001,42.7075246,-84.4779551,261.28000000000003,0.03337663784623146,188.61566162109375,0.020000001415610313,0.0,1
1682448578.52031302,37236809,0,3,240596599,2259,16,0.66,42.7075245,-84.4779554,261.33,0.0152970589697361,258.6900634765625,0.030000001192092896,0.0,1
1682448578.72031808,37436814,0,3,240596799,2259,16,0.66,42.7075246,-84.4779556,261.37,0.04049691557884216,110.22484588623047,0.0690000057220459,0.0,1
1682448578.94002390,37656520,0,3,240597000,2259,16,0.66,42.7075246,-84.4779559,261.4,0.006082762498408556,279.46234130859375,0.030000001192092896,0.0,1
1682448579.12033391,37836830,0,3,240597199,2259,16,0.66,42.7075246,-84.4779562,261.45,0.02846050076186657,251.5650634765625,0.039000000804662704,0.0,1
1682448579.32035494,38036851,0,3,240597399,2259,16,0.66,42.7075246,-84.4779566,261.5,0.036055512726306915,176.82015991210938,0.11900000274181366,0.0,1
1682448579.51964092,38236137,0,3,240597599,2259,16,0.66,42.7075245,-84.4779568,261.52,0.022135945037007332,71.56504821777344,0.09300000220537186,0.0,1
1682448579.71961594,38436112,0,3,240597799,2259,16,0.66,42.7075245,-84.4779571,261.57,0.015524175018072128,255.06858825683594,0.11300000548362732,0.0,1
1682448579.91970801,38636204,0,3,240597999,2259,16,0.66,42.7075244,-84.4779573,261.6,0.017720045521855354,73.6104507446289,0.0690000057220459,0.0,1
1682448580.11979389,38836290,0,3,240598199,2259,16,0.66,42.707524299999996,-84.4779575,261.64,0.014317820779979229,155.224853515625,0.015000000596046448,0.0,1
1682448580.31971407,39036210,0,3,240598399,2259,16,0.66,42.707524199999995,-84.47795769999999,261.67,0.0036055513191968203,146.30992126464844,0.02800000086426735,0.0,1
1682448580.51963902,39236135,0,3,240598599,2259,16,0.66,42.7075241,-84.477958,261.7,0.00806225836277008,209.74488830566406,0.09700000286102295,0.0,1
1682448580.71971798,39436214,0,3,240598799,2259,16,0.66,42.707524,-84.47795819999999,261.74,0.022360682487487793,259.6951599121094,-0.01600000075995922,0.0,1
1682448580.91978407,39636280,0,3,240598999,2259,16,0.66,42.7075239,-84.4779585,261.78000000000003,0.027730850502848625,334.3590087890625,0.030000001192092896,0.0,1
1682448581.11973906,39836235,0,3,240599199,2259,16,0.66,42.7075238,-84.4779587,261.82,0.032557643949985504,132.51043701171875,0.12200000882148743,0.0,1
1682448581.31965590,40036152,0,3,240599399,2259,16,0.66,42.707523599999995,-84.47795889999999,261.84000000000003,0.009486833587288857,161.56504821777344,0.06599999964237213,0.0,1
1682448581.51963091,40236127,0,3,240599599,2259,16,0.66,42.7075235,-84.477959,261.86,0.02745906263589859,123.11133575439453,0.09800000488758087,0.0,1
1682448581.71970701,40436203,0,3,240599799,2259,16,0.66,42.7075234,-84.4779592,261.88,0.016124514862895012,240.255126953125,0.0860000029206276,0.0,1
1682448581.94000196,40656498,0,3,240599999,2259,16,0.66,42.7075233,-84.4779593,261.89,0.05100000277161598,151.92750549316406,0.05400000140070915,0.0,1
1682448582.11964512,40836141,0,3,240600199,2259,16,0.66,42.707523099999996,-84.4779595,261.93,0.02906888537108898,229.18492126464844,0.023000001907348633,0.0,1
1682448582.31963491,41036131,0,3,240600399,2259,16,0.66,42.707523099999996,-84.4779597,261.95,0.057974133640527725,284.9950866699219,-0.023000001907348633,0.0,1
1682448582.51971412,41236210,0,3,240600599,2259,16,0.66,42.707522999999995,-84.4779599,261.98,0.004999999888241291,126.8698959350586,-0.06400000303983688,0.0,1
1682448582.71976995,41436266,0,3,240600799,2259,16,0.66,42.7075229,-84.47796009999999,262.0,0.06661081314086914,324.162353515625,-0.07100000232458115,0.0,1
1682448582.91972589,41636222,0,3,240600999,2259,16,0.66,42.7075229,-84.47796029999999,262.04,0.03324154019355774,173.08876037597656,0.09100000560283661,0.0,1
1682448583.11961293,41836109,0,3,240601199,2259,16,0.66,42.7075228,-84.47796029999999,262.03000000000003,0.05445181578397751,44.25593948364258,0.07900000363588333,0.0,1
1682448583.31961799,42036114,0,3,240601399,2259,16,0.66,42.7075228,-84.47796029999999,262.02,0.010198039934039116,168.6900634765625,0.0820000022649765,0.0,1
1682448583.52023697,42236733,0,3,240601599,2259,16,0.66,42.7075227,-84.4779604,262.04,0.018384777009487152,315.0,0.10900000482797623,0.0,1
1682448583.72028995,42436786,0,3,240601799,2259,16,0.66,42.7075227,-84.4779605,262.02,0.0490306057035923,281.768310546875,0.049000002443790436,0.0,1
1682448583.92024112,42636737,0,3,240601999,2259,16,0.66,42.7075227,-84.4779606,262.01,0.03832753747701645,15.124007225036621,0.07700000703334808,0.0,1
1682448584.12033796,42836834,0,3,240602199,2259,16,0.66,42.7075227,-84.4779606,261.99,0.023086795583367348,107.65011596679688,0.13500000536441803,0.0,1
1682448584.32041311,43036909,0,3,240602399,2259,16,0.66,42.7075228,-84.4779605,261.99,0.039849720895290375,72.47442626953125,0.08500000089406967,0.0,1
1682448584.52031803,43236814,0,3,240602599,2259,16,0.66,42.7075227,-84.4779605,261.98,0.019924860447645187,197.52557373046875,0.08700000494718552,0.0,1
1682448584.72031808,43436814,0,3,240602799,2259,16,0.66,42.7075227,-84.4779607,261.98,0.037336308509111404,277.696044921875,0.07500000298023224,0.0,1
1682448584.92034006,43636836,0,3,240602999,2259,16,0.66,42.7075227,-84.47796079999999,261.98,0.008602325804531574,54.46232223510742,0.02800000086426735,0.0,1
1682448585.13990712,43856403,0,3,240603199,2259,16,0.66,42.7075227,-84.47796079999999,261.98,0.03298484534025192,104.0362319946289,0.09600000083446503,0.0,1
1682448585.32024503,44036741,0,3,240603399,2259,16,0.66,42.7075227,-84.4779607,261.97,0.050803545862436295,36.19320297241211,0.046000003814697266,0.0,1
1682448585.52030492,44236801,0,3,240603599,2259,16,0.66,42.7075227,-84.47796079999999,261.97,0.027802878990769386,217.69424438476562,0.03800000250339508,0.0,1
1682448585.72036004,44436856,0,3,240603799,2259,16,0.66,42.7075227,-84.4779609,261.97,0.01843908801674843,310.6012878417969,0.08700000494718552,0.0,1
1682448585.92032409,44636820,0,3,240603999,2259,16,0.66,42.7075227,-84.477961,261.97,0.023194829002022743,352.568603515625,0.06400000303983688,0.0,1
1682448586.13997006,44856466,0,3,240604199,2259,16,0.66,42.7075227,-84.477961,261.97,0.0292061660438776,141.95294189453125,0.14000000059604645,0.0,1
1682448586.31978798,45036284,0,3,240604399,2259,16,0.66,42.7075226,-84.4779611,261.95,0.013928388245403767,248.96249389648438,0.009000000543892384,0.0,1
1682448586.51973009,45236226,0,3,240604599,2259,16,0.66,42.7075226,-84.4779611,261.94,0.022135945037007332,108.4349365234375,0.11700000613927841,0.0,1
1682448586.71964598,45436142,0,3,240604799,2259,16,0.66,42.7075226,-84.4779611,261.92,0.029966648668050766,205.70997619628906,0.05900000408291817,0.0,1
1682448586.91963911,45636135,0,3,240604999,2259,16,0.66,42.7075227,-84.4779611,261.91,0.011704700998961926,19.983104705810547,0.11600000411272049,0.0,1
1682448587.11970711,45836203,0,3,240605199,2259,16,0.66,42.7075227,-84.4779612,261.89,0.009486833587288857,161.56504821777344,0.04000000283122063,0.0,1
1682448587.31979895,46036295,0,3,240605399,2259,16,0.66,42.7075227,-84.4779612,261.9,0.0058309524320065975,30.96375274658203,0.1080000028014183,0.0,1
1682448587.51965094,46236147,0,3,240605599,2259,16,0.66,42.7075227,-84.47796129999999,261.89,0.044181447476148605,174.80557250976562,0.08100000023841858,0.0,1
1682448587.71964502,46436141,0,3,240605799,2259,16,0.66,42.7075227,-84.47796129999999,261.88,0.0022360680159181356,116.5650405883789,0.08000000566244125,0.0,1
1682448587.93997097,46656467,0,3,240605999,2259,16,0.66,42.7075227,-84.47796129999999,261.87,0.013000000268220901,202.619873046875,0.006000000052154064,0.0,1
1682448588.11977911,46836275,0,3,240606199,2259,16,0.66,42.7075227,-84.4779614,261.87,0.020615529268980026,320.9061279296875,0.1380000114440918,0.0,1
1682448588.31972909,47036225,0,3,240606399,2259,15,0.66,42.7075228,-84.4779614,261.87,0.0470106415450573,88.78112030029297,0.06700000166893005,0.0,1
1682448588.51965904,47236155,0,3,240606599,2259,16,0.66,42.7075228,-84.4779614,261.85,0.009219544939696789,167.47119140625,0.0560000017285347,0.0,1
1682448588.71961093,47436107,0,3,240606799,2259,16,0.66,42.7075228,-84.4779614,261.84000000000003,0.009999999776482582,233.13009643554688,0.0560000017285347,0.0,1
1682448588.91970491,47636201,0,3,240606999,2259,16,0.66,42.7075228,-84.4779614,261.83,0.006708203814923763,153.43495178222656,0.06599999964237213,0.0,1
1682448589.11977696,47836273,0,3,240607199,2259,16,0.66,42.7075229,-84.4779614,261.82,0.004000000189989805,90.0,0.09100000560283661,0.0,1
1682448589.32033896,48036835,0,3,240607399,2259,16,0.66,42.707522999999995,-84.47796129999999,261.8,0.010440307669341564,163.30075073242188,0.0,0.0,1
1682448589.52032590,48236822,0,3,240607599,2259,16,0.66,42.707523099999996,-84.47796129999999,261.79,0.041868843138217926,319.843994140625,0.003000000026077032,0.0,1
1682448589.71971011,48436206,0,3,240607799,2259,16,0.66,42.7075232,-84.4779614,261.78000000000003,0.01708800718188286,200.55606079101562,0.09300000220537186,0.0,1
1682448589.91977811,48636274,0,3,240607999,2259,16,0.66,42.7075232,-84.47796129999999,261.77,0.02325940877199173,154.53663635253906,0.032999999821186066,0.0,1
1682448590.11973405,48836230,0,3,240608199,2259,16,0.66,42.7075232,-84.47796129999999,261.76,0.013892443850636482,329.7435607910156,0.023000001907348633,0.0,1
1682448590.31964993,49036146,0,3,240608399,2259,16,0.66,42.7075233,-84.47796129999999,261.75,0.031400639563798904,80.837646484375,0.0690000057220459,0.0,1
1682448590.51962709,49236123,0,3,240608599,2259,16,0.66,42.7075234,-84.47796129999999,261.75,0.012206556275486946,325.00799560546875,0.020000001415610313,0.0,1
1682448590.71970105,49436197,0,3,240608799,2259,16,0.66,42.7075234,-84.47796129999999,261.76,0.033941127359867096,135.0,0.039000000804662704,0.0,1
1682448590.91978908,49636285,0,3,240608999,2259,16,0.66,42.7075234,-84.47796129999999,261.76,0.005385165102779865,201.80142211914062,0.06400000303983688,0.0,1
1682448591.12034702,49836843,0,3,240609199,2259,16,0.66,42.7075234,-84.47796129999999,261.76,0.023021729663014412,182.48956298828125,0.052000001072883606,0.0,1
1682448591.32033110,50036827,0,3,240609399,2259,16,0.66,42.7075233,-84.4779614,261.77,0.055901702493429184,132.8252410888672,0.13900001347064972,0.0,1
1682448591.52015710,50236653,0,3,240609599,2259,16,0.66,42.7075233,-84.4779614,261.78000000000003,0.009055386297404766,186.34019470214844,0.039000000804662704,0.0,1
1682448591.72029710,50436793,0,3,240609799,2259,16,0.66,42.7075233,-84.47796149999999,261.8,0.014317820779979229,294.775146484375,0.018000001087784767,0.0,1
1682448591.92030811,50636804,0,3,240609999,2259,16,0.66,42.7075233,-84.47796149999999,261.8,0.03417601436376572,159.44393920898438,0.07300000637769699,0.0,1
1682448592.12030911,50836805,0,3,240610199,2259,16,0.66,42.7075233,-84.47796149999999,261.82,0.013000000268220901,22.619863510131836,0.12200000882148743,0.0,1
1682448592.32022905,51036725,0,3,240610399,2259,16,0.66,42.7075233,-84.4779616,261.84000000000003,0.021095024421811104,95.44032287597656,0.0560000017285347,0.0,1
1682448592.52020812,51236704,0,3,240610599,2259,16,0.66,42.7075233,-84.4779616,261.86,0.013416407629847527,26.56505012512207,0.036000002175569534,0.0,1
1682448592.72034097,51436837,0,3,240610799,2259,16,0.66,42.7075232,-84.4779617,261.89,0.00824621133506298,284.0362548828125,0.03700000047683716,0.0,1
1682448592.92034698,51636843,0,3,240610999,2259,16,0.66,42.7075232,-84.4779618,261.92,0.011313709430396557,315.0,0.029000001028180122,0.0,1
1682448593.12033010,51836826,0,3,240611199,2259,16,0.66,42.7075232,-84.4779619,261.95,0.016401220113039017,127.5685806274414,0.09700000286102295,0.0,1
1682448593.31971693,52036213,0,3,240611399,2259,16,0.66,42.707523099999996,-84.4779619,261.97,0.006708203814923763,63.4349479675293,0.0950000062584877,0.0,1
1682448593.51977301,52236269,0,3,240611599,2259,16,0.66,42.707523099999996,-84.47796199999999,262.0,0.023194829002022743,82.56858825683594,0.08700000494718552,0.0,1
1682448593.71973610,52436232,0,3,240611799,2259,16,0.66,42.707523099999996,-84.47796199999999,262.02,0.015811389312148094,325.3048400878906,0.06100000441074371,0.0,1
1682448593.91965795,52636154,0,3,240611999,2259,16,0.66,42.707523099999996,-84.4779621,262.04,0.012727922759950161,135.0,0.10400000214576721,0.0,1
1682448594.11964107,52836137,0,3,240612199,2259,16,0.66,42.707522999999995,-84.4779622,262.06,0.03162277862429619,145.30484008789062,0.13500000536441803,0.0,1
1682448594.31970692,53036203,0,3,240612399,2259,16,0.66,42.707522999999995,-84.4779622,262.05,0.011661904864013195,59.0362434387207,-0.0020000000949949026,0.0,1
1682448594.51978612,53236282,0,3,240612599,2259,16,0.66,42.707522999999995,-84.4779622,262.07,0.011180341243743896,206.56504821777344,0.03700000047683716,0.0,1
1682448594.72033691,53436833,0,3,240612799,2259,16,0.66,42.707522999999995,-84.4779623,262.1,0.00854400359094143,20.55604362487793,0.16200000047683716,0.0,1
1682448594.92033792,53636834,0,3,240612999,2259,16,0.66,42.707523099999996,-84.4779623,262.08,0.03500000014901161,0.0,0.03100000135600567,0.0,1
1682448595.14003110,53856527,0,3,240613199,2259,16,0.66,42.7075232,-84.4779623,262.11,0.028600702062249184,53.530765533447266,0.04100000113248825,0.0,1
1682448595.32032108,54036817,0,3,240613399,2259,16,0.66,42.7075232,-84.4779624,262.12,0.03023243509232998,124.2156982421875,0.09000000357627869,0.0,1
1682448595.51972604,54236222,0,3,240613599,2259,16,0.66,42.7075232,-84.4779624,262.12,0.005000000353902578,270.0,0.06400000303983688,0.0,1
1682448595.73987699,54456373,0,3,240613799,2259,15,0.66,42.7075233,-84.4779624,262.14,0.029068883508443832,63.4349479675293,0.07100000232458115,0.0,1
1682448595.91964197,54636138,0,3,240613999,2259,15,0.66,42.7075234,-84.4779624,262.14,0.0389101542532444,64.09349060058594,-0.01600000075995922,0.0,1
1682448596.11970592,54836202,0,3,240614199,2259,15,0.66,42.7075235,-84.4779624,262.14,0.00806225836277008,172.87496948242188,0.13500000536441803,0.0,1
1682448596.34003401,55056530,0,3,240614399,2259,15,0.66,42.707523599999995,-84.4779624,262.13,0.037215590476989746,6.170175075531006,0.07400000095367432,0.0,1
1682448596.51965308,55236149,0,3,240614599,2259,16,0.66,42.707523599999995,-84.47796249999999,262.15,0.0470106415450573,119.29135131835938,0.06800000369548798,0.0,1
1682448596.71964407,55436140,0,3,240614799,2259,16,0.66,42.707523599999995,-84.47796249999999,262.17,0.024596750736236572,116.5650405883789,0.027000000700354576,0.0,1
1682448596.92042494,55636921,0,3,240614999,2259,16,0.66,42.707523599999995,-84.4779626,262.18,0.01303840521723032,274.3987121582031,0.1300000101327896,0.0,1
1682448597.12033701,55836833,0,3,240615199,2259,16,0.66,42.707523599999995,-84.4779628,262.19,0.01835756003856659,330.6422424316406,0.029000001028180122,0.0,1
1682448597.32023096,56036727,0,3,240615399,2259,16,0.66,42.707523599999995,-84.4779629,262.22,0.028301944956183434,32.00537872314453,0.06700000166893005,0.0,1
1682448597.52032590,56236822,0,3,240615599,2259,16,0.66,42.707523699999996,-84.4779629,262.23,0.0427551195025444,79.2156982421875,0.07000000029802322,0.0,1
1682448597.72026801,56436764,0,3,240615799,2259,16,0.66,42.707523699999996,-84.477963,262.25,0.025495097041130066,11.309932708740234,0.05900000408291817,0.0,1
1682448597.92021608,56636712,0,3,240615999,2259,16,0.66,42.7075238,-84.4779631,262.27,0.013000000268220901,22.619863510131836,0.07400000095367432,0.0,1
1682448598.12026691,56836763,0,3,240616199,2259,16,0.66,42.7075238,-84.47796319999999,262.28000000000003,0.024041632190346718,106.92750549316406,0.11400000751018524,0.0,1
1682448598.32034111,57036837,0,3,240616399,2259,16,0.66,42.7075238,-84.4779633,262.28000000000003,0.05594640597701073,208.8556671142578,0.029000001028180122,0.0,1
1682448598.52030611,57236802,0,3,240616599,2259,16,0.66,42.7075238,-84.4779634,262.31,0.0269258264452219,31.328689575195312,0.11500000208616257,0.0,1
1682448598.72037792,57436874,0,3,240616799,2259,16,0.66,42.7075238,-84.4779635,262.32,0.03354102000594139,100.30484008789062,0.07000000029802322,0.0,1
1682448598.92034101,57636837,0,3,240616999,2259,16,0.66,42.7075238,-84.4779636,262.34000000000003,0.0430464893579483,177.3369903564453,0.15300001204013824,0.0,1
1682448599.11973906,57836235,0,3,240617199,2259,16,0.66,42.707523699999996,-84.47796369999999,262.35,0.03201562166213989,255.52972412109375,0.06000000238418579,0.0,1
1682448599.31964397,58036140,0,3,240617399,2259,16,0.66,42.707523699999996,-84.4779638,262.37,0.04024922475218773,63.4349479675293,0.0650000050663948,0.0,1
1682448599.51962090,58236117,0,3,240617599,2259,16,0.66,42.707523699999996,-84.47796389999999,262.39,0.04695742949843407,63.4349479675293,0.09200000762939453,0.0,1
1682448599.71971703,58436213,0,3,240617799,2259,16,0.66,42.7075238,-84.47796389999999,262.41,0.03640054911375046,69.07549285888672,0.08500000089406967,0.0,1
1682448599.94001603,58656512,0,3,240617999,2259,16,0.66,42.7075238,-84.477964,262.43,0.01708800718188286,20.55604362487793,0.04700000211596489,0.0,1
1682448600.11976099,58836257,0,3,240618199,2259,16,0.66,42.7075239,-84.4779641,262.44,0.017000000923871994,241.92752075195312,-0.020000001415610313,0.0,1
1682448600.31964111,59036137,0,3,240618399,2259,16,0.66,42.707524,-84.4779643,262.47,0.06389053165912628,309.92041015625,0.029000001028180122,0.0,1
1682448600.52018189,59236678,0,3,240618599,2259,16,0.66,42.7075241,-84.47796439999999,262.47,0.04792702943086624,66.6444320678711,0.06300000101327896,0.0,1
1682448600.72017002,59436666,0,3,240618799,2259,16,0.66,42.707524199999995,-84.4779643,262.47,0.057697489857673645,64.32318115234375,0.08700000494718552,0.0,1
1682448600.91973305,59636229,0,3,240618999,2259,16,0.66,42.707524199999995,-84.4779643,262.49,0.04130375385284424,96.95294952392578,0.12800000607967377,0.0,1
1682448601.11965799,59836154,0,3,240619199,2259,16,0.66,42.707524199999995,-84.47796439999999,262.49,0.04346263036131859,293.0254821777344,0.014000000432133675,0.0,1
1682448601.31961393,60036110,0,3,240619399,2259,16,0.66,42.707524299999996,-84.4779645,262.49,0.027730850502848625,154.35899353027344,0.014000000432133675,0.0,1
1682448601.51969910,60236195,0,3,240619599,2259,16,0.66,42.707524199999995,-84.47796459999999,262.52,0.02529822289943695,108.43494415283203,0.029000001028180122,0.0,1
1682448601.71977592,60436272,0,3,240619799,2259,16,0.66,42.707524199999995,-84.47796459999999,262.53000000000003,0.045967381447553635,135.88140869140625,0.05000000074505806,0.0,1
1682448601.91964412,60636140,0,3,240619999,2259,16,0.66,42.707524199999995,-84.4779647,262.55,0.055000003427267075,53.130104064941406,0.16200000047683716,0.0,1
1682448602.11963391,60836130,0,3,240620199,2259,16,0.66,42.707524199999995,-84.4779647,262.56,0.04726521298289299,173.9275360107422,0.09800000488758087,0.0,1
1682448602.31970596,61036202,0,3,240620399,2259,16,0.66,42.707524199999995,-84.4779648,262.57,0.011180341243743896,333.4349365234375,0.04700000211596489,0.0,1
1682448602.51978612,61236282,0,3,240620599,2259,16,0.66,42.707524299999996,-84.47796489999999,262.59000000000003,0.03569313883781433,101.30992126464844,0.046000003814697266,0.0,1
1682448602.71973205,61436228,0,3,240620799,2259,16,0.66,42.707524299999996,-84.4779648,262.6,0.04052159935235977,74.24882507324219,0.01600000075995922,0.0,1
1682448602.91964698,61636143,0,3,240620999,2259,16,0.66,42.7075244,-84.4779648,262.61,0.06268173456192017,56.05641174316406,0.04800000041723251,0.0,1
1682448603.11961603,61836112,0,3,240621199,2259,16,0.66,42.7075245,-84.4779648,262.62,0.015620499849319458,230.19442749023438,0.12800000607967377,0.0,1
1682448603.32009506,62036591,0,3,240621399,2259,16,0.66,42.7075245,-84.477965,262.62,0.08122191578149796,265.76361083984375,0.04400000348687172,0.0,1
1682448603.52018404,62236680,0,3,240621599,2259,16,0.66,42.7075245,-84.4779652,262.63,0.03569313883781433,191.3099365234375,0.01100000087171793,0.0,1
1682448603.71965194,62436148,0,3,240621799,2259,16,0.66,42.7075246,-84.4779653,262.65,0.06942622363567352,348.3663635253906,0.10600000619888306,0.0,1
1682448603.92010713,62636603,0,3,240621999,2259,16,0.66,42.7075247,-84.4779654,262.65,0.01004987582564354,354.2893981933594,0.05400000140070915,0.0,1
1682448604.12018394,62836680,0,3,240622199,2259,16,0.66,42.7075248,-84.4779654,262.67,0.0070710680447518826,188.13011169433594,-0.010000000707805157,0.0,1
1682448604.32020807,63036704,0,3,240622399,2259,16,0.66,42.7075248,-84.4779655,262.7,0.030413813889026642,152.5924072265625,0.09100000560283661,0.0,1
1682448604.52023411,63236730,0,3,240622599,2259,16,0.66,42.707524899999996,-84.4779655,262.69,0.023430749773979187,140.1944122314453,0.014000000432133675,0.0,1
1682448604.72018909,63436685,0,3,240622799,2259,16,0.66,42.707525,-84.4779655,262.71,0.03841874748468399,51.34019088745117,0.018000001087784767,0.0,1
1682448604.92007208,63636568,0,3,240622999,2259,16,0.66,42.7075251,-84.4779654,262.73,0.032388269901275635,81.11933898925781,0.06400000303983688,0.0,1
1682448605.13980889,63856305,0,3,240623199,2259,16,0.66,42.7075252,-84.4779654,262.74,0.027802878990769386,322.3057556152344,-0.032999999821186066,0.0,1
1682448605.32024097,64036737,0,3,240623399,2259,16,0.66,42.7075253,-84.47796559999999,262.76,0.08709191530942917,272.6324462890625,-0.02200000174343586,0.0,1
1682448605.52057195,64237068,0,3,240623599,2259,16,0.66,42.7075253,-84.47796579999999,262.8,0.03606937825679779,226.12330627441406,-0.027000000700354576,0.0,1
1682448605.72015810,64436654,0,3,240623799,2259,16,0.66,42.7075254,-84.47796579999999,262.83,0.06506919860839844,46.245361328125,0.00800000037997961,0.0,1
1682448605.93980598,64656302,0,3,240623999,2259,16,0.66,42.707525499999996,-84.4779659,262.86,0.0152970589697361,258.6900634765625,-0.018000001087784767,0.0,1
1682448606.12016702,64836663,0,3,240624199,2259,16,0.66,42.707525499999996,-84.4779659,262.88,0.055731501430273056,189.29331970214844,0.10500000417232513,0.0,1
1682448606.32022405,65036720,0,3,240624399,2259,16,0.66,42.707525499999996,-84.477966,262.89,0.017492856830358505,210.96376037597656,0.04400000348687172,0.0,1
1682448606.52019906,65236695,0,3,240624599,2259,16,0.66,42.707525499999996,-84.4779661,262.9,0.032893769443035126,340.4633483886719,-0.014000000432133675,0.0,1
1682448606.72005701,65436553,0,3,240624799,2259,16,0.66,42.707525499999996,-84.4779661,262.93,0.03500000014901161,216.86990356445312,0.04700000211596489,0.0,1
1682448606.92007399,65636570,0,3,240624999,2259,16,0.66,42.707525499999996,-84.4779662,262.94,0.03634556755423546,97.90715789794922,0.13900001347064972,0.0,1
1682448607.12015796,65836654,0,3,240625199,2259,16,0.66,42.707525499999996,-84.4779662,262.96,0.051478154957294464,187.81529235839844,0.07400000095367432,0.0,1
1682448607.32021809,66036714,0,3,240625399,2259,16,0.66,42.707525499999996,-84.4779662,262.99,0.007615773472934961,23.198589324951172,0.055000003427267075,0.0,1
1682448607.52008605,66236582,0,3,240625599,2259,16,0.66,42.707525499999996,-84.47796629999999,263.01,0.022090723738074303,5.194427967071533,-0.03200000151991844,0.0,1
1682448607.72064495,66437141,0,3,240625799,2259,16,0.66,42.707525499999996,-84.47796629999999,263.04,0.010816654190421104,326.3099365234375,0.11100000888109207,0.0,1
1682448607.91981101,66636307,0,3,240625999,2259,16,0.66,42.707525499999996,-84.47796629999999,263.06,0.023021729663014412,124.38033294677734,0.03400000184774399,0.0,1
1682448608.11976290,66836259,0,3,240626199,2259,16,0.66,42.707525499999996,-84.47796629999999,263.08,0.04833218827843666,65.55604553222656,0.04800000041723251,0.0,1
1682448608.31965113,67036147,0,3,240626399,2259,16,0.66,42.707525499999996,-84.47796629999999,263.09000000000003,0.048826225101947784,214.99203491210938,0.049000002443790436,0.0,1
1682448608.51962996,67236126,0,3,240626599,2259,16,0.66,42.707525499999996,-84.47796629999999,263.11,0.04841487482190132,51.70983123779297,0.1420000046491623,0.0,1
1682448608.71972299,67436219,0,3,240626799,2259,16,0.66,42.7075256,-84.47796629999999,263.12,0.037947334349155426,341.5650634765625,0.05700000375509262,0.0,1
1682448608.91979909,67636295,0,3,240626999,2259,16,0.66,42.7075256,-84.47796629999999,263.13,0.021931713446974754,133.1523895263672,0.06000000238418579,0.0,1
1682448609.11972594,67836222,0,3,240627199,2259,16,0.66,42.7075256,-84.47796629999999,263.13,0.02385372295975685,303.02386474609375,0.04700000211596489,0.0,1
1682448609.31965208,68036148,0,3,240627399,2259,16,0.66,42.7075256,-84.4779664,263.15,0.031048350036144257,14.931417465209961,0.08400000631809235,0.0,1
1682448609.51972103,68236217,0,3,240627599,2259,16,0.66,42.7075256,-84.4779664,263.17,0.019646884873509407,194.7435760498047,0.05700000375509262,0.0,1
1682448609.71980596,68436302,0,3,240627799,2259,16,0.66,42.7075256,-84.4779664,263.18,0.03413209691643715,211.82745361328125,0.04400000348687172,0.0,1
1682448609.92022705,68636723,0,3,240627999,2259,16,0.66,42.707525499999996,-84.4779665,263.17,0.013601470738649368,162.8972625732422,0.05900000408291817,0.0,1
1682448610.12024093,68836737,0,3,240628199,2259,16,0.66,42.707525499999996,-84.4779665,263.19,0.025961510837078094,15.642245292663574,0.04500000178813934,0.0,1
1682448610.31963491,69036131,0,3,240628399,2259,16,0.66,42.7075256,-84.4779665,263.2,0.003162277862429619,18.434947967529297,0.11800000816583633,0.0,1
1682448610.51970100,69236197,0,3,240628599,2259,16,0.66,42.707525499999996,-84.4779665,263.21,0.028600702062249184,143.53076171875,0.04400000348687172,0.0,1
1682448610.71975994,69436256,0,3,240628799,2259,16,0.66,42.707525499999996,-84.4779665,263.23,0.02500000037252903,163.7397918701172,0.018000001087784767,0.0,1
1682448610.91964698,69636143,0,3,240628999,2259,16,0.66,42.707525499999996,-84.4779665,263.23,0.0667308047413826,250.75048828125,0.09300000220537186,0.0,1
1682448611.11963797,69836134,0,3,240629199,2259,16,0.66,42.707525499999996,-84.4779666,263.23,0.015000000596046448,126.8698959350586,0.10000000149011612,0.0,1
1682448611.31971097,70036207,0,3,240629399,2259,16,0.66,42.707525499999996,-84.4779665,263.24,0.03101612627506256,88.15238189697266,0.06400000303983688,0.0,1
1682448611.51979899,70236295,0,3,240629599,2259,16,0.66,42.7075254,-84.4779665,263.25,0.037854988127946854,167.7995147705078,0.036000002175569534,0.0,1
1682448611.71972895,70436225,0,3,240629799,2259,16,0.66,42.7075254,-84.4779664,263.26,0.056320514529943466,106.50435638427734,0.1980000138282776,0.0,1
1682448611.92021608,70636712,0,3,240629999,2259,16,0.66,42.7075254,-84.47796629999999,263.27,0.04464302957057953,195.5928192138672,-0.0560000017285347,0.0,1
1682448612.11963010,70836126,0,3,240630199,2259,16,0.66,42.7075253,-84.47796629999999,263.3,0.019235385581851006,117.89725494384766,0.11700000613927841,0.0,1
1682448612.32009792,71036594,0,3,240630399,2259,16,0.66,42.7075253,-84.47796629999999,263.3,0.003162277862429619,288.4349365234375,0.005000000353902578,0.0,1
1682448612.52017403,71236670,0,3,240630599,2259,16,0.66,42.7075252,-84.4779664,263.32,0.07621679455041885,231.92723083496094,0.09300000220537186,0.0,1
1682448612.72024107,71436737,0,3,240630799,2259,16,0.66,42.7075252,-84.4779664,263.33,0.053150732070207596,94.31602478027344,-0.003000000026077032,0.0,1
1682448612.92016006,71636656,0,3,240630999,2259,16,0.66,42.7075252,-84.4779662,263.35,0.12202459573745728,77.21653747558594,0.11000000685453415,0.0,1
1682448613.12018704,71836683,0,3,240631199,2259,16,0.66,42.7075251,-84.4779661,263.35,0.060207974165678024,237.8937530517578,0.07100000232458115,0.0,1
1682448613.32065296,72037149,0,3,240631399,2259,16,0.66,42.7075251,-84.4779662,263.37,0.023600848391652107,233.61566162109375,0.039000000804662704,0.0,1
1682448613.52022409,72236720,0,3,240631599,2259,16,0.66,42.707525,-84.47796629999999,263.37,0.05948109179735184,243.00416564941406,-0.027000000700354576,0.0,1
1682448613.71966290,72436159,0,3,240631799,2259,16,0.66,42.707524899999996,-84.47796629999999,263.39,0.0470106415450573,91.21886444091797,0.03800000250339508,0.0,1
1682448613.91960406,72636100,0,3,240631999,2259,16,0.66,42.707524899999996,-84.4779662,263.39,0.06312686204910278,93.63294219970703,0.09000000357627869,0.0,1
1682448614.12007594,72836572,0,3,240632199,2259,16,0.66,42.7075248,-84.4779661,263.4,0.022360682487487793,259.6951599121094,0.1380000114440918,0.0,1
1682448614.32015300,73036649,0,3,240632399,2259,16,0.66,42.7075248,-84.4779661,263.41,0.02280350960791111,322.1250305175781,0.026000000536441803,0.0,1
1682448614.52021408,73236710,0,3,240632599,2259,16,0.66,42.707524899999996,-84.4779662,263.42,0.0774209275841713,324.4623107910156,0.1420000046491623,0.0,1
1682448614.72008204,73436578,0,3,240632799,2259,16,0.66,42.707524899999996,-84.4779662,263.42,0.03361547365784645,157.2490234375,-0.0010000000474974513,0.0,1
1682448614.92015290,73636649,0,3,240632999,2259,16,0.66,42.7075248,-84.47796629999999,263.46,0.0511077344417572,210.57923889160156,-0.036000002175569534,0.0,1
1682448615.13972712,73856223,0,3,240633199,2259,16,0.66,42.7075247,-84.47796629999999,263.49,0.019235385581851006,8.972625732421875,-0.10000000149011612,0.0,1
1682448615.32017994,74036676,0,3,240633399,2259,16,0.66,42.7075247,-84.47796629999999,263.51,0.05578530579805374,194.5344696044922,-0.03500000014901161,0.0,1
1682448615.52056098,74237057,0,3,240633599,2259,16,0.66,42.7075246,-84.4779662,263.53000000000003,0.03324154019355774,43.781124114990234,0.014000000432133675,0.0,1
1682448615.72008801,74436584,0,3,240633799,2259,16,0.66,42.7075246,-84.4779662,263.52,0.022203603759407997,324.162353515625,-0.06200000271201134,0.0,1
1682448615.92014503,74636641,0,3,240633999,2259,16,0.66,42.7075245,-84.4779662,263.54,0.08221922069787979,221.05482482910156,0.08500000089406967,0.0,1
1682448616.13965511,74856151,0,3,240634199,2259,16,0.66,42.7075245,-84.47796629999999,263.53000000000003,0.021954499185085297,30.068580627441406,0.12200000882148743,0.0,1
1682448616.31971693,75036213,0,3,240634399,2259,16,0.66,42.7075244,-84.4779662,263.53000000000003,0.033970579504966736,132.61404418945312,0.07800000160932541,0.0,1
1682448616.51963305,75236129,0,3,240634599,2259,16,0.66,42.707524299999996,-84.4779662,263.54,0.008485281839966774,225.0,-0.010000000707805157,0.0,1
1682448616.71971297,75436209,0,3,240634799,2259,16,0.66,42.707524299999996,-84.4779662,263.54,0.05780138820409775,322.7336120605469,0.06200000271201134,0.0,1
1682448616.91979194,75636288,0,3,240634999,2259,16,0.66,42.707524299999996,-84.4779662,263.53000000000003,0.04373785853385925,100.53917694091797,0.07700000703334808,0.0,1
1682448617.11974907,75836245,0,3,240635199,2259,16,0.66,42.707524199999995,-84.4779661,263.53000000000003,0.037589892745018005,118.6104507446289,0.058000002056360245,0.0,1
1682448617.31965208,76036148,0,3,240635399,2259,16,0.66,42.707524199999995,-84.477966,263.53000000000003,0.03047950379550457,311.00909423828125,0.04100000113248825,0.0,1
1682448617.51961899,76236115,0,3,240635599,2259,16,0.66,42.7075241,-84.477966,263.54,0.05661272257566452,144.3446807861328,0.03100000135600567,0.0,1
1682448617.71972704,76436223,0,3,240635799,2259,16,0.66,42.707524,-84.477966,263.54,0.039812058210372925,281.5921630859375,0.08500000089406967,0.0,1
1682448617.92024398,76636740,0,3,240635999,2259,16,0.66,42.707524,-84.477966,263.53000000000003,0.04763402044773102,129.03550720214844,0.10300000756978989,0.0,1
1682448618.12026811,76836764,0,3,240636199,2259,16,0.66,42.7075239,-84.4779659,263.52,0.011180341243743896,280.30487060546875,0.11400000751018524,0.0,1
1682448618.31963205,77036128,0,3,240636399,2259,16,0.66,42.7075239,-84.4779659,263.51,0.014035669155418873,94.08560943603516,0.11500000208616257,0.0,1
1682448618.51972699,77236223,0,3,240636599,2259,16,0.66,42.7075238,-84.47796579999999,263.51,0.03178049996495247,102.7243423461914,0.0950000062584877,0.0,1
1682448618.71979499,77436291,0,3,240636799,2259,16,0.66,42.707523699999996,-84.47796579999999,263.5,0.02800000086426735,270.0,0.010000000707805157,0.0,1
1682448618.91972303,77636219,0,3,240636999,2259,16,0.66,42.707523699999996,-84.47796579999999,263.5,0.03195309266448021,69.86369323730469,0.055000003427267075,0.0,1
1682448619.11967397,77836170,0,3,240637199,2259,16,0.66,42.707523699999996,-84.4779657,263.49,0.009055386297404766,96.34017944335938,0.07500000298023224,0.0,1
1682448619.31960297,78036099,0,3,240637399,2259,16,0.66,42.707523599999995,-84.4779657,263.48,0.0070710680447518826,278.1300964355469,0.03500000014901161,0.0,1
1682448619.51970792,78236204,0,3,240637599,2259,16,0.66,42.707523599999995,-84.4779657,263.47,0.025317978113889694,279.09027099609375,0.08700000494718552,0.0,1
1682448619.71981001,78436306,0,3,240637799,2259,16,0.66,42.7075235,-84.4779657,263.46,0.020223749801516533,98.53076171875,0.12200000882148743,0.0,1
1682448619.91965103,78636147,0,3,240637999,2259,16,0.66,42.7075235,-84.4779657,263.45,0.02475883811712265,43.36342239379883,-0.007000000216066837,0.0,1
1682448620.11963296,78836129,0,3,240638199,2259,16,0.66,42.7075235,-84.47796559999999,263.45,0.040311288088560104,336.6147766113281,0.02500000037252903,0.0,1
1682448620.32028508,79036781,0,3,240638399,2259,16,0.66,42.7075235,-84.47796559999999,263.45,0.00412310566753149,75.96375274658203,0.07500000298023224,0.0,1
1682448620.52019000,79236686,0,3,240638599,2259,16,0.66,42.7075235,-84.47796559999999,263.46,0.039812058210372925,78.40782165527344,0.0820000022649765,0.0,1
1682448620.71972609,79436222,0,3,240638799,2259,16,0.66,42.7075235,-84.4779655,263.45,0.019026298075914383,266.9872131347656,0.009000000543892384,0.0,1
1682448620.92021990,79636716,0,3,240638999,2259,16,0.66,42.7075235,-84.47796559999999,263.46,0.04254409670829773,293.5522766113281,0.06800000369548798,0.0,1
1682448621.12009192,79836588,0,3,240639199,2259,16,0.66,42.7075234,-84.47796559999999,263.46,0.01664331741631031,212.7352294921875,0.10000000149011612,0.0,1
1682448621.32014799,80036644,0,3,240639399,2259,16,0.66,42.7075234,-84.4779655,263.44,0.02280350960791111,52.1250114440918,0.03500000014901161,0.0,1
1682448621.52019310,80236689,0,3,240639599,2259,16,0.66,42.7075234,-84.4779655,263.44,0.039115212857723236,274.3987121582031,0.015000000596046448,0.0,1
1682448621.72028303,80436779,0,3,240639799,2259,16,0.66,42.7075234,-84.4779654,263.46,0.058523502200841904,123.1469955444336,0.03100000135600567,0.0,1
1682448621.92011809,80636614,0,3,240639999,2259,16,0.66,42.7075233,-84.4779653,263.46,0.03106445074081421,93.6913833618164,0.07400000095367432,0.0,1
1682448622.12029505,80836791,0,3,240640199,2259,16,0.66,42.7075233,-84.4779652,263.45,0.019723083823919296,300.4655456542969,-0.052000001072883606,0.0,1
1682448622.32018089,81036677,0,3,240640399,2259,16,0.66,42.7075233,-84.4779652,263.47,0.003162277862429619,341.5650634765625,0.08900000154972076,0.0,1
1682448622.52061510,81237111,0,3,240640599,2259,16,0.66,42.7075233,-84.47796509999999,263.47,0.04313931241631508,134.06080627441406,0.015000000596046448,0.0,1
1682448622.72021890,81436715,0,3,240640799,2259,16,0.66,42.7075232,-84.477965,263.47,0.03584690019488335,120.1413803100586,-0.007000000216066837,0.0,1
1682448622.91964102,81636137,0,3,240640999,2259,16,0.66,42.7075232,-84.47796489999999,263.47,0.013152946718037128,261.25384521484375,-0.003000000026077032,0.0,1
1682448623.12008691,81836583,0,3,240641199,2259,16,0.66,42.7075232,-84.47796489999999,263.48,0.02202271670103073,39.47245788574219,0.06700000166893005,0.0,1
1682448623.32013702,82036633,0,3,240641399,2259,16,0.66,42.707523099999996,-84.4779648,263.49,0.08183520287275314,128.5504608154297,0.039000000804662704,0.0,1
1682448623.52022791,82236724,0,3,240641599,2259,16,0.66,42.707522999999995,-84.47796459999999,263.49,0.04830114170908928,152.90443420410156,0.03500000014901161,0.0,1
1682448623.72008705,82436583,0,3,240641799,2259,16,0.66,42.707522999999995,-84.47796459999999,263.49,0.05323532968759537,331.9908142089844,0.030000001192092896,0.0,1
1682448623.92015195,82636648,0,3,240641999,2259,16,0.66,42.707522999999995,-84.47796459999999,263.49,0.030016662552952766,1.9091523885726929,0.046000003814697266,0.0,1
1682448624.12015104,82836647,0,3,240642199,2259,16,0.66,42.707522999999995,-84.47796459999999,263.51,0.032756682485342026,167.66090393066406,0.07000000029802322,0.0,1
1682448624.32019210,83036688,0,3,240642399,2259,16,0.66,42.7075229,-84.4779647,263.51,0.06453680992126465,257.47119140625,0.0950000062584877,0.0,1
1682448624.52014494,83236641,0,3,240642599,2259,16,0.66,42.7075229,-84.4779648,263.51,0.03671512007713318,299.3577575683594,0.09800000488758087,0.0,1
1682448624.72005606,83436552,0,3,240642799,2259,16,0.66,42.7075229,-84.4779648,263.51,0.03471311181783676,78.36636352539062,0.0690000057220459,0.0,1
1682448624.92007494,83636571,0,3,240642999,2259,16,0.66,42.7075228,-84.4779648,263.53000000000003,0.04800000041723251,180.0,0.06800000369548798,0.0,1
1682448625.13964009,83856136,0,3,240643199,2259,16,0.66,42.7075226,-84.4779647,263.54,0.04410215839743614,176.0994873046875,-0.020000001415610313,0.0,1
1682448625.32055092,84037047,0,3,240643399,2259,16,0.66,42.7075226,-84.4779647,263.57,0.015811389312148094,34.695152282714844,0.0,0.0,1
1682448625.52015996,84236656,0,3,240643599,2259,16,0.66,42.707522499999996,-84.4779647,263.59000000000003,0.011704700998961926,19.983104705810547,0.015000000596046448,0.0,1
1682448625.72018600,84436682,0,3,240643799,2259,16,0.66,42.707522499999996,-84.4779648,263.61,0.011661904864013195,210.96376037597656,0.004000000189989805,0.0,1
1682448625.91979194,84636288,0,3,240643999,2259,16,0.66,42.707522399999995,-84.4779648,263.62,0.014142136089503765,188.13011169433594,0.009000000543892384,0.0,1
1682448626.11974812,84836244,0,3,240644199,2259,16,0.66,42.707522399999995,-84.4779648,263.63,0.023021729663014412,2.4895524978637695,0.023000001907348633,0.0,1
1682448626.31965899,85036155,0,3,240644399,2259,16,0.66,42.707522399999995,-84.4779648,263.64,0.015000000596046448,126.8698959350586,0.012000000104308128,0.0,1
1682448626.53996301,85256459,0,3,240644599,2259,16,0.66,42.707522399999995,-84.4779648,263.66,0.041880782693624496,303.3106384277344,0.09700000286102295,0.0,1
1682448626.74008703,85456583,0,3,240644799,2259,16,0.66,42.707522399999995,-84.4779648,263.66,0.006324555724859238,18.434947967529297,0.014000000432133675,0.0,1
1682448626.91979909,85636295,0,3,240644999,2259,16,0.66,42.707522399999995,-84.4779648,263.66,0.003162277862429619,288.4349365234375,0.0,0.0,1
1682448627.11971593,85836212,0,3,240645199,2259,16,0.66,42.707522399999995,-84.4779648,263.67,0.023430749773979187,320.1944274902344,0.05400000140070915,0.0,1
1682448627.31963491,86036131,0,3,240645399,2259,16,0.66,42.707522499999996,-84.4779648,263.65,0.021095024421811104,121.42955780029297,0.11300000548362732,0.0,1
1682448627.51972294,86236219,0,3,240645599,2259,16,0.66,42.707522399999995,-84.4779648,263.66,0.009999999776482582,323.1300964355469,-0.02200000174343586,0.0,1
1682448627.71979809,86436294,0,3,240645799,2259,16,0.66,42.707522399999995,-84.4779648,263.67,0.027202941477298737,162.8972625732422,0.0690000057220459,0.0,1
1682448627.91974807,86636244,0,3,240645999,2259,16,0.66,42.707522399999995,-84.4779648,263.66,0.019723083823919296,120.46554565429688,0.06200000271201134,0.0,1
1682448628.11964011,86836136,0,3,240646199,2259,16,0.66,42.7075223,-84.4779648,263.67,0.06618912518024445,206.9521942138672,0.1210000067949295,0.0,1
1682448628.31961608,87036112,0,3,240646399,2259,16,0.66,42.7075223,-84.47796489999999,263.67,0.031240999698638916,230.19442749023438,0.052000001072883606,0.0,1
1682448628.54018402,87256680,0,3,240646599,2259,16,0.66,42.7075222,-84.47796489999999,263.68,0.022360682487487793,206.56504821777344,0.06800000369548798,0.0,1
1682448628.71978903,87436285,0,3,240646799,2259,16,0.66,42.7075223,-84.477965,263.69,0.03765634074807167,349.286865234375,0.004000000189989805,0.0,1
1682448628.91964507,87636141,0,3,240646999,2259,16,0.66,42.7075223,-84.477965,263.7,0.05531727150082588,139.39869689941406,0.049000002443790436,0.0,1
1682448629.13990211,87856398,0,3,240647199,2259,16,0.66,42.7075222,-84.477965,263.72,0.010440307669341564,286.6992492675781,0.023000001907348633,0.0,1
1682448629.31970906,88036205,0,3,240647399,2259,16,0.66,42.7075222,-84.477965,263.75,0.07564390450716019,335.8067932128906,0.0020000000949949026,0.0,1
1682448629.51978397,88236280,0,3,240647599,2259,16,0.66,42.7075222,-84.47796509999999,263.77,0.017000000923871994,208.072509765625,0.0430000014603138,0.0,1
1682448629.71972704,88436223,0,3,240647799,2259,16,0.66,42.7075222,-84.47796509999999,263.78000000000003,0.02340940199792385,19.983104705810547,0.023000001907348633,0.0,1
1682448629.93981004,88656306,0,3,240647999,2259,16,0.66,42.7075221,-84.47796509999999,263.79,0.019416488707065582,281.888671875,0.10000000149011612,0.0,1
1682448630.13989401,88856390,0,3,240648199,2259,16,0.66,42.7075221,-84.47796509999999,263.82,0.08845903724431992,95.83948516845703,0.03500000014901161,0.0,1
1682448630.32009006,89036586,0,3,240648399,2259,16,0.66,42.7075221,-84.477965,263.83,0.051009804010391235,358.876708984375,0.046000003814697266,0.0,1
1682448630.52025104,89236747,0,3,240648599,2259,16,0.66,42.7075221,-84.47796509999999,263.83,0.06453680992126465,282.52880859375,0.12700000405311584,0.0,1
1682448630.72025490,89436751,0,3,240648799,2259,16,0.66,42.7075221,-84.4779652,263.83,0.021023796871304512,205.34617614746094,0.06800000369548798,0.0,1
1682448630.92011094,89636607,0,3,240648999,2259,16,0.66,42.707522,-84.4779652,263.84000000000003,0.03342154994606972,141.07244873046875,0.08300000429153442,0.0,1
1682448631.12027407,89836770,0,3,240649199,2259,16,0.66,42.707521899999996,-84.4779652,263.88,0.061098288744688034,291.1048583984375,0.03100000135600567,0.0,1
1682448631.31977892,90036275,0,3,240649399,2259,16,0.66,42.7075217,-84.4779653,263.9,0.10089599341154099,166.23919677734375,0.0560000017285347,0.0,1
1682448631.52021503,90236711,0,3,240649599,2259,16,0.66,42.7075216,-84.4779653,263.93,0.02202271670103073,309.47247314453125,0.04800000041723251,0.0,1
1682448631.72021198,90436708,0,3,240649799,2259,16,0.66,42.7075215,-84.4779653,263.96,0.06296825408935547,159.55044555664062,-0.007000000216066837,0.0,1
1682448631.92008805,90636584,0,3,240649999,2259,16,0.66,42.707521299999996,-84.4779653,263.97,0.032388269901275635,81.11933898925781,0.023000001907348633,0.0,1
1682448632.12011409,90836610,0,3,240650199,2259,16,0.66,42.707521299999996,-84.4779652,263.99,0.02418677508831024,299.744873046875,0.0690000057220459,0.0,1
1682448632.32019091,91036687,0,3,240650399,2259,16,0.66,42.707521199999995,-84.4779653,263.99,0.02961418591439724,281.6893615722656,0.03500000014901161,0.0,1
1682448632.52024698,91236743,0,3,240650599,2259,16,0.66,42.707521199999995,-84.4779653,264.02,0.038288380950689316,319.23638916015625,0.12700000405311584,0.0,1
1682448632.72010612,91436602,0,3,240650799,2259,16,0.66,42.707521199999995,-84.4779653,264.02,0.00800000037997961,90.0,0.013000000268220901,0.0,1
1682448632.92017603,91636672,0,3,240650999,2259,16,0.66,42.7075211,-84.4779653,264.03000000000003,0.02640075795352459,127.30393981933594,0.07400000095367432,0.0,1
1682448633.12017798,91836674,0,3,240651199,2259,16,0.66,42.707521,-84.4779653,264.02,0.018681542947888374,344.47589111328125,0.04500000178813934,0.0,1
1682448633.32021213,92036708,0,3,240651399,2259,16,0.66,42.707521,-84.4779653,264.02,0.056435804814100266,277.1250305175781,0.1730000078678131,0.0,1
1682448633.52021313,92236709,0,3,240651599,2259,16,0.66,42.707521,-84.4779654,264.02,0.01969771645963192,156.03750610351562,0.01900000125169754,0.0,1
1682448633.72057009,92437066,0,3,240651799,2259,16,0.66,42.707521,-84.4779654,264.03000000000003,0.03471311181783676,78.36636352539062,0.07800000160932541,0.0,1
1682448633.92011309,92636609,0,3,240651999,2259,16,0.66,42.707521,-84.4779654,264.03000000000003,0.006000000052154064,180.0,0.030000001192092896,0.0,1
1682448634.12017703,92836673,0,3,240652199,2259,16,0.66,42.7075209,-84.47796559999999,264.01,0.09751410782337189,283.0386657714844,0.06300000101327896,0.0,1
1682448634.32024503,93036741,0,3,240652399,2259,16,0.66,42.7075209,-84.4779657,264.01,0.03178049996495247,65.85445404052734,0.10500000417232513,0.0,1
1682448634.51962209,93236118,0,3,240652599,2259,16,0.66,42.7075209,-84.4779657,264.01,0.04850773513317108,194.32273864746094,0.06400000303983688,0.0,1
1682448634.72015500,93436651,0,3,240652799,2259,16,0.66,42.7075208,-84.47796579999999,264.01,0.019209373742341995,231.34019470214844,0.014000000432133675,0.0,1
1682448634.92014408,93636640,0,3,240652999,2259,16,0.66,42.7075208,-84.47796579999999,264.02,0.0414004847407341,322.8533020019531,0.0860000029206276,0.0,1
1682448635.13965607,93856152,0,3,240653199,2259,16,0.66,42.707520699999996,-84.4779659,264.03000000000003,0.07038465887308121,157.4427490234375,-0.030000001192092896,0.0,1
1682448635.32015395,94036650,0,3,240653399,2259,16,0.66,42.707520699999996,-84.4779659,264.04,0.03640054911375046,15.945395469665527,-0.013000000268220901,0.0,1
1682448635.52004504,94236541,0,3,240653599,2259,16,0.66,42.707520699999996,-84.4779659,264.06,0.02692582458257675,111.80139923095703,-0.004000000189989805,0.0,1
1682448635.72005892,94436555,0,3,240653799,2259,16,0.66,42.707520599999995,-84.4779659,264.06,0.025455845519900322,225.0,0.049000002443790436,0.0,1
1682448635.92014909,94636645,0,3,240653999,2259,16,0.66,42.7075205,-84.4779659,264.07,0.056586217135190964,136.43209838867188,0.018000001087784767,0.0,1
1682448636.12020993,94836706,0,3,240654199,2259,16,0.66,42.7075204,-84.4779659,264.07,0.044654227793216705,124.04592895507812,-0.009000000543892384,0.0,1
1682448636.32008410,95036580,0,3,240654399,2259,16,0.66,42.7075204,-84.4779659,264.07,0.04215447977185249,112.30619812011719,0.02200000174343586,0.0,1
1682448636.52012897,95236625,0,3,240654599,2259,16,0.66,42.7075203,-84.4779659,264.07,0.029966648668050766,154.29002380371094,0.04700000211596489,0.0,1
1682448636.72016096,95436657,0,3,240654799,2259,16,0.66,42.7075203,-84.477966,264.06,0.03301514685153961,268.2642822265625,0.058000002056360245,0.0,1
1682448636.92019606,95636692,0,3,240654999,2259,16,0.66,42.7075203,-84.4779662,264.05,0.0817435085773468,345.1137390136719,0.05900000408291817,0.0,1
1682448637.12013412,95836630,0,3,240655199,2259,16,0.66,42.7075204,-84.47796629999999,264.05,0.045793015509843826,301.6075134277344,0.05100000277161598,0.0,1
1682448637.32004309,96036539,0,3,240655399,2259,16,0.66,42.7075203,-84.4779664,264.04,0.05517246201634407,133.53118896484375,0.03800000250339508,0.0,1
1682448637.52006793,96236564,0,3,240655599,2259,16,0.66,42.7075202,-84.4779665,264.03000000000003,0.07481309771537781,188.45504760742188,0.0690000057220459,0.0,1
1682448637.72014308,96436639,0,3,240655799,2259,16,0.66,42.707520099999996,-84.4779666,264.05,0.055901702493429184,222.82525634765625,-0.01100000087171793,0.0,1
1682448637.92055607,96637052,0,3,240655999,2259,16,0.66,42.707519999999995,-84.47796679999999,264.06,0.0490306057035923,281.768310546875,0.04000000283122063,0.0,1
1682448638.12014389,96836640,0,3,240656199,2259,16,0.66,42.707519999999995,-84.4779669,264.05,0.03132092207670212,196.69924926757812,0.09600000083446503,0.0,1
1682448638.32016802,97036664,0,3,240656399,2259,16,0.66,42.7075199,-84.47796699999999,264.06,0.046389658004045486,187.43141174316406,0.05000000074505806,0.0,1
1682448638.51978302,97236279,0,3,240656599,2259,16,0.66,42.7075198,-84.47796699999999,264.05,0.06369458884000778,112.13548278808594,0.04400000348687172,0.0,1
1682448638.71972394,97436220,0,3,240656799,2259,16,0.66,42.7075198,-84.4779671,264.04,0.059363290667533875,237.38076782226562,0.1120000034570694,0.0,1
1682448638.91966009,97636156,0,3,240656999,2259,16,0.66,42.7075197,-84.4779672,264.05,0.02942787855863571,99.78240203857422,0.013000000268220901,0.0,1
1682448639.11961889,97836115,0,3,240657199,2259,16,0.66,42.7075198,-84.4779673,264.07,0.10599057376384735,296.32330322265625,0.0650000050663948,0.0,1
1682448639.31971002,98036206,0,3,240657399,2259,16,0.66,42.7075198,-84.47796749999999,264.08,0.06911584734916687,183.3177947998047,-0.018000001087784767,0.0,1
1682448639.51980591,98236302,0,3,240657599,2259,16,0.66,42.7075198,-84.47796749999999,264.09000000000003,0.1130530908703804,15.388466835021973,0.029000001028180122,0.0,1
1682448639.71964002,98436136,0,3,240657799,2259,16,0.66,42.7075199,-84.4779676,264.11,0.0430464893579483,267.3370056152344,0.006000000052154064,0.0,1
1682448639.91963410,98636130,0,3,240657999,2259,16,0.66,42.7075199,-84.4779676,264.1,0.04455333948135376,170.96051025390625,0.005000000353902578,0.0,1
1682448640.11972213,98836218,0,3,240658199,2259,16,0.66,42.7075198,-84.4779677,264.1,0.07043436914682388,308.6598205566406,0.11300000548362732,0.0,1
1682448640.32017398,99036670,0,3,240658399,2259,16,0.66,42.7075199,-84.4779678,264.1,0.055317267775535583,77.47118377685547,0.06400000303983688,0.0,1
1682448640.52022696,99236723,0,3,240658599,2259,16,0.66,42.7075199,-84.4779679,264.11,0.03736308589577675,164.4758758544922,0.09100000560283661,0.0,1
1682448640.72023392,99436730,0,3,240658799,2259,16,0.66,42.7075198,-84.4779679,264.1,0.09786725789308548,172.3666534423828,0.058000002056360245,0.0,1
1682448640.92008710,99636583,0,3,240658999,2259,16,0.66,42.7075197,-84.47796799999999,264.1,0.0259422454982996,62.44718551635742,0.08000000566244125,0.0,1
1682448641.12012410,99836620,0,3,240659199,2259,16,0.66,42.7075198,-84.47796799999999,264.09000000000003,0.06688796728849411,31.551380157470703,0.0820000022649765,0.0,1
