timestamp,TimeUS,Lat,Lng,Alt,RelHomeAlt,RelOriginAlt
1682448566.88016891,25596665,42.7075136,-84.4779373,260.7799987792969,-1.9361859560012817,-1.9226704835891724
1682448566.98016691,25696663,42.7075136,-84.4779365,260.6000061035156,-2.0528876781463623,-1.893648386001587
1682448567.08027101,25796767,42.7075136,-84.4779365,260.6000061035156,-1.8619213104248047,-1.8673264980316162
1682448567.18024898,25896745,42.7075118,-84.4779379,260.2900085449219,-1.9361859560012817,-1.8495404720306396
1682448567.28022695,25996723,42.7075118,-84.4779379,260.2900085449219,-1.8725305795669556,-1.8351818323135376
1682448567.38010311,26096599,42.7075136,-84.4779365,260.30999755859375,-1.9467952251434326,-1.8230186700820923
1682448567.48007011,26196566,42.7075136,-84.4779365,260.30999755859375,-1.771742820739746,-1.8120777606964111
1682448567.58015704,26296653,42.7075144,-84.47793569999999,260.32000732421875,-1.8300936222076416,-1.8032712936401367
1682448567.68011212,26396608,42.7075144,-84.47793569999999,260.32000732421875,-2.0688014030456543,-1.7928600311279297
1682448567.78018212,26496678,42.7075136,-84.4779361,260.1600036621094,-1.81417977809906,-1.7808778285980225
1682448567.88017392,26596670,42.7075136,-84.4779361,260.1600036621094,-1.7346104383468628,-1.774213433265686
1682448567.98021102,26696707,42.707513399999996,-84.47793569999999,260.07000732421875,-1.9096629619598389,-1.7685203552246094
1682448568.08028507,26796781,42.707513399999996,-84.47793569999999,260.07000732421875,-1.81417977809906,-1.7585973739624023
1682448568.18020391,26896700,42.7075138,-84.477935,260.05999755859375,-2.0528876781463623,-1.7491340637207031
1682448568.28008199,26996578,42.7075138,-84.477935,260.05999755859375,-1.9467952251434326,-1.7400660514831543
1682448568.38005900,27096555,42.7075138,-84.4779346,260.0,-1.8088752031326294,-1.7361881732940674
1682448568.48016810,27196664,42.7075138,-84.4779346,260.0,-1.824789047241211,-1.7367151975631714
1682448568.58008909,27296585,42.7075138,-84.4779339,259.9700012207031,-1.8460074663162231,-1.7358299493789673
1682448568.68017292,27396669,42.7075138,-84.4779339,259.9700012207031,-2.005146026611328,-1.7330073118209839
1682448568.78046393,27496960,42.707513899999995,-84.47793329999999,259.91998291015625,-1.899053692817688,-1.72907555103302
1682448568.88039613,27596892,42.707513899999995,-84.47793329999999,259.91998291015625,-1.9361859560012817,-1.7289963960647583
1682448568.98042297,27696919,42.707513899999995,-84.477933,259.8800048828125,-1.9043582677841187,-1.7311233282089233
1682448569.08046412,27796960,42.707513899999995,-84.477933,259.8800048828125,-1.697478175163269,-1.734463095664978
1682448569.18010712,27896603,42.7075138,-84.4779329,259.80999755859375,-1.9574044942855835,-1.7384508848190308
1682448569.28005910,27996555,42.7075138,-84.4779329,259.80999755859375,-1.8725305795669556,-1.737453579902649
1682448569.38016009,28096656,42.7075138,-84.47793279999999,259.7799987792969,-1.665650486946106,-1.7366645336151123
1682448569.48007512,28196571,42.7075138,-84.47793279999999,259.7799987792969,-1.6815643310546875,-1.7372974157333374
1682448569.58015895,28296655,42.707513399999996,-84.477933,259.66998291015625,-1.824789047241211,-1.73305082321167
1682448569.68016410,28396660,42.707513399999996,-84.477933,259.66998291015625,-1.888444423675537,-1.7231316566467285
1682448569.78034806,28496844,42.707513299999995,-84.4779331,259.6199951171875,-1.9043582677841187,-1.7131456136703491
1682448569.88037300,28596869,42.707513299999995,-84.4779331,259.6199951171875,-1.9520999193191528,-1.7066287994384766
1682448569.98035598,28696852,42.7075131,-84.47793349999999,259.55999755859375,-1.6338226795196533,-1.7040396928787231
1682448570.08039808,28796894,42.7075131,-84.47793349999999,259.55999755859375,-1.7876566648483276,-1.7065538167953491
1682448570.18034792,28896844,42.707513,-84.4779339,259.4499816894531,-1.8194843530654907,-1.7036007642745972
1682448570.28038502,28996881,42.707513,-84.4779339,259.4499816894531,-1.7452197074890137,-1.6986585855484009
1682448570.38026190,29096758,42.7075129,-84.4779343,259.3699951171875,-1.739915132522583,-1.6945098638534546
1682448570.48033190,29196828,42.7075129,-84.4779343,259.3699951171875,-1.7664382457733154,-1.6894794702529907
1682448570.58030200,29296798,42.7075129,-84.47793449999999,259.29998779296875,-1.867226004600525,-1.6831084489822388
1682448570.68035507,29396851,42.7075129,-84.47793449999999,259.29998779296875,-1.7452197074890137,-1.6766688823699951
1682448570.78038502,29496881,42.7075129,-84.47793469999999,259.239990234375,-1.7558289766311646,-1.6733616590499878
1682448570.88063002,29597126,42.7075129,-84.47793469999999,259.239990234375,-1.7770473957061768,-1.6698740720748901
1682448570.98041391,29696910,42.707513,-84.4779348,259.17999267578125,-1.899053692817688,-1.6659919023513794
1682448571.08044291,29796939,42.707513,-84.4779348,259.17999267578125,-1.6338226795196533,-1.6622859239578247
1682448571.18048096,29896977,42.7075132,-84.4779351,259.1399841308594,-1.8194843530654907,-1.6624690294265747
1682448571.28008294,29996579,42.7075132,-84.4779351,259.1399841308594,-1.8088752031326294,-1.6594860553741455
1682448571.38016200,30096658,42.707513399999996,-84.4779353,259.1000061035156,-1.8619213104248047,-1.6572182178497314
1682448571.48015904,30196655,42.707513399999996,-84.4779353,259.1000061035156,-1.771742820739746,-1.656561255455017
1682448571.58021498,30296711,42.7075135,-84.4779355,259.05999755859375,-1.6338226795196533,-1.6584815979003906
1682448571.68024898,30396745,42.7075135,-84.4779355,259.05999755859375,-1.6815643310546875,-1.6603275537490845
1682448571.78014493,30496641,42.7075137,-84.4779356,259.0199890136719,-1.888444423675537,-1.658050298690796
1682448571.88009310,30596589,42.7075137,-84.4779356,259.0199890136719,-1.8460074663162231,-1.653181791305542
1682448571.98008704,30696583,42.707513899999995,-84.47793569999999,259.0099792480469,-1.6921734809875488,-1.6520458459854126
1682448572.08029294,30796789,42.707513899999995,-84.47793569999999,259.0099792480469,-1.6921734809875488,-1.6540035009384155
1682448572.18009496,30896591,42.707513899999995,-84.47793569999999,259.0099792480469,-1.7186965942382812,-1.6541279554367065
1682448572.28014994,30996646,42.707514599999996,-84.47793709999999,259.1999816894531,-1.6497365236282349,-1.652087926864624
1682448572.38017297,31096669,42.7075153,-84.4779384,259.3699951171875,-1.6921734809875488,-1.6491135358810425
1682448572.48020411,31196700,42.7075153,-84.4779384,259.3699951171875,-1.7080873250961304,-1.6441117525100708
1682448572.58022094,31296717,42.707516,-84.47793949999999,259.5199890136719,-1.665650486946106,-1.6384309530258179
1682448572.68014812,31396644,42.707516,-84.47793949999999,259.5199890136719,-1.5542534589767456,-1.6330442428588867
1682448572.78036594,31496862,42.7075166,-84.4779405,259.6499938964844,-1.6815643310546875,-1.6271213293075562
1682448572.88037610,31596872,42.7075166,-84.4779405,259.6499938964844,-1.9202721118927002,-1.6180751323699951
1682448572.98051310,31697009,42.7075172,-84.47794139999999,259.7699890136719,-1.6444319486618042,-1.6092499494552612
1682448573.08041501,31796911,42.7075172,-84.47794139999999,259.7699890136719,-1.5966904163360596,-1.6070573329925537
1682448573.18036795,31896864,42.7075178,-84.47794209999999,259.8899841308594,-1.6709550619125366,-1.6050108671188354
1682448573.28033304,31996829,42.7075178,-84.47794209999999,259.8899841308594,-1.8725305795669556,-1.6001076698303223
1682448573.38037896,32096875,42.7075183,-84.4779427,259.97998046875,-1.7240012884140015,-1.5948762893676758
1682448573.48042512,32196921,42.7075183,-84.4779427,259.97998046875,-1.739915132522583,-1.5944403409957886
1682448573.58014607,32296642,42.707518799999995,-84.4779435,260.0799865722656,-1.7346104383468628,-1.5953147411346436
1682448573.68008900,32396585,42.707518799999995,-84.4779435,260.0799865722656,-1.7293058633804321,-1.596643090248108
1682448573.78003597,32496532,42.7075193,-84.4779442,260.17999267578125,-1.5860811471939087,-1.5984337329864502
1682448573.88014698,32596643,42.7075193,-84.4779442,260.17999267578125,-1.6179088354110718,-1.600256323814392
1682448573.98006797,32696564,42.7075197,-84.47794499999999,260.2799987792969,-1.6709550619125366,-1.5989983081817627
1682448574.08018208,32796678,42.7075197,-84.47794499999999,260.2799987792969,-1.5913857221603394,-1.5955511331558228
1682448574.18015599,32896652,42.707520099999996,-84.47794569999999,260.3599853515625,-1.771742820739746,-1.5918458700180054
1682448574.28019691,32996693,42.707520099999996,-84.47794569999999,260.3599853515625,-1.6338226795196533,-1.5866944789886475
1682448574.38022804,33096724,42.7075204,-84.4779463,260.4599914550781,-1.7664382457733154,-1.5839511156082153
1682448574.48012710,33196623,42.7075204,-84.4779463,260.4599914550781,-1.7982659339904785,-1.5811399221420288
1682448574.58010507,33296601,42.7075208,-84.477947,260.5199890136719,-1.6815643310546875,-1.5803489685058594
1682448574.68003392,33396530,42.7075208,-84.477947,260.5199890136719,-1.7558289766311646,-1.582377552986145
1682448574.78015399,33496650,42.7075211,-84.4779476,260.5899963378906,-1.7080873250961304,-1.5841933488845825
1682448574.88007498,33596571,42.7075211,-84.4779476,260.5899963378906,-1.6762596368789673,-1.5867592096328735
1682448574.98014808,33696644,42.7075214,-84.4779482,260.6399841308594,-1.623213529586792,-1.589408040046692
1682448575.08024812,33796744,42.7075214,-84.4779482,260.6399841308594,-1.49590265750885,-1.591027855873108
1682448575.18018293,33896679,42.7075217,-84.4779488,260.6999816894531,-1.5330349206924438,-1.590807557106018
1682448575.28023505,33996731,42.7075217,-84.4779488,260.6999816894531,-1.665650486946106,-1.5865741968154907
1682448575.38037992,34096876,42.707522,-84.4779494,260.739990234375,-1.6709550619125366,-1.5796470642089844
1682448575.48038507,34196881,42.707522,-84.4779494,260.739990234375,-1.6444319486618042,-1.5738248825073242
1682448575.58035994,34296856,42.7075222,-84.4779499,260.7799987792969,-1.5436441898345947,-1.5695257186889648
1682448575.68015504,34396651,42.7075222,-84.4779499,260.7799987792969,-1.6285181045532227,-1.5659743547439575
1682448575.78006792,34496564,42.707522499999996,-84.47795029999999,260.80999755859375,-1.856616735458374,-1.561004638671875
1682448575.88017201,34596668,42.707522499999996,-84.47795029999999,260.80999755859375,-1.6921734809875488,-1.5562270879745483
1682448575.98015094,34696647,42.7075227,-84.4779507,260.8500061035156,-1.5595580339431763,-1.556336522102356
1682448576.08026505,34796761,42.7075227,-84.4779507,260.8500061035156,-1.5065118074417114,-1.5580443143844604
1682448576.18026209,34896758,42.7075229,-84.47795119999999,260.8999938964844,-1.5542534589767456,-1.5576400756835938
1682448576.28035903,34996855,42.7075229,-84.47795119999999,260.8999938964844,-1.7240012884140015,-1.5541255474090576
1682448576.38034606,35096842,42.707523099999996,-84.4779516,260.92999267578125,-1.6338226795196533,-1.549133062362671
1682448576.48028994,35196786,42.707523099999996,-84.4779516,260.92999267578125,-1.5224257707595825,-1.5464651584625244
1682448576.58038092,35296877,42.7075232,-84.477952,260.9599914550781,-1.5754718780517578,-1.5446428060531616
1682448576.68026805,35396764,42.7075232,-84.477952,260.9599914550781,-1.6444319486618042,-1.5410653352737427
1682448576.78033495,35496831,42.7075234,-84.47795239999999,261.0,-1.6019949913024902,-1.5367982387542725
1682448576.88052011,35597016,42.7075234,-84.47795239999999,261.0,-1.4852933883666992,-1.5334844589233398
1682448576.98037791,35696874,42.707523699999996,-84.4779528,261.0400085449219,-1.623213529586792,-1.5305445194244385
1682448577.08045506,35796951,42.707523699999996,-84.4779528,261.0400085449219,-1.7505242824554443,-1.5256675481796265
1682448577.18048096,35896977,42.7075239,-84.4779532,261.07000732421875,-1.564862608909607,-1.5213829278945923
1682448577.28037405,35996870,42.7075239,-84.4779532,261.07000732421875,-1.5701673030853271,-1.520410418510437
1682448577.38035297,36096849,42.7075241,-84.4779535,261.0899963378906,-1.655041217803955,-1.519234538078308
1682448577.48042297,36196919,42.7075241,-84.4779535,261.0899963378906,-1.4534657001495361,-1.5171782970428467
1682448577.58007407,36296570,42.707524199999995,-84.4779539,261.1199951171875,-1.4428564310073853,-1.5159693956375122
1682448577.68016195,36396658,42.707524199999995,-84.4779539,261.1199951171875,-1.3420686721801758,-1.5125852823257446
1682448577.78016710,36496663,42.7075244,-84.4779543,261.1600036621094,-1.739915132522583,-1.5063873529434204
1682448577.88022089,36596717,42.7075244,-84.4779543,261.1600036621094,-1.5277303457260132,-1.496694564819336
1682448577.98022199,36696718,42.7075246,-84.4779545,261.17999267578125,-1.6285181045532227,-1.4908206462860107
1682448578.08026004,36796756,42.7075246,-84.4779545,261.17999267578125,-1.4428564310073853,-1.486069917678833
1682448578.18009710,36896593,42.7075246,-84.47795479999999,261.25,-0.0028251931071281433,-0.0028251931071281433
1682448578.28004503,36996541,42.7075246,-84.47795479999999,261.25,0.0018226578831672668,0.0018226578831672668
1682448578.38016701,37096663,42.7075246,-84.4779551,261.2799987792969,0.007429070770740509,0.007429070770740509
1682448578.48007894,37196575,42.7075246,-84.4779551,261.2799987792969,0.014635391533374786,0.014635391533374786
1682448578.58014798,37296644,42.7075245,-84.4779554,261.3299865722656,0.020888037979602814,0.020888037979602814
1682448578.68016601,37396662,42.7075245,-84.4779554,261.3299865722656,0.026944585144519806,0.026944585144519806
1682448578.78019905,37496695,42.7075246,-84.4779556,261.3699951171875,0.0308651402592659,0.0308651402592659
1682448578.88022304,37596719,42.7075246,-84.4779556,261.3699951171875,0.03522724658250809,0.03522724658250809
1682448578.98014498,37696641,42.7075246,-84.4779559,261.3999938964844,0.04033274203538895,0.04033274203538895
1682448579.08013105,37796627,42.7075246,-84.4779559,261.3999938964844,0.045042939484119415,0.045042939484119415
1682448579.18005705,37896553,42.7075246,-84.4779562,261.4499816894531,0.05082983523607254,0.05082983523607254
1682448579.28017092,37996667,42.7075246,-84.4779562,261.4499816894531,0.05637938529253006,0.05637938529253006
1682448579.38033509,38096831,42.7075246,-84.4779566,261.5,0.0600099042057991,0.0600099042057991
1682448579.48035812,38196854,42.7075246,-84.4779566,261.5,0.06562656909227371,0.06562656909227371
1682448579.58032990,38296826,42.7075245,-84.4779568,261.5199890136719,0.07428700476884842,0.07428700476884842
1682448579.68040204,38396898,42.7075245,-84.4779568,261.5199890136719,0.08110279589891434,0.08110279589891434
1682448579.78041101,38496907,42.7075245,-84.4779571,261.57000732421875,0.0880168154835701,0.0880168154835701
1682448579.88040400,38596900,42.7075245,-84.4779571,261.57000732421875,0.09290523082017899,0.09290523082017899
1682448579.98041105,38696907,42.7075244,-84.4779573,261.6000061035156,0.09837169200181961,0.09837169200181961
1682448580.08014297,38796639,42.7075244,-84.4779573,261.6000061035156,0.10329324752092361,0.10329324752092361
1682448580.18016505,38896661,42.707524299999996,-84.4779575,261.6399841308594,0.10578054934740067,0.10578054934740067
1682448580.28007412,38996570,42.707524299999996,-84.4779575,261.6399841308594,0.11098427325487137,0.11098427325487137
1682448580.38018608,39096682,42.707524199999995,-84.47795769999999,261.66998291015625,0.11524076014757156,0.11524076014757156
1682448580.48015404,39196650,42.707524199999995,-84.47795769999999,261.66998291015625,0.11842507869005203,0.11842507869005203
1682448580.58020401,39296700,42.7075241,-84.477958,261.6999816894531,0.1187858060002327,0.1187858060002327
1682448580.68023896,39396735,42.7075241,-84.477958,261.6999816894531,0.11998195201158524,0.11998195201158524
1682448580.78013396,39496630,42.707524,-84.47795819999999,261.739990234375,0.12114102393388748,0.12114102393388748
1682448580.88007712,39596573,42.707524,-84.47795819999999,261.739990234375,0.12300152331590652,0.12300152331590652
1682448580.98004889,39696545,42.7075239,-84.4779585,261.7799987792969,0.1265917420387268,0.1265917420387268
1682448581.08019495,39796691,42.7075239,-84.4779585,261.7799987792969,0.12899988889694214,0.12899988889694214
1682448581.18009210,39896588,42.7075238,-84.4779587,261.82000732421875,0.1304420828819275,0.1304420828819275
1682448581.28016090,39996657,42.7075238,-84.4779587,261.82000732421875,0.13436514139175415,0.13436514139175415
1682448581.38022208,40096718,42.707523599999995,-84.47795889999999,261.8399963378906,0.13950151205062866,0.13950151205062866
1682448581.48022795,40196724,42.707523599999995,-84.47795889999999,261.8399963378906,0.1445208191871643,0.1445208191871643
1682448581.58024597,40296742,42.7075235,-84.477959,261.8599853515625,0.1486634612083435,0.1486634612083435
1682448581.68019795,40396694,42.7075235,-84.477959,261.8599853515625,0.1503252387046814,0.1503252387046814
1682448581.78009105,40496587,42.7075234,-84.4779592,261.8800048828125,0.15199941396713257,0.15199941396713257
1682448581.88004899,40596545,42.7075234,-84.4779592,261.8800048828125,0.15342265367507935,0.15342265367507935
1682448581.98016310,40696659,42.7075233,-84.4779593,261.8899841308594,0.15605276823043823,0.15605276823043823
1682448582.08043098,40796927,42.7075233,-84.4779593,261.8899841308594,0.16131657361984253,0.16131657361984253
1682448582.18039393,40896890,42.707523099999996,-84.4779595,261.92999267578125,0.16632884740829468,0.16632884740829468
1682448582.28033710,40996833,42.707523099999996,-84.4779595,261.92999267578125,0.17107993364334106,0.17107993364334106
1682448582.38022208,41096718,42.707523099999996,-84.4779597,261.9499816894531,0.17361336946487427,0.17361336946487427
1682448582.48022199,41196718,42.707523099999996,-84.4779597,261.9499816894531,0.175520122051239,0.175520122051239
1682448582.58040810,41296904,42.707522999999995,-84.4779599,261.97998046875,0.1784495711326599,0.1784495711326599
1682448582.68039203,41396888,42.707522999999995,-84.4779599,261.97998046875,0.1819341778755188,0.1819341778755188
1682448582.78040695,41496903,42.7075229,-84.47796009999999,262.0,0.18551844358444214,0.18551844358444214
1682448582.88042402,41596920,42.7075229,-84.47796009999999,262.0,0.1879609227180481,0.1879609227180481
1682448582.98036408,41696860,42.7075229,-84.47796029999999,262.0400085449219,0.18870800733566284,0.18870800733566284
1682448583.08050394,41797000,42.7075229,-84.47796029999999,262.0400085449219,0.1893344521522522,0.1893344521522522
1682448583.18033409,41896830,42.7075228,-84.47796029999999,262.0299987792969,0.18923264741897583,0.18923264741897583
1682448583.28039002,41996886,42.7075228,-84.47796029999999,262.0299987792969,0.19055718183517456,0.19055718183517456
1682448583.38038492,42096881,42.7075228,-84.47796029999999,262.0199890136719,0.19184988737106323,0.19184988737106323
1682448583.48047495,42196971,42.7075228,-84.47796029999999,262.0199890136719,0.19365638494491577,0.19365638494491577
1682448583.58037210,42296868,42.7075227,-84.4779604,262.0400085449219,0.19693118333816528,0.19693118333816528
1682448583.68035913,42396855,42.7075227,-84.4779604,262.0400085449219,0.20236414670944214,0.20236414670944214
1682448583.78040504,42496901,42.7075227,-84.4779605,262.0199890136719,0.21052366495132446,0.21052366495132446
1682448583.88027906,42596775,42.7075227,-84.4779605,262.0199890136719,0.2174198031425476,0.2174198031425476
1682448583.98036003,42696856,42.7075227,-84.4779606,262.0099792480469,0.22267073392868042,0.22267073392868042
1682448584.08041811,42796914,42.7075227,-84.4779606,262.0099792480469,0.22946089506149292,0.22946089506149292
1682448584.18024111,42896737,42.7075227,-84.4779606,261.989990234375,0.23640698194503784,0.23640698194503784
1682448584.28023410,42996730,42.7075227,-84.4779606,261.989990234375,0.24314814805984497,0.24314814805984497
1682448584.38015509,43096651,42.7075228,-84.4779605,261.989990234375,0.24936825037002563,0.24936825037002563
1682448584.48007798,43196574,42.7075228,-84.4779605,261.989990234375,0.25298410654067993,0.25298410654067993
1682448584.58003592,43296532,42.7075227,-84.4779605,261.97998046875,0.2558378577232361,0.2558378577232361
1682448584.68016005,43396656,42.7075227,-84.4779605,261.97998046875,0.25971704721450806,0.25971704721450806
1682448584.78007293,43496569,42.7075227,-84.4779607,261.97998046875,0.2639372944831848,0.2639372944831848
1682448584.88014102,43596637,42.7075227,-84.4779607,261.97998046875,0.26686614751815796,0.26686614751815796
1682448584.98014998,43696646,42.7075227,-84.47796079999999,261.97998046875,0.2693304419517517,0.2693304419517517
1682448585.08024907,43796745,42.7075227,-84.47796079999999,261.97998046875,0.27100425958633423,0.27100425958633423
1682448585.18023396,43896730,42.7075227,-84.47796079999999,261.97998046875,0.2719903588294983,0.2719903588294983
1682448585.28014803,43996644,42.7075227,-84.47796079999999,261.97998046875,0.27390486001968384,0.27390486001968384
1682448585.38009310,44096589,42.7075227,-84.4779607,261.9700012207031,0.27626579999923706,0.27626579999923706
1682448585.48006606,44196562,42.7075227,-84.4779607,261.9700012207031,0.2780163884162903,0.2780163884162903
1682448585.58016801,44296664,42.7075227,-84.47796079999999,261.9700012207031,0.2779250741004944,0.2779250741004944
1682448585.68007994,44396576,42.7075227,-84.47796079999999,261.9700012207031,0.27697640657424927,0.27697640657424927
1682448585.78014708,44496643,42.7075227,-84.4779609,261.9700012207031,0.27402812242507935,0.27402812242507935
1682448585.88016009,44596656,42.7075227,-84.4779609,261.9700012207031,0.272466242313385,0.272466242313385
1682448585.98038912,44696885,42.7075227,-84.477961,261.9700012207031,0.27290791273117065,0.27290791273117065
1682448586.08044791,44796944,42.7075227,-84.477961,261.9700012207031,0.2739754319190979,0.2739754319190979
1682448586.18040705,44896903,42.7075227,-84.477961,261.9700012207031,0.27385836839675903,0.27385836839675903
1682448586.28039598,44996892,42.7075227,-84.477961,261.9700012207031,0.2753896117210388,0.2753896117210388
1682448586.38005209,45096548,42.7075226,-84.4779611,261.9499816894531,0.2779669165611267,0.2779669165611267
1682448586.48014998,45196646,42.7075226,-84.4779611,261.9499816894531,0.2794148325920105,0.2794148325920105
1682448586.58007908,45296575,42.7075226,-84.4779611,261.94000244140625,0.2807791829109192,0.2807791829109192
1682448586.68017006,45396666,42.7075226,-84.4779611,261.94000244140625,0.2836987376213074,0.2836987376213074
1682448586.78015995,45496656,42.7075226,-84.4779611,261.91998291015625,0.2880740761756897,0.2880740761756897
1682448586.88021612,45596712,42.7075226,-84.4779611,261.91998291015625,0.2913326621055603,0.2913326621055603
1682448586.98023796,45696734,42.7075227,-84.4779611,261.9100036621094,0.2930527329444885,0.2930527329444885
1682448587.08026910,45796765,42.7075227,-84.4779611,261.9100036621094,0.29446738958358765,0.29446738958358765
1682448587.18009591,45896592,42.7075227,-84.4779612,261.8899841308594,0.2981366515159607,0.2981366515159607
1682448587.28005004,45996546,42.7075227,-84.4779612,261.8899841308594,0.30167466402053833,0.30167466402053833
1682448587.38016200,46096658,42.7075227,-84.4779612,261.8999938964844,0.30583590269088745,0.30583590269088745
1682448587.48008800,46196584,42.7075227,-84.4779612,261.8999938964844,0.3101796507835388,0.3101796507835388
1682448587.58016109,46296657,42.7075227,-84.47796129999999,261.8899841308594,0.31409579515457153,0.31409579515457153
1682448587.68024802,46396744,42.7075227,-84.47796129999999,261.8899841308594,0.31783682107925415,0.31783682107925415
1682448587.78021002,46496706,42.7075227,-84.47796129999999,261.8800048828125,0.3209161162376404,0.3209161162376404
1682448587.88022399,46596720,42.7075227,-84.47796129999999,261.8800048828125,0.3243204951286316,0.3243204951286316
1682448587.98013306,46696629,42.7075227,-84.47796129999999,261.8699951171875,0.3281159996986389,0.3281159996986389
1682448588.08021903,46796715,42.7075227,-84.47796129999999,261.8699951171875,0.3319017291069031,0.3319017291069031
1682448588.18036699,46896863,42.7075227,-84.4779614,261.8699951171875,0.3369339108467102,0.3369339108467102
1682448588.28043294,46996929,42.7075227,-84.4779614,261.8699951171875,0.341061532497406,0.341061532497406
1682448588.38037992,47096876,42.7075228,-84.4779614,261.8699951171875,0.34450680017471313,0.34450680017471313
1682448588.48036790,47196864,42.7075228,-84.4779614,261.8699951171875,0.3470146059989929,0.3470146059989929
1682448588.58016706,47296663,42.7075228,-84.4779614,261.8500061035156,0.3491901755332947,0.3491901755332947
1682448588.68023491,47396731,42.7075228,-84.4779614,261.8500061035156,0.35181862115859985,0.35181862115859985
1682448588.78022003,47496716,42.7075228,-84.4779614,261.8399963378906,0.3548327088356018,0.3548327088356018
1682448588.88012695,47596623,42.7075228,-84.4779614,261.8399963378906,0.35698336362838745,0.35698336362838745
1682448588.98009205,47696588,42.7075228,-84.4779614,261.8299865722656,0.3588929772377014,0.3588929772377014
1682448589.08012295,47796619,42.7075228,-84.4779614,261.8299865722656,0.36130958795547485,0.36130958795547485
1682448589.18016911,47896665,42.7075229,-84.4779614,261.82000732421875,0.36161404848098755,0.36161404848098755
1682448589.28007507,47996571,42.7075229,-84.4779614,261.82000732421875,0.36057835817337036,0.36057835817337036
1682448589.38014197,48096638,42.707522999999995,-84.47796129999999,261.79998779296875,0.3596481680870056,0.3596481680870056
1682448589.48014903,48196645,42.707522999999995,-84.47796129999999,261.79998779296875,0.36002594232559204,0.36002594232559204
1682448589.58020592,48296702,42.707523099999996,-84.47796129999999,261.7900085449219,0.3598718047142029,0.3598718047142029
1682448589.68042302,48396919,42.707523099999996,-84.47796129999999,261.7900085449219,0.36033910512924194,0.36033910512924194
1682448589.78047204,48496968,42.7075232,-84.4779614,261.7799987792969,0.36098891496658325,0.36098891496658325
1682448589.88037109,48596867,42.7075232,-84.4779614,261.7799987792969,0.3613801598548889,0.3613801598548889
1682448589.98035407,48696850,42.7075232,-84.47796129999999,261.7699890136719,0.3626473546028137,0.3626473546028137
1682448590.08027005,48796766,42.7075232,-84.47796129999999,261.7699890136719,0.36532872915267944,0.36532872915267944
1682448590.18008208,48896578,42.7075232,-84.47796129999999,261.7599792480469,0.36750227212905884,0.36750227212905884
1682448590.28016090,48996657,42.7075232,-84.47796129999999,261.7599792480469,0.3694537281990051,0.3694537281990051
1682448590.38016701,49096663,42.7075233,-84.47796129999999,261.75,0.3718530535697937,0.3718530535697937
1682448590.48021793,49196714,42.7075233,-84.47796129999999,261.75,0.37399739027023315,0.37399739027023315
1682448590.58026600,49296762,42.7075234,-84.47796129999999,261.75,0.3767088055610657,0.3767088055610657
1682448590.68036604,49396862,42.7075234,-84.47796129999999,261.75,0.3788284659385681,0.3788284659385681
1682448590.78036594,49496862,42.7075234,-84.47796129999999,261.7599792480469,0.3795472979545593,0.3795472979545593
1682448590.88036108,49596857,42.7075234,-84.47796129999999,261.7599792480469,0.37920624017715454,0.37920624017715454
1682448590.98039603,49696892,42.7075234,-84.47796129999999,261.7599792480469,0.3786703944206238,0.3786703944206238
1682448591.08038211,49796878,42.7075234,-84.47796129999999,261.7599792480469,0.38083070516586304,0.38083070516586304
1682448591.18035793,49896854,42.7075234,-84.47796129999999,261.7599792480469,0.385725200176239,0.385725200176239
1682448591.28029299,49996789,42.7075234,-84.47796129999999,261.7599792480469,0.38976603746414185,0.38976603746414185
1682448591.38035202,50096848,42.7075233,-84.4779614,261.7699890136719,0.3917497992515564,0.3917497992515564
1682448591.48054004,50197036,42.7075233,-84.4779614,261.7699890136719,0.39090460538864136,0.39090460538864136
1682448591.58038092,50296877,42.7075233,-84.4779614,261.7799987792969,0.389537513256073,0.389537513256073
1682448591.68039513,50396891,42.7075233,-84.4779614,261.7799987792969,0.3899833559989929,0.3899833559989929
1682448591.78036308,50496859,42.7075233,-84.47796149999999,261.79998779296875,0.39185529947280884,0.39185529947280884
1682448591.88016796,50596664,42.7075233,-84.47796149999999,261.79998779296875,0.3949093222618103,0.3949093222618103
1682448591.98007512,50696571,42.7075233,-84.47796149999999,261.79998779296875,0.39779895544052124,0.39779895544052124
1682448592.08020210,50796698,42.7075233,-84.47796149999999,261.79998779296875,0.399902880191803,0.399902880191803
1682448592.18017697,50896673,42.7075233,-84.47796149999999,261.82000732421875,0.40085190534591675,0.40085190534591675
1682448592.28022003,50996716,42.7075233,-84.47796149999999,261.82000732421875,0.40163928270339966,0.40163928270339966
1682448592.38024807,51096744,42.7075233,-84.4779616,261.8399963378906,0.404877245426178,0.404877245426178
1682448592.48016310,51196659,42.7075233,-84.4779616,261.8399963378906,0.40879493951797485,0.40879493951797485
1682448592.58009100,51296587,42.7075233,-84.4779616,261.8599853515625,0.41224902868270874,0.41224902868270874
1682448592.68006802,51396564,42.7075233,-84.4779616,261.8599853515625,0.4163045287132263,0.4163045287132263
1682448592.78016305,51496659,42.7075232,-84.4779617,261.8899841308594,0.42114418745040894,0.42114418745040894
1682448592.88006806,51596564,42.7075232,-84.4779617,261.8899841308594,0.42563122510910034,0.42563122510910034
1682448592.98015499,51696651,42.7075232,-84.4779618,261.91998291015625,0.4298509955406189,0.4298509955406189
1682448593.08020306,51796699,42.7075232,-84.4779618,261.91998291015625,0.43431228399276733,0.43431228399276733
1682448593.18022990,51896726,42.7075232,-84.4779619,261.9499816894531,0.4376989006996155,0.4376989006996155
1682448593.28041506,51996911,42.7075232,-84.4779619,261.9499816894531,0.4408831000328064,0.4408831000328064
1682448593.38038802,52096884,42.707523099999996,-84.4779619,261.9700012207031,0.4437561631202698,0.4437561631202698
1682448593.48040390,52196900,42.707523099999996,-84.4779619,261.9700012207031,0.4437001347541809,0.4437001347541809
1682448593.58041310,52296909,42.707523099999996,-84.47796199999999,262.0,0.4422234892845154,0.4422234892845154
1682448593.68017697,52396673,42.707523099999996,-84.47796199999999,262.0,0.43939656019210815,0.43939656019210815
1682448593.78008795,52496584,42.707523099999996,-84.47796199999999,262.0199890136719,0.43588799238204956,0.43588799238204956
1682448593.88017201,52596668,42.707523099999996,-84.47796199999999,262.0199890136719,0.43083757162094116,0.43083757162094116
1682448593.98023391,52696730,42.707523099999996,-84.4779621,262.0400085449219,0.42763322591781616,0.42763322591781616
1682448594.08027697,52796773,42.707523099999996,-84.4779621,262.0400085449219,0.4259656071662903,0.4259656071662903
1682448594.18024802,52896744,42.707522999999995,-84.4779622,262.05999755859375,0.42355459928512573,0.42355459928512573
1682448594.28020096,52996697,42.707522999999995,-84.4779622,262.05999755859375,0.4218737483024597,0.4218737483024597
1682448594.38009310,53096589,42.707522999999995,-84.4779622,262.04998779296875,0.42071300745010376,0.42071300745010376
1682448594.48012090,53196617,42.707522999999995,-84.4779622,262.04998779296875,0.4199191927909851,0.4199191927909851
1682448594.58016610,53296662,42.707522999999995,-84.4779622,262.07000732421875,0.41981106996536255,0.41981106996536255
1682448594.68010998,53396606,42.707522999999995,-84.4779622,262.07000732421875,0.41915053129196167,0.41915053129196167
1682448594.78015399,53496650,42.707522999999995,-84.4779623,262.1000061035156,0.41914504766464233,0.41914504766464233
1682448594.88015509,53596651,42.707522999999995,-84.4779623,262.1000061035156,0.4199935793876648,0.4199935793876648
1682448594.98021913,53696715,42.707523099999996,-84.4779623,262.0799865722656,0.4203910231590271,0.4203910231590271
1682448595.08026910,53796765,42.707523099999996,-84.4779623,262.0799865722656,0.421531617641449,0.421531617641449
1682448595.18019605,53896692,42.7075232,-84.4779623,262.1099853515625,0.422545850276947,0.422545850276947
1682448595.28009391,53996590,42.7075232,-84.4779623,262.1099853515625,0.4242998957633972,0.4242998957633972
1682448595.38007092,54096567,42.7075232,-84.4779624,262.1199951171875,0.42837244272232056,0.42837244272232056
1682448595.48041892,54196915,42.7075232,-84.4779624,262.1199951171875,0.43136316537857056,0.43136316537857056
1682448595.58037901,54296875,42.7075232,-84.4779624,262.1199951171875,0.43403178453445435,0.43403178453445435
1682448595.68037105,54396867,42.7075232,-84.4779624,262.1199951171875,0.4360014796257019,0.4360014796257019
1682448595.78016496,54496661,42.7075233,-84.4779624,262.1399841308594,0.4370877146720886,0.4370877146720886
1682448595.88021111,54596707,42.7075233,-84.4779624,262.1399841308594,0.43838196992874146,0.43838196992874146
1682448595.98022604,54696722,42.7075234,-84.4779624,262.1399841308594,0.4378504157066345,0.4378504157066345
1682448596.08033705,54796833,42.7075234,-84.4779624,262.1399841308594,0.43774741888046265,0.43774741888046265
1682448596.18009996,54896596,42.7075235,-84.4779624,262.1399841308594,0.43791764974594116,0.43791764974594116
1682448596.28006911,54996565,42.7075235,-84.4779624,262.1399841308594,0.4387473464012146,0.4387473464012146
1682448596.38016701,55096663,42.707523599999995,-84.4779624,262.1300048828125,0.439988911151886,0.439988911151886
1682448596.48007298,55196569,42.707523599999995,-84.4779624,262.1300048828125,0.4399486184120178,0.4399486184120178
1682448596.58014894,55296645,42.707523599999995,-84.47796249999999,262.1499938964844,0.4375787377357483,0.4375787377357483
1682448596.68016696,55396663,42.707523599999995,-84.47796249999999,262.1499938964844,0.43505150079727173,0.43505150079727173
1682448596.78018999,55496686,42.707523599999995,-84.47796249999999,262.16998291015625,0.43321388959884644,0.43321388959884644
1682448596.88036108,55596857,42.707523599999995,-84.47796249999999,262.16998291015625,0.4340950846672058,0.4340950846672058
1682448596.98034906,55696845,42.707523599999995,-84.4779626,262.17999267578125,0.43552571535110474,0.43552571535110474
1682448597.08040190,55796898,42.707523599999995,-84.4779626,262.17999267578125,0.43700140714645386,0.43700140714645386
1682448597.18036008,55896856,42.707523599999995,-84.4779628,262.19000244140625,0.4366307854652405,0.4366307854652405
1682448597.28041196,55996908,42.707523599999995,-84.4779628,262.19000244140625,0.43817800283432007,0.43817800283432007
1682448597.38033605,56096832,42.707523599999995,-84.4779629,262.2200012207031,0.44097620248794556,0.44097620248794556
1682448597.48038507,56196881,42.707523599999995,-84.4779629,262.2200012207031,0.44688230752944946,0.44688230752944946
1682448597.58017802,56296674,42.707523699999996,-84.4779629,262.22998046875,0.45376116037368774,0.45376116037368774
1682448597.68022490,56396721,42.707523699999996,-84.4779629,262.22998046875,0.45907121896743774,0.45907121896743774
1682448597.78024912,56496745,42.707523699999996,-84.477963,262.25,0.4646304249763489,0.4646304249763489
1682448597.88016796,56596664,42.707523699999996,-84.477963,262.25,0.4710666537284851,0.4710666537284851
1682448597.98010802,56696604,42.7075238,-84.4779631,262.2699890136719,0.4762243628501892,0.4762243628501892
1682448598.08014202,56796638,42.7075238,-84.4779631,262.2699890136719,0.48200416564941406,0.48200416564941406
1682448598.18017912,56896675,42.7075238,-84.47796319999999,262.2799987792969,0.4897043704986572,0.4897043704986572
1682448598.28008103,56996577,42.7075238,-84.47796319999999,262.2799987792969,0.49724268913269043,0.49724268913269043
1682448598.38016009,57096656,42.7075238,-84.4779633,262.2799987792969,0.5040570497512817,0.5040570497512817
1682448598.48015308,57196649,42.7075238,-84.4779633,262.2799987792969,0.5083841681480408,0.5083841681480408
1682448598.58018589,57296682,42.7075238,-84.4779634,262.30999755859375,0.5099197030067444,0.5099197030067444
1682448598.68022990,57396726,42.7075238,-84.4779634,262.30999755859375,0.512427568435669,0.512427568435669
1682448598.78015089,57496647,42.7075238,-84.4779635,262.32000732421875,0.5135665535926819,0.5135665535926819
1682448598.88027406,57596770,42.7075238,-84.4779635,262.32000732421875,0.5141246318817139,0.5141246318817139
1682448598.98006892,57696565,42.7075238,-84.4779636,262.3399963378906,0.5162490010261536,0.5162490010261536
1682448599.08051109,57797007,42.7075238,-84.4779636,262.3399963378906,0.5165640115737915,0.5165640115737915
1682448599.18040490,57896901,42.707523699999996,-84.47796369999999,262.3500061035156,0.5160751342773438,0.5160751342773438
1682448599.28036189,57996858,42.707523699999996,-84.47796369999999,262.3500061035156,0.5168405175209045,0.5168405175209045
1682448599.38033605,58096832,42.707523699999996,-84.4779638,262.3699951171875,0.5190900564193726,0.5190900564193726
1682448599.48022389,58196720,42.707523699999996,-84.4779638,262.3699951171875,0.5226700901985168,0.5226700901985168
1682448599.58024311,58296739,42.707523699999996,-84.47796389999999,262.3899841308594,0.527835488319397,0.527835488319397
1682448599.68022299,58396719,42.707523699999996,-84.47796389999999,262.3899841308594,0.5330842733383179,0.5330842733383179
1682448599.78009391,58496590,42.7075238,-84.47796389999999,262.4100036621094,0.5364827513694763,0.5364827513694763
1682448599.88006592,58596562,42.7075238,-84.47796389999999,262.4100036621094,0.5407530069351196,0.5407530069351196
1682448599.98016500,58696661,42.7075238,-84.477964,262.42999267578125,0.5462161898612976,0.5462161898612976
1682448600.08015704,58796653,42.7075238,-84.477964,262.42999267578125,0.5511431097984314,0.5511431097984314
1682448600.18017006,58896666,42.7075239,-84.4779641,262.44000244140625,0.5531516075134277,0.5531516075134277
1682448600.28022695,58996723,42.7075239,-84.4779641,262.44000244140625,0.555246114730835,0.555246114730835
1682448600.38022304,59096719,42.7075238,-84.47796559999999,261.79998779296875,0.5591738224029541,0.5591738224029541
1682448600.48024893,59196745,42.707523699999996,-84.4779657,261.80999755859375,0.5635098218917847,0.5635098218917847
1682448600.58019805,59296694,42.707523699999996,-84.4779657,261.80999755859375,0.5622361898422241,0.5622361898422241
1682448600.68010712,59396603,42.707523599999995,-84.4779657,261.79998779296875,0.5578824281692505,0.5578824281692505
1682448600.78005695,59496553,42.707523599999995,-84.4779657,261.7900085449219,0.5488094091415405,0.5488094091415405
1682448600.88042808,59596924,42.707523599999995,-84.47796559999999,261.7900085449219,0.5405600070953369,0.5405600070953369
1682448600.98038411,59696880,42.707523699999996,-84.47796559999999,261.7799987792969,0.5313893556594849,0.5313893556594849
1682448601.08050895,59797005,42.707523699999996,-84.4779655,261.7699890136719,0.5222084522247314,0.5222084522247314
1682448601.18040109,59896897,42.707523699999996,-84.4779655,261.7599792480469,0.5143662691116333,0.5143662691116333
1682448601.28022408,59996720,42.707523699999996,-84.4779655,261.75,0.5088539719581604,0.5088539719581604
1682448601.38042903,60096925,42.7075238,-84.4779655,261.75,0.5023583769798279,0.5023583769798279
1682448601.48044896,60196945,42.7075238,-84.4779655,261.739990234375,0.49689942598342896,0.49689942598342896
1682448601.58041000,60296906,42.7075238,-84.4779655,261.739990234375,0.49398118257522583,0.49398118257522583
1682448601.68037701,60396873,42.7075239,-84.4779655,261.739990234375,0.4915921092033386,0.4915921092033386
1682448601.78044391,60496940,42.7075239,-84.47796559999999,261.72998046875,0.4877053499221802,0.4877053499221802
1682448601.88041210,60596908,42.7075239,-84.47796559999999,261.72998046875,0.4855425953865051,0.4855425953865051
1682448601.98038912,60696885,42.7075239,-84.47796559999999,261.72998046875,0.4804011583328247,0.4804011583328247
1682448602.08044910,60796945,42.7075239,-84.4779657,261.7200012207031,0.47724395990371704,0.47724395990371704
1682448602.18043900,60896935,42.707524,-84.47796579999999,261.7200012207031,0.4730512499809265,0.4730512499809265
1682448602.28044510,60996941,42.707524,-84.47796579999999,261.7200012207031,0.4709954857826233,0.4709954857826233
1682448602.38049603,61096992,42.707524,-84.47796579999999,261.7099914550781,0.46938735246658325,0.46938735246658325
1682448602.48039103,61196887,42.707524,-84.47796579999999,261.7099914550781,0.46798521280288696,0.46798521280288696
1682448602.58036995,61296866,42.707524,-84.47796579999999,261.7099914550781,0.46509629487991333,0.46509629487991333
1682448602.68043303,61396929,42.707524,-84.4779659,261.7099914550781,0.46117037534713745,0.46117037534713745
1682448602.78040910,61496905,42.7075241,-84.4779659,261.6999816894531,0.45917779207229614,0.45917779207229614
1682448602.88037801,61596874,42.7075241,-84.4779659,261.6999816894531,0.4582814574241638,0.4582814574241638
1682448602.98047805,61696974,42.7075241,-84.477966,261.6999816894531,0.4588049054145813,0.4588049054145813
1682448603.08044696,61796943,42.7075241,-84.477966,261.6999816894531,0.45991140604019165,0.45991140604019165
1682448603.18044090,61896937,42.7075241,-84.477966,261.6999816894531,0.4585574269294739,0.4585574269294739
1682448603.28042006,61996916,42.707524199999995,-84.477966,261.6999816894531,0.45684486627578735,0.45684486627578735
1682448603.38040709,62096903,42.707524199999995,-84.4779661,261.6999816894531,0.45536965131759644,0.45536965131759644
1682448603.48039794,62196894,42.707524199999995,-84.4779661,261.6999816894531,0.4541040062904358,0.4541040062904358
1682448603.58043098,62296927,42.707524199999995,-84.4779662,261.6999816894531,0.454298198223114,0.454298198223114
1682448603.68061900,62397115,42.707524199999995,-84.47796629999999,261.6999816894531,0.45565706491470337,0.45565706491470337
1682448603.78038597,62496882,42.707524299999996,-84.47796629999999,261.6999816894531,0.4539242386817932,0.4539242386817932
1682448603.88033795,62596834,42.707524299999996,-84.4779664,261.6999816894531,0.45120948553085327,0.45120948553085327
1682448603.98041391,62696910,42.707524299999996,-84.4779665,261.6999816894531,0.45028477907180786,0.45028477907180786
1682448604.08043909,62796935,42.7075244,-84.4779666,261.6999816894531,0.45084744691848755,0.45084744691848755
1682448604.18039989,62896896,42.7075244,-84.4779666,261.6999816894531,0.4543526768684387,0.4543526768684387
1682448604.28045797,62996954,42.7075244,-84.4779667,261.6999816894531,0.4576614499092102,0.4576614499092102
1682448604.38041091,63096907,42.7075244,-84.4779667,261.6999816894531,0.458326518535614,0.458326518535614
1682448604.48018503,63196681,42.7075245,-84.4779667,261.6999816894531,0.4580656886100769,0.4580656886100769
1682448604.58025098,63296747,42.7075245,-84.47796679999999,261.6999816894531,0.45891672372817993,0.45891672372817993
1682448604.68033600,63396832,42.7075245,-84.47796679999999,261.7099914550781,0.46048635244369507,0.46048635244369507
1682448604.78031802,63496814,42.7075245,-84.47796679999999,261.7099914550781,0.4615233540534973,0.4615233540534973
1682448604.88037801,63596874,42.7075245,-84.47796679999999,261.7099914550781,0.46362680196762085,0.46362680196762085
1682448604.98036695,63696863,42.7075245,-84.47796679999999,261.7099914550781,0.46599799394607544,0.46599799394607544
1682448605.08041096,63796907,42.7075246,-84.47796679999999,261.7099914550781,0.46765822172164917,0.46765822172164917
1682448605.18037891,63896875,42.7075246,-84.4779669,261.7099914550781,0.46955960988998413,0.46955960988998413
1682448605.28043199,63996928,42.7075247,-84.4779669,261.7200012207031,0.47230345010757446,0.47230345010757446
1682448605.38039207,64096888,42.7075247,-84.4779669,261.7200012207031,0.47559505701065063,0.47559505701065063
1682448605.48025799,64196754,42.7075247,-84.47796699999999,261.72998046875,0.48033928871154785,0.48033928871154785
1682448605.58033705,64296833,42.7075247,-84.47796699999999,261.72998046875,0.48552507162094116,0.48552507162094116
1682448605.68031192,64396808,42.7075248,-84.4779671,261.739990234375,0.49074429273605347,0.49074429273605347
1682448605.78037596,64496872,42.7075248,-84.4779671,261.739990234375,0.4941198229789734,0.4941198229789734
1682448605.88055396,64597050,42.7075248,-84.4779672,261.739990234375,0.49704307317733765,0.49704307317733765
1682448605.98039412,64696890,42.7075248,-84.4779672,261.739990234375,0.4993528127670288,0.4993528127670288
1682448606.08044696,64796943,42.707524899999996,-84.4779672,261.75,0.5021907687187195,0.5021907687187195
1682448606.18039393,64896890,42.707524899999996,-84.4779673,261.75,0.5026870369911194,0.5026870369911194
1682448606.28042698,64996923,42.707524899999996,-84.4779673,261.75,0.5037250518798828,0.5037250518798828
1682448606.38044500,65096941,42.707524899999996,-84.4779673,261.75,0.505969226360321,0.505969226360321
1682448606.48060989,65197106,42.707524899999996,-84.4779674,261.75,0.5093023180961609,0.5093023180961609
1682448606.58023310,65296729,42.707524899999996,-84.4779674,261.7599792480469,0.5130067467689514,0.5130067467689514
1682448606.68023705,65396733,42.707525,-84.47796749999999,261.7599792480469,0.5152894854545593,0.5152894854545593
1682448606.78023791,65496734,42.707525,-84.47796749999999,261.7599792480469,0.5157712697982788,0.5157712697982788
1682448606.88016009,65596656,42.707525,-84.4779676,261.7599792480469,0.516758918762207,0.516758918762207
1682448606.98013306,65696629,42.707525,-84.4779676,261.7599792480469,0.5168073773384094,0.5168073773384094
1682448607.08014894,65796645,42.707525,-84.4779676,261.7599792480469,0.5161744356155396,0.5161744356155396
1682448607.18017006,65896666,42.7075251,-84.4779676,261.7599792480469,0.5149813294410706,0.5149813294410706
1682448607.28008699,65996583,42.707525,-84.4779676,261.7599792480469,0.5142978429794312,0.5142978429794312
1682448607.38015890,66096655,42.7075251,-84.4779677,261.7599792480469,0.513583779335022,0.513583779335022
1682448607.48016000,66196656,42.7075251,-84.4779677,261.7599792480469,0.5135070085525513,0.5135070085525513
1682448607.58023000,66296726,42.7075251,-84.4779677,261.7599792480469,0.5158290863037109,0.5158290863037109
1682448607.68023491,66396731,42.7075251,-84.4779677,261.7599792480469,0.5188740491867065,0.5188740491867065
1682448607.78014612,66496642,42.7075251,-84.4779677,261.7599792480469,0.5197044014930725,0.5197044014930725
1682448607.88010812,66596604,42.7075251,-84.4779677,261.7599792480469,0.5195440649986267,0.5195440649986267
1682448607.98038411,66696880,42.7075251,-84.4779678,261.7599792480469,0.5190285444259644,0.5190285444259644
1682448608.08056808,66797064,42.7075252,-84.4779678,261.7599792480469,0.519643247127533,0.519643247127533
1682448608.18039203,66896888,42.7075252,-84.4779678,261.7699890136719,0.5205967426300049,0.5205967426300049
1682448608.28015995,66996656,42.7075252,-84.4779677,261.7699890136719,0.5213906764984131,0.5213906764984131
1682448608.38017511,67096671,42.7075252,-84.4779677,261.7699890136719,0.5218088626861572,0.5218088626861572
1682448608.48023009,67196726,42.7075252,-84.4779678,261.7699890136719,0.5222148895263672,0.5222148895263672
1682448608.58026099,67296757,42.7075252,-84.4779678,261.7699890136719,0.5205033421516418,0.5205033421516418
1682448608.68034410,67396840,42.7075252,-84.4779678,261.7599792480469,0.5190911293029785,0.5190911293029785
1682448608.78010201,67496598,42.7075253,-84.4779678,261.7599792480469,0.5184954404830933,0.5184954404830933
1682448608.88005400,67596550,42.7075253,-84.4779678,261.7599792480469,0.5182830095291138,0.5182830095291138
1682448608.98017192,67696668,42.7075253,-84.4779678,261.7599792480469,0.5179446339607239,0.5179446339607239
1682448609.08016801,67796664,42.7075253,-84.4779678,261.7599792480469,0.518822193145752,0.518822193145752
1682448609.18018794,67896684,42.7075253,-84.4779678,261.7699890136719,0.5204177498817444,0.5204177498817444
1682448609.28017497,67996671,42.7075254,-84.4779678,261.7699890136719,0.5239570140838623,0.5239570140838623
1682448609.38021898,68096715,42.7075254,-84.4779679,261.7699890136719,0.5256962776184082,0.5256962776184082
1682448609.48023605,68196732,42.7075254,-84.4779679,261.7699890136719,0.5281875133514404,0.5281875133514404
1682448609.58022809,68296724,42.7075254,-84.4779679,261.7799987792969,0.5311012864112854,0.5311012864112854
1682448609.68009591,68396592,42.7075254,-84.4779679,261.7799987792969,0.5345917344093323,0.5345917344093323
1682448609.78006196,68496558,42.7075254,-84.47796799999999,261.7799987792969,0.5380796790122986,0.5380796790122986
1682448609.88016391,68596660,42.7075254,-84.47796799999999,261.7799987792969,0.5398313403129578,0.5398313403129578
1682448609.98009801,68696594,42.7075254,-84.47796799999999,261.7900085449219,0.5400791764259338,0.5400791764259338
1682448610.08021903,68796715,42.7075254,-84.47796799999999,261.7900085449219,0.5413758158683777,0.5413758158683777
1682448610.18039799,68896894,42.7075254,-84.47796799999999,261.7900085449219,0.541938304901123,0.541938304901123
1682448610.28042412,68996920,42.7075254,-84.4779681,261.7900085449219,0.5423290729522705,0.5423290729522705
1682448610.38045907,69096955,42.7075254,-84.4779681,261.7900085449219,0.5409461259841919,0.5409461259841919
1682448610.48043108,69196927,42.7075254,-84.4779681,261.7900085449219,0.5400615930557251,0.5400615930557251
1682448610.58042097,69296917,42.7075254,-84.4779681,261.7900085449219,0.5407668352127075,0.5407668352127075
1682448610.68038011,69396876,42.7075254,-84.4779681,261.7900085449219,0.5427385568618774,0.5427385568618774
1682448610.78054190,69497038,42.7075254,-84.4779681,261.7900085449219,0.5454384088516235,0.5454384088516235
1682448610.88040209,69596898,42.7075254,-84.4779681,261.7900085449219,0.5480130314826965,0.5480130314826965
1682448610.98038793,69696884,42.7075254,-84.4779681,261.7900085449219,0.547800600528717,0.547800600528717
1682448611.08043909,69796935,42.7075254,-84.4779681,261.7900085449219,0.548287570476532,0.548287570476532
1682448611.18044209,69896938,42.7075254,-84.4779681,261.7900085449219,0.5498769283294678,0.5498769283294678
1682448611.28043389,69996930,42.7075253,-84.47796819999999,261.79998779296875,0.5522305965423584,0.5522305965423584
1682448611.38041997,70096916,42.7075253,-84.47796819999999,261.79998779296875,0.5538865923881531,0.5538865923881531
1682448611.48039412,70196890,42.7075253,-84.47796819999999,261.79998779296875,0.5549583435058594,0.5549583435058594
1682448611.58037591,70296872,42.7075253,-84.47796819999999,261.79998779296875,0.5564398765563965,0.5564398765563965
1682448611.68044400,70396940,42.7075253,-84.47796819999999,261.79998779296875,0.5584316849708557,0.5584316849708557
1682448611.78039002,70496886,42.7075253,-84.47796819999999,261.79998779296875,0.5579266548156738,0.5579266548156738
1682448611.88039398,70596890,42.7075253,-84.47796819999999,261.79998779296875,0.5552641153335571,0.5552641153335571
1682448611.98040700,70696903,42.7075253,-84.47796819999999,261.79998779296875,0.5551226139068604,0.5551226139068604
1682448612.08045411,70796950,42.7075253,-84.47796819999999,261.79998779296875,0.5548965930938721,0.5548965930938721
1682448612.18044996,70896946,42.7075253,-84.47796819999999,261.79998779296875,0.5533334612846375,0.5533334612846375
1682448612.28017902,70996675,42.7075253,-84.4779681,261.79998779296875,0.5515494346618652,0.5515494346618652
1682448612.38036609,71096862,42.7075253,-84.47796819999999,261.79998779296875,0.5504253506660461,0.5504253506660461
1682448612.48037291,71196869,42.7075253,-84.47796819999999,261.79998779296875,0.55086749792099,0.55086749792099
1682448612.58041501,71296911,42.7075253,-84.4779681,261.79998779296875,0.5511531233787537,0.5511531233787537
1682448612.68035102,71396847,42.7075253,-84.47796819999999,261.79998779296875,0.5512657165527344,0.5512657165527344
1682448612.78036499,71496861,42.7075252,-84.47796819999999,261.79998779296875,0.5535317659378052,0.5535317659378052
1682448612.88043594,71596932,42.7075252,-84.47796819999999,261.79998779296875,0.5577964186668396,0.5577964186668396
1682448612.98040199,71696898,42.7075252,-84.47796819999999,261.80999755859375,0.5602474212646484,0.5602474212646484
1682448613.08044410,71796940,42.7075252,-84.4779681,261.80999755859375,0.5611334443092346,0.5611334443092346
1682448613.18038201,71896878,42.7075252,-84.47796799999999,261.80999755859375,0.5619872212409973,0.5619872212409973
1682448613.28036308,71996859,42.7075252,-84.47796799999999,261.80999755859375,0.5633550882339478,0.5633550882339478
1682448613.38034606,72096842,42.7075252,-84.47796799999999,261.80999755859375,0.5655450224876404,0.5655450224876404
1682448613.48041296,72196909,42.7075252,-84.47796799999999,261.80999755859375,0.5674920678138733,0.5674920678138733
1682448613.58027601,72296772,42.7075252,-84.47796799999999,261.82000732421875,0.5714294910430908,0.5714294910430908
1682448613.68060899,72397105,42.7075252,-84.47796799999999,261.82000732421875,0.5761376023292542,0.5761376023292542
1682448613.78063011,72497126,42.7075252,-84.47796799999999,261.8299865722656,0.5802451372146606,0.5802451372146606
1682448613.88060308,72597099,42.7075252,-84.4779681,261.8299865722656,0.5831746459007263,0.5831746459007263
1682448613.98043299,72696929,42.7075251,-84.4779681,261.8299865722656,0.5839375853538513,0.5839375853538513
1682448614.08028507,72796781,42.7075251,-84.47796799999999,261.8299865722656,0.5846949815750122,0.5846949815750122
1682448614.18011904,72896615,42.707525,-84.47796799999999,261.8299865722656,0.5832433104515076,0.5832433104515076
1682448614.28007007,72996566,42.707525,-84.47796799999999,261.8299865722656,0.5814533233642578,0.5814533233642578
1682448614.38018107,73096677,42.707525,-84.47796799999999,261.8299865722656,0.580747663974762,0.580747663974762
1682448614.48009300,73196589,42.707525,-84.47796799999999,261.8299865722656,0.5815235376358032,0.5815235376358032
1682448614.58016205,73296658,42.707525,-84.47796799999999,261.8299865722656,0.5802555680274963,0.5802555680274963
1682448614.68017697,73396673,42.707525,-84.47796799999999,261.82000732421875,0.5791776776313782,0.5791776776313782
1682448614.78021812,73496714,42.707525,-84.4779681,261.8299865722656,0.5807463526725769,0.5807463526725769
1682448614.88022900,73596725,42.707525,-84.4779681,261.8299865722656,0.5843511819839478,0.5843511819839478
1682448614.98030806,73696804,42.707525,-84.4779681,261.8299865722656,0.5896559357643127,0.5896559357643127
1682448615.08024812,73796744,42.707525,-84.4779681,261.8399963378906,0.5953181982040405,0.5953181982040405
1682448615.18007493,73896571,42.707525,-84.47796819999999,261.8500061035156,0.6026899218559265,0.6026899218559265
1682448615.28018498,73996681,42.707525,-84.47796819999999,261.8599853515625,0.6116073727607727,0.6116073727607727
1682448615.38009095,74096587,42.707525,-84.47796819999999,261.8699951171875,0.6200646162033081,0.6200646162033081
1682448615.48018098,74196677,42.707525,-84.47796819999999,261.8699951171875,0.6282426118850708,0.6282426118850708
1682448615.58017612,74296672,42.707525,-84.47796819999999,261.8800048828125,0.6358475685119629,0.6358475685119629
1682448615.68023992,74396736,42.707525,-84.47796819999999,261.8899841308594,0.6425292491912842,0.6425292491912842
1682448615.78025007,74496746,42.707525,-84.47796819999999,261.8999938964844,0.6500411629676819,0.6500411629676819
1682448615.88021803,74596714,42.707525,-84.47796819999999,261.8999938964844,0.6594262719154358,0.6594262719154358
1682448615.98010492,74696601,42.707524899999996,-84.47796819999999,261.9100036621094,0.6656773090362549,0.6656773090362549
1682448616.08015704,74796653,42.707524899999996,-84.47796819999999,261.91998291015625,0.6705811619758606,0.6705811619758606
1682448616.18044209,74896938,42.7075248,-84.4779683,261.91998291015625,0.6738426089286804,0.6738426089286804
1682448616.28039908,74996895,42.7075248,-84.4779683,261.91998291015625,0.6753219366073608,0.6753219366073608
1682448616.38035703,75096853,42.7075248,-84.4779683,261.91998291015625,0.6766608357429504,0.6766608357429504
1682448616.48016310,75196659,42.7075248,-84.47796819999999,261.91998291015625,0.6778778433799744,0.6778778433799744
1682448616.58046293,75296959,42.7075248,-84.47796819999999,261.91998291015625,0.6791722774505615,0.6791722774505615
1682448616.68024993,75396746,42.7075248,-84.47796819999999,261.92999267578125,0.6817916035652161,0.6817916035652161
1682448616.78019810,75496694,42.7075247,-84.47796819999999,261.92999267578125,0.6838551759719849,0.6838551759719849
1682448616.88010693,75596603,42.7075247,-84.47796819999999,261.92999267578125,0.6863614916801453,0.6863614916801453
1682448616.98011708,75696613,42.7075247,-84.47796819999999,261.92999267578125,0.6883699297904968,0.6883699297904968
1682448617.08030701,75796803,42.7075247,-84.47796819999999,261.94000244140625,0.6907292008399963,0.6907292008399963
1682448617.18009591,75896592,42.7075246,-84.47796819999999,261.94000244140625,0.6934083700180054,0.6934083700180054
1682448617.28017807,75996674,42.7075246,-84.4779681,261.94000244140625,0.6974465250968933,0.6974465250968933
1682448617.38018799,76096684,42.7075246,-84.4779681,261.94000244140625,0.6995225548744202,0.6995225548744202
1682448617.48024392,76196740,42.7075246,-84.4779681,261.9499816894531,0.7033272981643677,0.7033272981643677
1682448617.58044910,76296945,42.7075246,-84.4779681,261.9499816894531,0.7054689526557922,0.7054689526557922
1682448617.68020105,76396697,42.7075246,-84.4779681,261.9499816894531,0.7077416777610779,0.7077416777610779
1682448617.78009892,76496595,42.7075246,-84.47796799999999,261.9499816894531,0.7091062664985657,0.7091062664985657
1682448617.88004994,76596546,42.7075246,-84.4779681,261.9599914550781,0.7108805775642395,0.7108805775642395
1682448617.98015690,76696653,42.7075245,-84.47796799999999,261.9599914550781,0.7103187441825867,0.7103187441825867
1682448618.08017206,76796668,42.7075245,-84.47796799999999,261.9499816894531,0.7096883654594421,0.7096883654594421
1682448618.18017602,76896672,42.7075244,-84.47796799999999,261.9499816894531,0.7085971236228943,0.7085971236228943
1682448618.28041101,76996907,42.7075244,-84.47796799999999,261.9499816894531,0.7080045938491821,0.7080045938491821
1682448618.38037705,77096873,42.7075244,-84.47796799999999,261.9499816894531,0.7063442468643188,0.7063442468643188
1682448618.48040390,77196900,42.7075244,-84.4779679,261.9499816894531,0.7056862711906433,0.7056862711906433
1682448618.58072400,77297220,42.707524299999996,-84.4779679,261.9499816894531,0.7029862999916077,0.7029862999916077
1682448618.68041801,77396914,42.707524299999996,-84.4779679,261.9499816894531,0.7006440758705139,0.7006440758705139
1682448618.78037906,77496875,42.707524299999996,-84.4779679,261.94000244140625,0.6989738345146179,0.6989738345146179
1682448618.88043690,77596933,42.707524299999996,-84.4779679,261.94000244140625,0.6981273293495178,0.6981273293495178
1682448618.98012400,77696620,42.707524199999995,-84.4779679,261.94000244140625,0.6976516842842102,0.6976516842842102
1682448619.08021998,77796716,42.707524199999995,-84.4779679,261.94000244140625,0.6969321370124817,0.6969321370124817
1682448619.18047094,77896967,42.707524199999995,-84.4779678,261.94000244140625,0.695434033870697,0.695434033870697
1682448619.28039098,77996887,42.707524199999995,-84.4779678,261.94000244140625,0.693446934223175,0.693446934223175
1682448619.38045597,78096952,42.707524199999995,-84.4779677,261.94000244140625,0.6934359669685364,0.6934359669685364
1682448619.48038602,78196882,42.7075241,-84.4779677,261.94000244140625,0.6947880983352661,0.6947880983352661
1682448619.58051109,78297007,42.7075241,-84.4779677,261.94000244140625,0.6945235133171082,0.6945235133171082
1682448619.68040204,78396898,42.7075241,-84.4779677,261.94000244140625,0.6950645446777344,0.6950645446777344
1682448619.78041792,78496914,42.7075241,-84.4779677,261.94000244140625,0.6933273673057556,0.6933273673057556
1682448619.88039303,78596889,42.7075241,-84.4779677,261.94000244140625,0.6911241412162781,0.6911241412162781
1682448619.98038292,78696879,42.707524,-84.4779677,261.94000244140625,0.6908687949180603,0.6908687949180603
1682448620.08043909,78796935,42.707524,-84.4779677,261.94000244140625,0.6917510628700256,0.6917510628700256
