timestamp,TimeUS,C,Q1,Q2,Q3,Q4
1682448562.17945695,20895953,2,1.0,0.0,0.0,0.0
1682448562.27940893,20995905,2,1.0,0.0,0.0,0.0
1682448562.37949705,21095993,2,1.0,0.0,0.0,0.0
1682448562.47949100,21195987,2,1.0,0.0,0.0,0.0
1682448562.57943511,21295931,2,1.0,0.0,0.0,0.0
1682448562.67941403,21395910,2,1.0,0.0,0.0,0.0
1682448562.77941799,21495914,2,1.0,0.0,0.0,0.0
1682448562.87941313,21595909,2,1.0,0.0,0.0,0.0
1682448562.97943807,21695934,2,1.0,0.0,0.0,0.0
1682448563.07944989,21795946,2,1.0,0.0,0.0,0.0
1682448563.17940307,21895899,2,0.9997138381004333,-0.010297325439751148,0.02158874273300171,0.0003055081469938159
1682448563.27948308,21995979,2,0.9997171759605408,-0.010092731565237045,0.021501725539565086,0.001167456153780222
1682448563.37946796,22095964,2,0.999699056148529,-0.010053761303424835,0.022367985919117928,0.0006455001421272755
1682448563.47944498,22195941,2,0.9996915459632874,-0.010369421914219856,0.02256711944937706,0.000157172282342799
1682448563.57942104,22295917,2,0.9997050762176514,-0.01020949985831976,0.021978547796607018,0.0015551401302218437
1682448563.67941308,22395909,2,0.9997026324272156,-0.010566187091171741,0.02194846235215664,0.0011347975814715028
1682448563.77940893,22495905,2,0.9997066855430603,-0.010400133207440376,0.021859189495444298,0.0007085616234689951
1682448563.87941408,22595910,2,0.9997065663337708,-0.010632582008838654,0.021705424413084984,0.001607581041753292
1682448563.97944403,22695940,2,0.9997131824493408,-0.01079302653670311,0.02131008915603161,0.001726774382404983
1682448564.07940507,22795901,2,0.9997230172157288,-0.010407674126327038,0.021049845963716507,0.0015849596820771694
1682448564.17949104,22895987,2,0.9997309446334839,-0.01068937312811613,0.020488513633608818,0.002011706121265888
1682448564.27946806,22995964,2,0.9997500777244568,-0.009472119621932507,0.02018885873258114,0.0015887435292825103
1682448564.37944603,23095942,2,0.9997634291648865,-0.00910002551972866,0.019719623029232025,0.0011780890636146069
1682448564.47941899,23195915,2,0.9997608065605164,-0.008443762548267841,0.020093154162168503,0.001809940324164927
1682448564.57941103,23295907,2,0.9997721314430237,-0.007193962577730417,0.02006116323173046,0.0012350515462458134
1682448564.67941689,23395913,2,0.6842064261436462,0.006307636853307486,0.017092974856495857,-0.7290607690811157
1682448564.77940798,23495904,2,0.6851274967193604,0.007614517118781805,0.017667537555098534,-0.7281690835952759
1682448564.87944794,23595944,2,0.6850061416625977,0.008003068156540394,0.017837947234511375,-0.728274941444397
1682448564.97940707,23695903,2,0.6851562261581421,0.008720296435058117,0.018028702586889267,-0.728120744228363
1682448565.07947707,23795973,2,0.6854782104492188,0.009340034797787666,0.018213443458080292,-0.7278053760528564
1682448565.17945409,23895950,2,0.6850001811981201,0.009151535108685493,0.018268026411533356,-0.7282562851905823
1682448565.27944303,23995939,2,0.6851969361305237,0.009324884973466396,0.018599264323711395,-0.7280606031417847
1682448565.37941599,24095912,2,0.6852586269378662,0.009124569594860077,0.018598400056362152,-0.7280051112174988
1682448565.47941804,24195914,2,0.6842697262763977,0.009742614813148975,0.018391918390989304,-0.7289319634437561
1682448565.57940698,24295903,2,0.6844825148582458,0.009497160091996193,0.018510892987251282,-0.7287323474884033
1682448565.67940092,24395897,2,0.684795618057251,0.01006812322884798,0.018140867352485657,-0.7284397482872009
1682448565.77945495,24495951,2,0.684517502784729,0.010221244767308235,0.0179918110370636,-0.7287026643753052
1682448565.87940502,24595901,2,0.6850035786628723,0.010104947723448277,0.018064873293042183,-0.7282456159591675
1682448565.97949004,24695986,2,0.6855744123458862,0.010641678236424923,0.017362112179398537,-0.7277176976203918
1682448566.07946491,24795961,2,0.6853177547454834,0.01040421798825264,0.017631771042943,-0.7279562950134277
1682448566.17943907,24895935,2,0.685626208782196,0.010998819023370743,0.016822874546051025,-0.727676272392273
1682448566.27941489,24995911,2,0.6860047578811646,0.010804074816405773,0.016933074221014977,-0.7273197770118713
1682448566.37941313,25095909,2,0.6855156421661377,0.011326276697218418,0.0160285122692585,-0.727793276309967
1682448566.47940898,25195905,2,0.6856404542922974,0.011197173036634922,0.01585446298122406,-0.727681577205658
1682448566.57940602,25295902,2,0.685897171497345,0.011069524101912975,0.01543696504086256,-0.7274505496025085
1682448566.67944312,25395939,2,0.6852114796638489,0.011379282921552658,0.014891332946717739,-0.7281030416488647
1682448566.77941298,25495909,2,0.6851951479911804,0.010840872302651405,0.015087881125509739,-0.7281225323677063
1682448566.87948108,25595977,2,0.6855136752128601,0.011083010584115982,0.014447357505559921,-0.727832019329071
1682448566.97944212,25695938,2,0.6850101351737976,0.010227568447589874,0.014952137134969234,-0.7283082604408264
1682448567.07943392,25795930,2,0.6841336488723755,0.010854567401111126,0.014025937765836716,-0.7291409969329834
1682448567.17940402,25895900,2,0.6828577518463135,0.010352348908782005,0.01429669838398695,-0.7303380966186523
1682448567.27940702,25995903,2,0.6807820796966553,0.010574991814792156,0.013962825760245323,-0.7322765588760376
1682448567.37940502,26095901,2,0.6790256500244141,0.01012532226741314,0.013900217600166798,-0.7339130640029907
1682448567.47941995,26195916,2,0.6773880124092102,0.010191326960921288,0.01391515601426363,-0.7354236841201782
1682448567.57944703,26295943,2,0.6742339134216309,0.01076415367424488,0.01331707276403904,-0.7383192777633667
1682448567.67940092,26395897,2,0.672169029712677,0.009987103752791882,0.013194841332733631,-0.7402127981185913
1682448567.77947903,26495975,2,0.6711023449897766,0.01010990608483553,0.012749428860843182,-0.7411861419677734
1682448567.87946200,26595958,2,0.6685863733291626,0.009722637943923473,0.012839989736676216,-0.7434600591659546
1682448567.97943211,26695928,2,0.6667252779006958,0.009581435471773148,0.012665231712162495,-0.7451343536376953
1682448568.07940412,26795900,2,0.665664792060852,0.009327089414000511,0.012512769550085068,-0.7460876703262329
1682448568.17940807,26895904,2,0.6633520722389221,0.009122006595134735,0.012425864115357399,-0.7481486797332764
1682448568.27940512,26995901,2,0.6616640686988831,0.009002454578876495,0.012478820979595184,-0.7496424913406372
1682448568.37941003,27095906,2,0.6603737473487854,0.008962832391262054,0.012511239387094975,-0.750779390335083
1682448568.47944903,27195945,2,0.6583446860313416,0.008762605488300323,0.012614281848073006,-0.7525599002838135
1682448568.57940602,27295902,2,0.6568856239318848,0.008607154712080956,0.012462804093956947,-0.753838062286377
1682448568.67949510,27395991,2,0.655518114566803,0.008518638089299202,0.012411010451614857,-0.7550294399261475
1682448568.77944994,27495946,2,0.6533836722373962,0.008440173231065273,0.012259554117918015,-0.7568805813789368
1682448568.87943411,27595930,2,0.6520159840583801,0.008585686795413494,0.0122054573148489,-0.7580583691596985
1682448568.97940707,27695903,2,0.6504524350166321,0.008555930107831955,0.012232327833771706,-0.7594002485275269
1682448569.07940412,27795900,2,0.6488917469978333,0.008540734648704529,0.012421484105288982,-0.7607313990592957
1682448569.17940593,27895902,2,0.6477631330490112,0.00873135682195425,0.012547501362860203,-0.7616884112358093
1682448569.27940202,27995898,2,0.646375298500061,0.008413235656917095,0.012541528791189194,-0.762870192527771
1682448569.37944698,28095943,2,0.6450302600860596,0.008439798839390278,0.012594521977007389,-0.7640066146850586
1682448569.47940397,28195900,2,0.6443095207214355,0.008547782897949219,0.012290770187973976,-0.7646182775497437
1682448569.57948995,28295986,2,0.643018901348114,0.008452896028757095,0.012656728737056255,-0.7656990885734558
1682448569.67940211,28395898,2,0.6417490243911743,0.008808854967355728,0.012077347375452518,-0.7667690515518188
1682448569.77943397,28495930,2,0.6413848996162415,0.007786835078150034,0.013129176571965218,-0.7670674324035645
1682448569.87941098,28595907,2,0.6401002407073975,0.008906914852559566,0.012037807144224644,-0.7681454420089722
1682448569.97940111,28695897,2,0.6387971043586731,0.008306791074573994,0.012691150419414043,-0.7692257165908813
1682448570.07940412,28795900,2,0.638706386089325,0.008574511855840683,0.012631751596927643,-0.7692990899085999
1682448570.17940807,28895904,2,0.6373715400695801,0.00885218195617199,0.01269590761512518,-0.7704011797904968
1682448570.27944398,28995940,2,0.636133074760437,0.008259161375463009,0.012503690086305141,-0.7714338302612305
1682448570.37940407,29095900,2,0.6356843113899231,0.009587232023477554,0.01154380664229393,-0.7718032598495483
1682448570.47948313,29195979,2,0.6343666315078735,0.00880428310483694,0.01249358057975769,-0.7728812098503113
1682448570.57944894,29295945,2,0.6337531208992004,0.009502600878477097,0.011501121334731579,-0.7733914852142334
1682448570.67943096,29395927,2,0.6337953805923462,0.009264485910534859,0.011992105282843113,-0.773352324962616
1682448570.77940798,29495904,2,0.6328714489936829,0.008863529190421104,0.012237614020705223,-0.774109423160553
1682448570.87940598,29595902,2,0.6317897439002991,0.009818071499466896,0.011971141211688519,-0.7749851942062378
1682448570.97940111,29695897,2,0.6317079067230225,0.009121616370975971,0.012665841728448868,-0.7750493884086609
1682448571.07941508,29795911,2,0.6309655904769897,0.009677656926214695,0.011824208311736584,-0.7756603360176086
1682448571.17945790,29895954,2,0.6303139328956604,0.008713285438716412,0.01305472943931818,-0.7761816382408142
1682448571.27940106,29995897,2,0.6307726502418518,0.00909909326583147,0.01191429328173399,-0.7758228778839111
1682448571.37947702,30095973,2,0.6304630637168884,0.008934147655963898,0.012315998785197735,-0.7760701179504395
1682448571.47939396,30195890,2,0.6288620233535767,0.009567388333380222,0.011858278885483742,-0.7773675918579102
1682448571.57942295,30295919,2,0.6272391676902771,0.009121770039200783,0.01248362846672535,-0.7786731719970703
1682448571.67939091,30395887,2,0.628368079662323,0.009925466030836105,0.011549624614417553,-0.7777670621871948
1682448571.77940512,30495901,2,0.6290257573127747,0.009563923813402653,0.011911958456039429,-0.7772343158721924
1682448571.87939405,30595890,2,0.6271921396255493,0.009298366494476795,0.012035071849822998,-0.7787160873413086
1682448571.97938895,30695885,2,0.6264975070953369,0.009288755245506763,0.012235036119818687,-0.7792720198631287
1682448572.07943702,30795933,2,0.6267115473747253,0.009037130512297153,0.012287594377994537,-0.7791020274162292
1682448572.17939997,30895896,2,0.627024233341217,0.00971981231123209,0.011416275054216385,-0.7788554430007935
1682448572.27947092,30995967,2,0.6269019842147827,0.009095748886466026,0.012501411139965057,-0.778944730758667
1682448572.37944198,31095938,2,0.6256836652755737,0.009281330741941929,0.011949611827731133,-0.7799301147460938
1682448572.47942901,31195925,2,0.6245762705802917,0.008846409618854523,0.012792517431080341,-0.7808089256286621
1682448572.57938910,31295885,2,0.6255284547805786,0.009490150026977062,0.011657025665044785,-0.7800565361976624
1682448572.67939210,31395888,2,0.6263462901115417,0.009347098879516125,0.012233813293278217,-0.7793928980827332
1682448572.77939606,31495892,2,0.6248911023139954,0.009152927435934544,0.012095708400011063,-0.780564546585083
1682448572.87941599,31595912,2,0.6244902610778809,0.00895466934889555,0.012406470254063606,-0.780882716178894
1682448572.97943211,31695928,2,0.6250030994415283,0.00924299843609333,0.012225335463881493,-0.7804718017578125
1682448573.07939291,31795889,2,0.6237434148788452,0.00896379817277193,0.012446119450032711,-0.7814786434173584
1682448573.17948294,31895979,2,0.6236467361450195,0.00874396599829197,0.01237495057284832,-0.781559407711029
1682448573.27938890,31995885,2,0.6249604225158691,0.008711308240890503,0.011923563666641712,-0.7805167436599731
1682448573.37942791,32095924,2,0.6247784495353699,0.009055773727595806,0.011878235265612602,-0.7806591987609863
1682448573.47939706,32195893,2,0.6242077350616455,0.00903226900845766,0.011757259257137775,-0.7811176776885986
1682448573.57939005,32295886,2,0.6248534917831421,0.007671821396797895,0.012322432361543179,-0.7806070446968079
1682448573.67938995,32395886,2,0.6248579025268555,0.008338795974850655,0.011633037589490414,-0.780607283115387
1682448573.77939701,32495893,2,0.6237854957580566,0.008929723873734474,0.01233513094484806,-0.7814472317695618
1682448573.87943912,32595935,2,0.6235514283180237,0.009267994202673435,0.012250206433236599,-0.7816314101219177
1682448573.97939706,32695893,2,0.6241530776023865,0.009268500842154026,0.012362441048026085,-0.7811492681503296
1682448574.07946706,32795963,2,0.6235160827636719,0.009369025006890297,0.01232616975903511,-0.7816571593284607
1682448574.17939305,32895889,2,0.6233826875686646,0.009422818198800087,0.012276802211999893,-0.7817637324333191
1682448574.27942109,32995917,2,0.6239202618598938,0.009525896981358528,0.01237776130437851,-0.7813318967819214
1682448574.37939095,33095887,2,0.6234571933746338,0.00932315830141306,0.012352613732218742,-0.781704306602478
1682448574.47939706,33195893,2,0.6234179735183716,0.009368913248181343,0.012417524121701717,-0.781734049320221
1682448574.57942295,33295919,2,0.6237586736679077,0.009165268391370773,0.012287884019315243,-0.7814666628837585
1682448574.67938995,33395886,2,0.623196542263031,0.008992147631943226,0.01239068154245615,-0.7819154262542725
1682448574.77944112,33495937,2,0.6231926083564758,0.008794897235929966,0.012164901942014694,-0.781924307346344
1682448574.87939692,33595893,2,0.6235617399215698,0.00843028910458088,0.012358920648694038,-0.7816309332847595
1682448574.97948003,33695976,2,0.6230052709579468,0.008444349281489849,0.012396818026900291,-0.7820738554000854
1682448575.07939291,33795889,2,0.6227895617485046,0.008710036985576153,0.012340118177235126,-0.782243549823761
1682448575.17942190,33895918,2,0.6230067014694214,0.008807431906461716,0.011955441907048225,-0.7820755243301392
1682448575.27939010,33995886,2,0.6228408217430115,0.008128920570015907,0.012330885976552963,-0.7822091579437256
1682448575.37939501,34095891,2,0.6231332421302795,0.008313157595694065,0.011934222653508186,-0.7819804549217224
1682448575.47939301,34195889,2,0.623214840888977,0.008196239359676838,0.012483222410082817,-0.7819080352783203
1682448575.57941198,34295908,2,0.622873067855835,0.008601165376603603,0.012624263763427734,-0.782173752784729
1682448575.67943692,34395933,2,0.623053789138794,0.009115816093981266,0.01248149760067463,-0.7820262908935547
1682448575.77939296,34495889,2,0.6231513619422913,0.009375154972076416,0.012482242658734322,-0.7819454073905945
1682448575.87947893,34595975,2,0.6229501962661743,0.009556740522384644,0.012339014559984207,-0.7821058034896851
1682448575.97938895,34695885,2,0.6232978105545044,0.009290749207139015,0.01264198962599039,-0.7818271517753601
1682448576.07942390,34795920,2,0.6233150959014893,0.00945103820413351,0.012472741305828094,-0.7818141579627991
1682448576.17939496,34895891,2,0.6229912638664246,0.00918881967663765,0.012519537471234798,-0.7820746302604675
1682448576.27939010,34995886,2,0.6232556104660034,0.00937846302986145,0.012430747970938683,-0.7818630933761597
1682448576.37939095,35095887,2,0.6230563521385193,0.009409124962985516,0.012516028247773647,-0.7820202112197876
1682448576.47939610,35195892,2,0.6229280829429626,0.009531172923743725,0.012507584877312183,-0.7821210622787476
1682448576.57943201,35295928,2,0.6232922077178955,0.009550067596137524,0.012480804696679115,-0.7818310856819153
1682448576.67938995,35395886,2,0.6232517957687378,0.009552031755447388,0.01245664618909359,-0.7818636894226074
1682448576.77947307,35495969,2,0.6231964826583862,0.009552504867315292,0.012519349344074726,-0.7819067239761353
1682448576.87938905,35595885,2,0.6235285401344299,0.00937548466026783,0.012828211300075054,-0.7816391587257385
1682448576.97942400,35695920,2,0.6237047910690308,0.009409545920789242,0.012674717232584953,-0.7815005779266357
1682448577.07939911,35795895,2,0.6237218379974365,0.00930751208215952,0.0129095409065485,-0.7814843654632568
1682448577.17938995,35895886,2,0.6238699555397034,0.009312393143773079,0.012801683507859707,-0.781367838382721
1682448577.27939510,35995891,2,0.6240020990371704,0.009372158907353878,0.012924385257065296,-0.7812595367431641
1682448577.37940311,36095899,2,0.6239229440689087,0.009120064787566662,0.012875647284090519,-0.7813265919685364
1682448577.47943497,36195931,2,0.6240866184234619,0.009065035730600357,0.01282492559403181,-0.7811973094940186
1682448577.57939410,36295890,2,0.6240049004554749,0.009483064524829388,0.013119986280798912,-0.7812527418136597
1682448577.67947102,36395967,2,0.6238619089126587,0.00910248700529337,0.013272693380713463,-0.7813688516616821
1682448577.77939510,36495891,2,0.6242974400520325,0.009207296185195446,0.013138853944838047,-0.7810219526290894
1682448577.87942600,36595922,2,0.6241976022720337,0.009431200101971626,0.013005880638957024,-0.7811012864112854
1682448577.97939706,36695893,2,0.6240692138671875,0.009518271312117577,0.012743650004267693,-0.7812071442604065
1682448578.07939410,36795890,2,0.624616801738739,0.00956350564956665,0.012959811836481094,-0.7807652950286865
1682448578.17939711,36895893,2,0.6243864297866821,0.009609525091946125,0.012525513768196106,-0.7809560298919678
1682448578.27939510,36995891,2,0.6242950558662415,0.009474026970565319,0.012768890708684921,-0.7810267806053162
1682448578.37944198,37095938,2,0.6247126460075378,0.009773685596883297,0.012695902958512306,-0.7806903719902039
1682448578.47939610,37195892,2,0.6246328353881836,0.009397512301802635,0.012847908772528172,-0.7807563543319702
1682448578.57947612,37295972,2,0.6245500445365906,0.009746289812028408,0.012893558479845524,-0.7808175086975098
1682448578.67938995,37395886,2,0.6245224475860596,0.009692821651697159,0.013748538680374622,-0.780825674533844
1682448578.77942300,37495919,2,0.6244272589683533,0.010100417770445347,0.013162575662136078,-0.7809067368507385
1682448578.87939692,37595893,2,0.6248961687088013,0.009907216764986515,0.013339165598154068,-0.7805310487747192
1682448578.97938895,37695885,2,0.6240412592887878,0.009303473867475986,0.013622354716062546,-0.7812172174453735
1682448579.07939291,37795889,2,0.6236399412155151,0.009218803606927395,0.013737148605287075,-0.7815366387367249
1682448579.17939305,37895889,2,0.6252246499061584,0.009931385517120361,0.01354973390698433,-0.7802640199661255
1682448579.27944112,37995937,2,0.6258776783943176,0.009926268830895424,0.013381130062043667,-0.7797432541847229
1682448579.37939095,38095887,2,0.624675452709198,0.0097134904935956,0.013470273464918137,-0.7807078957557678
1682448579.47947001,38195966,2,0.6253551840782166,0.009612261317670345,0.013790532015264034,-0.7801591753959656
1682448579.57939410,38295890,2,0.625674307346344,0.009784874506294727,0.0132073312997818,-0.7799112200737
1682448579.67941904,38395915,2,0.6253606677055359,0.009644162841141224,0.01301886048167944,-0.7801676392555237
1682448579.77939892,38495895,2,0.6256188154220581,0.00996944960206747,0.013171177357435226,-0.7799539566040039
1682448579.87939405,38595890,2,0.6255231499671936,0.009860080666840076,0.012921326793730259,-0.7800362706184387
1682448579.97938991,38695886,2,0.6255110502243042,0.009896048344671726,0.013065708801150322,-0.7800431251525879
1682448580.07940698,38795903,2,0.6259677410125732,0.010475530289113522,0.012505738064646721,-0.7796782851219177
1682448580.17944002,38895936,2,0.6261923313140869,0.010241664946079254,0.012982133775949478,-0.7794932126998901
1682448580.27939391,38995890,2,0.6260678172111511,0.010886582545936108,0.012305310927331448,-0.7795954942703247
1682448580.37946892,39095965,2,0.6257426738739014,0.009433822706341743,0.013430115766823292,-0.7798568606376648
1682448580.47939610,39195892,2,0.6258330345153809,0.010356493294239044,0.012376469559967518,-0.7797901034355164
1682448580.57941794,39295914,2,0.6261182427406311,0.009972425177693367,0.012872976250946522,-0.7795580625534058
1682448580.67939711,39395893,2,0.625918447971344,0.010082936845719814,0.012488964013755322,-0.7797233462333679
1682448580.77939200,39495888,2,0.6261354088783264,0.010068199597299099,0.01264816615730524,-0.7795467376708984
1682448580.87938905,39595885,2,0.6264486908912659,0.00980433076620102,0.013013863004744053,-0.7792923450469971
1682448580.97938991,39695886,2,0.6260818839073181,0.009884334169328213,0.013284637592732906,-0.7795814871788025
1682448581.07943511,39795931,2,0.6260774731636047,0.00971246138215065,0.013511380180716515,-0.7795832753181458
1682448581.17939401,39895890,2,0.6265636682510376,0.009813634678721428,0.012921536341309547,-0.779201328754425
1682448581.27947402,39995970,2,0.6268337965011597,0.009859193116426468,0.013256666250526905,-0.7789778113365173
1682448581.37939000,40095886,2,0.6268143057823181,0.010530292987823486,0.0125183816999197,-0.7789969444274902
1682448581.47942209,40195918,2,0.6268122792243958,0.010239583440124989,0.013101712800562382,-0.7789928317070007
1682448581.57939911,40295895,2,0.6266961693763733,0.01050378754734993,0.012578951194882393,-0.7790913581848145
1682448581.67938995,40395886,2,0.627090573310852,0.01016295701265335,0.013511823490262032,-0.7787628173828125
1682448581.77939296,40495889,2,0.626994788646698,0.010621684603393078,0.012852012179791927,-0.7788450121879578
1682448581.87939405,40595890,2,0.6266750693321228,0.01006779819726944,0.013902205973863602,-0.7790915966033936
1682448581.97943497,40695931,2,0.6265367269515991,0.009670357219874859,0.01356784999370575,-0.7792137861251831
1682448582.07939291,40795889,2,0.6265925168991089,0.009702829644083977,0.013787943869829178,-0.7791646718978882
1682448582.17948604,40895982,2,0.6277046203613281,0.010409839451313019,0.01361584197729826,-0.7782629132270813
1682448582.27939010,40995886,2,0.6272841691970825,0.009362231940031052,0.013698049820959568,-0.7786136865615845
1682448582.37942100,41095917,2,0.6265459656715393,0.009654655121266842,0.013853820040822029,-0.7792015075683594
1682448582.47940397,41195900,2,0.6275493502616882,0.010129841975867748,0.013857629150152206,-0.7783875465393066
1682448582.57938910,41295885,2,0.6265879273414612,0.010237758047878742,0.01359722949564457,-0.7791648507118225
1682448582.67938995,41395886,2,0.6265732049942017,0.009606016799807549,0.014270910061895847,-0.7791726589202881
1682448582.77942395,41495920,2,0.6272304058074951,0.010168002918362617,0.013805188238620758,-0.7786450386047363
1682448582.87943506,41595931,2,0.6266762614250183,0.00953472126275301,0.014301512390375137,-0.7790901064872742
1682448582.97939491,41695891,2,0.6272523403167725,0.009600254707038403,0.01383346226066351,-0.7786340117454529
1682448583.07947302,41795969,2,0.6270028352737427,0.010050955228507519,0.013823279179632664,-0.7788294553756714
1682448583.17939305,41895889,2,0.6264470219612122,0.009420703165233135,0.014345179311931133,-0.7792750597000122
1682448583.27943707,41995933,2,0.6271357536315918,0.00978569220751524,0.013994102366268635,-0.7787227630615234
1682448583.37939095,42095887,2,0.6268317103385925,0.009684842079877853,0.014053094200789928,-0.7789677381515503
1682448583.47940302,42195899,2,0.6263816356658936,0.009591890498995781,0.014189370907843113,-0.7793283462524414
1682448583.57939506,42295891,2,0.6270950436592102,0.009757745079696178,0.014253458008170128,-0.7787511944770813
1682448583.67939901,42395895,2,0.6267992854118347,0.009366671554744244,0.014340470544993877,-0.7789924740791321
1682448583.77943492,42495931,2,0.6273095607757568,0.009616055525839329,0.014303104020655155,-0.7785792350769043
1682448583.87939906,42595895,2,0.6278359889984131,0.009653547778725624,0.014377303421497345,-0.7781529426574707
1682448583.97947812,42695974,2,0.6269149780273438,0.009656904265284538,0.014485622756183147,-0.7788931131362915
1682448584.07939196,42795888,2,0.6275641918182373,0.009504792280495167,0.014496268704533577,-0.7783718109130859
1682448584.17942595,42895922,2,0.6283202767372131,0.009337037801742554,0.014630605466663837,-0.7777611613273621
1682448584.27939391,42995890,2,0.6279779672622681,0.009343377314507961,0.014614207670092583,-0.7780377864837646
1682448584.37938905,43095885,2,0.6282474398612976,0.009324910119175911,0.014668320305645466,-0.7778193950653076
1682448584.47939706,43195893,2,0.6288514733314514,0.009341269731521606,0.01430780440568924,-0.7773376703262329
1682448584.57939100,43295887,2,0.6284513473510742,0.009480799548327923,0.014324861578643322,-0.7776592373847961
1682448584.67943311,43395929,2,0.628510057926178,0.009507304057478905,0.014076100662350655,-0.7776159644126892
1682448584.77939892,43495895,2,0.6287338137626648,0.009524748660624027,0.014319936744868755,-0.7774303555488586
1682448584.87947702,43595973,2,0.6281821727752686,0.009853742085397243,0.01360783539712429,-0.7778849005699158
1682448584.97939110,43695887,2,0.6279938817024231,0.0098256291821599,0.013923047110438347,-0.7780316472053528
1682448585.07942200,43795918,2,0.6280803680419922,0.009924551472067833,0.01413964293897152,-0.7779567241668701
1682448585.17939305,43895889,2,0.6277010440826416,0.009996606037020683,0.013909992761909962,-0.7782660126686096
1682448585.27939391,43995890,2,0.6279281377792358,0.009756918996572495,0.01439355406910181,-0.7780770659446716
1682448585.37939000,44095886,2,0.6270753741264343,0.010260997340083122,0.013866521418094635,-0.7787675261497498
1682448585.47940397,44195900,2,0.6271495819091797,0.010143502615392208,0.014131903648376465,-0.7787045240402222
1682448585.57943892,44295935,2,0.6275956034660339,0.010271048173308372,0.014038249850273132,-0.7783451676368713
1682448585.67939711,44395893,2,0.6276945471763611,0.010259880684316158,0.01387739460915327,-0.7782683968544006
1682448585.77947998,44495976,2,0.6276886463165283,0.01009567454457283,0.014000918716192245,-0.7782731056213379
1682448585.87939501,44595891,2,0.6274722814559937,0.010283220559358597,0.013955285772681236,-0.7784458994865417
1682448585.97941899,44695915,2,0.6276742815971375,0.01034398004412651,0.013811697252094746,-0.7782847881317139
1682448586.07939196,44795888,2,0.6277704238891602,0.010172256268560886,0.014311443082988262,-0.7782004475593567
1682448586.17939711,44895893,2,0.628006637096405,0.010371100157499313,0.013856860809028149,-0.7780154347419739
1682448586.27939296,44995889,2,0.6283000111579895,0.010000727139413357,0.014536786824464798,-0.7777710556983948
1682448586.37940192,45095898,2,0.6282453536987305,0.00999264232814312,0.014067252166569233,-0.7778238654136658
1682448586.47943902,45195935,2,0.6284788250923157,0.009921667166054249,0.01432405598461628,-0.7776315212249756
1682448586.57939696,45295893,2,0.6289584636688232,0.009911592118442059,0.014253687113523483,-0.777245044708252
1682448586.67947793,45395974,2,0.6291190981864929,0.009882367216050625,0.01406027004122734,-0.7771189212799072
1682448586.77939296,45495889,2,0.6292949318885803,0.009597064927220345,0.014241345226764679,-0.7769768238067627
1682448586.87942290,45595919,2,0.6296163201332092,0.00975076574832201,0.01412966288626194,-0.7767165303230286
1682448586.97938991,45695886,2,0.6299113035202026,0.009481276385486126,0.013990463688969612,-0.7764831781387329
1682448587.07939291,45795889,2,0.6298560500144958,0.00947229191660881,0.014095176942646503,-0.7765262126922607
1682448587.17939305,45895889,2,0.6296955943107605,0.009254883043467999,0.013949735090136528,-0.7766615748405457
1682448587.27939010,45995886,2,0.6298805475234985,0.00929928570985794,0.01404800359159708,-0.7765092849731445
1682448587.37943411,46095930,2,0.6301172971725464,0.009467327035963535,0.013838114216923714,-0.7763189077377319
1682448587.47939301,46195889,2,0.6296743154525757,0.009273475036025047,0.014033501036465168,-0.7766770720481873
1682448587.57947397,46295970,2,0.6302056312561035,0.00924103893339634,0.01432215329259634,-0.7762411236763
1682448587.67938805,46395884,2,0.6305332183837891,0.00924937054514885,0.014066752977669239,-0.7759796380996704
1682448587.77942300,46495919,2,0.6303322911262512,0.00891384668648243,0.014113418757915497,-0.7761459946632385
1682448587.87939906,46595895,2,0.6306366920471191,0.009043850004673004,0.014139803126454353,-0.7758966684341431
1682448587.97938991,46695886,2,0.6304805278778076,0.008664973080158234,0.01433362066745758,-0.776024341583252
1682448588.07939410,46795890,2,0.6305466294288635,0.008468334563076496,0.014586936682462692,-0.775968074798584
1682448588.17939591,46895892,2,0.6309776902198792,0.0083860969170928,0.014653705060482025,-0.775617241859436
1682448588.27943611,46995932,2,0.6306865215301514,0.008161267265677452,0.014702987857162952,-0.7758554816246033
1682448588.37939000,47095886,2,0.6307216286659241,0.008327852934598923,0.014878658577799797,-0.7758218050003052
1682448588.47947907,47195975,2,0.6309509873390198,0.008012098260223866,0.01526249386370182,-0.7756311893463135
1682448588.57939410,47295890,2,0.630885124206543,0.008095527067780495,0.015090782195329666,-0.7756872773170471
1682448588.67942190,47395918,2,0.6308968663215637,0.007929041981697083,0.015455442480742931,-0.775672197341919
1682448588.77939391,47495890,2,0.6308662295341492,0.00824369490146637,0.015210906974971294,-0.775698721408844
1682448588.87938809,47595884,2,0.6308519244194031,0.008139478042721748,0.015383762307465076,-0.775708019733429
1682448588.97939110,47695887,2,0.6310806274414062,0.008338265120983124,0.015089962631464005,-0.7755256295204163
1682448589.07939291,47795889,2,0.6309685111045837,0.008862121030688286,0.014820891432464123,-0.7756162285804749
1682448589.17943597,47895932,2,0.63090980052948,0.00877029076218605,0.014814489521086216,-0.7756651639938354
1682448589.27939391,47995890,2,0.6309371590614319,0.009313296526670456,0.01440209336578846,-0.7756443619728088
1682448589.37946391,48095960,2,0.6307737827301025,0.009140933863818645,0.014404949732124805,-0.7757791876792908
1682448589.47939301,48195889,2,0.6309133172035217,0.008774538524448872,0.014863666146993637,-0.775661289691925
1682448589.57942510,48295921,2,0.6311834454536438,0.008883059024810791,0.014886267483234406,-0.7754398584365845
1682448589.67939591,48395892,2,0.6310122609138489,0.008543984964489937,0.015525959432125092,-0.7755704522132874
1682448589.77939296,48495889,2,0.6310998797416687,0.008859959430992603,0.015243534930050373,-0.7755011320114136
1682448589.87939310,48595889,2,0.6311004757881165,0.009685463272035122,0.013999173417687416,-0.7755143046379089
1682448589.97939110,48695887,2,0.630717933177948,0.008856579661369324,0.014603670686483383,-0.7758241891860962
1682448590.07943511,48795931,2,0.6311308145523071,0.009736784733831882,0.01377399917691946,-0.7754929661750793
1682448590.17939711,48895893,2,0.6315244436264038,0.008557990193367004,0.014563040807843208,-0.7751719951629639
1682448590.27948904,48995985,2,0.6311620473861694,0.00985655840486288,0.013403238728642464,-0.7754725217819214
1682448590.37939095,49095887,2,0.6313271522521973,0.008942093700170517,0.014669244177639484,-0.7753263115882874
1682448590.47942591,49195922,2,0.6315242052078247,0.009769530966877937,0.013523170724511147,-0.7751766443252563
1682448590.57944608,49295942,2,0.6313344836235046,0.009080715477466583,0.014478829689323902,-0.7753223180770874
1682448590.67938995,49395886,2,0.6313458681106567,0.009688099846243858,0.013838820159435272,-0.775317370891571
1682448590.77939296,49495889,2,0.6315715312957764,0.009434059262275696,0.01423006784170866,-0.7751296162605286
1682448590.87940598,49595902,2,0.6314529180526733,0.009582684375345707,0.014165308326482773,-0.7752255797386169
1682448590.97943211,49695928,2,0.6315310597419739,0.00972259882837534,0.013985004276037216,-0.775163471698761
1682448591.07939196,49795888,2,0.6317473649978638,0.00944591872394085,0.014408979564905167,-0.7749828696250916
1682448591.17946696,49895963,2,0.6316018104553223,0.009901804849505424,0.01383561734110117,-0.7751062512397766
1682448591.27939105,49995887,2,0.6316167116165161,0.009383994154632092,0.014465847983956337,-0.7750890254974365
1682448591.37941909,50095915,2,0.6317577958106995,0.009975449182093143,0.013773898594081402,-0.7749792337417603
1682448591.47939301,50195889,2,0.6316911578178406,0.009450158104300499,0.014499499462544918,-0.7750269174575806
1682448591.57939506,50295891,2,0.631736159324646,0.009997561573982239,0.013794275000691414,-0.774996280670166
1682448591.67938995,50395886,2,0.6318623423576355,0.009565227665007114,0.014402949251234531,-0.77488774061203
1682448591.77940106,50495897,2,0.6317225694656372,0.010114955715835094,0.013754687272012234,-0.7750064730644226
1682448591.87944198,50595938,2,0.6318269968032837,0.009779710322618484,0.014256845228374004,-0.7749165892601013
1682448591.97938991,50695886,2,0.631957471370697,0.010205267928540707,0.013842347078025341,-0.7748122215270996
1682448592.07947397,50795970,2,0.6318137049674988,0.009934784844517708,0.014109027571976185,-0.7749282121658325
1682448592.17939806,50895894,2,0.6318564414978027,0.009887518361210823,0.014196320436894894,-0.7748923301696777
1682448592.27941895,50995915,2,0.6318726539611816,0.010082961060106754,0.014061396941542625,-0.7748790979385376
1682448592.37939310,51095889,2,0.6317769289016724,0.009801140055060387,0.01425868645310402,-0.7749571204185486
1682448592.47939491,51195891,2,0.6318379640579224,0.01035902090370655,0.013897381722927094,-0.7749066948890686
1682448592.57939410,51295890,2,0.6318126320838928,0.009840750135481358,0.014324730262160301,-0.7749263048171997
1682448592.67940211,51395898,2,0.6319169998168945,0.01010905485600233,0.013735659420490265,-0.7748484015464783
1682448592.77943611,51495932,2,0.6320824027061462,0.009798540733754635,0.014221959747374058,-0.7747086882591248
1682448592.87938905,51595885,2,0.6319634318351746,0.010181529447436333,0.013800336048007011,-0.774808406829834
1682448592.97947001,51695966,2,0.632093608379364,0.010023761540651321,0.0141653036698699,-0.7746977210044861
1682448593.07939410,51795890,2,0.6321297883987427,0.010251262225210667,0.013806696981191635,-0.774671733379364
1682448593.17942190,51895918,2,0.632027804851532,0.010246561840176582,0.014058000408113003,-0.7747504711151123
1682448593.27939606,51995892,2,0.6324095726013184,0.010320674628019333,0.013868667185306549,-0.7744413018226624
1682448593.37939095,52095887,2,0.6322005987167358,0.010452103801071644,0.013963703066110611,-0.7746083736419678
1682448593.47939396,52195890,2,0.6320468187332153,0.010204162448644638,0.014090944081544876,-0.7747349143028259
1682448593.57941604,52295912,2,0.6323157548904419,0.010246789082884789,0.014109622687101364,-0.7745144963264465
1682448593.67943311,52395929,2,0.6320742964744568,0.010345983318984509,0.013996172696352005,-0.774712324142456
1682448593.77940011,52495896,2,0.6319774389266968,0.010227186605334282,0.013970727100968361,-0.7747933268547058
1682448593.87948298,52595979,2,0.6320770382881165,0.010674511082470417,0.013966921716928482,-0.7747061252593994
1682448593.97938991,52695886,2,0.6319355368614197,0.010500617325305939,0.013768876902759075,-0.7748274803161621
1682448594.07942295,52795919,2,0.6318114995956421,0.010450350120663643,0.014152969233691692,-0.7749223709106445
1682448594.17940307,52895899,2,0.6321777105331421,0.010635438375175,0.013682673685252666,-0.7746295928955078
1682448594.27939200,52995888,2,0.6322699189186096,0.010698266327381134,0.01361783780157566,-0.7745546102523804
1682448594.37939095,53095887,2,0.6321043968200684,0.010971288196742535,0.013471606187522411,-0.7746884226799011
1682448594.47942209,53195918,2,0.632408082485199,0.010546674020588398,0.013566750101745129,-0.7744447588920593
1682448594.57944107,53295937,2,0.6321843266487122,0.01129118911921978,0.013271835632622242,-0.7746220827102661
1682448594.67939091,53395887,2,0.6322100162506104,0.010791285894811153,0.013580409809947014,-0.7746028900146484
1682448594.77947092,53495967,2,0.6325588226318359,0.011347463354468346,0.013507739640772343,-0.774311363697052
1682448594.87939000,53595886,2,0.6324670314788818,0.010809661820530891,0.013295430690050125,-0.7743977308273315
1682448594.97941899,53695915,2,0.6325505971908569,0.010942784138023853,0.013694463297724724,-0.774320662021637
1682448595.07939911,53795895,2,0.6325551867485046,0.011143255978822708,0.01339636743068695,-0.7743192315101624
1682448595.17939210,53895888,2,0.6324360966682434,0.010899615474045277,0.014006652869284153,-0.7744091749191284
1682448595.27939391,53995890,2,0.6329067349433899,0.011322572827339172,0.013638933189213276,-0.7740250825881958
1682448595.37941408,54095910,2,0.632780134677887,0.010756728239357471,0.013879498466849327,-0.7741323709487915
1682448595.47943497,54195931,2,0.6322788596153259,0.010620782151818275,0.014106253162026405,-0.7745396494865417
1682448595.57939792,54295894,2,0.6325585842132568,0.011090915650129318,0.01418366003781557,-0.7743031978607178
1682448595.67947292,54395969,2,0.6325046420097351,0.010669419541954994,0.014509964734315872,-0.774347186088562
1682448595.77939200,54495888,2,0.6321848034858704,0.01024022325873375,0.014723396860063076,-0.7746100425720215
1682448595.87942791,54595924,2,0.6320009827613831,0.010391667485237122,0.015212752856314182,-0.7747485637664795
1682448595.97939205,54695888,2,0.6317259073257446,0.010007841512560844,0.015216546133160591,-0.7749778628349304
1682448596.07939291,54795889,2,0.63209468126297,0.010448438115417957,0.015169980935752392,-0.7746722102165222
1682448596.17939711,54895893,2,0.6321704983711243,0.010069658048450947,0.015289263799786568,-0.7746130228042603
1682448596.27940893,54995905,2,0.6316027045249939,0.01014914270490408,0.015483720228075981,-0.7750711441040039
1682448596.37943101,55095927,2,0.6320279240608215,0.010306456126272678,0.015470988117158413,-0.7747225761413574
1682448596.47939610,55195892,2,0.6319643259048462,0.009942356497049332,0.01536292303353548,-0.7747814059257507
1682448596.57947206,55295968,2,0.6317234635353088,0.009807716123759747,0.014864414930343628,-0.7749892473220825
1682448596.67938900,55395885,2,0.6321091055870056,0.010099031962454319,0.014653323218226433,-0.7746750116348267
1682448596.77942204,55495918,2,0.6324171423912048,0.00995595008134842,0.014061595313251019,-0.774436354637146
1682448596.87940001,55595896,2,0.6327502727508545,0.010282611474394798,0.013770251534879208,-0.7741652131080627
1682448596.97938991,55695886,2,0.6327046751976013,0.01015943568199873,0.013981967233121395,-0.7742002606391907
1682448597.07939291,55795889,2,0.6324508786201477,0.009876173920929432,0.01432337611913681,-0.7744050621986389
1682448597.17940402,55895900,2,0.6323908567428589,0.010410621762275696,0.013980095274746418,-0.774453341960907
1682448597.27943611,55995932,2,0.6326809525489807,0.009809945710003376,0.014173805713653564,-0.7742207050323486
1682448597.37939095,56095887,2,0.6327056288719177,0.01021204050630331,0.014073411002755165,-0.7741971611976624
1682448597.47947001,56195966,2,0.6323927640914917,0.010345961898565292,0.01376561913639307,-0.7744565010070801
1682448597.57939601,56295892,2,0.6330680847167969,0.009648771025240421,0.013912089169025421,-0.7739109396934509
1682448597.67942190,56395918,2,0.6322481632232666,0.00997073296457529,0.013898931443691254,-0.7745770812034607
1682448597.77940011,56495896,2,0.632112979888916,0.008540729060769081,0.015079708769917488,-0.7746824026107788
1682448597.87939405,56595890,2,0.6330158710479736,0.009520852006971836,0.014699752442538738,-0.7739406824111938
1682448597.97939110,56695887,2,0.6326526999473572,0.009545199573040009,0.014177898876369,-0.7742470502853394
1682448598.07940412,56795900,2,0.6322376132011414,0.010072759352624416,0.014201335608959198,-0.774578869342804
1682448598.17944098,56895937,2,0.6324341893196106,0.009391479194164276,0.014483059756457806,-0.774421751499176
1682448598.27939010,56995886,2,0.6324620842933655,0.010433686897158623,0.013252110220491886,-0.774407684803009
1682448598.37946796,57095964,2,0.6326720118522644,0.009687972255051136,0.014445114880800247,-0.7742245197296143
1682448598.47939610,57195892,2,0.6329588294029236,0.009169553406536579,0.01478252187371254,-0.7739900350570679
1682448598.57941890,57295915,2,0.6330227255821228,0.009914306923747063,0.013856776058673859,-0.773945689201355
1682448598.67939711,57395893,2,0.6329960227012634,0.009880181401968002,0.014243343845009804,-0.7739609479904175
1682448598.77939296,57495889,2,0.6327106356620789,0.010567480698227882,0.013174677267670631,-0.7742041349411011
1682448598.87946796,57595964,2,0.6331267356872559,0.009593832306563854,0.014783439226448536,-0.7738475203514099
1682448598.97940111,57695897,2,0.633398711681366,0.010478406213223934,0.01384231448173523,-0.7736308574676514
1682448599.07943511,57795931,2,0.633305013179779,0.009199775755405426,0.014941921457648277,-0.7737033367156982
1682448599.17939591,57895892,2,0.6335253119468689,0.010100798681378365,0.014642150141298771,-0.7735174298286438
1682448599.27947497,57995971,2,0.6340689063072205,0.008851141668856144,0.015364150516688824,-0.7730732560157776
1682448599.37939000,58095886,2,0.6339113116264343,0.009940499439835548,0.014649540185928345,-0.7732030749320984
1682448599.47942710,58195923,2,0.6329827904701233,0.009965166449546814,0.014319516718387604,-0.7739692330360413
1682448599.57940197,58295898,2,0.6330101490020752,0.009738096036016941,0.014104838483035564,-0.7739537358283997
1682448599.67939091,58395887,2,0.633309543132782,0.009684719145298004,0.014536425471305847,-0.7737014293670654
1682448599.77939296,58495889,2,0.6335821151733398,0.009503904730081558,0.014801735058426857,-0.7734754681587219
1682448599.87939310,58595889,2,0.6344612240791321,0.010448827408254147,0.014162990264594555,-0.7727542519569397
1682448599.97943401,58695930,2,0.632878839969635,0.008587178774178028,0.015592370182275772,-0.7740461826324463
1682448600.07939196,58795888,2,0.6330840587615967,0.011665165424346924,0.012574359774589539,-0.7738929986953735
1682448600.17947698,58895973,2,0.6345212459564209,0.008646074682474136,0.016487251967191696,-0.7726811766624451
1682448600.27939200,58995888,2,0.6327854990959167,0.010599601082503796,0.012715274468064308,-0.7741501927375793
1682448600.37942004,59095916,2,0.6334766745567322,0.009071975015103817,0.016311267390847206,-0.7735366225242615
1682448600.47939610,59195892,2,0.634315550327301,0.010601977817714214,0.013249152339994907,-0.7728880047798157
1682448600.57938910,59295885,2,0.6332239508628845,0.008938895538449287,0.015615594573318958,-0.7737594246864319
1682448600.67939210,59395888,2,0.6334559917449951,0.010355310514569283,0.013975542970001698,-0.773583173751831
1682448600.77939606,59495892,2,0.6343222856521606,0.009301244281232357,0.014963860623538494,-0.7728679180145264
1682448600.87943602,59595932,2,0.6337504386901855,0.010779774747788906,0.014365890994668007,-0.7733290195465088
1682448600.97939110,59695887,2,0.6339058876037598,0.01006731204688549,0.014922207221388817,-0.7732006907463074
1682448601.07947206,59795968,2,0.6340770721435547,0.00906369462609291,0.015385404229164124,-0.7730636596679688
1682448601.17939210,59895888,2,0.6338273286819458,0.010233878158032894,0.014620348811149597,-0.7732686400413513
1682448601.27942491,59995921,2,0.634208619594574,0.008932774886488914,0.01556735672056675,-0.7729536294937134
1682448601.37939692,60095893,2,0.6348768472671509,0.010335806757211685,0.014094234444200993,-0.7724156379699707
1682448601.47940397,60195900,2,0.6345076560974121,0.009077477268874645,0.015973899513483047,-0.772698163986206
1682448601.57940102,60295897,2,0.6338014006614685,0.01023494079709053,0.014251281507313251,-0.7732968330383301
1682448601.67940497,60395901,2,0.6348841190338135,0.008977486751973629,0.015719152987003326,-0.7723952531814575
1682448601.77943993,60495936,2,0.6353999376296997,0.010384379886090755,0.014357343316078186,-0.7719798684120178
1682448601.87939405,60595890,2,0.633731484413147,0.009358684532344341,0.01582966186106205,-0.7733345031738281
1682448601.97947192,60695968,2,0.6345489621162415,0.00949114840477705,0.014574787579476833,-0.7726869583129883
1682448602.07939196,60795888,2,0.6364337801933289,0.010001436807215214,0.014773369766771793,-0.7711249589920044
1682448602.17942595,60895922,2,0.6337305307388306,0.008731640875339508,0.01589873991906643,-0.773341178894043
1682448602.27940011,60995896,2,0.6337327361106873,0.009994439780712128,0.014411244541406631,-0.7733532190322876
1682448602.37939095,61095887,2,0.6364434957504272,0.009697196073830128,0.015593313612043858,-0.7711046934127808
1682448602.47939491,61195891,2,0.6351975798606873,0.010112778283655643,0.014292792417109013,-0.7721512317657471
1682448602.57939005,61295886,2,0.6339243650436401,0.009384135715663433,0.015742456540465355,-0.7731778621673584
1682448602.67943192,61395928,2,0.6352342367172241,0.009265474043786526,0.015014788135886192,-0.7721179723739624
1682448602.77939701,61495893,2,0.6353409886360168,0.009994826279580593,0.014843146316707134,-0.7720243334770203
1682448602.87947392,61595970,2,0.6335948705673218,0.01022129226475954,0.015260569751262665,-0.7734469771385193
1682448602.97938991,61695886,2,0.6347415447235107,0.009671988897025585,0.014957367442548275,-0.7725191712379456
1682448603.07942104,61795917,2,0.6353195309638977,0.01033291406929493,0.014965195208787918,-0.7720351815223694
1682448603.17939305,61895889,2,0.6336674094200134,0.009635155089199543,0.015097375027835369,-0.7733982801437378
1682448603.27939200,61995888,2,0.6347795724868774,0.010168180800974369,0.014702794142067432,-0.7724864482879639
1682448603.37939191,62095888,2,0.6352441310882568,0.009676511399447918,0.01514321006834507,-0.7721022963523865
1682448603.47942090,62195917,2,0.6338760256767273,0.009989946149289608,0.014527463354170322,-0.7732337117195129
1682448603.57944107,62295937,2,0.634861409664154,0.009801024571061134,0.015192405320703983,-0.77241450548172
1682448603.67939091,62395887,2,0.6352290511131287,0.009724486619234085,0.014452418312430382,-0.7721273303031921
1682448603.77947903,62495975,2,0.6342819333076477,0.009453404694795609,0.01482899859547615,-0.7729017734527588
1682448603.87939692,62595893,2,0.635326623916626,0.009489412419497967,0.014250881969928741,-0.7720537185668945
1682448603.97941899,62695915,2,0.6357801556587219,0.009356454014778137,0.014190727844834328,-0.7716829776763916
1682448604.07939100,62795887,2,0.6348539590835571,0.009501608088612556,0.014216460287570953,-0.7724429368972778
1682448604.17939591,62895892,2,0.6355016827583313,0.009518665261566639,0.013955122791230679,-0.7719146609306335
1682448604.27944708,62995943,2,0.6357149481773376,0.009418515488505363,0.014346322976052761,-0.7717331051826477
1682448604.37941098,63095907,2,0.6342694759368896,0.009960939176380634,0.014350797981023788,-0.7729146480560303
1682448604.47944093,63195937,2,0.6350217461585999,0.009440524503588676,0.014530166983604431,-0.7722998857498169
1682448604.57939100,63295887,2,0.6356507539749146,0.010014792904257774,0.01443473156541586,-0.7717768549919128
1682448604.67946792,63395964,2,0.6344166994094849,0.009576920419931412,0.014668597839772701,-0.7727926969528198
1682448604.77940106,63495897,2,0.6351063251495361,0.009800182655453682,0.01454093772917986,-0.7722256779670715
1682448604.87943506,63595931,2,0.635516345500946,0.009793989360332489,0.014705415815114975,-0.7718852162361145
1682448604.97940111,63695897,2,0.6345593929290771,0.00937261339277029,0.014583633281290531,-0.7726796269416809
1682448605.07939911,63795895,2,0.6352149844169617,0.01012541726231575,0.014521506614983082,-0.7721324563026428
1682448605.17939591,63895892,2,0.6352412104606628,0.009712421335279942,0.014776473864912987,-0.7721113562583923
1682448605.27939105,63995887,2,0.6347696185112,0.010070591233670712,0.014252947643399239,-0.7725043296813965
1682448605.37943292,64095929,2,0.6354460120201111,0.00992374587804079,0.014637784101068974,-0.7719427347183228
1682448605.47939396,64195890,2,0.6353167295455933,0.010030697099864483,0.014071577228605747,-0.7720583081245422
1682448605.57947993,64295976,2,0.634959876537323,0.009957058355212212,0.014366726391017437,-0.7723473310470581
1682448605.67939091,64395887,2,0.6355680823326111,0.009880452416837215,0.014097576029598713,-0.7718528509140015
1682448605.77942300,64495919,2,0.6354302763938904,0.00995177123695612,0.01412926521152258,-0.7719648480415344
1682448605.87941098,64595907,2,0.6350878477096558,0.009799360297620296,0.014424445107579231,-0.7722430229187012
1682448605.97940207,64695898,2,0.635600209236145,0.010006486438214779,0.014098500832915306,-0.7718247771263123
1682448606.07939410,64795890,2,0.6354514360427856,0.009728457778692245,0.014482825063169003,-0.7719437479972839
1682448606.17939806,64895894,2,0.6350057721138,0.010019258596003056,0.01419065985828638,-0.7723120450973511
1682448606.27943397,64995930,2,0.6354882717132568,0.009600046090781689,0.014555484987795353,-0.7719136476516724
1682448606.37939501,65095891,2,0.6353346705436707,0.010250695049762726,0.013776282779872417,-0.7720459699630737
1682448606.47947192,65195968,2,0.63515704870224,0.009680374525487423,0.014366124756634235,-0.7721887230873108
1682448606.57939196,65295888,2,0.6356088519096375,0.010130458511412144,0.013878635130822659,-0.771820068359375
1682448606.67942095,65395917,2,0.6354451775550842,0.009733010083436966,0.01437682006508112,-0.7719507813453674
1682448606.77939391,65495890,2,0.6352534294128418,0.010275102220475674,0.013917163945734501,-0.7721099853515625
1682448606.87940502,65595901,2,0.6354475617408752,0.010003333911299706,0.014368315227329731,-0.7719455361366272
1682448606.97939301,65695889,2,0.6353169679641724,0.00982868205755949,0.014290766790509224,-0.7720566987991333
1682448607.07940412,65795900,2,0.6351842880249023,0.010040244087576866,0.014250087551772594,-0.7721638679504395
1682448607.17943692,65895933,2,0.6352789998054504,0.009643128141760826,0.014628307893872261,-0.7720839381217957
1682448607.27939892,65995895,2,0.6352466940879822,0.0100721325725317,0.014175120741128922,-0.7721135020256042
1682448607.37948108,66095977,2,0.6351175904273987,0.009517676196992397,0.014942985959351063,-0.7722122669219971
1682448607.47939301,66195889,2,0.635174036026001,0.009881773963570595,0.014426270499825478,-0.7721710801124573
1682448607.57943392,66295930,2,0.6352375149726868,0.009543949738144875,0.014851820655167103,-0.7721150517463684
1682448607.67940712,66395903,2,0.6352512836456299,0.009535923600196838,0.01462550275027752,-0.7721081376075745
1682448607.77940106,66495897,2,0.6352332234382629,0.00954348873347044,0.01483331061899662,-0.7721189260482788
1682448607.87940192,66595898,2,0.63523930311203,0.009283839724957943,0.014920184388756752,-0.7721154093742371
1682448607.97939491,66695891,2,0.6353778839111328,0.009501448832452297,0.014786616899073124,-0.772001326084137
1682448608.07944202,66795938,2,0.63531094789505,0.009472432546317577,0.014856360852718353,-0.7720553874969482
1682448608.17939711,66895893,2,0.6352607011795044,0.009487716481089592,0.014883811585605145,-0.7720960378646851
1682448608.27947593,66995972,2,0.6353092789649963,0.009351758286356926,0.014923560433089733,-0.7720569968223572
1682448608.37939000,67095886,2,0.6352753043174744,0.009500776417553425,0.014766535721719265,-0.7720861434936523
1682448608.47942400,67195920,2,0.6353939175605774,0.00931483879685402,0.014885881915688515,-0.7719884514808655
1682448608.57940006,67295896,2,0.6352532505989075,0.009466586634516716,0.015091192908585072,-0.7720984220504761
1682448608.67940807,67395904,2,0.6351969838142395,0.009525454603135586,0.014784527011215687,-0.772149920463562
1682448608.77939200,67495888,2,0.6355605721473694,0.009413729421794415,0.014843647368252277,-0.7718508839607239
1682448608.87939906,67595895,2,0.6355841755867004,0.009744012728333473,0.014386546798050404,-0.7718360424041748
1682448608.97943902,67695935,2,0.6355317234992981,0.00949203222990036,0.014610109850764275,-0.7718781232833862
1682448609.07939196,67795888,2,0.6357550024986267,0.009293580427765846,0.014811025932431221,-0.7716928720474243
1682448609.17946792,67895964,2,0.6356030106544495,0.00933058187365532,0.014925755560398102,-0.7718153595924377
1682448609.27939796,67995894,2,0.63556969165802,0.009529709815979004,0.01464885100722313,-0.7718456387519836
1682448609.37941790,68095914,2,0.6357609033584595,0.009690305218100548,0.01458020694553852,-0.7716875076293945
1682448609.47939396,68195890,2,0.6354941129684448,0.0097526665776968,0.0145811066031456,-0.7719063758850098
1682448609.57940197,68295898,2,0.6356348395347595,0.009502865374088287,0.014568720012903214,-0.7717939019203186
1682448609.67938995,68395886,2,0.6357183456420898,0.009842992760241032,0.014326103031635284,-0.7717253565788269
1682448609.77939510,68495891,2,0.6354299187660217,0.009642607532441616,0.014333215542137623,-0.7719652652740479
1682448609.87943912,68595935,2,0.6356434226036072,0.009882824495434761,0.014320279471576214,-0.7717866897583008
1682448609.97939205,68695888,2,0.6356102824211121,0.009619547985494137,0.014411866664886475,-0.7718155980110168
1682448610.07946491,68795961,2,0.6354001760482788,0.009742959402501583,0.014383891597390175,-0.7719875574111938
1682448610.17939806,68895894,2,0.6356017589569092,0.00944984145462513,0.01443480420857668,-0.771824300289154
1682448610.27941799,68995914,2,0.6354969143867493,0.009476401843130589,0.014471621252596378,-0.7719095945358276
1682448610.37939692,69095893,2,0.6354038715362549,0.009875543415546417,0.014009112492203712,-0.7719897627830505
1682448610.47939301,69195889,2,0.6357818841934204,0.009599152952432632,0.01422457117587328,-0.7716779708862305
1682448610.57939410,69295890,2,0.6355022192001343,0.009435281157493591,0.01402695570141077,-0.7719139456748962
1682448610.67939305,69395889,2,0.635490894317627,0.010058626532554626,0.014579470269382,-0.7719051241874695
1682448610.77943707,69495933,2,0.6354525089263916,0.009821801446378231,0.014168369583785534,-0.77194744348526
1682448610.87939692,69595893,2,0.6356320977210999,0.009675577282905579,0.014181970618665218,-0.7718011736869812
1682448610.97947502,69695971,2,0.6357192993164062,0.009859335608780384,0.014660286717116833,-0.7717180848121643
1682448611.07939005,69795886,2,0.6354895234107971,0.009374130517244339,0.014145072549581528,-0.7719230055809021
1682448611.17942905,69895925,2,0.6357911229133606,0.009911186061799526,0.014407258480787277,-0.7716630101203918
1682448611.27940011,69995896,2,0.6356272101402283,0.009310267865657806,0.014293870888650417,-0.7718076109886169
1682448611.37939095,70095887,2,0.6355636715888977,0.00978119857609272,0.01418623048812151,-0.7718561291694641
1682448611.47939801,70195894,2,0.6358250379562378,0.009394936263561249,0.01450859010219574,-0.7716396450996399
1682448611.57939506,70295891,2,0.6356238722801208,0.009640823118388653,0.01409224234521389,-0.7718100547790527
1682448611.67943096,70395927,2,0.635553240776062,0.00957331620156765,0.014614549465477467,-0.771859347820282
1682448611.77939200,70495888,2,0.6357263922691345,0.009364460594952106,0.014228376559913158,-0.7717264890670776
1682448611.87948394,70595980,2,0.6357100605964661,0.009440260007977486,0.014527879655361176,-0.7717334628105164
1682448611.97939301,70695889,2,0.6355677247047424,0.009599956683814526,0.01407552044838667,-0.7718570828437805
1682448612.07941890,70795915,2,0.6358228325843811,0.009527855552732944,0.014478137716650963,-0.771640419960022
1682448612.17939806,70895894,2,0.6356830596923828,0.009969066828489304,0.014626695774495602,-0.7717472314834595
1682448612.27939200,70995888,2,0.6354179978370667,0.010484573431313038,0.01498336624354124,-0.7719517946243286
1682448612.37938905,71095885,2,0.6356714963912964,0.009417286142706871,0.014138168655335903,-0.7717727422714233
1682448612.47941899,71195915,2,0.6360926628112793,0.008966859430074692,0.014033149927854538,-0.7714329361915588
1682448612.57943702,71295933,2,0.635688841342926,0.010535343550145626,0.014727677218616009,-0.7717329859733582
1682448612.67939210,71395888,2,0.6352081298828125,0.009267499670386314,0.01454615592956543,-0.7721484303474426
1682448612.77947807,71495974,2,0.6363344788551331,0.009401666931807995,0.013465186581015587,-0.7712384462356567
1682448612.87939310,71595889,2,0.6360268592834473,0.00998002290725708,0.015037759207189083,-0.7714558243751526
1682448612.97943091,71695927,2,0.6350293755531311,0.009448038414120674,0.013561963103711605,-0.7723110914230347
1682448613.07940912,71795905,2,0.6364293098449707,0.009762483648955822,0.014574991539120674,-0.7711355090141296
1682448613.17940807,71895904,2,0.6358941793441772,0.00984285306185484,0.014159265905618668,-0.771583616733551
1682448613.27939892,71995895,2,0.634945809841156,0.010159548372030258,0.014493606053292751,-0.7723538875579834
1682448613.37940001,72095896,2,0.6359277963638306,0.009635093621909618,0.014675392769277096,-0.771548867225647
1682448613.47943807,72195934,2,0.636196494102478,0.0093856081366539,0.013341745361685753,-0.771354615688324
1682448613.57939410,72295890,2,0.6352357268333435,0.010190856643021107,0.015084084123373032,-0.7721037268638611
1682448613.67946911,72395965,2,0.6353911757469177,0.009374993853271008,0.013576901517808437,-0.7720141410827637
1682448613.77939200,72495888,2,0.6364553570747375,0.009547467343509197,0.014438731595873833,-0.7711192965507507
1682448613.87943196,72595928,2,0.6352668404579163,0.0099790059030056,0.01411413587629795,-0.7720992565155029
1682448613.97939610,72695892,2,0.6354139447212219,0.009114178828895092,0.01396957878023386,-0.771991491317749
1682448614.07939100,72795887,2,0.6364742517471313,0.010043688118457794,0.014131003059446812,-0.7711030840873718
1682448614.17940712,72895903,2,0.635159432888031,0.00946201290935278,0.01395120657980442,-0.7721970677375793
1682448614.27939105,72995887,2,0.6354209780693054,0.009523363783955574,0.014278745278716087,-0.7719751000404358
1682448614.37943912,73095935,2,0.6362725496292114,0.009844529442489147,0.013948806561529636,-0.7712754011154175
1682448614.47939301,73195889,2,0.6351813673973083,0.00936073623597622,0.014285162091255188,-0.7721741795539856
1682448614.57947397,73295970,2,0.6355067491531372,0.009897323325276375,0.014016449451446533,-0.7719046473503113
1682448614.67939496,73395891,2,0.6362338066101074,0.009386181831359863,0.014246651902794838,-0.771307647228241
1682448614.77942991,73495926,2,0.6353451609611511,0.009847505949437618,0.013930262997746468,-0.7720398306846619
1682448614.87941313,73595909,2,0.6356514096260071,0.009574920870363712,0.014259027317166328,-0.7717851400375366
1682448614.97940707,73695903,2,0.6362830996513367,0.009827855043113232,0.013913469389081001,-0.7712675333023071
1682448615.07939196,73795888,2,0.6354250907897949,0.009647696278989315,0.014175753109157085,-0.771972119808197
1682448615.17939496,73895891,2,0.6357161998748779,0.009680217131972313,0.014000470750033855,-0.7717351913452148
1682448615.27943993,73995936,2,0.6361739635467529,0.009724056348204613,0.014036423526704311,-0.7713566422462463
1682448615.37939501,74095891,2,0.635349690914154,0.009555772878229618,0.014146809466183186,-0.7720358371734619
1682448615.47948599,74195982,2,0.635683536529541,0.009727368131279945,0.013979636132717133,-0.7717618942260742
1682448615.57939291,74295889,2,0.6360395550727844,0.009511875919997692,0.014222005382180214,-0.7714667320251465
1682448615.67943692,74395933,2,0.6352807283401489,0.009718355722725391,0.013952955603599548,-0.7720940709114075
1682448615.77939391,74495890,2,0.63569176197052,0.009544584900140762,0.0142988795414567,-0.7717515230178833
1682448615.87939811,74595894,2,0.6359103918075562,0.00979843270033598,0.013999325223267078,-0.7715737223625183
1682448615.97939110,74695887,2,0.6353031992912292,0.009573805145919323,0.014277268201112747,-0.7720714807510376
1682448616.07939100,74795887,2,0.6356999278068542,0.009601803496479988,0.014104848727583885,-0.7717476487159729
1682448616.17943907,74895935,2,0.6358193755149841,0.009520851075649261,0.014124364592134953,-0.7716498970985413
1682448616.27939200,74995888,2,0.6352242827415466,0.009510854259133339,0.0141837690025568,-0.7721388936042786
1682448616.37946701,75095963,2,0.6356536149978638,0.00962741393595934,0.014073679223656654,-0.771786093711853
1682448616.47939205,75195888,2,0.6357160806655884,0.009563881903886795,0.014222506433725357,-0.7717326879501343
