timestamp,TimeUS,I,Status,GMS,GWk,NSats,HDop,Lat,Lng,Alt,Spd,GCrs,VZ,Yaw,U
1671054540.79999995,100614787,0,3,337758800,2240,13,0.75,42.6897017,-84.4916449,268.93,0.030413813889026642,279.46234130859375,0.11500000208616257,0.0,1
1671054541.02026892,100835056,0,3,337759000,2240,13,0.75,42.6897017,-84.4916449,268.92,0.017492856830358505,239.0362548828125,0.07800000160932541,0.0,1
1671054541.19996190,101014749,0,3,337759200,2240,13,0.75,42.6897017,-84.4916449,268.91,0.011661904864013195,59.0362434387207,0.013000000268220901,0.0,1
1671054541.39998984,101214777,0,3,337759400,2240,13,0.75,42.6897017,-84.4916449,268.92,0.034234486520290375,353.2901611328125,0.014000000432133675,0.0,1
1671054541.62027478,101435062,0,3,337759600,2240,13,0.75,42.6897017,-84.4916449,268.92,0.024041632190346718,315.0,-0.05100000277161598,0.0,1
1671054541.82029486,101635082,0,3,337759800,2240,13,0.75,42.689701799999995,-84.49164499999999,268.94,0.01303840521723032,32.471187591552734,0.017000000923871994,0.0,1
1671054541.99995780,101814745,0,3,337760000,2240,13,0.75,42.689701799999995,-84.49164499999999,268.95,0.027000000700354576,270.0,-0.04200000315904617,0.0,1
1671054542.19990873,102014696,0,3,337760200,2240,13,0.75,42.689701799999995,-84.4916451,268.97,0.020518286153674126,316.9749450683594,-0.07200000435113907,0.0,1
1671054542.39987373,102214661,0,3,337760400,2240,13,0.75,42.689701799999995,-84.4916452,268.98,0.019026298075914383,266.9872131347656,-0.03500000014901161,0.0,1
1671054542.59996581,102414753,0,3,337760600,2240,13,0.75,42.689701799999995,-84.4916453,269.0,0.021954499185085297,300.0685729980469,0.08700000494718552,0.0,1
1671054542.80000091,102614788,0,3,337760800,2240,13,0.75,42.689701799999995,-84.4916453,269.0,0.009219544939696789,130.60128784179688,0.046000003814697266,0.0,1
1671054542.99996781,102814755,0,3,337761000,2240,13,0.75,42.689701799999995,-84.4916453,269.01,0.0187882948666811,115.20110321044922,0.0860000029206276,0.0,1
1671054543.19997382,103014761,0,3,337761200,2240,13,0.75,42.689701799999995,-84.4916454,269.03000000000003,0.034669872373342514,146.76828002929688,0.09600000083446503,0.0,1
1671054543.39998984,103214777,0,3,337761400,2240,13,0.75,42.689701799999995,-84.4916454,269.06,0.016552945598959923,115.01688385009766,0.08900000154972076,0.0,1
1671054543.59987783,103414665,0,3,337761600,2240,13,0.75,42.6897017,-84.49164549999999,269.07,0.04254409670829773,203.55227661132812,0.09300000220537186,0.0,1
1671054543.80001092,103614798,0,3,337761800,2240,13,0.75,42.6897016,-84.4916456,269.08,0.02941088378429413,215.31121826171875,0.07100000232458115,0.0,1
1671054544.02024674,103835034,0,3,337762000,2240,13,0.75,42.6897016,-84.4916456,269.08,0.017000000923871994,28.072486877441406,0.06200000271201134,0.0,1
1671054544.19994283,104014730,0,3,337762200,2240,13,0.75,42.6897016,-84.4916456,269.12,0.0305941179394722,101.30992126464844,0.15700000524520874,0.0,1
1671054544.39997077,104214758,0,3,337762400,2240,13,0.75,42.6897016,-84.49164569999999,269.14,0.029966648668050766,334.2900390625,0.06100000441074371,0.0,1
1671054544.59996080,104414748,0,3,337762600,2240,13,0.75,42.6897016,-84.4916458,269.16,0.044598210602998734,250.34619140625,0.026000000536441803,0.0,1
1671054544.79999089,104614778,0,3,337762800,2240,13,0.75,42.6897016,-84.4916459,269.19,0.024331049993634224,350.5376892089844,-0.005000000353902578,0.0,1
1671054544.99999285,104814780,0,3,337763000,2240,13,0.75,42.6897016,-84.4916459,269.22,0.03269556537270546,156.57130432128906,0.05700000375509262,0.0,1
1671054545.19990182,105014689,0,3,337763200,2240,13,0.75,42.6897015,-84.491646,269.24,0.021095024421811104,84.55966186523438,-0.003000000026077032,0.0,1
1671054545.39997077,105214758,0,3,337763400,2240,13,0.75,42.6897015,-84.491646,269.28000000000003,0.015264337882399559,31.607501983642578,0.01600000075995922,0.0,1
1671054545.59990978,105414697,0,3,337763600,2240,13,0.75,42.6897015,-84.491646,269.29,0.02846049889922142,18.434947967529297,-0.030000001192092896,0.0,1
1671054545.79996896,105614756,0,3,337763800,2240,13,0.75,42.6897015,-84.491646,269.31,0.026305893436074257,171.2538299560547,-0.0860000029206276,0.0,1
1671054545.99994087,105814728,0,3,337764000,2240,13,0.75,42.6897015,-84.4916461,269.34000000000003,0.007810249924659729,230.19442749023438,0.08500000089406967,0.0,1
1671054546.20000696,106014794,0,3,337764200,2240,13,0.75,42.6897014,-84.49164619999999,269.35,0.041109610348939896,184.1849365234375,0.01100000087171793,0.0,1
1671054546.39999080,106214778,0,3,337764400,2240,13,0.75,42.6897014,-84.49164619999999,269.37,0.0152970589697361,101.30992126464844,-0.07200000435113907,0.0,1
1671054546.59999895,106414786,0,3,337764600,2240,13,0.75,42.689701299999996,-84.49164619999999,269.4,0.02280350960791111,195.255126953125,-0.01100000087171793,0.0,1
1671054546.79992795,106614715,0,3,337764800,2240,13,0.75,42.689701299999996,-84.4916463,269.43,0.026627056300640106,55.71311950683594,0.05300000309944153,0.0,1
1671054547.02034593,106835133,0,3,337765000,2240,13,0.75,42.689701299999996,-84.4916463,269.45,0.011401754803955555,195.255126953125,-0.03100000135600567,0.0,1
1671054547.19994879,107014736,0,3,337765200,2240,13,0.75,42.689701299999996,-84.4916463,269.48,0.033060550689697266,93.46822357177734,-0.030000001192092896,0.0,1
1671054547.39996195,107214749,0,3,337765400,2240,13,0.75,42.689701299999996,-84.49164619999999,269.53000000000003,0.06720863282680511,43.19125747680664,-0.07400000095367432,0.0,1
1671054547.59993887,107414726,0,3,337765600,2240,13,0.75,42.6897014,-84.4916461,269.59000000000003,0.13013839721679688,46.245361328125,-0.4020000100135803,0.0,1
1671054547.79998374,107614771,0,3,337765800,2240,13,0.75,42.6897016,-84.4916459,269.68,0.19325891137123108,25.106443405151367,-0.5430000424385071,0.0,1
1671054547.99998593,107814773,0,3,337766000,2240,13,0.75,42.689702,-84.4916459,269.83,0.2704533338546753,354.0575256347656,-0.7730000615119934,0.0,1
1671054548.22039890,108035186,0,3,337766200,2240,14,0.72,42.6897026,-84.491646,269.95,0.368266224861145,2.178679943084717,-0.7140000462532043,0.0,1
1671054548.42033792,108235125,0,3,337766400,2240,14,0.72,42.6897032,-84.4916461,270.07,0.2821241021156311,347.0967102050781,-0.7500000596046448,0.0,1
1671054548.59999394,108414781,0,3,337766600,2240,14,0.72,42.6897038,-84.4916465,270.24,0.4122293293476105,339.85064697265625,-0.6330000162124634,0.0,1
1671054548.82029390,108635081,0,3,337766800,2240,14,0.72,42.6897045,-84.4916468,270.33,0.4135855734348297,356.9508056640625,-0.5240000486373901,0.0,1
1671054549.02023888,108835026,0,3,337767000,2240,14,0.72,42.6897053,-84.4916472,270.45,0.44721919298171997,327.69586181640625,-0.43700000643730164,0.0,1
1671054549.19995689,109014744,0,3,337767200,2240,14,0.72,42.689706,-84.4916478,270.49,0.3889884650707245,329.7435607910156,-0.4240000247955322,0.0,1
1671054549.39998388,109214771,0,3,337767400,2240,14,0.72,42.689706699999995,-84.49164859999999,270.58,0.5191107988357544,313.90728759765625,-0.3970000147819519,0.0,1
1671054549.59998274,109414770,0,3,337767600,2240,14,0.72,42.689707399999996,-84.4916495,270.6,0.5225667357444763,321.68267822265625,-0.3440000116825104,0.0,1
1671054549.80000591,109614793,0,3,337767800,2240,14,0.72,42.689707999999996,-84.4916506,270.69,0.5661731362342834,296.65557861328125,-0.3700000047683716,0.0,1
1671054549.99995995,109814747,0,3,337768000,2240,14,0.72,42.689708599999996,-84.4916518,270.76,0.49870434403419495,305.69793701171875,-0.26100000739097595,0.0,1
1671054550.19999075,110014778,0,3,337768200,2240,14,0.72,42.689709099999995,-84.49165289999999,270.81,0.4393176734447479,295.04840087890625,-0.31300002336502075,0.0,1
1671054550.40004182,110214829,0,3,337768400,2240,14,0.72,42.6897095,-84.491654,270.91,0.4401545226573944,292.7200012207031,-0.29600000381469727,0.0,1
1671054550.59998083,110414768,0,3,337768600,2240,14,0.72,42.689709799999996,-84.4916552,270.95,0.47440066933631897,284.1534118652344,-0.32100000977516174,0.0,1
1671054550.82029295,110635080,0,3,337768800,2240,14,0.72,42.68971,-84.4916564,270.98,0.5407587289810181,288.0998840332031,-0.3490000069141388,0.0,1
1671054551.02027678,110835064,0,3,337769000,2240,14,0.72,42.689710399999996,-84.4916578,271.06,0.567297101020813,283.76678466796875,-0.2070000171661377,0.0,1
1671054551.22028375,111035071,0,3,337769200,2240,14,0.72,42.6897106,-84.49165909999999,271.11,0.457086443901062,278.5555725097656,-0.24000000953674316,0.0,1
1671054551.39995575,111214743,0,3,337769400,2240,14,0.72,42.6897108,-84.49166029999999,271.18,0.5274732112884521,285.6171569824219,-0.40700000524520874,0.0,1
1671054551.62035394,111435141,0,3,337769600,2240,14,0.72,42.6897111,-84.4916616,271.26,0.5133858323097229,289.81146240234375,-0.3850000202655792,0.0,1
1671054551.80002689,111614814,0,3,337769800,2240,14,0.72,42.6897114,-84.49166269999999,271.29,0.47521471977233887,281.90106201171875,-0.3440000116825104,0.0,1
1671054551.99998283,111814770,0,3,337770000,2240,14,0.72,42.6897118,-84.49166389999999,271.31,0.555453896522522,296.980224609375,-0.1850000023841858,0.0,1
1671054552.19996476,112014752,0,3,337770200,2240,14,0.72,42.689712199999995,-84.49166509999999,271.32,0.48836055397987366,296.7749328613281,0.017000000923871994,0.0,1
1671054552.39998293,112214770,0,3,337770400,2240,14,0.72,42.6897127,-84.4916662,271.31,0.535706102848053,299.77142333984375,0.05700000375509262,0.0,1
1671054552.59993792,112414725,0,3,337770600,2240,14,0.72,42.6897131,-84.4916673,271.3,0.41427046060562134,287.9975891113281,0.06599999964237213,0.0,1
1671054552.79996276,112614750,0,3,337770800,2240,14,0.72,42.6897133,-84.4916683,271.28000000000003,0.45038872957229614,284.0054016113281,0.16600000858306885,0.0,1
1671054552.99990082,112814688,0,3,337771000,2240,14,0.72,42.689713499999996,-84.49166939999999,271.28000000000003,0.37779495120048523,279.13818359375,0.15700000524520874,0.0,1
1671054553.19997883,113014766,0,3,337771200,2240,14,0.72,42.6897136,-84.4916702,271.33,0.2112368494272232,272.7134094238281,0.05300000309944153,0.0,1
1671054553.39995384,113214741,0,3,337771400,2240,14,0.72,42.6897136,-84.4916709,271.3,0.3190564215183258,271.0775451660156,0.07800000160932541,0.0,1
1671054553.60006475,113414852,0,3,337771600,2240,14,0.72,42.6897137,-84.49167159999999,271.33,0.18271836638450623,277.864013671875,0.012000000104308128,0.0,1
1671054553.79998374,113614771,0,3,337771800,2240,14,0.72,42.6897138,-84.4916721,271.34000000000003,0.19922350347042084,288.4349365234375,0.09800000488758087,0.0,1
1671054553.99998593,113814773,0,3,337772000,2240,14,0.72,42.689713999999995,-84.4916726,271.35,0.2104400247335434,290.5879211425781,-0.10700000822544098,0.0,1
1671054554.22028685,114035074,0,3,337772200,2240,14,0.72,42.6897142,-84.4916732,271.42,0.21029742062091827,294.7370910644531,-0.10900000482797623,0.0,1
1671054554.40000892,114214796,0,3,337772400,2240,14,0.72,42.6897143,-84.49167369999999,271.49,0.1676723062992096,275.132568359375,-0.28200000524520874,0.0,1
1671054554.59989285,114414680,0,3,337772600,2240,14,0.72,42.6897144,-84.4916741,271.57,0.13944175839424133,278.246337890625,-0.3700000047683716,0.0,1
1671054554.79997873,114614766,0,3,337772800,2240,14,0.72,42.6897144,-84.4916744,271.64,0.11936499178409576,261.32684326171875,-0.4150000214576721,0.0,1
1671054554.99994683,114814734,0,3,337773000,2240,14,0.72,42.6897144,-84.49167469999999,271.72,0.05531727150082588,220.60130310058594,-0.32200002670288086,0.0,1
1671054555.22032475,115035112,0,3,337773200,2240,14,0.72,42.6897144,-84.49167489999999,271.75,0.11081967502832413,259.6026611328125,-0.11000000685453415,0.0,1
1671054555.39998794,115214775,0,3,337773400,2240,14,0.72,42.6897144,-84.4916751,271.76,0.029681645333766937,237.38076782226562,-0.04000000283122063,0.0,1
1671054555.59999394,115414781,0,3,337773600,2240,14,0.72,42.6897144,-84.4916752,271.76,0.020615529268980026,219.09385681152344,0.01100000087171793,0.0,1
1671054555.82035995,115635147,0,3,337773800,2240,14,0.72,42.6897143,-84.4916752,271.75,0.06378871202468872,170.9806671142578,0.07300000637769699,0.0,1
1671054556.02033377,115835121,0,3,337774000,2240,14,0.72,42.689714099999996,-84.4916751,271.75,0.08840814232826233,142.3523712158203,0.10200000554323196,0.0,1
1671054556.19989896,116014686,0,3,337774200,2240,14,0.72,42.689713999999995,-84.491675,271.71,0.10244999080896378,141.34017944335938,0.04100000113248825,0.0,1
1671054556.39989185,116214679,0,3,337774400,2240,14,0.72,42.6897138,-84.4916748,271.7,0.10107918083667755,115.80452728271484,0.11600000411272049,0.0,1
1671054556.59991980,116414707,0,3,337774600,2240,14,0.72,42.6897138,-84.4916746,271.67,0.08634813874959946,103.39248657226562,0.07200000435113907,0.0,1
1671054556.82026386,116635051,0,3,337774800,2240,14,0.72,42.6897138,-84.4916743,271.65,0.1332966685295105,62.281494140625,0.0650000050663948,0.0,1
1671054557.02026582,116835053,0,3,337775000,2240,14,0.72,42.689714099999996,-84.4916739,271.61,0.35557839274406433,34.22636032104492,0.15200001001358032,0.0,1
1671054557.22036195,117035149,0,3,337775200,2240,14,0.72,42.6897148,-84.4916734,271.58,0.5017977952957153,26.00334358215332,0.14100000262260437,0.0,1
1671054557.40002084,117214808,0,3,337775400,2240,14,0.72,42.6897157,-84.49167279999999,271.55,0.5987027883529663,22.281230926513672,0.04100000113248825,0.0,1
1671054557.60002184,117414809,0,3,337775600,2240,14,0.72,42.6897168,-84.4916722,271.53000000000003,0.7486234307289124,19.42729949951172,0.05400000140070915,0.0,1
1671054557.82036996,117635157,0,3,337775800,2240,14,0.72,42.6897181,-84.49167159999999,271.52,0.7561720013618469,22.223520278930664,0.055000003427267075,0.0,1
1671054557.99989891,117814686,0,3,337776000,2240,14,0.72,42.6897193,-84.4916709,271.51,0.7115870118141174,21.950925827026367,0.05000000074505806,0.0,1
1671054558.19999480,118014782,0,3,337776200,2240,14,0.72,42.6897205,-84.4916703,271.5,0.7031451463699341,19.69767189025879,0.09700000286102295,0.0,1
1671054558.42025876,118235046,0,3,337776400,2240,14,0.72,42.6897217,-84.4916698,271.49,0.6634892821311951,19.09035301208496,0.02200000174343586,0.0,1
1671054558.62025976,118435047,0,3,337776600,2240,14,0.72,42.6897229,-84.4916693,271.53000000000003,0.6503637433052063,23.372108459472656,-0.03400000184774399,0.0,1
1671054558.79999995,118614787,0,3,337776800,2240,14,0.72,42.689724,-84.4916686,271.54,0.6926500201225281,22.04718017578125,0.007000000216066837,0.0,1
1671054559.02030993,118835097,0,3,337777000,2240,14,0.72,42.6897251,-84.49166799999999,271.54,0.6439915299415588,21.78488540649414,0.03200000151991844,0.0,1
1671054559.19998980,119014777,0,3,337777200,2240,14,0.72,42.689726199999996,-84.4916674,271.54,0.6383079886436462,22.668195724487305,0.0690000057220459,0.0,1
1671054559.42031980,119235107,0,3,337777400,2240,14,0.72,42.6897273,-84.49166679999999,271.56,0.6857011318206787,25.481306076049805,0.027000000700354576,0.0,1
1671054559.59990597,119414693,0,3,337777600,2240,14,0.72,42.6897284,-84.49166609999999,271.54,0.6337318420410156,18.778032302856445,0.08100000023841858,0.0,1
1671054559.82030392,119635091,0,3,337777800,2240,14,0.72,42.6897295,-84.49166559999999,271.55,0.5943012833595276,23.502408981323242,0.04200000315904617,0.0,1
1671054559.99996090,119814748,0,3,337778000,2240,14,0.72,42.689730499999996,-84.49166509999999,271.57,0.5586457252502441,20.868148803710938,-0.01900000125169754,0.0,1
1671054560.19998479,120014772,0,3,337778200,2240,14,0.72,42.6897314,-84.4916646,271.58,0.5496153831481934,24.280029296875,0.07300000637769699,0.0,1
1671054560.39993978,120214727,0,3,337778400,2240,14,0.72,42.689732299999996,-84.491664,271.6,0.44798773527145386,32.69680404663086,0.030000001192092896,0.0,1
1671054560.59997296,120414760,0,3,337778600,2240,14,0.72,42.689732899999996,-84.4916634,271.6,0.38881489634513855,37.37092590332031,-0.005000000353902578,0.0,1
1671054560.79999781,120614785,0,3,337778800,2240,14,0.72,42.6897334,-84.4916628,271.64,0.34752267599105835,49.43446350097656,0.027000000700354576,0.0,1
1671054561.02035284,120835140,0,3,337779000,2240,14,0.72,42.6897339,-84.4916622,271.65,0.32173436880111694,44.87407302856445,-0.10200000554323196,0.0,1
1671054561.22031379,121035101,0,3,337779200,2240,14,0.72,42.6897343,-84.4916617,271.67,0.2935523986816406,46.51832580566406,-0.046000003814697266,0.0,1
1671054561.40002084,121214808,0,3,337779400,2240,14,0.72,42.6897346,-84.4916612,271.68,0.23454639315605164,65.8390884399414,-0.06800000369548798,0.0,1
1671054561.59997487,121414762,0,3,337779600,2240,14,0.72,42.6897348,-84.4916607,271.71,0.21661487221717834,103.07390594482422,-0.03700000047683716,0.0,1
1671054561.82026076,121635048,0,3,337779800,2240,14,0.72,42.6897346,-84.4916602,271.72,0.22882527112960815,142.2787322998047,-0.06599999964237213,0.0,1
1671054561.99997687,121814764,0,3,337780000,2240,14,0.72,42.6897344,-84.4916598,271.74,0.2738046944141388,136.92393493652344,-0.0950000062584877,0.0,1
1671054562.19996786,122014755,0,3,337780200,2240,14,0.72,42.689734099999995,-84.4916593,271.74,0.2539389729499817,128.76551818847656,-0.01600000075995922,0.0,1
1671054562.39998388,122214771,0,3,337780400,2240,14,0.72,42.6897338,-84.49165889999999,271.74,0.2366030514240265,124.49604034423828,0.01600000075995922,0.0,1
1671054562.59998393,122414771,0,3,337780600,2240,14,0.72,42.6897337,-84.49165839999999,271.74,0.2064000964164734,104.30554962158203,0.09800000488758087,0.0,1
1671054562.82024479,122635032,0,3,337780800,2240,14,0.72,42.6897336,-84.491658,271.77,0.2525787055492401,110.87464141845703,0.17900000512599945,0.0,1
1671054563.00000978,122814797,0,3,337781000,2240,14,0.72,42.689733499999996,-84.4916575,271.76,0.16194134950637817,117.98922729492188,0.05100000277161598,0.0,1
1671054563.19999790,123014785,0,3,337781200,2240,14,0.72,42.6897334,-84.4916573,271.78000000000003,0.14166158437728882,120.54756164550781,0.10300000756978989,0.0,1
1671054563.39993691,123214724,0,3,337781400,2240,14,0.72,42.6897333,-84.4916571,271.78000000000003,0.0998498946428299,150.61097717285156,0.08400000631809235,0.0,1
1671054563.59992981,123414717,0,3,337781600,2240,14,0.72,42.6897331,-84.49165699999999,271.77,0.1329135149717331,155.5560302734375,0.07400000095367432,0.0,1
1671054563.79997587,123614763,0,3,337781800,2240,14,0.72,42.689732899999996,-84.49165699999999,271.78000000000003,0.13384319841861725,173.56524658203125,0.049000002443790436,0.0,1
1671054563.99989581,123814683,0,3,337782000,2240,14,0.72,42.6897327,-84.4916569,271.78000000000003,0.14727525413036346,176.4964599609375,0.04800000041723251,0.0,1
1671054564.20005584,124014843,0,3,337782200,2240,14,0.72,42.6897324,-84.49165699999999,271.77,0.11403947323560715,181.5074462890625,0.08800000697374344,0.0,1
1671054564.40003276,124214820,0,3,337782400,2240,14,0.72,42.689732199999995,-84.49165699999999,271.77,0.16918925940990448,177.289794921875,0.06700000166893005,0.0,1
1671054564.59997487,124414762,0,3,337782600,2240,14,0.72,42.6897319,-84.49165699999999,271.77,0.17655596137046814,175.4519500732422,0.05700000375509262,0.0,1
1671054564.80000687,124614794,0,3,337782800,2240,14,0.72,42.689731599999995,-84.49165699999999,271.79,0.1610124409198761,163.028076171875,0.052000001072883606,0.0,1
1671054565.02025175,124835039,0,3,337783000,2240,14,0.72,42.6897313,-84.49165699999999,271.8,0.1792038083076477,158.73292541503906,0.036000002175569534,0.0,1
1671054565.19998479,125014772,0,3,337783200,2240,14,0.72,42.689730999999995,-84.4916569,271.81,0.21554119884967804,171.19320678710938,0.10900000482797623,0.0,1
1671054565.39995980,125214747,0,3,337783400,2240,14,0.72,42.6897306,-84.4916569,271.8,0.21221923828125,166.09471130371094,0.08000000566244125,0.0,1
1671054565.59993386,125414721,0,3,337783600,2240,14,0.72,42.6897302,-84.4916568,271.79,0.23132014274597168,163.6803436279297,0.09100000560283661,0.0,1
1671054565.79990292,125614690,0,3,337783800,2240,14,0.72,42.689729799999995,-84.4916566,271.79,0.24424783885478973,154.79885864257812,0.0010000000474974513,0.0,1
1671054565.99999094,125814778,0,3,337784000,2240,14,0.72,42.689729299999996,-84.4916563,271.79,0.27221500873565674,156.1657257080078,0.03500000014901161,0.0,1
1671054566.22028089,126035068,0,3,337784200,2240,14,0.72,42.6897288,-84.4916561,271.79,0.29761889576911926,162.60003662109375,0.029000001028180122,0.0,1
1671054566.42024088,126235028,0,3,337784400,2240,14,0.72,42.6897282,-84.4916559,271.78000000000003,0.3051376938819885,165.1895294189453,0.009000000543892384,0.0,1
1671054566.62033796,126435125,0,3,337784600,2240,14,0.72,42.6897276,-84.49165579999999,271.8,0.3111944794654846,177.97430419921875,0.0010000000474974513,0.0,1
1671054566.82034779,126635135,0,3,337784800,2240,14,0.72,42.689727,-84.49165599999999,271.82,0.3909130394458771,203.6797332763672,0.11300000548362732,0.0,1
1671054566.99997687,126814764,0,3,337785000,2240,14,0.72,42.6897264,-84.4916566,271.81,0.5107455849647522,219.518310546875,0.10100000351667404,0.0,1
1671054567.22035074,127035138,0,3,337785200,2240,14,0.72,42.6897257,-84.4916576,271.81,0.5958137512207031,230.99478149414062,-0.00800000037997961,0.0,1
1671054567.42025375,127235041,0,3,337785400,2240,14,0.72,42.6897251,-84.4916587,271.83,0.5446558594703674,232.30955505371094,0.03500000014901161,0.0,1
1671054567.62032080,127435108,0,3,337785600,2240,14,0.72,42.6897245,-84.4916597,271.84000000000003,0.47836077213287354,234.61549377441406,0.06400000303983688,0.0,1
1671054567.82037592,127635163,0,3,337785800,2240,14,0.72,42.6897241,-84.4916606,271.8,0.4170803427696228,241.34568786621094,0.03800000250339508,0.0,1
1671054568.02027678,127835064,0,3,337786000,2240,14,0.72,42.689723799999996,-84.49166149999999,271.78000000000003,0.3494252562522888,245.12179565429688,0.08700000494718552,0.0,1
1671054568.22028875,128035076,0,3,337786200,2240,14,0.72,42.6897236,-84.4916622,271.8,0.2240401804447174,253.66819763183594,0.06300000101327896,0.0,1
1671054568.40001988,128214807,0,3,337786400,2240,14,0.72,42.6897235,-84.49166269999999,271.78000000000003,0.2381134331226349,264.45703125,0.039000000804662704,0.0,1
1671054568.62030077,128435088,0,3,337786600,2240,14,0.72,42.6897235,-84.4916633,271.78000000000003,0.19615556299686432,261.49810791015625,0.04000000283122063,0.0,1
1671054568.82031584,128635103,0,3,337786800,2240,14,0.72,42.6897234,-84.4916638,271.76,0.1951640397310257,259.6689147949219,0.0020000000949949026,0.0,1
1671054569.02026486,128835052,0,3,337787000,2240,14,0.72,42.689723199999996,-84.4916642,271.77,0.1841331124305725,230.95143127441406,0.24500000476837158,0.0,1
1671054569.21995974,129034747,0,3,337787200,2240,14,0.72,42.689723,-84.4916645,271.77,0.18976300954818726,227.99034118652344,0.0690000057220459,0.0,1
1671054569.42030787,129235095,0,3,337787400,2240,14,0.72,42.6897228,-84.49166489999999,271.79,0.20719556510448456,214.38034057617188,0.1210000067949295,0.0,1
1671054569.62025595,129435043,0,3,337787600,2240,14,0.72,42.689722499999995,-84.4916653,271.78000000000003,0.18462124466896057,232.2611083984375,0.0690000057220459,0.0,1
1671054569.79998684,129614774,0,3,337787800,2240,14,0.72,42.6897223,-84.49166559999999,271.78000000000003,0.10178899765014648,236.62217712402344,0.00800000037997961,0.0,1
1671054570.02030087,129835088,0,3,337788000,2240,14,0.72,42.6897223,-84.49166579999999,271.78000000000003,0.09708244353532791,288.62158203125,0.14000000059604645,0.0,1
1671054570.22040892,130035196,0,3,337788200,2240,14,0.72,42.6897223,-84.49166609999999,271.79,0.09413288533687592,273.0447998046875,0.01100000087171793,0.0,1
1671054570.42024374,130235031,0,3,337788400,2240,14,0.72,42.6897224,-84.4916664,271.81,0.08095678687095642,287.9873352050781,0.009000000543892384,0.0,1
1671054570.62029886,130435086,0,3,337788600,2240,14,0.72,42.6897224,-84.4916666,271.82,0.08336066454648972,259.6336975097656,0.0010000000474974513,0.0,1
1671054570.82032895,130635116,0,3,337788800,2240,14,0.72,42.6897224,-84.4916669,271.84000000000003,0.08095678687095642,244.384521484375,0.003000000026077032,0.0,1
1671054571.02021074,130834998,0,3,337789000,2240,14,0.72,42.6897224,-84.4916671,271.87,0.06933974474668503,236.76828002929688,0.10500000417232513,0.0,1
1671054571.22029185,131035079,0,3,337789200,2240,14,0.72,42.6897223,-84.4916672,271.87,0.06476110219955444,193.3925018310547,-0.023000001907348633,0.0,1
1671054571.42031479,131235102,0,3,337789400,2240,14,0.72,42.6897222,-84.4916674,271.88,0.0798310711979866,192.29527282714844,0.07600000500679016,0.0,1
1671054571.62034488,131435132,0,3,337789600,2240,14,0.72,42.689721999999996,-84.49166749999999,271.89,0.10845275968313217,212.95742797851562,0.04100000113248825,0.0,1
1671054571.82035279,131635140,0,3,337789800,2240,14,0.72,42.6897218,-84.4916677,271.89,0.10780074447393417,217.08250427246094,0.02800000086426735,0.0,1
1671054572.02027678,131835064,0,3,337790000,2240,14,0.72,42.6897216,-84.4916679,271.9,0.12924395501613617,201.80142211914062,0.032999999821186066,0.0,1
1671054572.22024488,132035032,0,3,337790200,2240,14,0.72,42.689721399999996,-84.49166799999999,271.9,0.11280515044927597,220.32583618164062,-0.08400000631809235,0.0,1
1671054572.39997482,132214762,0,3,337790400,2240,14,0.72,42.6897212,-84.49166819999999,271.93,0.11458621919155121,200.96571350097656,0.05400000140070915,0.0,1
1671054572.62021494,132435002,0,3,337790600,2240,14,0.72,42.689721,-84.4916683,271.95,0.1062120571732521,188.6641387939453,0.058000002056360245,0.0,1
1671054572.82026696,132635054,0,3,337790800,2240,14,0.72,42.6897209,-84.4916684,271.97,0.06258594244718552,192.92601013183594,0.03200000151991844,0.0,1
1671054573.02030277,132835090,0,3,337791000,2240,14,0.72,42.689720699999995,-84.4916685,271.97,0.08888757228851318,162.99205017089844,0.05400000140070915,0.0,1
1671054573.22037792,133035165,0,3,337791200,2240,14,0.72,42.6897205,-84.4916685,271.99,0.1390899121761322,177.93988037109375,0.0690000057220459,0.0,1
1671054573.42036176,133235149,0,3,337791400,2240,14,0.72,42.6897202,-84.4916686,272.01,0.1590220183134079,173.50064086914062,0.09800000488758087,0.0,1
1671054573.62023973,133435027,0,3,337791600,2240,14,0.72,42.6897199,-84.4916686,272.04,0.16440194845199585,170.1938934326172,0.07000000029802322,0.0,1
1671054573.80001283,133614800,0,3,337791800,2240,14,0.72,42.6897197,-84.49166869999999,272.06,0.1520131677389145,180.75384521484375,0.10500000417232513,0.0,1
1671054574.02021885,133835006,0,3,337792000,2240,14,0.72,42.6897194,-84.4916688,272.07,0.18461041152477264,175.33944702148438,0.11000000685453415,0.0,1
1671054574.22020197,134034989,0,3,337792200,2240,14,0.72,42.6897191,-84.4916688,272.08,0.18461041152477264,175.33944702148438,0.03200000151991844,0.0,1
1671054574.42031693,134235104,0,3,337792400,2240,14,0.72,42.6897187,-84.4916688,272.11,0.1945507824420929,169.03660583496094,0.039000000804662704,0.0,1
1671054574.62034178,134435129,0,3,337792600,2240,14,0.72,42.6897184,-84.4916688,272.12,0.20155645906925201,170.8647918701172,0.08000000566244125,0.0,1
1671054574.82038975,134635177,0,3,337792800,2240,14,0.72,42.6897181,-84.4916688,272.15,0.18984204530715942,168.45330810546875,-0.013000000268220901,0.0,1
1671054575.02036095,134835148,0,3,337793000,2240,14,0.72,42.6897178,-84.49166869999999,272.18,0.08769264817237854,135.92404174804688,-0.0430000014603138,0.0,1
1671054575.22037482,135035162,0,3,337793200,2240,14,0.72,42.6897178,-84.4916686,272.2,0.07130919396877289,75.3791275024414,-0.04200000315904617,0.0,1
1671054575.42024875,135235036,0,3,337793400,2240,14,0.72,42.689718,-84.4916684,272.21,0.1636154055595398,22.646800994873047,-0.10000000149011612,0.0,1
1671054575.62040377,135435191,0,3,337793600,2240,14,0.72,42.6897184,-84.49166819999999,272.22,0.3398720324039459,11.541362762451172,-0.07600000500679016,0.0,1
1671054575.82024288,135635030,0,3,337793800,2240,14,0.72,42.689719,-84.4916679,272.23,0.42605751752853394,17.20159912109375,0.005000000353902578,0.0,1
1671054576.02034092,135835128,0,3,337794000,2240,14,0.72,42.6897198,-84.4916676,272.23,0.5242184996604919,16.741119384765625,0.05300000309944153,0.0,1
1671054576.22030973,136035097,0,3,337794200,2240,14,0.72,42.689720799999996,-84.4916673,272.25,0.5733768343925476,14.54520320892334,0.032999999821186066,0.0,1
1671054576.42028284,136235070,0,3,337794400,2240,14,0.72,42.6897218,-84.4916669,272.25,0.621618926525116,14.058597564697266,-0.014000000432133675,0.0,1
1671054576.62037182,136435159,0,3,337794600,2240,14,0.72,42.6897228,-84.4916665,272.27,0.5006006360054016,18.036815643310547,0.023000001907348633,0.0,1
1671054576.82038379,136635171,0,3,337794800,2240,14,0.72,42.6897235,-84.491666,272.28000000000003,0.3145298361778259,34.245826721191406,-0.00800000037997961,0.0,1
1671054577.02021480,136835002,0,3,337795000,2240,14,0.72,42.689723799999996,-84.49166559999999,272.33,0.1565535068511963,98.07833862304688,0.0650000050663948,0.0,1
1671054577.22019982,137034987,0,3,337795200,2240,14,0.72,42.6897235,-84.4916653,272.34000000000003,0.3737606406211853,163.84402465820312,-0.017000000923871994,0.0,1
1671054577.42024875,137235036,0,3,337795400,2240,14,0.72,42.6897227,-84.491665,272.36,0.5538755059242249,170.96282958984375,-0.026000000536441803,0.0,1
1671054577.62026286,137435050,0,3,337795600,2240,14,0.72,42.6897217,-84.4916647,272.36,0.6117393374443054,170.8764190673828,0.006000000052154064,0.0,1
1671054577.82029676,137635084,0,3,337795800,2240,14,0.72,42.689720699999995,-84.49166439999999,272.34000000000003,0.553231418132782,165.66232299804688,0.05900000408291817,0.0,1
1671054578.02034283,137835130,0,3,337796000,2240,14,0.72,42.6897198,-84.4916641,272.33,0.47565746307373047,166.7525634765625,0.10100000351667404,0.0,1
1671054578.22034693,138035134,0,3,337796200,2240,14,0.72,42.689719,-84.49166369999999,272.32,0.45426204800605774,160.04922485351562,0.01100000087171793,0.0,1
1671054578.42031193,138235099,0,3,337796400,2240,14,0.72,42.6897182,-84.4916634,272.31,0.4414442479610443,165.30267333984375,-0.02500000037252903,0.0,1
1671054578.62030077,138435088,0,3,337796600,2240,14,0.72,42.6897175,-84.4916631,272.32,0.4019315838813782,157.00729370117188,-0.029000001028180122,0.0,1
1671054578.82029486,138635082,0,3,337796800,2240,14,0.72,42.689716999999995,-84.49166269999999,272.32,0.2899189591407776,155.11444091796875,0.07600000500679016,0.0,1
1671054579.02026796,138835055,0,3,337797000,2240,14,0.72,42.6897166,-84.4916624,272.33,0.2644125819206238,140.8325653076172,0.026000000536441803,0.0,1
1671054579.22039175,139035179,0,3,337797200,2240,14,0.72,42.6897163,-84.49166199999999,272.32,0.20695893466472626,138.91824340820312,0.07600000500679016,0.0,1
1671054579.42031288,139235100,0,3,337797400,2240,14,0.72,42.689716,-84.4916617,272.31,0.16642417013645172,138.16632080078125,0.06000000238418579,0.0,1
1671054579.62029290,139435080,0,3,337797600,2240,14,0.72,42.689715799999995,-84.49166149999999,272.3,0.14624980092048645,152.73411560058594,0.09700000286102295,0.0,1
1671054579.82034588,139635133,0,3,337797800,2240,14,0.72,42.6897157,-84.49166149999999,272.3,0.08736132830381393,195.94540405273438,0.12700000405311584,0.0,1
1671054580.02026582,139835053,0,3,337798000,2240,14,0.72,42.6897156,-84.4916617,272.27,0.17851890623569489,245.15762329101562,0.039000000804662704,0.0,1
1671054580.22045684,140035244,0,3,337798200,2240,14,0.72,42.6897156,-84.4916622,272.27,0.27971595525741577,265.8997802734375,0.04400000348687172,0.0,1
1671054580.42029285,140235080,0,3,337798400,2240,14,0.72,42.6897156,-84.4916631,272.28000000000003,0.37370845675468445,266.47149658203125,0.03800000250339508,0.0,1
1671054580.60000777,140414795,0,3,337798600,2240,14,0.72,42.6897156,-84.4916641,272.24,0.5094801187515259,279.14801025390625,-0.02800000086426735,0.0,1
1671054580.82029676,140635084,0,3,337798800,2240,14,0.72,42.689715799999995,-84.4916653,272.22,0.5577813386917114,280.745849609375,0.01900000125169754,0.0,1
1671054581.02036381,140835151,0,3,337799000,2240,14,0.72,42.689715899999996,-84.4916667,272.19,0.6137752532958984,277.8660888671875,0.15200001001358032,0.0,1
1671054581.22032881,141035116,0,3,337799200,2240,14,0.72,42.6897161,-84.49166819999999,272.14,0.6495367884635925,281.27532958984375,0.13100001215934753,0.0,1
1671054581.42037177,141235159,0,3,337799400,2240,14,0.72,42.689716399999995,-84.4916697,272.13,0.6264263987541199,281.8839416503906,0.07100000232458115,0.0,1
1671054581.62025476,141435042,0,3,337799600,2240,14,0.72,42.6897166,-84.4916712,272.13,0.6311450004577637,284.8729248046875,0.11100000888109207,0.0,1
1671054581.82024074,141635028,0,3,337799800,2240,14,0.72,42.6897169,-84.4916727,272.13,0.6159391403198242,273.16436767578125,0.03500000014901161,0.0,1
1671054581.99997282,141814760,0,3,337800000,2240,14,0.72,42.6897169,-84.49167419999999,272.14,0.6481512188911438,271.2376708984375,0.01100000087171793,0.0,1
1671054582.22032094,142035108,0,3,337800200,2240,14,0.72,42.6897169,-84.4916757,272.14,0.6200975775718689,271.01641845703125,-0.11300000548362732,0.0,1
1671054582.42032290,142235110,0,3,337800400,2240,14,0.72,42.6897169,-84.4916772,272.14,0.6512296199798584,266.4785461425781,-0.007000000216066837,0.0,1
1671054582.62033582,142435123,0,3,337800600,2240,14,0.72,42.6897168,-84.4916788,272.13,0.6215416789054871,263.0693664550781,0.05900000408291817,0.0,1
1671054582.82032895,142635116,0,3,337800800,2240,14,0.72,42.6897167,-84.49168019999999,272.12,0.6118537187576294,257.34930419921875,0.08800000697374344,0.0,1
1671054583.02027273,142835060,0,3,337801000,2240,14,0.72,42.689716499999996,-84.4916817,272.11,0.5942457318305969,256.57177734375,0.14400000870227814,0.0,1
1671054583.22025681,143035044,0,3,337801200,2240,14,0.72,42.689716399999995,-84.4916831,272.11,0.5496635437011719,267.1844482421875,0.08700000494718552,0.0,1
1671054583.42035079,143235138,0,3,337801400,2240,14,0.72,42.689716399999995,-84.49168449999999,272.1,0.5201884508132935,278.8466491699219,0.12000000476837158,0.0,1
1671054583.62024474,143435032,0,3,337801600,2240,14,0.72,42.6897167,-84.4916858,272.07,0.5486574769020081,288.26983642578125,0.08300000429153442,0.0,1
1671054583.82032394,143635111,0,3,337801800,2240,14,0.72,42.689716999999995,-84.4916871,272.08,0.5284439325332642,287.8520812988281,0.07400000095367432,0.0,1
1671054584.02033091,143835118,0,3,337802000,2240,14,0.72,42.6897174,-84.49168829999999,272.08,0.5029045939445496,302.7420654296875,0.10400000214576721,0.0,1
1671054584.22038293,144035170,0,3,337802200,2240,14,0.72,42.6897179,-84.4916894,272.09000000000003,0.45818448066711426,298.4108581542969,0.13900001347064972,0.0,1
1671054584.42036891,144235156,0,3,337802400,2240,14,0.72,42.6897182,-84.4916904,272.07,0.39212244749069214,288.4349365234375,0.23100000619888306,0.0,1
1671054584.62032294,144435110,0,3,337802600,2240,14,0.72,42.6897186,-84.4916914,272.04,0.5142081379890442,298.7082824707031,0.20800000429153442,0.0,1
1671054584.82022691,144635014,0,3,337802800,2240,14,0.72,42.689719,-84.4916925,272.01,0.434165894985199,294.20367431640625,0.2590000033378601,0.0,1
1671054585.02021575,144835003,0,3,337803000,2240,14,0.72,42.6897193,-84.4916934,271.95,0.42849040031433105,297.5218811035156,0.1810000091791153,0.0,1
1671054585.22022390,145035011,0,3,337803200,2240,14,0.72,42.6897196,-84.4916942,271.9,0.36340200901031494,307.05908203125,0.29100000858306885,0.0,1
1671054585.42025590,145235043,0,3,337803400,2240,14,0.72,42.68972,-84.49169479999999,271.82,0.30770930647850037,305.3428649902344,0.1990000158548355,0.0,1
1671054585.62030983,145435097,0,3,337803600,2240,14,0.72,42.6897203,-84.4916954,271.77,0.2222476303577423,308.0558776855469,0.41100001335144043,0.0,1
1671054585.82038474,145635172,0,3,337803800,2240,14,0.72,42.6897205,-84.4916957,271.72,0.19068823754787445,321.3871154785156,0.2670000195503235,0.0,1
1671054586.02036595,145835153,0,3,337804000,2240,14,0.72,42.689720699999995,-84.4916959,271.65,0.1230650320649147,308.7325134277344,0.4020000100135803,0.0,1
1671054586.22025084,146035038,0,3,337804200,2240,14,0.72,42.689720799999996,-84.4916961,271.58,0.11640017479658127,306.9683532714844,0.33500000834465027,0.0,1
1671054586.42032790,146235115,0,3,337804400,2240,14,0.72,42.6897209,-84.4916964,271.51,0.1592545211315155,266.76031494140625,0.4100000262260437,0.0,1
1671054586.62026191,146435049,0,3,337804600,2240,14,0.72,42.689721,-84.49169669999999,271.45,0.11847363412380219,291.8014221191406,0.320000022649765,0.0,1
1671054586.82025385,146635041,0,3,337804800,2240,14,0.72,42.6897211,-84.4916969,271.4,0.08628442138433456,302.216552734375,0.2770000100135803,0.0,1
1671054587.02028584,146835073,0,3,337805000,2240,14,0.72,42.6897212,-84.4916971,271.3,0.16918925940990448,288.97039794921875,0.3970000147819519,0.0,1
1671054587.22031379,147035101,0,3,337805200,2240,14,0.72,42.689721399999996,-84.49169739999999,271.22,0.16995589435100555,334.1888122558594,0.3500000238418579,0.0,1
1671054587.39991879,147214706,0,3,337805400,2240,14,0.72,42.6897216,-84.4916976,271.16,0.10465658456087112,332.700439453125,0.4050000309944153,0.0,1
1671054587.62039685,147435184,0,3,337805600,2240,14,0.72,42.689721899999995,-84.4916977,271.04,0.2455524504184723,339.4985656738281,0.4790000319480896,0.0,1
1671054587.82030082,147635088,0,3,337805800,2240,14,0.72,42.6897224,-84.49169789999999,270.97,0.22121936082839966,348.7916564941406,0.36100003123283386,0.0,1
1671054588.02023792,147835025,0,3,337806000,2240,14,0.72,42.6897227,-84.491698,270.92,0.1388416439294815,340.6515197753906,0.39900001883506775,0.0,1
1671054588.22033381,148035121,0,3,337806200,2240,14,0.72,42.689723,-84.4916981,270.81,0.18337121605873108,348.9964599609375,0.4930000305175781,0.0,1
1671054588.42028594,148235073,0,3,337806400,2240,14,0.72,42.6897233,-84.4916982,270.75,0.18895767629146576,346.8462829589844,0.3970000147819519,0.0,1
1671054588.62032175,148435109,0,3,337806600,2240,14,0.72,42.6897236,-84.4916982,270.66,0.08438009768724442,354.5596618652344,0.2670000195503235,0.0,1
1671054588.82036281,148635150,0,3,337806800,2240,14,0.72,42.689723799999996,-84.4916982,270.57,0.13185599446296692,353.4678649902344,0.4000000059604645,0.0,1
1671054589.02029085,148835078,0,3,337807000,2240,14,0.72,42.689724,-84.4916983,270.5,0.15482895076274872,354.0684814453125,0.38700002431869507,0.0,1
1671054589.22037196,149035159,0,3,337807200,2240,14,0.72,42.6897242,-84.4916982,270.42,0.07582216709852219,41.25700759887695,0.44300001859664917,0.0,1
1671054589.42029881,149235086,0,3,337807400,2240,14,0.72,42.689724399999996,-84.4916982,270.35,0.1930103600025177,0.5937173962593079,0.33400002121925354,0.0,1
1671054589.62023282,149435020,0,3,337807600,2240,14,0.72,42.6897247,-84.4916981,270.29,0.11892855167388916,19.653823852539062,0.3490000069141388,0.0,1
1671054589.82024789,149635035,0,3,337807800,2240,14,0.72,42.689724899999995,-84.4916981,270.24,0.203000009059906,0.0,0.3290000259876251,0.0,1
1671054590.02037883,149835166,0,3,337808000,2240,14,0.72,42.6897252,-84.491698,270.13,0.11964113265275955,12.061307907104492,0.281000018119812,0.0,1
1671054590.22022891,150035016,0,3,337808200,2240,14,0.72,42.6897255,-84.49169789999999,270.07,0.18748067319393158,13.88800048828125,0.4580000340938568,0.0,1
1671054590.42034292,150235130,0,3,337808400,2240,14,0.72,42.6897258,-84.49169789999999,270.0,0.2304951399564743,15.6039457321167,0.49500003457069397,0.0,1
1671054590.62030888,150435096,0,3,337808600,2240,14,0.72,42.689726199999996,-84.4916977,269.89,0.26294487714767456,14.987560272216797,0.48000001907348633,0.0,1
1671054590.82025075,150635038,0,3,337808800,2240,14,0.72,42.6897266,-84.4916977,269.79,0.2257365882396698,348.2420654296875,0.41200003027915955,0.0,1
1671054591.02031374,150835101,0,3,337809000,2240,14,0.72,42.6897267,-84.49169789999999,269.79,0.15276126563549042,223.9390869140625,-0.32200002670288086,0.0,1
1671054591.22027183,151035059,0,3,337809200,2240,14,0.72,42.6897264,-84.491698,269.83,0.28193971514701843,175.3207244873047,0.10300000756978989,0.0,1
1671054591.42024875,151235036,0,3,337809400,2240,14,0.72,42.689726199999996,-84.49169789999999,269.82,0.12037026137113571,33.82208251953125,-0.007000000216066837,0.0,1
1671054591.62026596,151435053,0,3,337809600,2240,14,0.72,42.6897264,-84.49169789999999,269.83,0.1439618021249771,327.19305419921875,-0.010000000707805157,0.0,1
1671054591.82038689,151635174,0,3,337809800,2240,14,0.72,42.6897265,-84.49169789999999,269.83,0.03901281952857971,91.46879577636719,-0.027000000700354576,0.0,1
1671054592.02035475,151835142,0,3,337810000,2240,14,0.72,42.6897265,-84.49169789999999,269.83,0.07223572582006454,248.05130004882812,-0.013000000268220901,0.0,1
1671054592.22032285,152035110,0,3,337810200,2240,14,0.72,42.6897264,-84.491698,269.83,0.019416488707065582,191.888671875,-0.058000002056360245,0.0,1
1671054592.42028689,152235074,0,3,337810400,2240,14,0.72,42.6897264,-84.491698,269.86,0.02500000223517418,143.13009643554688,0.020000001415610313,0.0,1
1671054592.62020183,152434989,0,3,337810600,2240,14,0.72,42.6897264,-84.491698,269.87,0.008485281839966774,225.0,-0.06800000369548798,0.0,1
1671054592.79996490,152614752,0,3,337810800,2240,14,0.72,42.6897264,-84.491698,269.89,0.007615773472934961,23.198589324951172,0.02200000174343586,0.0,1
1671054593.02024579,152835033,0,3,337811000,2240,14,0.72,42.6897264,-84.49169789999999,269.88,0.028442926704883575,349.8753356933594,-0.00800000037997961,0.0,1
1671054593.22034979,153035137,0,3,337811200,2240,14,0.72,42.6897264,-84.49169789999999,269.89,0.013928388245403767,158.9624786376953,0.04700000211596489,0.0,1
1671054593.42028284,153235070,0,3,337811400,2240,14,0.72,42.6897264,-84.49169789999999,269.89,0.010049876756966114,174.28939819335938,0.06200000271201134,0.0,1
1671054593.62033677,153435124,0,3,337811600,2240,14,0.72,42.6897263,-84.4916978,269.91,0.04477722942829132,119.42745208740234,0.07300000637769699,0.0,1
1671054593.82023191,153635019,0,3,337811800,2240,14,0.72,42.6897263,-84.4916978,269.92,0.014560219831764698,74.05460357666016,0.015000000596046448,0.0,1
1671054594.02027893,153835066,0,3,337812000,2240,14,0.72,42.6897263,-84.4916977,269.93,0.004472136031836271,243.43496704101562,0.006000000052154064,0.0,1
1671054594.19994092,154014728,0,3,337812200,2240,14,0.72,42.6897263,-84.4916977,269.93,0.02163330838084221,146.30992126464844,0.01900000125169754,0.0,1
1671054594.42018294,154234970,0,3,337812400,2240,14,0.72,42.689726199999996,-84.4916976,269.92,0.07736925035715103,63.103759765625,0.05100000277161598,0.0,1
1671054594.62025976,154435047,0,3,337812600,2240,14,0.72,42.6897263,-84.4916975,269.92,0.014142136089503765,351.8699035644531,0.06100000441074371,0.0,1
1671054594.82030177,154635089,0,3,337812800,2240,14,0.72,42.689726199999996,-84.4916975,269.92,0.016970563679933548,225.0,0.020000001415610313,0.0,1
1671054595.02036095,154835148,0,3,337813000,2240,14,0.72,42.689726199999996,-84.4916975,269.93,0.061073727905750275,230.31454467773438,0.024000000208616257,0.0,1
1671054595.22028494,155035072,0,3,337813200,2240,14,0.72,42.6897261,-84.4916976,269.93,0.009000000543892384,270.0,-0.05900000408291817,0.0,1
1671054595.42037797,155235165,0,3,337813400,2240,14,0.72,42.6897261,-84.4916975,269.93,0.0020000000949949026,0.0,-0.024000000208616257,0.0,1
1671054595.59991479,155414702,0,3,337813600,2240,14,0.72,42.6897261,-84.4916975,269.92,0.030413813889026642,279.46234130859375,-0.06100000441074371,0.0,1
1671054595.82021379,155635001,0,3,337813800,2240,14,0.72,42.689726,-84.4916975,269.94,0.030413813889026642,170.5376739501953,-0.004000000189989805,0.0,1
1671054596.02031589,155835103,0,3,337814000,2240,14,0.72,42.689726,-84.4916975,269.96,0.00632455525919795,251.5650634765625,-0.009000000543892384,0.0,1
1671054596.22023582,156035023,0,3,337814200,2240,14,0.72,42.689726,-84.4916975,269.96,0.008944272063672543,63.4349479675293,-0.04100000113248825,0.0,1
1671054596.42028689,156235074,0,3,337814400,2240,14,0.72,42.6897259,-84.49169739999999,269.96,0.039849720895290375,107.52555847167969,-0.003000000026077032,0.0,1
1671054596.62033677,156435124,0,3,337814600,2240,14,0.72,42.6897259,-84.49169719999999,269.96,0.023021729663014412,124.38033294677734,-0.01600000075995922,0.0,1
1671054596.82037973,156635167,0,3,337814800,2240,14,0.72,42.6897258,-84.49169719999999,269.97,0.012041594833135605,48.366458892822266,0.08900000154972076,0.0,1
1671054597.02027583,156835063,0,3,337815000,2240,14,0.72,42.6897258,-84.49169719999999,269.98,0.020615529268980026,140.90614318847656,0.04100000113248825,0.0,1
1671054597.22029495,157035082,0,3,337815200,2240,14,0.72,42.6897257,-84.4916971,269.98,0.03361547365784645,239.62088012695312,-0.05400000140070915,0.0,1
1671054597.42023683,157235024,0,3,337815400,2240,14,0.72,42.6897257,-84.49169719999999,270.0,0.014866068959236145,199.65383911132812,0.006000000052154064,0.0,1
1671054597.62019396,157434981,0,3,337815600,2240,14,0.72,42.689725599999996,-84.49169719999999,269.99,0.037121422588825226,265.36456298828125,-0.08500000089406967,0.0,1
1671054597.82025290,157635040,0,3,337815800,2240,14,0.72,42.689725599999996,-84.49169719999999,270.01,0.0020000000949949026,0.0,0.020000001415610313,0.0,1
1671054598.02028179,157835069,0,3,337816000,2240,14,0.72,42.689725599999996,-84.49169719999999,270.0,0.00632455525919795,288.4349365234375,-0.029000001028180122,0.0,1
1671054598.22032785,158035115,0,3,337816200,2240,14,0.72,42.6897255,-84.49169719999999,270.02,0.0402616448700428,194.38140869140625,0.0020000000949949026,0.0,1
1671054598.42029977,158235087,0,3,337816400,2240,14,0.72,42.6897254,-84.49169719999999,270.02,0.020024985074996948,92.86239624023438,-0.004000000189989805,0.0,1
1671054598.62035680,158435144,0,3,337816600,2240,14,0.72,42.6897255,-84.4916971,270.03000000000003,0.03324154019355774,21.161258697509766,0.012000000104308128,0.0,1
1671054598.82018089,158634968,0,3,337816800,2240,14,0.72,42.6897255,-84.4916971,270.03000000000003,0.01603122055530548,86.42366027832031,0.03700000047683716,0.0,1
1671054599.02037191,158835159,0,3,337817000,2240,14,0.72,42.6897255,-84.4916971,270.04,0.016552945598959923,25.016891479492188,0.032999999821186066,0.0,1
1671054599.22020888,159034996,0,3,337817200,2240,14,0.72,42.6897255,-84.4916971,270.04,0.0495176762342453,223.36341857910156,0.017000000923871994,0.0,1
1671054599.42026782,159235055,0,3,337817400,2240,14,0.72,42.6897254,-84.4916971,270.05,0.050209563225507736,134.19305419921875,0.08400000631809235,0.0,1
1671054599.62025976,159435047,0,3,337817600,2240,14,0.72,42.6897254,-84.491697,270.05,0.041109610348939896,71.56504821777344,0.07800000160932541,0.0,1
1671054599.82029080,159635078,0,3,337817800,2240,14,0.72,42.6897254,-84.491697,270.07,0.03361547365784645,67.2490234375,0.05000000074505806,0.0,1
1671054600.02033091,159835118,0,3,337818000,2240,14,0.72,42.6897254,-84.491697,270.08,0.016278821974992752,47.48954772949219,0.0020000000949949026,0.0,1
1671054600.22038889,160035176,0,3,337818200,2240,14,0.72,42.6897254,-84.4916969,270.08,0.006708203814923763,206.56504821777344,-0.003000000026077032,0.0,1
1671054600.42022181,160235009,0,3,337818400,2240,14,0.72,42.6897254,-84.491697,270.08,0.03452535346150398,259.9920349121094,0.02200000174343586,0.0,1
1671054600.62018681,160434974,0,3,337818600,2240,14,0.72,42.6897253,-84.491697,270.1,0.017691805958747864,132.70938110351562,0.014000000432133675,0.0,1
1671054600.82029390,160635081,0,3,337818800,2240,14,0.72,42.6897253,-84.491697,270.11,0.03132092207670212,253.30076599121094,-0.07400000095367432,0.0,1
1671054601.02028394,160835071,0,3,337819000,2240,14,0.72,42.6897253,-84.4916971,270.13,0.023021729663014412,145.61965942382812,0.027000000700354576,0.0,1
1671054601.22035480,161035142,0,3,337819200,2240,14,0.72,42.6897253,-84.4916971,270.14,0.018681542947888374,105.52410125732422,0.07100000232458115,0.0,1
1671054601.42029691,161235084,0,3,337819400,2240,14,0.72,42.6897252,-84.491697,270.14,0.023537207394838333,77.73522186279297,-0.0020000000949949026,0.0,1
1671054601.62023187,161435019,0,3,337819600,2240,14,0.72,42.6897252,-84.491697,270.15,0.01077033020555973,158.19857788085938,-0.09000000357627869,0.0,1
1671054601.82028675,161635074,0,3,337819800,2240,14,0.72,42.6897252,-84.491697,270.16,0.027294687926769257,351.5730285644531,-0.017000000923871994,0.0,1
1671054602.02024174,161835029,0,3,337820000,2240,14,0.72,42.6897253,-84.491697,270.17,0.012529964558780193,331.3895568847656,-0.10500000417232513,0.0,1
1671054602.22019887,162034986,0,3,337820200,2240,14,0.72,42.6897253,-84.491697,270.19,0.027294687926769257,331.55706787109375,0.0020000000949949026,0.0,1
1671054602.42021084,162234998,0,3,337820400,2240,14,0.72,42.6897253,-84.4916971,270.2,0.013000000268220901,22.619863510131836,0.023000001907348633,0.0,1
1671054602.62032485,162435112,0,3,337820600,2240,14,0.72,42.6897253,-84.4916971,270.2,0.03649657592177391,189.4623260498047,-0.05100000277161598,0.0,1
1671054602.82028794,162635075,0,3,337820800,2240,14,0.72,42.6897253,-84.4916971,270.22,0.025079872459173203,4.573921203613281,0.007000000216066837,0.0,1
1671054603.02028680,162835074,0,3,337821000,2240,14,0.72,42.6897254,-84.49169719999999,270.24,0.01969771645963192,23.962488174438477,0.08900000154972076,0.0,1
1671054603.22020078,163034988,0,3,337821200,2240,14,0.72,42.6897254,-84.49169719999999,270.24,0.00824621133506298,194.0362548828125,0.00800000037997961,0.0,1
1671054603.42024279,163235030,0,3,337821400,2240,14,0.72,42.6897255,-84.4916973,270.25,0.02500000037252903,343.73980712890625,0.013000000268220901,0.0,1
1671054603.62027192,163435059,0,3,337821600,2240,14,0.72,42.689725599999996,-84.4916973,270.26,0.03195309266448021,20.136302947998047,0.07000000029802322,0.0,1
1671054603.82027984,163635067,0,3,337821800,2240,14,0.72,42.689725599999996,-84.4916973,270.26,0.020615529268980026,39.09385681152344,0.09800000488758087,0.0,1
1671054604.02026486,163835052,0,3,337822000,2240,14,0.72,42.689725599999996,-84.49169739999999,270.25,0.040804412215948105,197.1027374267578,0.017000000923871994,0.0,1
1671054604.22025895,164035046,0,3,337822200,2240,14,0.72,42.689725599999996,-84.49169739999999,270.26,0.009055385366082191,173.65980529785156,-0.01100000087171793,0.0,1
1671054604.42038083,164235168,0,3,337822400,2240,14,0.72,42.689725599999996,-84.4916975,270.26,0.027294687926769257,261.5730285644531,0.07300000637769699,0.0,1
1671054604.62026596,164435053,0,3,337822600,2240,14,0.72,42.6897257,-84.4916976,270.26,0.005099019967019558,348.6900634765625,0.014000000432133675,0.0,1
1671054604.82024574,164635033,0,3,337822800,2240,14,0.72,42.6897257,-84.4916976,270.27,0.019026298075914383,93.01277923583984,-0.052000001072883606,0.0,1
1671054605.02024293,164835030,0,3,337823000,2240,14,0.72,42.6897258,-84.4916976,270.27,0.00632455525919795,341.5650634765625,-0.06000000238418579,0.0,1
1671054605.22022581,165035013,0,3,337823200,2240,14,0.72,42.6897258,-84.4916976,270.3,0.01900000125169754,90.0,0.04000000283122063,0.0,1
1671054605.42028093,165235068,0,3,337823400,2240,14,0.72,42.6897259,-84.4916976,270.29,0.005000000353902578,36.869895935058594,0.055000003427267075,0.0,1
1671054605.62033081,165435118,0,3,337823600,2240,14,0.72,42.6897259,-84.4916976,270.3,0.03324154019355774,186.91123962402344,0.009000000543892384,0.0,1
1671054605.82033396,165635121,0,3,337823800,2240,14,0.72,42.6897259,-84.4916977,270.32,0.02284732088446617,66.80140686035156,-0.02800000086426735,0.0,1
1671054606.02031374,165835101,0,3,337824000,2240,14,0.72,42.689726,-84.4916976,270.31,0.00984885822981596,293.9624938964844,-0.049000002443790436,0.0,1
1671054606.22031474,166035102,0,3,337824200,2240,14,0.72,42.689726,-84.4916977,270.32,0.00412310566753149,345.9637451171875,-0.021000001579523087,0.0,1
1671054606.39988089,166214668,0,3,337824400,2240,14,0.72,42.6897261,-84.4916977,270.31,0.02942787855863571,279.78240966796875,-0.0690000057220459,0.0,1
1671054606.62026381,166435051,0,3,337824600,2240,14,0.72,42.6897261,-84.4916978,270.32,0.0058309524320065975,149.03623962402344,-0.009000000543892384,0.0,1
1671054606.82025790,166635045,0,3,337824800,2240,14,0.72,42.6897261,-84.4916978,270.33,0.018439089879393578,77.47118377685547,-0.020000001415610313,0.0,1
1671054607.02021480,166835002,0,3,337825000,2240,14,0.72,42.689726199999996,-84.4916978,270.34000000000003,0.03275667876005173,257.6609191894531,-0.07300000637769699,0.0,1
1671054607.22030592,167035093,0,3,337825200,2240,14,0.72,42.689726199999996,-84.49169789999999,270.35,0.03847077116370201,242.10275268554688,-0.05300000309944153,0.0,1
1671054607.42028594,167235073,0,3,337825400,2240,14,0.72,42.689726199999996,-84.491698,270.34000000000003,0.037121422588825226,332.7446594238281,-0.006000000052154064,0.0,1
1671054607.62029791,167435085,0,3,337825600,2240,14,0.72,42.6897263,-84.4916981,270.36,0.018384777009487152,112.380126953125,-0.005000000353902578,0.0,1
1671054607.82028794,167635075,0,3,337825800,2240,14,0.72,42.6897263,-84.4916981,270.38,0.04518849402666092,204.86370849609375,-0.004000000189989805,0.0,1
1671054608.02030087,167835088,0,3,337826000,2240,14,0.72,42.689726199999996,-84.4916982,270.38,0.022561030462384224,192.8042755126953,-0.07600000500679016,0.0,1
1671054608.22020984,168034997,0,3,337826200,2240,15,0.72,42.689726199999996,-84.4916983,270.39,0.014422205276787281,213.69007873535156,-0.014000000432133675,0.0,1
1671054608.42022681,168235014,0,3,337826400,2240,15,0.72,42.689726199999996,-84.4916983,270.4,0.020099753513932228,174.28939819335938,-0.052000001072883606,0.0,1
1671054623.82030773,183635095,0,3,337841800,2240,15,0.68,42.6897273,-84.4916997,270.85,0.012727922759950161,45.0,0.08400000631809235,0.0,1
1671054624.02020884,183834996,0,3,337842000,2240,15,0.68,42.6897273,-84.4916997,270.85,0.00806225836277008,330.255126953125,0.04500000178813934,0.0,1
1671054624.22028995,184035077,0,3,337842200,2240,15,0.68,42.689727399999995,-84.4916997,270.85,0.022561030462384224,347.19573974609375,-0.01100000087171793,0.0,1
1671054624.42027187,184235059,0,3,337842400,2240,15,0.68,42.689727399999995,-84.49169979999999,270.86,0.012041594833135605,138.366455078125,0.09100000560283661,0.0,1
1671054624.62026691,184435054,0,3,337842600,2240,15,0.68,42.689727399999995,-84.49169979999999,270.86,0.009219544939696789,192.52880859375,-0.03100000135600567,0.0,1
1671054624.82036686,184635154,0,3,337842800,2240,15,0.68,42.689727399999995,-84.49169979999999,270.86,0.033955853432416916,346.3730163574219,-0.07700000703334808,0.0,1
1671054625.02028084,184835068,0,3,337843000,2240,15,0.68,42.689727399999995,-84.49169979999999,270.86,0.034669872373342514,303.2317199707031,-0.08300000429153442,0.0,1
1671054625.22025394,185035041,0,3,337843200,2240,15,0.68,42.689727399999995,-84.4916999,270.87,0.01702938787639141,176.63352966308594,-0.027000000700354576,0.0,1
1671054625.42034578,185235133,0,3,337843400,2240,15,0.68,42.689727399999995,-84.4916999,270.88,0.023537207394838333,167.73521423339844,0.10500000417232513,0.0,1
1671054625.62025189,185435039,0,3,337843600,2240,15,0.68,42.6897273,-84.4916999,270.86,0.03807886689901352,240.06849670410156,-0.10000000149011612,0.0,1
1671054625.82023883,185635026,0,3,337843800,2240,15,0.68,42.6897273,-84.4916999,270.86,0.0020000000949949026,270.0,-0.07600000500679016,0.0,1
1671054626.02038980,185835177,0,3,337844000,2240,15,0.68,42.689727399999995,-84.4916999,270.87,0.0036055513191968203,213.69007873535156,0.015000000596046448,0.0,1
1671054626.22030377,186035091,0,3,337844200,2240,15,0.68,42.689727399999995,-84.4916999,270.87,0.02942787855863571,99.78240203857422,-0.02500000037252903,0.0,1
1671054626.42031384,186235101,0,3,337844400,2240,15,0.68,42.689727399999995,-84.4916999,270.87,0.012206556275486946,55.00797653198242,0.014000000432133675,0.0,1
1671054626.62034082,186435128,0,3,337844600,2240,15,0.68,42.689727399999995,-84.4916999,270.87,0.02500000223517418,306.8699035644531,-0.1120000034570694,0.0,1
1671054626.82025075,186635038,0,3,337844800,2240,15,0.68,42.6897275,-84.4916999,270.87,0.0375765897333622,334.79888916015625,-0.032999999821186066,0.0,1
1671054627.02028990,186835077,0,3,337845000,2240,15,0.68,42.6897276,-84.4916999,270.87,0.041880782693624496,303.3106384277344,-0.12200000882148743,0.0,1
1671054627.22025895,187035046,0,3,337845200,2240,15,0.68,42.6897276,-84.4917,270.88,0.017804494127631187,231.8427734375,-0.06300000101327896,0.0,1
1671054627.42023277,187235020,0,3,337845400,2240,15,0.68,42.6897276,-84.4917,270.87,0.03807886689901352,240.06849670410156,0.0010000000474974513,0.0,1
1671054627.62027478,187435062,0,3,337845600,2240,15,0.68,42.6897277,-84.4917001,270.86,0.030870698392391205,335.0952453613281,0.03200000151991844,0.0,1
1671054627.82039595,187635183,0,3,337845800,2240,15,0.68,42.6897278,-84.4917001,270.86,0.029154760763049126,300.9637451171875,-0.03500000014901161,0.0,1
1671054628.02030277,187835090,0,3,337846000,2240,15,0.68,42.6897279,-84.4917001,270.85,0.023537207394838333,347.7352294921875,-0.014000000432133675,0.0,1
1671054628.20000291,188014790,0,3,337846200,2240,15,0.68,42.6897279,-84.4917001,270.83,0.020591260865330696,209.05459594726562,-0.03200000151991844,0.0,1
1671054628.42019081,188234978,0,3,337846400,2240,15,0.68,42.6897279,-84.4917002,270.85,0.023345237597823143,80.13418579101562,0.03400000184774399,0.0,1
1671054628.62028980,188435077,0,3,337846600,2240,15,0.68,42.689727999999995,-84.4917001,270.84000000000003,0.025495098903775215,334.4400329589844,-0.07100000232458115,0.0,1
1671054628.82027578,188635063,0,3,337846800,2240,15,0.68,42.689728099999996,-84.4917002,270.86,0.0468188039958477,250.01690673828125,-0.0820000022649765,0.0,1
1671054629.02030277,188835090,0,3,337847000,2240,15,0.68,42.689728099999996,-84.49170029999999,270.87,0.022360680624842644,190.3048553466797,-0.01900000125169754,0.0,1
1671054629.22032094,189035108,0,3,337847200,2240,15,0.68,42.689728099999996,-84.49170029999999,270.85,0.014212671667337418,140.71058654785156,-0.04100000113248825,0.0,1
1671054629.42034483,189235132,0,3,337847400,2240,15,0.68,42.6897282,-84.49170029999999,270.85,0.009486833587288857,251.5650634765625,-0.09400000423192978,0.0,1
1671054629.62042689,189435214,0,3,337847600,2240,15,0.68,42.6897283,-84.49170029999999,270.87,0.03649657592177391,9.462320327758789,0.005000000353902578,0.0,1
1671054629.82037783,189635165,0,3,337847800,2240,15,0.68,42.6897284,-84.49170029999999,270.87,0.003162277629598975,71.56504821777344,0.01900000125169754,0.0,1
1671054630.02024794,189835035,0,3,337848000,2240,15,0.68,42.6897284,-84.49170029999999,270.85,0.05215362086892128,212.47120666503906,-0.052000001072883606,0.0,1
1671054630.22022796,190035015,0,3,337848200,2240,15,0.68,42.6897285,-84.4917004,270.86,0.012041594833135605,94.76364135742188,-0.046000003814697266,0.0,1
1671054630.42027092,190235058,0,3,337848400,2240,15,0.68,42.689728599999995,-84.4917004,270.86,0.015652475878596306,116.5650405883789,-0.05000000074505806,0.0,1
1671054630.62033892,190435126,0,3,337848600,2240,15,0.68,42.689728599999995,-84.4917004,270.85,0.01414213702082634,225.0,-0.021000001579523087,0.0,1
1671054630.82038784,190635175,0,3,337848800,2240,15,0.68,42.689728699999996,-84.4917004,270.85,0.01603122055530548,3.576334238052368,-0.009000000543892384,0.0,1
1671054631.02038383,190835171,0,3,337849000,2240,15,0.68,42.6897289,-84.49170029999999,270.86,0.08168843388557434,50.46384048461914,-0.15000000596046448,0.0,1
1671054631.22033978,191035127,0,3,337849200,2240,15,0.68,42.689729,-84.4917002,270.9,0.08345058560371399,45.97101974487305,-0.36900001764297485,0.0,1
1671054631.42041373,191235201,0,3,337849400,2240,15,0.68,42.689729199999995,-84.4917,270.98,0.13238202035427094,64.01563262939453,-0.5230000019073486,0.0,1
1671054631.62023687,191435024,0,3,337849600,2240,15,0.68,42.6897294,-84.4916997,271.11,0.25738105177879333,56.24818801879883,-0.6310000419616699,0.0,1
1671054631.82030892,191635096,0,3,337849800,2240,15,0.68,42.6897297,-84.4916992,271.26,0.263837069272995,57.69536209106445,-0.7870000600814819,0.0,1
1671054632.02023578,191835023,0,3,337850000,2240,15,0.68,42.689729899999996,-84.49169859999999,271.41,0.24795162677764893,77.42106628417969,-0.8970000147819519,0.0,1
1671054632.22027683,192035064,0,3,337850200,2240,15,0.68,42.6897301,-84.49169789999999,271.57,0.32409876585006714,65.96571350097656,-0.9340000152587891,0.0,1
1671054632.42029285,192235080,0,3,337850400,2240,15,0.68,42.689730399999995,-84.49169719999999,271.72,0.31693848967552185,59.47029113769531,-0.8500000238418579,0.0,1
