timestamp,TimeUS,Lat,Lng,Alt,RelHomeAlt,RelOriginAlt
1671054540.80032086,100615108,42.6897017,-84.4916468,269.3699951171875,0.010445695370435715,-0.6095542907714844
1671054540.84053278,100655320,42.6897017,-84.4916468,269.3699951171875,0.012473564594984055,-0.607526421546936
1671054540.84074473,100655532,42.6897017,-84.4916468,269.3699951171875,0.012473564594984055,-0.607526421546936
1671054540.88069487,100695482,42.6897017,-84.4916468,269.3699951171875,0.01389811560511589,-0.6061018705368042
1671054540.92055583,100735343,42.6897017,-84.4916468,269.3699951171875,0.01552317664027214,-0.604476809501648
1671054540.94039273,100755180,42.6897017,-84.4916468,269.3699951171875,0.016398709267377853,-0.6036012768745422
1671054540.96027493,100775062,42.6897017,-84.4916468,269.3699951171875,0.01714525744318962,-0.6028547286987305
1671054541.00038791,100815175,42.6897017,-84.4916468,269.3699951171875,0.018940549343824387,-0.6010594367980957
1671054541.04042983,100855217,42.6897017,-84.4916468,269.3800048828125,0.020194273442029953,-0.5998057126998901
1671054541.04057479,100855362,42.6897017,-84.4916468,269.3800048828125,0.020194273442029953,-0.5998057126998901
1671054541.08079886,100895586,42.6897017,-84.4916468,269.3699951171875,0.019684534519910812,-0.6003154516220093
1671054541.12054086,100935328,42.6897017,-84.4916468,269.3800048828125,0.020197372883558273,-0.5998026132583618
1671054541.14042377,100955211,42.6897017,-84.4916468,269.3800048828125,0.020700078457593918,-0.5992999076843262
1671054541.16038895,100975176,42.6897017,-84.4916468,269.3800048828125,0.02079252526164055,-0.5992074608802795
1671054541.20034194,101015129,42.6897017,-84.4916468,269.3800048828125,0.021477025002241135,-0.598522961139679
1671054541.24054790,101055335,42.6897017,-84.4916468,269.3800048828125,0.02140996977686882,-0.5985900163650513
1671054541.24072695,101055514,42.6897017,-84.4916468,269.3800048828125,0.02140996977686882,-0.5985900163650513
1671054541.28083086,101095618,42.6897017,-84.4916468,269.3800048828125,0.021068554371595383,-0.5989314317703247
1671054541.32058382,101135371,42.6897017,-84.4916468,269.3800048828125,0.021647434681653976,-0.5983525514602661
1671054541.34050179,101155289,42.6897017,-84.4916468,269.3800048828125,0.022127728909254074,-0.597872257232666
1671054541.36027074,101175058,42.6897017,-84.4916468,269.3800048828125,0.022304575890302658,-0.5976954102516174
1671054541.40036392,101215151,42.6897017,-84.4916468,269.3800048828125,0.0230320505797863,-0.5969679355621338
1671054541.44045186,101255239,42.6897017,-84.4916468,269.3800048828125,0.022992055863142014,-0.5970079302787781
1671054541.44055676,101255344,42.6897017,-84.4916468,269.3800048828125,0.022992055863142014,-0.5970079302787781
1671054541.48085475,101295642,42.6897017,-84.4916468,269.3800048828125,0.02267048880457878,-0.5973294973373413
1671054541.52062893,101335416,42.6897017,-84.4916468,269.3800048828125,0.02314196154475212,-0.596858024597168
1671054541.54086185,101355649,42.6897017,-84.4916468,269.3800048828125,0.023568790405988693,-0.5964311957359314
1671054541.56022596,101375013,42.6897017,-84.4916468,269.3800048828125,0.023695748299360275,-0.5963042378425598
1671054541.60029888,101415086,42.6897017,-84.4916468,269.3800048828125,0.02438442036509514,-0.595615565776825
1671054541.64044094,101455228,42.6897017,-84.4916468,269.3800048828125,0.025261979550123215,-0.5947380065917969
1671054541.64054275,101455330,42.6897017,-84.4916468,269.3800048828125,0.025261979550123215,-0.5947380065917969
1671054541.68083096,101495618,42.6897017,-84.4916468,269.3800048828125,0.02620045468211174,-0.5937995314598083
1671054541.72066879,101535456,42.6897017,-84.4916468,269.3800048828125,0.02738211676478386,-0.5926178693771362
1671054541.74049497,101555282,42.6897017,-84.4916468,269.3800048828125,0.028042834252119064,-0.591957151889801
1671054541.76024675,101575034,42.6897017,-84.4916468,269.3800048828125,0.0285939984023571,-0.591405987739563
1671054541.80022192,101615009,42.689701799999995,-84.4916468,269.3899841308594,0.030031364411115646,-0.5899686217308044
1671054541.84055281,101655340,42.689701799999995,-84.4916468,269.3899841308594,0.03122381493449211,-0.588776171207428
1671054541.84065580,101655443,42.689701799999995,-84.4916468,269.3899841308594,0.03122381493449211,-0.588776171207428
1671054541.88094091,101695728,42.689701799999995,-84.4916468,269.3899841308594,0.031563084572553635,-0.5884369015693665
1671054541.92067790,101735465,42.689701799999995,-84.4916468,269.3899841308594,0.032446425408124924,-0.5875535607337952
1671054541.94046378,101755251,42.689701799999995,-84.4916468,269.3899841308594,0.032998841255903244,-0.5870011448860168
1671054541.96031475,101775102,42.689701799999995,-84.4916468,269.3899841308594,0.033368807286024094,-0.586631178855896
1671054542.00028396,101815071,42.689701799999995,-84.4916468,269.3899841308594,0.034421246498823166,-0.5855787396430969
1671054542.04042387,101855211,42.689701799999995,-84.4916468,269.3899841308594,0.03563515469431877,-0.5843648314476013
1671054542.04050589,101855293,42.689701799999995,-84.4916468,269.3899841308594,0.03563515469431877,-0.5843648314476013
1671054542.08091879,101895706,42.689701799999995,-84.4916468,269.3899841308594,0.03673652932047844,-0.5832634568214417
1671054542.12054992,101935337,42.689701799999995,-84.4916468,269.3899841308594,0.03791890665888786,-0.5820810794830322
1671054542.14052391,101955311,42.689701799999995,-84.4916468,269.3899841308594,0.03854725882411003,-0.5814527273178101
1671054542.16025281,101975040,42.689701799999995,-84.4916468,269.3899841308594,0.039096634835004807,-0.5809033513069153
1671054542.20027184,102015059,42.689701799999995,-84.4916468,269.3999938964844,0.04037485644221306,-0.579625129699707
1671054542.24050593,102055293,42.689701799999995,-84.4916468,269.3999938964844,0.042337220162153244,-0.5776627659797668
1671054542.24061275,102055400,42.689701799999995,-84.4916468,269.3999938964844,0.042337220162153244,-0.5776627659797668
1671054542.28085184,102095639,42.689701799999995,-84.4916468,269.3999938964844,0.04432151839137077,-0.5756784677505493
1671054542.32063484,102135422,42.689701799999995,-84.4916468,269.3999938964844,0.046044331043958664,-0.5739556550979614
1671054542.34043574,102155223,42.689701799999995,-84.4916468,269.3999938964844,0.0468430332839489,-0.5731569528579712
1671054542.36032796,102175115,42.689701799999995,-84.4916468,269.3999938964844,0.04771951958537102,-0.5722804665565491
1671054542.40026188,102215049,42.689701799999995,-84.4916468,269.3999938964844,0.04946879670023918,-0.5705311894416809
1671054542.44038987,102255177,42.689701799999995,-84.4916468,269.4100036621094,0.05119536444544792,-0.5688046216964722
1671054542.44055796,102255345,42.689701799999995,-84.4916468,269.4100036621094,0.05119536444544792,-0.5688046216964722
1671054542.48081875,102295606,42.689701799999995,-84.4916468,269.4100036621094,0.05293266102671623,-0.5670673251152039
1671054542.52055287,102335340,42.689701799999995,-84.4916468,269.4100036621094,0.054546575993299484,-0.5654534101486206
1671054542.54064584,102355433,42.689701799999995,-84.4916468,269.4100036621094,0.055312614887952805,-0.5646873712539673
1671054542.56030083,102375088,42.689701799999995,-84.4916468,269.4100036621094,0.056128960102796555,-0.5638710260391235
1671054542.60036087,102415148,42.689701799999995,-84.4916468,269.4100036621094,0.05778513476252556,-0.5622148513793945
1671054542.64050174,102455289,42.689701799999995,-84.4916468,269.4100036621094,0.05716894194483757,-0.5628310441970825
1671054542.64063597,102455423,42.689701799999995,-84.4916468,269.4100036621094,0.05716894194483757,-0.5628310441970825
1671054542.68088794,102495675,42.689701799999995,-84.4916468,269.4100036621094,0.05630848929286003,-0.5636914968490601
1671054542.72057986,102535367,42.689701799999995,-84.4916468,269.4100036621094,0.05643044039607048,-0.5635695457458496
1671054542.74042487,102555212,42.689701799999995,-84.4916468,269.4100036621094,0.056706588715314865,-0.5632933974266052
1671054542.76024985,102575037,42.689701799999995,-84.4916468,269.4100036621094,0.05662338063120842,-0.5633766055107117
1671054542.80032396,102615111,42.689701799999995,-84.4916468,269.4100036621094,0.05688534304499626,-0.5631146430969238
1671054542.84065485,102655442,42.689701799999995,-84.4916468,269.4100036621094,0.05576036497950554,-0.5642396211624146
1671054542.84078979,102655577,42.689701799999995,-84.4916468,269.4100036621094,0.05576036497950554,-0.5642396211624146
1671054542.88084793,102695635,42.689701799999995,-84.4916468,269.4100036621094,0.05426798388361931,-0.5657320022583008
1671054542.92055583,102735343,42.689701799999995,-84.4916468,269.4100036621094,0.053789716213941574,-0.5662102699279785
1671054542.94045091,102755238,42.689701799999995,-84.4916468,269.4100036621094,0.05383072420954704,-0.566169261932373
1671054542.96027684,102775064,42.689701799999995,-84.4916468,269.4100036621094,0.05342863127589226,-0.5665713548660278
1671054543.00032973,102815117,42.689701799999995,-84.4916468,269.4100036621094,0.05312822386622429,-0.5668717622756958
1671054543.04050183,102855289,42.689701799999995,-84.4916468,269.4100036621094,0.05075846239924431,-0.5692415237426758
1671054543.04063392,102855421,42.689701799999995,-84.4916468,269.4100036621094,0.05075846239924431,-0.5692415237426758
1671054543.08086777,102895655,42.689701799999995,-84.4916468,269.3999938964844,0.047701042145490646,-0.5722989439964294
1671054543.12052774,102935315,42.689701799999995,-84.4916468,269.3999938964844,0.04581991955637932,-0.5741800665855408
1671054543.14045477,102955242,42.689701799999995,-84.4916468,269.3999938964844,0.04539189860224724,-0.5746080875396729
1671054543.16023278,102975020,42.689701799999995,-84.4916468,269.3999938964844,0.044199388474226,-0.5758005976676941
1671054543.20027184,103015059,42.689701799999995,-84.4916468,269.3999938964844,0.04281173273921013,-0.57718825340271
1671054543.24048495,103055272,42.689701799999995,-84.4916468,269.3899841308594,0.03937510773539543,-0.5806248784065247
1671054543.24059176,103055379,42.689701799999995,-84.4916468,269.3899841308594,0.03937510773539543,-0.5806248784065247
1671054543.28086877,103095656,42.689701799999995,-84.4916468,269.3899841308594,0.03527132794260979,-0.5847286581993103
1671054543.32062292,103135410,42.689701799999995,-84.4916468,269.3899841308594,0.03297923132777214,-0.587020754814148
1671054543.34050393,103155291,42.689701799999995,-84.4916468,269.3899841308594,0.03237525746226311,-0.587624728679657
1671054543.36025095,103175038,42.689701799999995,-84.4916468,269.3899841308594,0.030955474823713303,-0.5890445113182068
1671054543.40034485,103215132,42.689701799999995,-84.4916468,269.3800048828125,0.02924923226237297,-0.5907507538795471
1671054543.44047689,103255264,42.689701799999995,-84.4916468,269.3800048828125,0.025783758610486984,-0.5942162275314331
1671054543.44058585,103255373,42.689701799999995,-84.4916468,269.3800048828125,0.025783758610486984,-0.5942162275314331
1671054543.48087192,103295659,42.689701799999995,-84.4916468,269.3800048828125,0.02165023609995842,-0.5983497500419617
1671054543.52075076,103335538,42.689701799999995,-84.4916468,269.3699951171875,0.019143085926771164,-0.6008569002151489
1671054543.54061079,103355398,42.689701799999995,-84.4916468,269.3699951171875,0.018433254212141037,-0.601566731929779
1671054543.56033993,103375127,42.689701799999995,-84.4916468,269.3699951171875,0.016917388886213303,-0.6030825972557068
1671054543.60020494,103414992,42.689701799999995,-84.4916468,269.3699951171875,0.014772456139326096,-0.605227530002594
1671054543.64043188,103455219,42.689701799999995,-84.4916468,269.3699951171875,0.010768871754407883,-0.6092311143875122
1671054543.64056087,103455348,42.689701799999995,-84.4916468,269.3699951171875,0.010768871754407883,-0.6092311143875122
1671054543.68096590,103495753,42.689701799999995,-84.4916468,269.3599853515625,0.006098013371229172,-0.6139019727706909
1671054543.72065783,103535445,42.689701799999995,-84.4916468,269.3599853515625,0.0031803064048290253,-0.6168196797370911
1671054543.74040389,103555191,42.689701799999995,-84.4916468,269.3599853515625,0.0022956542670726776,-0.6177043318748474
1671054543.76031375,103575101,42.689701799999995,-84.4916468,269.3599853515625,0.0005698017776012421,-0.6194301843643188
1671054543.80030584,103615093,42.6897017,-84.4916468,269.3500061035156,-0.001667756587266922,-0.621667742729187
1671054543.84051180,103655299,42.6897017,-84.4916468,269.3500061035156,-0.00507320836186409,-0.6250731945037842
1671054543.84061790,103655405,42.6897017,-84.4916468,269.3500061035156,-0.00507320836186409,-0.6250731945037842
1671054543.88085175,103695639,42.6897017,-84.4916468,269.3500061035156,-0.009015876799821854,-0.6290158629417419
1671054543.92055678,103735344,42.6897017,-84.4916468,269.3399963378906,-0.01156427338719368,-0.6315642595291138
1671054543.94060588,103755393,42.6897017,-84.4916468,269.3399963378906,-0.012373525649309158,-0.6323735117912292
1671054543.96029091,103775078,42.6897017,-84.4916468,269.3399963378906,-0.013856191188097,-0.6338561773300171
1671054544.00028992,103815077,42.6897017,-84.4916468,269.3399963378906,-0.01584072783589363,-0.6358407139778137
1671054544.04038882,103855176,42.6897017,-84.4916468,269.3399963378906,-0.018060583621263504,-0.6380605697631836
1671054544.04057479,103855362,42.6897017,-84.4916468,269.3399963378906,-0.018060583621263504,-0.6380605697631836
1671054544.08084774,103895635,42.6897017,-84.4916468,269.3299865722656,-0.02142776921391487,-0.641427755355835
1671054544.12061286,103935400,42.6897017,-84.4916468,269.3299865722656,-0.02325405552983284,-0.6432540416717529
1671054544.14046884,103955256,42.6897016,-84.4916468,269.3299865722656,-0.02397884801030159,-0.6439788341522217
1671054544.16028786,103975075,42.6897016,-84.4916468,269.3299865722656,-0.025073368102312088,-0.6450733542442322
1671054544.20029688,104015084,42.6897016,-84.4916468,269.3299865722656,-0.026528198271989822,-0.6465281844139099
1671054544.24043679,104055224,42.6897016,-84.4916468,269.32000732421875,-0.030939359217882156,-0.6509393453598022
1671054544.24058080,104055368,42.6897016,-84.4916468,269.32000732421875,-0.030939359217882156,-0.6509393453598022
1671054544.28081679,104095604,42.6897016,-84.4916468,269.32000732421875,-0.03600742295384407,-0.6560074090957642
1671054544.32059574,104135383,42.6897016,-84.4916468,269.32000732421875,-0.03943147137761116,-0.6594314575195312
1671054544.34042096,104155208,42.6897016,-84.4916468,269.30999755859375,-0.04059191420674324,-0.6605919003486633
1671054544.36029077,104175078,42.6897016,-84.4916468,269.30999755859375,-0.04249062016606331,-0.6624906063079834
1671054544.40034389,104215131,42.6897016,-84.4916468,269.30999755859375,-0.04503222182393074,-0.6650322079658508
1671054544.44046092,104255248,42.6897016,-84.4916468,269.30999755859375,-0.0482153482735157,-0.6682153344154358
1671054544.44059992,104255387,42.6897016,-84.4916468,269.30999755859375,-0.0482153482735157,-0.6682153344154358
1671054544.48086977,104295657,42.6897016,-84.4916468,269.29998779296875,-0.05163903906941414,-0.6716390252113342
1671054544.52062392,104335411,42.6897016,-84.49164689999999,269.29998779296875,-0.053712207823991776,-0.6737121939659119
1671054544.54054880,104355336,42.6897016,-84.49164689999999,269.29998779296875,-0.05449982360005379,-0.6744998097419739
1671054544.56028175,104375069,42.6897016,-84.49164689999999,269.29998779296875,-0.05562599375844002,-0.6756259799003601
1671054544.60036993,104415157,42.6897016,-84.49164689999999,269.29998779296875,-0.05707629397511482,-0.6770762801170349
1671054544.64050293,104455290,42.6897016,-84.49164689999999,269.29998779296875,-0.05850185826420784,-0.6785018444061279
1671054544.64057684,104455364,42.6897016,-84.49164689999999,269.29998779296875,-0.05850185826420784,-0.6785018444061279
1671054544.68085575,104495643,42.6897016,-84.49164689999999,269.29998779296875,-0.05989881232380867,-0.6798987984657288
1671054544.72054076,104535328,42.6897016,-84.491647,269.2900085449219,-0.060827214270830154,-0.6808272004127502
1671054544.74044180,104555229,42.6897016,-84.491647,269.2900085449219,-0.06129850819706917,-0.6812984943389893
1671054544.76025987,104575047,42.6897016,-84.491647,269.2900085449219,-0.061759788542985916,-0.681759774684906
1671054544.80028176,104615069,42.6897016,-84.491647,269.2900085449219,-0.06216676905751228,-0.6821667551994324
1671054544.84057283,104655360,42.6897017,-84.491647,269.2900085449219,-0.0619865246117115,-0.6819865107536316
1671054544.84071589,104655503,42.6897017,-84.491647,269.2900085449219,-0.0619865246117115,-0.6819865107536316
1671054544.88090181,104695689,42.6897017,-84.4916471,269.2900085449219,-0.06157471612095833,-0.6815747022628784
1671054544.92056179,104735349,42.6897017,-84.4916471,269.2900085449219,-0.06153537705540657,-0.6815353631973267
1671054544.94052792,104755315,42.6897017,-84.4916471,269.2900085449219,-0.06175287440419197,-0.6817528605461121
1671054544.96028996,104775077,42.6897017,-84.4916471,269.2900085449219,-0.06155737116932869,-0.6815573573112488
1671054545.00031996,104815107,42.6897017,-84.4916471,269.2900085449219,-0.06158002093434334,-0.6815800070762634
1671054545.04042387,104855211,42.6897017,-84.4916471,269.2900085449219,-0.06223859265446663,-0.6822385787963867
1671054545.04054880,104855336,42.6897017,-84.4916471,269.2900085449219,-0.06223859265446663,-0.6822385787963867
1671054545.08090186,104895689,42.6897017,-84.4916471,269.2900085449219,-0.06290139257907867,-0.6829013824462891
1671054545.12061882,104935406,42.6897017,-84.4916472,269.2900085449219,-0.06383801996707916,-0.6838380098342896
1671054545.14048886,104955276,42.6897017,-84.4916472,269.2900085449219,-0.06432880461215973,-0.6843287944793701
1671054545.16033983,104975127,42.6897017,-84.4916472,269.2900085449219,-0.0647294670343399,-0.6847294569015503
1671054545.20035195,105015139,42.6897017,-84.4916472,269.2900085449219,-0.06593991816043854,-0.6859399080276489
1671054545.24045777,105055245,42.6897017,-84.4916472,269.2900085449219,-0.06660790741443634,-0.6866078972816467
1671054545.24053097,105055318,42.6897017,-84.4916472,269.2900085449219,-0.06660790741443634,-0.6866078972816467
1671054545.28082681,105095614,42.6897017,-84.4916472,269.2900085449219,-0.06711681187152863,-0.687116801738739
1671054545.32071590,105135503,42.6897017,-84.4916472,269.2900085449219,-0.06741185486316681,-0.6874118447303772
1671054545.34050179,105155289,42.6897017,-84.4916472,269.2900085449219,-0.06762625277042389,-0.6876262426376343
1671054545.36041474,105175202,42.6897017,-84.4916472,269.2900085449219,-0.06772007048130035,-0.6877200603485107
1671054545.40026474,105215052,42.6897017,-84.4916472,269.2900085449219,-0.06805701553821564,-0.688057005405426
1671054545.44045877,105255246,42.6897016,-84.4916472,269.2900085449219,-0.06818510591983795,-0.6881850957870483
1671054545.44059491,105255382,42.6897016,-84.4916472,269.2900085449219,-0.06818510591983795,-0.6881850957870483
1671054545.48083997,105295627,42.6897016,-84.4916472,269.2900085449219,-0.06811507046222687,-0.6881150603294373
1671054545.52055383,105335341,42.6897016,-84.4916472,269.2900085449219,-0.06813688576221466,-0.688136875629425
1671054545.54043984,105355227,42.6897016,-84.4916472,269.2900085449219,-0.06837929785251617,-0.6883792877197266
1671054545.56034780,105375135,42.6897016,-84.4916472,269.2900085449219,-0.06830443441867828,-0.6883044242858887
1671054545.60022879,105415016,42.6897016,-84.4916472,269.2900085449219,-0.06820721924304962,-0.68820720911026
1671054545.64039993,105455187,42.6897016,-84.4916472,269.2900085449219,-0.06715144217014313,-0.6871514320373535
1671054545.64057875,105455366,42.6897016,-84.4916472,269.2900085449219,-0.06715144217014313,-0.6871514320373535
1671054545.68082190,105495609,42.6897016,-84.4916472,269.2900085449219,-0.065659299492836,-0.6856592893600464
1671054545.72055984,105535347,42.6897017,-84.4916473,269.2900085449219,-0.06510187685489655,-0.6851018667221069
1671054545.74053383,105555321,42.6897017,-84.4916473,269.2900085449219,-0.06513179838657379,-0.6851317882537842
1671054545.76033974,105575127,42.6897017,-84.4916473,269.2900085449219,-0.06468136608600616,-0.6846813559532166
1671054545.80031776,105615105,42.6897017,-84.4916473,269.2900085449219,-0.06431765854358673,-0.6843176484107971
1671054545.84060192,105655389,42.6897017,-84.4916473,269.2900085449219,-0.06172158196568489,-0.681721568107605
1671054545.84078288,105655570,42.6897017,-84.4916473,269.2900085449219,-0.06172158196568489,-0.681721568107605
1671054545.88082194,105695609,42.6897017,-84.4916473,269.29998779296875,-0.05845775082707405,-0.6784577369689941
1671054545.92067981,105735467,42.6897017,-84.4916473,269.29998779296875,-0.056493837386369705,-0.6764938235282898
1671054545.94044995,105755237,42.6897017,-84.4916473,269.29998779296875,-0.056051451712846756,-0.6760514378547668
1671054545.96026778,105775055,42.6897017,-84.4916473,269.29998779296875,-0.05475546792149544,-0.6747554540634155
1671054546.00031090,105815098,42.6897017,-84.4916473,269.29998779296875,-0.05326606705784798,-0.6732660531997681
1671054546.04060388,105855391,42.6897017,-84.4916473,269.29998779296875,-0.053396064788103104,-0.6733960509300232
1671054546.04068494,105855472,42.6897017,-84.4916473,269.29998779296875,-0.053396064788103104,-0.6733960509300232
1671054546.08085394,105895641,42.6897017,-84.4916473,269.29998779296875,-0.05352487042546272,-0.6735248565673828
1671054546.12021589,105935003,42.6897017,-84.4916473,269.29998779296875,-0.05422486737370491,-0.674224853515625
1671054546.14049077,105955278,42.6897017,-84.4916473,269.29998779296875,-0.054655272513628006,-0.6746552586555481
1671054546.16023993,105975027,42.6897017,-84.4916473,269.29998779296875,-0.054992932826280594,-0.6749929189682007
1671054546.20040894,106015196,42.6897017,-84.49164739999999,269.29998779296875,-0.0557914562523365,-0.6757914423942566
1671054546.24050879,106055296,42.6897016,-84.49164739999999,269.29998779296875,-0.056482214480638504,-0.6764822006225586
1671054546.24065089,106055438,42.6897016,-84.49164739999999,269.29998779296875,-0.056482214480638504,-0.6764822006225586
1671054546.28098083,106095768,42.6897016,-84.49164739999999,269.29998779296875,-0.05718608573079109,-0.6771860718727112
1671054546.32065392,106135441,42.6897016,-84.49164739999999,269.29998779296875,-0.057674843817949295,-0.6776748299598694
1671054546.34051085,106155298,42.6897016,-84.49164739999999,269.29998779296875,-0.05794676020741463,-0.6779467463493347
1671054546.36026096,106175048,42.6897016,-84.49164739999999,269.29998779296875,-0.0582403726875782,-0.6782403588294983
1671054546.40032697,106215114,42.6897016,-84.49164739999999,269.29998779296875,-0.05855240300297737,-0.6785523891448975
1671054546.44052076,106255308,42.6897016,-84.49164739999999,269.29998779296875,-0.056780654937028885,-0.676780641078949
1671054546.44063973,106255427,42.6897016,-84.49164739999999,269.29998779296875,-0.056780654937028885,-0.676780641078949
1671054546.48085284,106295640,42.6897016,-84.49164739999999,269.29998779296875,-0.05469192937016487,-0.674691915512085
1671054546.52061176,106335399,42.6897016,-84.49164739999999,269.29998779296875,-0.05370153859257698,-0.6737015247344971
1671054546.54044294,106355230,42.6897016,-84.49164739999999,269.29998779296875,-0.053538281470537186,-0.6735382676124573
1671054546.56029487,106375082,42.6897016,-84.4916475,269.29998779296875,-0.052895981818437576,-0.6728959679603577
1671054546.60037589,106415163,42.6897016,-84.4916475,269.29998779296875,-0.05198623612523079,-0.6719862222671509
1671054546.64050293,106455290,42.6897016,-84.4916475,269.29998779296875,-0.05058814957737923,-0.6705881357192993
1671054546.64060688,106455394,42.6897016,-84.4916475,269.29998779296875,-0.05058814957737923,-0.6705881357192993
1671054546.68089795,106495685,42.6897016,-84.4916475,269.30999755859375,-0.048830050975084305,-0.6688300371170044
1671054546.72063494,106535422,42.6897015,-84.4916475,269.30999755859375,-0.047961074858903885,-0.667961061000824
1671054546.74048281,106555270,42.6897015,-84.4916475,269.30999755859375,-0.047865111380815506,-0.6678650975227356
1671054546.76031375,106575101,42.6897015,-84.4916475,269.30999755859375,-0.047279614955186844,-0.6672796010971069
1671054546.80032396,106615111,42.6897015,-84.4916475,269.30999755859375,-0.046338457614183426,-0.6663384437561035
1671054546.84051394,106655301,42.6897015,-84.4916475,269.30999755859375,-0.04645087197422981,-0.6664508581161499
1671054546.84062696,106655414,42.6897015,-84.4916475,269.30999755859375,-0.04645087197422981,-0.6664508581161499
1671054546.88097191,106695759,42.6897015,-84.4916475,269.30999755859375,-0.046180564910173416,-0.6661805510520935
1671054546.92062473,106735412,42.6897015,-84.4916475,269.30999755859375,-0.0461929626762867,-0.6661929488182068
1671054546.94045591,106755243,42.6897015,-84.4916475,269.30999755859375,-0.046287912875413895,-0.666287899017334
1671054546.96034575,106775133,42.6897015,-84.4916475,269.30999755859375,-0.046200115233659744,-0.6662001013755798
1671054547.00031686,106815104,42.6897015,-84.4916475,269.30999755859375,-0.046016592532396317,-0.6660165786743164
1671054547.04058194,106855369,42.6897015,-84.4916475,269.30999755859375,-0.04532017186284065,-0.6653201580047607
1671054547.04068494,106855472,42.6897015,-84.4916475,269.30999755859375,-0.04532017186284065,-0.6653201580047607
1671054547.08079195,106895579,42.6897015,-84.4916475,269.30999755859375,-0.043027181178331375,-0.6630271673202515
1671054547.12063289,106935420,42.6897015,-84.4916475,269.30999755859375,-0.0408523865044117,-0.6608523726463318
1671054547.14044476,106955232,42.6897015,-84.4916475,269.32000732421875,-0.040000397711992264,-0.6600003838539124
1671054547.16037178,106975159,42.6897015,-84.4916475,269.32000732421875,-0.038378018885850906,-0.658378005027771
1671054547.20063496,107015422,42.6897015,-84.4916475,269.32000732421875,-0.035330016165971756,-0.6553300023078918
1671054547.24049973,107055287,42.6897015,-84.4916475,269.32000732421875,-0.030993778258562088,-0.6509937644004822
1671054547.24064279,107055430,42.6897015,-84.4916475,269.32000732421875,-0.030993778258562088,-0.6509937644004822
1671054547.28085375,107095641,42.6897015,-84.4916475,269.3299865722656,-0.024969477206468582,-0.6449694633483887
1671054547.32060790,107135395,42.6897015,-84.4916475,269.3399963378906,-0.01871832087635994,-0.63871830701828
1671054547.34055090,107155338,42.6897015,-84.4916475,269.3399963378906,-0.015336353331804276,-0.6353363394737244
1671054547.36041880,107175206,42.6897015,-84.4916475,269.3399963378906,-0.011111516505479813,-0.6311115026473999
1671054547.40030789,107215095,42.6897015,-84.49164739999999,269.3500061035156,-0.002166289836168289,-0.6221662759780884
1671054547.44047689,107255264,42.6897015,-84.49164739999999,269.3599853515625,0.009401541203260422,-0.6105984449386597
1671054547.44061375,107255401,42.6897015,-84.49164739999999,269.3599853515625,0.009401541203260422,-0.6105984449386597
1671054547.48084092,107295628,42.6897015,-84.49164739999999,269.3800048828125,0.02309850975871086,-0.5969014763832092
1671054547.52056789,107335355,42.6897016,-84.49164739999999,269.3899841308594,0.037002723664045334,-0.5829972624778748
1671054547.54052091,107355308,42.6897016,-84.49164739999999,269.3999938964844,0.043828826397657394,-0.5761711597442627
1671054547.56025982,107375047,42.6897016,-84.49164739999999,269.4100036621094,0.051892977207899094,-0.568107008934021
1671054547.60030389,107415091,42.6897016,-84.4916473,269.41998291015625,0.06792740523815155,-0.5520725846290588
1671054547.64048195,107455269,42.6897017,-84.4916473,269.44000244140625,0.08995817601680756,-0.5300418138504028
1671054547.64065194,107455439,42.6897017,-84.4916473,269.44000244140625,0.08995817601680756,-0.5300418138504028
1671054547.68091393,107495701,42.689701799999995,-84.4916472,269.4700012207031,0.11473064124584198,-0.5052693486213684
1671054547.72070575,107535493,42.689701799999995,-84.4916472,269.489990234375,0.1389489322900772,-0.4810510575771332
1671054547.74046779,107555255,42.689701899999996,-84.4916472,269.5099792480469,0.15077371895313263,-0.46922627091407776
1671054547.76023388,107575021,42.689701899999996,-84.4916471,269.5199890136719,0.16438569128513336,-0.455614298582077
1671054547.80027795,107615065,42.689702,-84.4916471,269.54998779296875,0.19062919914722443,-0.42937079071998596
1671054547.84051585,107655303,42.6897021,-84.4916471,269.5799865722656,0.22040866315364838,-0.399591326713562
1671054547.84063292,107655420,42.6897021,-84.4916471,269.5799865722656,0.22040866315364838,-0.399591326713562
1671054547.88098288,107695770,42.6897022,-84.4916471,269.6099853515625,0.2525230646133423,-0.3674769103527069
1671054547.92065096,107735438,42.6897024,-84.491647,269.6399841308594,0.28318196535110474,-0.33681800961494446
1671054547.94047284,107755260,42.6897024,-84.491647,269.6499938964844,0.29799291491508484,-0.32200706005096436
1671054547.96025491,107775042,42.689702499999996,-84.491647,269.66998291015625,0.3143213093280792,-0.30567866563796997
1671054548.00028896,107815076,42.6897026,-84.4916471,269.6999816894531,0.345840185880661,-0.2741597890853882
1671054548.04053378,107855321,42.6897028,-84.4916471,269.72998046875,0.37928083539009094,-0.24071915447711945
1671054548.04060984,107855397,42.6897028,-84.4916471,269.72998046875,0.37928083539009094,-0.24071915447711945
1671054548.08095789,107895745,42.6897029,-84.4916472,269.7699890136719,0.413636714220047,-0.2063632756471634
1671054548.12059689,107935384,42.689703099999996,-84.4916472,269.79998779296875,0.44535157084465027,-0.17464841902256012
1671054548.14053273,107955320,42.689703099999996,-84.4916472,269.82000732421875,0.4606655538082123,-0.15933442115783691
1671054548.16028285,107975070,42.6897032,-84.4916472,269.8299865722656,0.4770514965057373,-0.1429484784603119
1671054548.20053577,108015323,42.6897034,-84.4916473,269.8599853515625,0.5082482099533081,-0.11175177991390228
1671054548.24053884,108055326,42.6897035,-84.49164739999999,269.8899841308594,0.538878858089447,-0.08112113922834396
1671054548.24064994,108055437,42.6897035,-84.49164739999999,269.8899841308594,0.538878858089447,-0.08112113922834396
1671054548.28090096,108095688,42.689703699999995,-84.4916475,269.92999267578125,0.5704898834228516,-0.04951009154319763
1671054548.32063794,108135425,42.6897038,-84.4916475,269.9599914550781,0.6003891825675964,-0.019610829651355743
1671054548.34050775,108155295,42.6897039,-84.4916476,269.9700012207031,0.6147175431251526,-0.005282444413751364
1671054548.36034179,108175129,42.689704,-84.4916476,269.97998046875,0.6290277242660522,0.009027767926454544
1671054548.40031886,108215106,42.6897041,-84.4916477,270.0099792480469,0.6584649682044983,0.0384649820625782
1671054548.44055676,108255344,42.689704299999995,-84.4916477,270.0400085449219,0.6872344017028809,0.06723442673683167
1671054548.44067574,108255463,42.689704299999995,-84.4916477,270.0400085449219,0.6872344017028809,0.06723442673683167
1671054548.48099995,108295787,42.6897044,-84.4916478,270.07000732421875,0.7168859243392944,0.09688593447208405
1671054548.52060294,108335390,42.6897045,-84.4916478,270.1000061035156,0.7443138360977173,0.1243138238787651
1671054548.54051089,108355298,42.6897046,-84.49164789999999,270.1099853515625,0.7574214339256287,0.13742144405841827
1671054548.56044078,108375228,42.6897046,-84.49164789999999,270.1300048828125,0.7706632614135742,0.15066327154636383
1671054548.60028195,108415069,42.6897048,-84.49164789999999,270.1499938964844,0.7956862449645996,0.17568625509738922
1671054548.64041281,108455200,42.689704899999995,-84.491648,270.16998291015625,0.81886887550354,0.19886891543865204
1671054548.64056873,108455356,42.689704899999995,-84.491648,270.16998291015625,0.81886887550354,0.19886891543865204
1671054548.68089294,108495680,42.689705,-84.49164809999999,270.1999816894531,0.8408317565917969,0.22083179652690887
1671054548.72065377,108535441,42.6897051,-84.49164809999999,270.2200012207031,0.8611495494842529,0.24114954471588135
1671054548.74050689,108555294,42.6897051,-84.4916482,270.22998046875,0.8712478280067444,0.2512478530406952
1671054548.76037884,108575166,42.6897052,-84.4916482,270.239990234375,0.8804001808166504,0.2604002058506012
1671054548.80035996,108615147,42.6897053,-84.4916483,270.25,0.8987048864364624,0.2787049114704132
1671054548.84053874,108655326,42.6897054,-84.4916484,270.2699890136719,0.9157518744468689,0.2957518696784973
1671054548.84068489,108655472,42.6897054,-84.4916484,270.2699890136719,0.9157518744468689,0.2957518696784973
1671054548.88083386,108695621,42.689705499999995,-84.4916484,270.2900085449219,0.9312404990196228,0.3112404942512512
1671054548.92061496,108735402,42.689705599999996,-84.4916485,270.29998779296875,0.9469010233879089,0.32690104842185974
1671054548.94051981,108755307,42.689705599999996,-84.4916485,270.30999755859375,0.9548153877258301,0.3348154127597809
1671054548.96035385,108775141,42.6897057,-84.4916485,270.32000732421875,0.9624782800674438,0.34247830510139465
1671054549.00030875,108815096,42.6897058,-84.49164859999999,270.3299865722656,0.9783311486244202,0.35833117365837097
1671054549.04044676,108855234,42.6897058,-84.49164859999999,270.3500061035156,0.994189441204071,0.37418946623802185
1671054549.04062581,108855413,42.6897058,-84.49164859999999,270.3500061035156,0.994189441204071,0.37418946623802185
1671054549.08082175,108895609,42.6897059,-84.4916487,270.3699951171875,1.0102972984313965,0.3902972936630249
1671054549.12059593,108935383,42.689706,-84.4916488,270.3800048828125,1.0256922245025635,0.4056921899318695
1671054549.14055777,108955345,42.689706,-84.4916488,270.3899841308594,1.0332297086715698,0.41322970390319824
1671054549.16029692,108975084,42.689706099999995,-84.4916489,270.3999938964844,1.0410435199737549,0.4210435152053833
1671054549.20038795,109015175,42.689706099999995,-84.491649,270.4100036621094,1.056368112564087,0.43636807799339294
1671054549.24049091,109055278,42.689706199999996,-84.49164909999999,270.42999267578125,1.0719165802001953,0.4519166350364685
1671054549.24064684,109055434,42.689706199999996,-84.49164909999999,270.42999267578125,1.0719165802001953,0.4519166350364685
1671054549.28088784,109095675,42.6897063,-84.4916492,270.44000244140625,1.0877963304519653,0.46779632568359375
1671054549.32063293,109135420,42.6897063,-84.4916492,270.4599914550781,1.1034382581710815,0.48343828320503235
1671054549.34055090,109155338,42.6897064,-84.49164929999999,270.4700012207031,1.1109344959259033,0.4909345209598541
1671054549.36026883,109175056,42.6897064,-84.49164929999999,270.4700012207031,1.1186875104904175,0.4986875355243683
1671054549.40036893,109215156,42.6897064,-84.4916494,270.489990234375,1.1346232891082764,0.5146233439445496
1671054549.44047475,109255262,42.6897065,-84.4916496,270.5099792480469,1.1507848501205444,0.5307849049568176
1671054549.44058681,109255374,42.6897065,-84.4916496,270.5099792480469,1.1507848501205444,0.5307849049568176
1671054549.48090386,109295691,42.6897066,-84.4916497,270.5199890136719,1.1668380498886108,0.546838104724884
1671054549.52070189,109335489,42.6897066,-84.4916499,270.5400085449219,1.181127905845642,0.5611279606819153
1671054549.54044485,109355232,42.6897066,-84.4916499,270.5400085449219,1.1878211498260498,0.5678211450576782
1671054549.56029391,109375081,42.689706699999995,-84.49164999999999,270.54998779296875,1.1948012113571167,0.5748012661933899
1671054549.60025597,109415043,42.689706699999995,-84.4916501,270.55999755859375,1.2085212469100952,0.5885212421417236
1671054549.64051175,109455299,42.689706799999996,-84.49165029999999,270.5799865722656,1.221919059753418,0.6019191145896912
1671054549.64058781,109455375,42.689706799999996,-84.49165029999999,270.5799865722656,1.221919059753418,0.6019191145896912
1671054549.68089294,109495680,42.6897069,-84.49165049999999,270.5899963378906,1.236032247543335,0.6160323023796082
1671054549.72058797,109535375,42.6897069,-84.4916506,270.6099853515625,1.2504191398620605,0.630419135093689
1671054549.74045897,109555246,42.689707,-84.4916507,270.6099853515625,1.257165551185608,0.6371655464172363
1671054549.76028395,109575071,42.689707,-84.4916508,270.6199951171875,1.2645481824874878,0.644548237323761
1671054549.80030084,109615088,42.6897071,-84.49165099999999,270.6300048828125,1.2791115045547485,0.659111499786377
1671054549.84054780,109655335,42.6897071,-84.49165119999999,270.6499938964844,1.2949846982955933,0.6749846935272217
1671054549.84064794,109655435,42.6897071,-84.49165119999999,270.6499938964844,1.2949846982955933,0.6749846935272217
1671054549.88095880,109695746,42.6897072,-84.4916514,270.66998291015625,1.3117687702178955,0.6917688250541687
1671054549.92058396,109735371,42.689707299999995,-84.4916516,270.67999267578125,1.3276946544647217,0.7076946496963501
1671054549.94049788,109755285,42.689707299999995,-84.49165169999999,270.69000244140625,1.3347505331039429,0.7147505283355713
1671054549.96026492,109775052,42.689707399999996,-84.4916518,270.6999816894531,1.342984914779663,0.7229849696159363
1671054550.00026488,109815052,42.689707399999996,-84.4916519,270.7099914550781,1.3578518629074097,0.7378519177436829
1671054550.04045796,109855245,42.6897075,-84.4916521,270.72998046875,1.3719587326049805,0.7519587278366089
1671054550.04061389,109855401,42.6897075,-84.4916521,270.72998046875,1.3719587326049805,0.7519587278366089
1671054550.08080888,109895596,42.6897076,-84.4916523,270.739990234375,1.386221170425415,0.7662211656570435
1671054550.12062573,109935413,42.6897077,-84.4916525,270.75,1.3993830680847168,0.77938312292099
1671054550.14044690,109955234,42.6897078,-84.4916526,270.7599792480469,1.405853509902954,0.7858535647392273
1671054550.16036987,109975157,42.6897078,-84.4916526,270.7699890136719,1.4124011993408203,0.7924011945724487
1671054550.20036578,110015153,42.689707899999995,-84.4916528,270.7799987792969,1.4257224798202515,0.8057224750518799
1671054550.24062085,110055408,42.689707999999996,-84.491653,270.7900085449219,1.439361572265625,0.8193616271018982
1671054550.24074197,110055529,42.689707999999996,-84.491653,270.7900085449219,1.439361572265625,0.8193616271018982
1671054550.28082275,110095610,42.6897081,-84.4916532,270.80999755859375,1.453290581703186,0.8332906365394592
1671054550.32059979,110135387,42.6897082,-84.4916533,270.82000732421875,1.4668103456497192,0.8468104004859924
1671054550.34051085,110155298,42.6897082,-84.49165339999999,270.8299865722656,1.4734437465667725,0.8534437417984009
1671054550.36036491,110175152,42.6897082,-84.4916535,270.8399963378906,1.4804834127426147,0.8604834079742432
1671054550.40043592,110215223,42.6897083,-84.4916537,270.8500061035156,1.4942107200622559,0.874210774898529
1671054550.44042873,110255216,42.6897084,-84.4916539,270.8599853515625,1.5076899528503418,0.887690007686615
1671054550.44064474,110255432,42.6897084,-84.4916539,270.8599853515625,1.5076899528503418,0.887690007686615
1671054550.48079991,110295587,42.689708499999995,-84.49165409999999,270.8800048828125,1.5209225416183472,0.9009225368499756
1671054550.52060485,110335392,42.689708499999995,-84.4916543,270.8899841308594,1.5332328081130981,0.9132328033447266
1671054550.54048276,110355270,42.689708499999995,-84.4916544,270.8899841308594,1.5394566059112549,0.9194566011428833
1671054550.56027389,110375061,42.689708599999996,-84.4916545,270.8999938964844,1.5456955432891846,0.9256955981254578
1671054550.60041285,110415200,42.689708599999996,-84.4916547,270.9100036621094,1.5579280853271484,0.9379280805587769
1671054550.64046383,110455251,42.6897087,-84.491655,270.92999267578125,1.5701507329940796,0.950150728225708
1671054550.64059877,110455386,42.6897087,-84.491655,270.92999267578125,1.5701507329940796,0.950150728225708
1671054550.68082190,110495609,42.6897087,-84.49165529999999,270.94000244140625,1.5830225944519043,0.9630226492881775
1671054550.72061086,110535398,42.6897087,-84.4916556,270.9499816894531,1.5960379838943481,0.9760379791259766
1671054550.74050975,110555297,42.6897088,-84.4916557,270.9599914550781,1.6026849746704102,0.9826850295066833
1671054550.76029992,110575087,42.6897088,-84.49165579999999,270.9599914550781,1.6093127727508545,0.9893128275871277
1671054550.80037475,110615162,42.6897088,-84.4916561,270.97998046875,1.6238629817962646,1.003862977027893
1671054550.84055185,110655339,42.6897089,-84.4916563,270.989990234375,1.638932704925537,1.0189327001571655
1671054550.84070277,110655490,42.6897089,-84.4916563,270.989990234375,1.638932704925537,1.0189327001571655
1671054550.88093781,110695725,42.6897089,-84.4916566,271.0099792480469,1.655213475227356,1.0352134704589844
1671054550.92061496,110735402,42.689709,-84.4916569,271.0299987792969,1.6708009243011475,1.0508009195327759
1671054550.94050193,110755289,42.689709,-84.4916571,271.0299987792969,1.6783077716827393,1.0583077669143677
1671054550.96028876,110775076,42.689709,-84.49165719999999,271.0400085449219,1.6863720417022705,1.066372036933899
1671054551.00027895,110815066,42.689709099999995,-84.4916575,271.05999755859375,1.7016440629959106,1.081644058227539
1671054551.04045892,110855246,42.689709099999995,-84.4916578,271.07000732421875,1.7164884805679321,1.0964884757995605
1671054551.04054880,110855336,42.689709099999995,-84.4916578,271.07000732421875,1.7164884805679321,1.0964884757995605
1671054551.08095193,110895739,42.689709199999996,-84.4916581,271.0899963378906,1.7304478883743286,1.110447883605957
1671054551.12061596,110935403,42.6897093,-84.49165839999999,271.1000061035156,1.7449510097503662,1.1249510049819946
1671054551.14051890,110955306,42.6897093,-84.4916586,271.1099853515625,1.7521212100982666,1.132121205329895
1671054551.16026688,110975054,42.6897093,-84.4916587,271.1099853515625,1.75931715965271,1.1393171548843384
1671054551.20035195,111015139,42.6897094,-84.491659,271.1300048828125,1.7740315198898315,1.15403151512146
1671054551.24055195,111055339,42.6897094,-84.4916593,271.1399841308594,1.788140892982483,1.1681408882141113
1671054551.24065280,111055440,42.6897094,-84.4916593,271.1399841308594,1.788140892982483,1.1681408882141113
1671054551.28092289,111095710,42.6897095,-84.4916597,271.1600036621094,1.8011574745178223,1.1811574697494507
1671054551.32072878,111135516,42.6897095,-84.4916599,271.16998291015625,1.814107060432434,1.1941070556640625
1671054551.34046483,111155252,42.6897096,-84.49166009999999,271.17999267578125,1.820813775062561,1.2008137702941895
1671054551.36028385,111175071,42.6897096,-84.4916602,271.17999267578125,1.8274692296981812,1.2074692249298096
1671054551.40023494,111215022,42.689709699999995,-84.4916605,271.1999816894531,1.8409976959228516,1.22099769115448
1671054551.44049597,111255283,42.689709699999995,-84.49166079999999,271.2099914550781,1.8555091619491577,1.2355091571807861
1671054551.44060373,111255391,42.689709699999995,-84.49166079999999,271.2099914550781,1.8555091619491577,1.2355091571807861
1671054551.48083377,111295621,42.689709799999996,-84.4916611,271.2200012207031,1.8696264028549194,1.2496263980865479
1671054551.52058482,111335372,42.6897099,-84.4916614,271.239990234375,1.8828779458999634,1.2628779411315918
1671054551.54044390,111355231,42.6897099,-84.4916616,271.239990234375,1.8894673585891724,1.2694673538208008
1671054551.56027484,111375062,42.6897099,-84.4916617,271.25,1.8956917524337769,1.2756917476654053
1671054551.60031796,111415105,42.68971,-84.4916621,271.2599792480469,1.9086925983428955,1.288692593574524
1671054551.64050889,111455296,42.6897101,-84.4916624,271.2799987792969,1.9215315580368042,1.3015315532684326
1671054551.64061189,111455399,42.6897101,-84.4916624,271.2799987792969,1.9215315580368042,1.3015315532684326
1671054551.68084788,111495635,42.6897102,-84.49166269999999,271.2900085449219,1.9342198371887207,1.3142198324203491
1671054551.72055197,111535339,42.6897103,-84.4916631,271.29998779296875,1.9456844329833984,1.3256844282150269
1671054551.74044085,111555228,42.6897103,-84.49166319999999,271.30999755859375,1.9509918689727783,1.3309918642044067
1671054551.76031780,111575105,42.689710399999996,-84.4916634,271.30999755859375,1.9563028812408447,1.3363028764724731
1671054551.80036378,111615151,42.689710399999996,-84.49166369999999,271.32000732421875,1.9661811590194702,1.3461811542510986
1671054551.84050989,111655297,42.6897105,-84.4916641,271.3299865722656,1.9756542444229126,1.355654239654541
1671054551.84067583,111655463,42.6897105,-84.4916641,271.3299865722656,1.9756542444229126,1.355654239654541
1671054551.88079882,111695586,42.6897106,-84.4916645,271.3399963378906,1.9847646951675415,1.36476469039917
1671054551.92062879,111735416,42.6897107,-84.4916648,271.3500061035156,1.9930680990219116,1.37306809425354
1671054551.94052196,111755309,42.6897107,-84.491665,271.3500061035156,1.996821403503418,1.3768213987350464
1671054551.96033096,111775118,42.6897108,-84.4916652,271.3599853515625,2.0007901191711426,1.380790114402771
1671054552.00035477,111815142,42.6897109,-84.4916655,271.3599853515625,2.008071184158325,1.3880712985992432
1671054552.04053187,111855319,42.689710999999996,-84.4916659,271.3699951171875,2.0145556926727295,1.394555687904358
1671054552.04061079,111855398,42.689710999999996,-84.4916659,271.3699951171875,2.0145556926727295,1.394555687904358
1671054552.08084679,111895634,42.6897111,-84.4916662,271.3800048828125,2.0206241607666016,1.40062415599823
1671054552.12061095,111935398,42.6897112,-84.4916666,271.3800048828125,2.0256707668304443,1.4056707620620728
1671054552.14056087,111955348,42.6897113,-84.4916667,271.3800048828125,2.0278589725494385,1.407858967781067
1671054552.16026878,111975056,42.6897113,-84.4916669,271.3899841308594,2.0301740169525146,1.4101741313934326
1671054552.20036578,112015153,42.6897114,-84.4916672,271.3899841308594,2.0350558757781982,1.4150559902191162
1671054552.24047184,112055259,42.6897115,-84.49166749999999,271.3899841308594,2.0377089977264404,1.4177089929580688
1671054552.24063396,112055421,42.6897115,-84.49166749999999,271.3899841308594,2.0377089977264404,1.4177089929580688
1671054552.28085876,112095646,42.689711599999995,-84.4916678,271.3999938964844,2.040013074874878,1.420013189315796
1671054552.32062387,112135411,42.6897117,-84.4916681,271.3999938964844,2.042171001434326,1.4221709966659546
1671054552.34055877,112155346,42.6897118,-84.49166819999999,271.3999938964844,2.043006181716919,1.423006296157837
1671054552.36030078,112175088,42.6897118,-84.4916683,271.3999938964844,2.043825626373291,1.4238256216049194
1671054552.40038681,112215174,42.6897119,-84.4916686,271.3999938964844,2.0461463928222656,1.4261465072631836
1671054552.44046283,112255250,42.689712,-84.4916689,271.3999938964844,2.0468029975891113,1.4268029928207397
1671054552.44057178,112255359,42.689712,-84.4916689,271.3999938964844,2.0468029975891113,1.4268029928207397
1671054552.48089194,112295679,42.6897121,-84.4916691,271.3999938964844,2.04742693901062,1.4274269342422485
1671054552.52064586,112335433,42.689712199999995,-84.4916693,271.3999938964844,2.048261880874634,1.4282618761062622
1671054552.54046893,112355256,42.6897123,-84.49166939999999,271.3999938964844,2.0484731197357178,1.4284732341766357
1671054552.56025195,112375039,42.6897123,-84.4916695,271.3999938964844,2.0487308502197266,1.4287309646606445
1671054552.60026383,112415051,42.6897124,-84.4916698,271.3999938964844,2.049443483352661,1.4294434785842896
1671054552.64048982,112455277,42.6897125,-84.49167,271.3999938964844,2.0491037368774414,1.4291038513183594
1671054552.64059687,112455384,42.6897125,-84.49167,271.3999938964844,2.0491037368774414,1.4291038513183594
1671054552.68087673,112495664,42.6897125,-84.4916702,271.3999938964844,2.048976421356201,1.4289764165878296
1671054552.72068596,112535473,42.6897126,-84.49167039999999,271.3999938964844,2.0489625930786133,1.4289625883102417
1671054552.74049187,112555279,42.6897127,-84.4916705,271.3999938964844,2.048806667327881,1.4288066625595093
1671054552.76031089,112575098,42.6897127,-84.49167059999999,271.3999938964844,2.0487172603607178,1.4287173748016357
1671054552.80024886,112615036,42.689712799999995,-84.4916708,271.3999938964844,2.048536777496338,1.4285367727279663
1671054552.84052587,112655313,42.689712799999995,-84.491671,271.3999938964844,2.046024799346924,1.4260247945785522
1671054552.84063792,112655425,42.689712799999995,-84.491671,271.3999938964844,2.046024799346924,1.4260247945785522
1671054552.88091588,112695703,42.689712899999996,-84.49167109999999,271.3999938964844,2.0433738231658936,1.4233739376068115
1671054552.92071080,112735498,42.689713,-84.4916713,271.3999938964844,2.0416228771209717,1.4216229915618896
1671054552.94057393,112755361,42.689713,-84.4916714,271.3999938964844,2.0408523082733154,1.4208523035049438
1671054552.96027875,112775066,42.689713,-84.4916715,271.3899841308594,2.0399532318115234,1.4199533462524414
1671054553.00025392,112815041,42.6897131,-84.4916717,271.3899841308594,2.038268566131592,1.4182686805725098
1671054553.04052591,112855313,42.6897131,-84.4916719,271.3899841308594,2.0352213382720947,1.4152214527130127
1671054553.04063177,112855419,42.6897131,-84.4916719,271.3899841308594,2.0352213382720947,1.4152214527130127
1671054553.08093286,112895720,42.6897132,-84.491672,271.3899841308594,2.0318007469177246,1.411800742149353
1671054553.12070394,112935491,42.6897132,-84.4916722,271.3800048828125,2.029268264770508,1.4092683792114258
1671054553.14052796,112955315,42.6897133,-84.49167229999999,271.3800048828125,2.028132677078247,1.408132791519165
1671054553.16028690,112975074,42.6897133,-84.4916724,271.3800048828125,2.0267229080200195,1.4067230224609375
1671054553.20031977,113015107,42.689713399999995,-84.4916726,271.3800048828125,2.0243120193481445,1.4043121337890625
1671054553.24047589,113055263,42.689713399999995,-84.4916727,271.3800048828125,2.022568702697754,1.4025688171386719
1671054553.24061394,113055401,42.689713399999995,-84.4916727,271.3800048828125,2.022568702697754,1.4025688171386719
1671054553.28086376,113095651,42.689713499999996,-84.4916727,271.3800048828125,2.020845651626587,1.4008457660675049
1671054553.32064080,113135428,42.6897136,-84.4916729,271.3699951171875,2.0191831588745117,1.3991832733154297
1671054553.34051681,113155304,42.6897136,-84.49167299999999,271.3699951171875,2.018458127975464,1.3984581232070923
1671054553.36034894,113175136,42.6897136,-84.49167299999999,271.3699951171875,2.0176563262939453,1.3976564407348633
1671054553.40032578,113215113,42.6897137,-84.4916732,271.3699951171875,2.016448736190796,1.3964488506317139
1671054553.44045186,113255239,42.6897138,-84.4916733,271.3699951171875,2.01485538482666,1.3948554992675781
1671054553.44063878,113255426,42.6897138,-84.4916733,271.3699951171875,2.01485538482666,1.3948554992675781
1671054553.48095489,113295742,42.6897138,-84.4916734,271.3699951171875,2.013458013534546,1.3934581279754639
1671054553.52059484,113335382,42.6897138,-84.49167349999999,271.3699951171875,2.0125198364257812,1.3925198316574097
1671054553.54042482,113355212,42.6897139,-84.4916736,271.3699951171875,2.0121541023254395,1.3921542167663574
1671054553.56034184,113375129,42.6897139,-84.49167369999999,271.3699951171875,2.0117547512054443,1.3917548656463623
1671054553.60044694,113415234,42.689713999999995,-84.4916738,271.3699951171875,2.0112690925598145,1.3912692070007324
1671054553.64046884,113455256,42.689713999999995,-84.491674,271.3699951171875,2.0101401805877686,1.390140175819397
1671054553.64061093,113455398,42.689713999999995,-84.491674,271.3699951171875,2.0101401805877686,1.390140175819397
1671054553.68083596,113495623,42.689713999999995,-84.4916741,271.3599853515625,2.0094971656799316,1.3894972801208496
1671054553.72056985,113535357,42.689713999999995,-84.49167419999999,271.3599853515625,2.0099427700042725,1.3899428844451904
1671054553.74043393,113555221,42.689714099999996,-84.4916743,271.3699951171875,2.0103769302368164,1.3903770446777344
1671054553.76039886,113575186,42.689714099999996,-84.4916744,271.3699951171875,2.010985851287842,1.3909859657287598
1671054553.80036879,113615156,42.689714099999996,-84.4916746,271.3699951171875,2.0136032104492188,1.3936032056808472
1671054553.84066081,113655448,42.689714099999996,-84.49167469999999,271.3699951171875,2.016010284423828,1.396010398864746
1671054553.84079576,113655583,42.689714099999996,-84.49167469999999,271.3699951171875,2.016010284423828,1.396010398864746
1671054553.88084579,113695633,42.689714099999996,-84.4916748,271.3699951171875,2.019432783126831,1.399432897567749
1671054553.92055392,113735341,42.6897142,-84.491675,271.3800048828125,2.023956775665283,1.4039567708969116
1671054553.94049478,113755282,42.6897142,-84.491675,271.3800048828125,2.0261452198028564,1.4061452150344849
1671054553.96029592,113775083,42.6897142,-84.4916751,271.3800048828125,2.0289416313171387,1.408941626548767
1671054554.00035691,113815144,42.6897143,-84.4916753,271.3899841308594,2.0348262786865234,1.4148262739181519
1671054554.04047275,113855260,42.6897143,-84.49167539999999,271.3999938964844,2.042031764984131,1.4220317602157593
1671054554.04056287,113855350,42.6897143,-84.49167539999999,271.3999938964844,2.042031764984131,1.4220317602157593
1671054554.08088088,113895668,42.6897143,-84.49167539999999,271.4100036621094,2.0508720874786377,1.4308722019195557
1671054554.12066889,113935456,42.6897143,-84.4916756,271.41998291015625,2.0607264041900635,1.440726399421692
1671054554.14048576,113955273,42.6897143,-84.4916757,271.41998291015625,2.065324544906616,1.4453246593475342
1671054554.16025281,113975040,42.6897143,-84.4916757,271.42999267578125,2.071016788482666,1.451016902923584
1671054554.20030975,114015097,42.6897143,-84.4916758,271.44000244140625,2.0827345848083496,1.462734580039978
1671054554.24046183,114055249,42.6897144,-84.491676,271.4499816894531,2.0950825214385986,1.4750826358795166
1671054554.24055195,114055339,42.6897144,-84.491676,271.4499816894531,2.0950825214385986,1.4750826358795166
1671054554.28091884,114095706,42.6897144,-84.491676,271.4599914550781,2.108297824859619,1.4882978200912476
1671054554.32072592,114135513,42.6897144,-84.49167609999999,271.47998046875,2.121997594833374,1.501997709274292
1671054554.34052777,114155315,42.6897144,-84.4916762,271.47998046875,2.1285531520843506,1.508553147315979
1671054554.36030078,114175088,42.6897144,-84.4916762,271.489990234375,2.1359009742736816,1.51590096950531
1671054554.40036988,114215157,42.6897145,-84.4916763,271.5099792480469,2.150916576385498,1.530916690826416
1671054554.44052291,114255310,42.6897145,-84.4916764,271.5199890136719,2.1669976711273193,1.5469977855682373
1671054554.44062281,114255410,42.6897145,-84.4916764,271.5199890136719,2.1669976711273193,1.5469977855682373
1671054554.48092985,114295717,42.6897144,-84.4916764,271.5400085449219,2.1844141483306885,1.564414143562317
1671054554.52068090,114335468,42.6897145,-84.4916765,271.55999755859375,2.201627254486084,1.581627368927002
1671054554.54050183,114355289,42.6897145,-84.49167659999999,271.55999755859375,2.209608793258667,1.589608907699585
1671054554.56034374,114375131,42.6897145,-84.49167659999999,271.57000732421875,2.218615770339966,1.5986157655715942
1671054554.60030293,114415090,42.6897145,-84.4916767,271.5899963378906,2.2362172603607178,1.6162172555923462
1671054554.64047074,114455258,42.6897145,-84.4916768,271.6099853515625,2.254275321960449,1.6342754364013672
1671054554.64055586,114455343,42.6897145,-84.4916768,271.6099853515625,2.254275321960449,1.6342754364013672
1671054554.68095374,114495741,42.6897145,-84.4916768,271.6300048828125,2.27293062210083,1.652930736541748
1671054554.72056389,114535351,42.6897145,-84.4916768,271.6499938964844,2.2900617122650146,1.6700618267059326
1671054554.74053383,114555321,42.6897145,-84.4916769,271.6499938964844,2.297980546951294,1.677980661392212
1671054554.76026678,114575054,42.6897145,-84.4916769,271.6600036621094,2.306788206100464,1.6867883205413818
1671054554.80030179,114615089,42.6897145,-84.491677,271.67999267578125,2.323315143585205,1.7033151388168335
1671054554.84060097,114655388,42.6897145,-84.491677,271.6999816894531,2.34026837348938,1.7202684879302979
1671054554.84069991,114655487,42.6897145,-84.491677,271.6999816894531,2.34026837348938,1.7202684879302979
1671054554.88091493,114695702,42.6897145,-84.491677,271.7099914550781,2.3576362133026123,1.7376362085342407
1671054554.92060995,114735397,42.6897145,-84.49167709999999,271.72998046875,2.3739137649536133,1.7539138793945312
1671054554.94044495,114755232,42.6897145,-84.4916772,271.739990234375,2.3809196949005127,1.7609196901321411
1671054554.96029377,114775081,42.6897145,-84.4916772,271.739990234375,2.3887627124786377,1.7687627077102661
1671054555.00027180,114815059,42.6897145,-84.49167729999999,271.7599792480469,2.40301775932312,1.783017873764038
1671054555.04053688,114855324,42.6897145,-84.49167729999999,271.7699890136719,2.415818214416504,1.7958183288574219
1671054555.04069781,114855485,42.6897145,-84.49167729999999,271.7699890136719,2.415818214416504,1.7958183288574219
1671054555.08086395,114895651,42.6897145,-84.4916772,271.7799987792969,2.428877115249634,1.8088771104812622
1671054555.12058878,114935376,42.6897145,-84.49167729999999,271.79998779296875,2.4403767585754395,1.8203767538070679
1671054555.14041185,114955199,42.6897145,-84.49167729999999,271.79998779296875,2.4451897144317627,1.8251897096633911
1671054555.16022778,114975015,42.6897145,-84.49167729999999,271.80999755859375,2.4507458209991455,1.830745816230774
1671054555.20038486,115015172,42.6897145,-84.4916774,271.82000732421875,2.4613373279571533,1.8413373231887817
1671054555.24050283,115055290,42.6897145,-84.4916774,271.8299865722656,2.470852851867676,1.8508529663085938
1671054555.24065781,115055445,42.6897145,-84.4916774,271.8299865722656,2.470852851867676,1.8508529663085938
1671054555.28091288,115095700,42.6897144,-84.4916774,271.8299865722656,2.4790539741516113,1.8590540885925293
1671054555.32060575,115135393,42.6897144,-84.4916774,271.8399963378906,2.485822916030884,1.8658230304718018
1671054555.34046578,115155253,42.6897144,-84.4916775,271.8399963378906,2.488473415374756,1.8684735298156738
1671054555.36018682,115174974,42.6897144,-84.4916775,271.8500061035156,2.4916114807128906,1.871611475944519
1671054555.40037990,115215167,42.6897144,-84.4916775,271.8500061035156,2.4968948364257812,1.8768949508666992
1671054555.44054675,115255334,42.6897144,-84.4916775,271.8599853515625,2.500075101852417,1.880075216293335
1671054555.44068980,115255477,42.6897144,-84.4916775,271.8599853515625,2.500075101852417,1.880075216293335
1671054555.48084188,115295629,42.6897144,-84.4916775,271.8599853515625,2.5029947757720947,1.8829948902130127
1671054555.52059174,115335379,42.6897144,-84.4916775,271.8599853515625,2.5056419372558594,1.8856420516967773
1671054555.54045582,115355243,42.6897144,-84.4916775,271.8599853515625,2.506587028503418,1.8865870237350464
1671054555.56025386,115375041,42.6897144,-84.4916775,271.8599853515625,2.507746458053589,1.8877465724945068
1671054555.60032797,115415115,42.6897144,-84.4916776,271.8599853515625,2.5095415115356445,1.8895416259765625
1671054555.64052892,115455316,42.6897143,-84.4916775,271.8599853515625,2.5098323822021484,1.8898324966430664
1671054555.64063191,115455419,42.6897143,-84.4916775,271.8599853515625,2.5098323822021484,1.8898324966430664
1671054555.68083382,115495621,42.6897143,-84.4916775,271.8699951171875,2.5104808807373047,1.890480875968933
1671054555.72061682,115535404,42.6897143,-84.4916775,271.8699951171875,2.512162208557129,1.8921623229980469
1671054555.74052191,115555309,42.6897143,-84.4916775,271.8699951171875,2.512528657913208,1.892528772354126
1671054555.76026773,115575055,42.6897143,-84.4916775,271.8699951171875,2.513359546661377,1.8933595418930054
1671054555.80032086,115615108,42.6897143,-84.4916775,271.8699951171875,2.5155229568481445,1.895522952079773
1671054555.84052682,115655314,42.6897143,-84.4916775,271.8699951171875,2.5174717903137207,1.8974717855453491
1671054555.84063983,115655427,42.6897143,-84.4916775,271.8699951171875,2.5174717903137207,1.8974717855453491
1671054555.88157177,115696359,42.6897142,-84.4916775,271.8699951171875,2.518913745880127,1.8989137411117554
