timestamp,TimeUS,C,Roll,Pitch,Yaw,VN,VE,VD,dPD,PN,PE,PD,GX,GY,GZ,OH
1671054540.79959178,100614379,1,-1.96,-1.1400000000000001,274.5,0.04567389562726021,-0.03553910180926323,-0.048209045082330704,-0.05721832439303398,1.855926752090454,-6.816343784332275,0.6038083434104919,0.17,-0.14,-0.47000000000000003,269.92
1671054540.83956695,100654354,1,-1.96,-1.1400000000000001,274.5,0.045932017266750336,-0.035377852618694305,-0.04795484617352486,-0.053833018988370895,1.8562836647033691,-6.8164286613464355,0.6015087962150574,0.17,-0.14,-0.46,269.92
1671054540.87955594,100694343,1,-1.96,-1.1400000000000001,274.51,0.04605774208903313,-0.035683926194906235,-0.04765898361802101,-0.04321557283401489,1.8563380241394043,-6.8163580894470215,0.6002413630485535,0.17,-0.14,-0.46,269.92
1671054540.91956186,100734349,1,-1.96,-1.1400000000000001,274.52,0.04600545018911362,-0.03536716848611832,-0.047386109828948975,-0.03319263458251953,1.8561556339263916,-6.816102981567383,0.5990843176841736,0.17,-0.14,-0.47000000000000003,269.92
1671054540.93958974,100754377,1,-1.96,-1.1400000000000001,274.53000000000003,0.04628785699605942,-0.035591233521699905,-0.047033969312906265,-0.029020201414823532,1.8566478490829468,-6.816456317901611,0.598299503326416,0.17,-0.14,-0.47000000000000003,269.92
1671054540.95957088,100774358,1,-1.96,-1.1400000000000001,274.53000000000003,0.04617300257086754,-0.0358186736702919,-0.04653416946530342,-0.026104414835572243,1.85673189163208,-6.8164825439453125,0.5977140665054321,0.17,-0.14,-0.47000000000000003,269.92
1671054540.99957681,100814364,1,-1.96,-1.1400000000000001,274.54,0.04628022387623787,-0.03611745685338974,-0.04672253876924515,-0.02466985583305359,1.8574734926223755,-6.817025184631348,0.5961183905601501,0.17,-0.15,-0.47000000000000003,269.92
1671054541.03960276,100854390,1,-1.96,-1.1400000000000001,274.55,0.04632258415222168,-0.03652646020054817,-0.04580171778798103,-0.02487761527299881,1.8579504489898682,-6.817384243011475,0.595123291015625,0.17,-0.15,-0.47000000000000003,269.92
1671054541.07957077,100894358,1,-1.96,-1.1400000000000001,274.55,0.046000879257917404,-0.0358157679438591,-0.044745974242687225,-0.011312874034047127,1.8578914403915405,-6.817331314086914,0.5953003764152527,0.17,-0.15,-0.47000000000000003,269.92
1671054541.11955476,100934342,1,-1.96,-1.1400000000000001,274.56,0.04486849159002304,-0.035817701369524,-0.043599579483270645,-1.2866328688687645e-05,1.8575457334518433,-6.817091464996338,0.5954627990722656,0.17,-0.15,-0.47000000000000003,269.92
1671054541.13961387,100954401,1,-1.96,-1.1400000000000001,274.56,0.04510824382305145,-0.03608664870262146,-0.04342332482337952,0.003204651176929474,1.8579362630844116,-6.81742000579834,0.5950644612312317,0.17,-0.15,-0.47000000000000003,269.92
1671054541.15955591,100974343,1,-1.96,-1.1400000000000001,274.56,0.04459827020764351,-0.03614069148898125,-0.04309213161468506,0.004616019781678915,1.8579331636428833,-6.81746244430542,0.5950452089309692,0.17,-0.15,-0.47000000000000003,269.92
1671054541.19958591,101014373,1,-1.96,-1.1400000000000001,274.57,0.04454156756401062,-0.03619867563247681,-0.042451225221157074,0.004301911219954491,1.858472466468811,-6.817986965179443,0.5945090055465698,0.17,-0.15,-0.47000000000000003,269.92
1671054541.23960996,101054397,1,-1.96,-1.1400000000000001,274.58,0.04353155568242073,-0.035346660763025284,-0.0413835346698761,0.006340104155242443,1.8583984375,-6.817385196685791,0.5946853756904602,0.17,-0.15,-0.47000000000000003,269.92
1671054541.27957487,101094362,1,-1.96,-1.1500000000000001,274.59000000000003,0.04278041794896126,-0.03411734476685524,-0.04010464623570442,0.010154932737350464,1.8584671020507812,-6.816956996917725,0.5947580337524414,0.17,-0.15,-0.47000000000000003,269.92
1671054541.31954479,101134332,1,-1.96,-1.1500000000000001,274.59000000000003,0.041752658784389496,-0.033106524497270584,-0.03920600190758705,0.008244494907557964,1.8582415580749512,-6.816208839416504,0.5947603583335876,0.17,-0.15,-0.47000000000000003,269.92
1671054541.33958483,101154372,1,-1.96,-1.1500000000000001,274.59000000000003,0.041755735874176025,-0.032971352338790894,-0.03903621807694435,0.006118138320744038,1.8586399555206299,-6.816396236419678,0.5943505764007568,0.17,-0.15,-0.47000000000000003,269.92
1671054541.35956287,101174350,1,-1.96,-1.1500000000000001,274.6,0.04117392748594284,-0.03225642442703247,-0.03870430216193199,0.003263261867687106,1.8586543798446655,-6.81615686416626,0.5942825078964233,0.17,-0.15,-0.47000000000000003,269.92
1671054541.39958787,101214375,1,-1.96,-1.1500000000000001,274.6,0.0408363975584507,-0.03221677243709564,-0.03801192715764046,-0.0021292599849402905,1.8591842651367188,-6.8162336349487305,0.5937215685844421,0.17,-0.15,-0.47000000000000003,269.92
1671054541.43959284,101254380,1,-1.96,-1.1500000000000001,274.61,0.04064380005002022,-0.03110969066619873,-0.03752051666378975,-0.0025875656865537167,1.859535574913025,-6.815525531768799,0.5938944220542908,0.17,-0.15,-0.47000000000000003,269.92
1671054541.47958088,101294368,1,-1.96,-1.1500000000000001,274.62,0.04030172526836395,-0.030052412301301956,-0.03696432709693909,0.0007788341026753187,1.8600462675094604,-6.814991474151611,0.593916118144989,0.17,-0.15,-0.47000000000000003,269.92
1671054541.51957583,101334363,1,-1.96,-1.1500000000000001,274.63,0.04004642739892006,-0.028470566496253014,-0.03611278906464577,0.0008298412431031466,1.860365867614746,-6.8140997886657715,0.5939813256263733,0.17,-0.15,-0.47000000000000003,269.92
1671054541.53959179,101354379,1,-1.96,-1.1500000000000001,274.63,0.04024673253297806,-0.028116663917899132,-0.03608556091785431,-0.0001798189914552495,1.8608821630477905,-6.814199447631836,0.5936129093170166,0.17,-0.15,-0.47000000000000003,269.92
1671054541.55955696,101374344,1,-1.96,-1.1500000000000001,274.63,0.040116917341947556,-0.027590693905949593,-0.035868510603904724,-0.0017967165913432837,1.8611730337142944,-6.81388521194458,0.5935533046722412,0.17,-0.15,-0.47000000000000003,269.92
1671054541.59957290,101414360,1,-1.96,-1.1500000000000001,274.64,0.04051010683178902,-0.02699143998324871,-0.03527243062853813,-0.005408518016338348,1.8620814085006714,-6.813776016235352,0.5929903388023376,0.17,-0.15,-0.47000000000000003,269.92
1671054541.63959289,101454380,1,-1.96,-1.1500000000000001,274.65000000000003,0.04041213169693947,-0.026320477947592735,-0.034614600241184235,-0.010120970197021961,1.862844467163086,-6.8135576248168945,0.5922501087188721,0.17,-0.15,-0.47000000000000003,269.92
1671054541.67957592,101494363,1,-1.96,-1.1500000000000001,274.65000000000003,0.03937634453177452,-0.025530178099870682,-0.03426535427570343,-0.016813738271594048,1.8631972074508667,-6.813045978546143,0.5912889838218689,0.17,-0.15,-0.47000000000000003,269.92
1671054541.71959281,101534380,1,-1.96,-1.1500000000000001,274.66,0.03881878778338432,-0.023872317746281624,-0.03396317735314369,-0.023344960063695908,1.8633594512939453,-6.812257289886475,0.5902957320213318,0.17,-0.15,-0.47000000000000003,269.92
1671054541.73960280,101554390,1,-1.96,-1.1500000000000001,274.66,0.03879563882946968,-0.023805972188711166,-0.03382566571235657,-0.025778478011488914,1.8637995719909668,-6.812320232391357,0.5897262692451477,0.17,-0.15,-0.47000000000000003,269.92
1671054541.75955892,101574346,1,-1.96,-1.1500000000000001,274.67,0.03854000195860863,-0.02362988516688347,-0.033666111528873444,-0.027856798842549324,1.8639975786209106,-6.812051296234131,0.5892171263694763,0.17,-0.15,-0.47000000000000003,269.92
1671054541.79956174,101614349,1,-1.96,-1.1500000000000001,274.67,0.03876372054219246,-0.022884640842676163,-0.0333716981112957,-0.031215567141771317,1.8647500276565552,-6.811968803405762,0.5879356861114502,0.17,-0.15,-0.47000000000000003,269.92
1671054541.83956194,101654349,1,-1.95,-1.1500000000000001,274.68,0.03850310668349266,-0.022673562169075012,-0.0337165892124176,-0.03492003306746483,1.865359902381897,-6.811675071716309,0.5868722796440125,0.17,-0.15,-0.47000000000000003,269.92
1671054541.87959886,101694386,1,-1.95,-1.1500000000000001,274.69,0.03712758794426918,-0.021110601723194122,-0.0334453321993351,-0.02961071953177452,1.8655787706375122,-6.81085729598999,0.5863688588142395,0.17,-0.15,-0.47000000000000003,269.92
1671054541.91957879,101734366,1,-1.95,-1.1500000000000001,274.7,0.03580835834145546,-0.019226837903261185,-0.033323027193546295,-0.024539537727832794,1.8655441999435425,-6.8097052574157715,0.5857303142547607,0.17,-0.15,-0.47000000000000003,269.92
1671054541.93956685,101754354,1,-1.95,-1.1500000000000001,274.7,0.03544965386390686,-0.01879565231502056,-0.03324565291404724,-0.022833798080682755,1.8659132719039917,-6.809637546539307,0.5852303504943848,0.17,-0.15,-0.47000000000000003,269.92
1671054541.95959496,101774382,1,-1.95,-1.1500000000000001,274.7,0.034763626754283905,-0.017787711694836617,-0.03320716693997383,-0.021914171054959297,1.865968942642212,-6.8091583251953125,0.5848823189735413,0.17,-0.15,-0.47000000000000003,269.92
1671054541.99955773,101814345,1,-1.95,-1.1500000000000001,274.71,0.03406863287091255,-0.016858376562595367,-0.03246625140309334,-0.020842209458351135,1.8664741516113281,-6.8087029457092285,0.5839003324508667,0.17,-0.15,-0.47000000000000003,269.92
1671054542.03956175,101854349,1,-1.94,-1.1500000000000001,274.72,0.03208550810813904,-0.01632164791226387,-0.032140813767910004,-0.023304587230086327,1.8661930561065674,-6.808257102966309,0.5827124118804932,0.17,-0.15,-0.47000000000000003,269.92
1671054542.07957292,101894360,1,-1.94,-1.16,274.72,0.030105331912636757,-0.01629221811890602,-0.032352887094020844,-0.02702964097261429,1.8659768104553223,-6.8079328536987305,0.5815331935882568,0.18,-0.15,-0.47000000000000003,269.92
1671054542.11957479,101934362,1,-1.94,-1.16,274.73,0.02812200039625168,-0.015711190178990364,-0.03231722116470337,-0.029359867796301842,1.865423321723938,-6.807470321655273,0.5804285407066345,0.18,-0.15,-0.47000000000000003,269.92
1671054542.13955474,101954342,1,-1.94,-1.16,274.74,0.027914680540561676,-0.015477717854082584,-0.03210989385843277,-0.029790041968226433,1.8655900955200195,-6.807538986206055,0.5798318982124329,0.17,-0.15,-0.47000000000000003,269.92
1671054542.15959883,101974386,1,-1.94,-1.16,274.74,0.027048099786043167,-0.01531861163675785,-0.03179964795708656,-0.0299516674131155,1.8653922080993652,-6.8073954582214355,0.5792855024337769,0.18,-0.15,-0.47000000000000003,269.92
1671054542.19955873,102014346,1,-1.94,-1.16,274.74,0.02613615058362484,-0.015383888967335224,-0.031913939863443375,-0.030833745375275612,1.8654416799545288,-6.807430267333984,0.5780431032180786,0.18,-0.15,-0.47000000000000003,269.92
1671054542.23956680,102054354,1,-1.94,-1.16,274.75,0.024511296302080154,-0.01506090722978115,-0.03220929577946663,-0.03687801584601402,1.8651341199874878,-6.80723762512207,0.5760622620582581,0.18,-0.15,-0.47000000000000003,269.92
1671054542.27953696,102094324,1,-1.94,-1.16,274.76,0.023256052285432816,-0.014546716585755348,-0.03200541064143181,-0.04424641281366348,1.864900827407837,-6.807149410247803,0.5741721391677856,0.18,-0.15,-0.47000000000000003,269.92
1671054542.31959295,102134380,1,-1.94,-1.16,274.77,0.02235097996890545,-0.014246584847569466,-0.03197870030999184,-0.0480782724916935,1.864432454109192,-6.80698823928833,0.5723254680633545,0.18,-0.15,-0.47000000000000003,269.92
1671054542.33955383,102154341,1,-1.94,-1.16,274.77,0.021974675357341766,-0.014170704409480095,-0.03186905011534691,-0.048730216920375824,1.8645739555358887,-6.807122707366943,0.5715485215187073,0.18,-0.15,-0.47000000000000003,269.92
1671054542.35959697,102174384,1,-1.94,-1.17,274.78000000000003,0.02155308425426483,-0.013696998357772827,-0.03175462782382965,-0.0485234409570694,1.8644163608551025,-6.8071112632751465,0.5706936717033386,0.18,-0.15,-0.47000000000000003,269.92
1671054542.39958596,102214373,1,-1.94,-1.17,274.78000000000003,0.020829688757658005,-0.013642024248838425,-0.031679391860961914,-0.04762771353125572,1.8644837141036987,-6.807308673858643,0.5689953565597534,0.18,-0.15,-0.47000000000000003,269.92
1671054542.43955183,102254339,1,-1.94,-1.17,274.79,0.019679252058267593,-0.013464145362377167,-0.03177548199892044,-0.047200411558151245,1.8638981580734253,-6.807462692260742,0.5673058032989502,0.18,-0.15,-0.47000000000000003,269.92
1671054542.47955775,102294345,1,-1.93,-1.17,274.8,0.018542680889368057,-0.013285269029438496,-0.03168340027332306,-0.046007782220840454,1.8634299039840698,-6.807692050933838,0.5656566619873047,0.18,-0.15,-0.47000000000000003,269.92
1671054542.51955295,102334340,1,-1.93,-1.17,274.81,0.017219189554452896,-0.013342821970582008,-0.0315888375043869,-0.04409419000148773,1.8627045154571533,-6.80792236328125,0.5640012621879578,0.18,-0.15,-0.47000000000000003,269.92
1671054542.53958774,102354375,1,-1.93,-1.17,274.81,0.01695065200328827,-0.013490792363882065,-0.03167681023478508,-0.04323805123567581,1.8627225160598755,-6.808131217956543,0.5632835030555725,0.18,-0.15,-0.47000000000000003,269.92
1671054542.55956483,102374352,1,-1.93,-1.17,274.81,0.01640230230987072,-0.013188143260776997,-0.03152269124984741,-0.04196731746196747,1.8624533414840698,-6.808308124542236,0.5624799728393555,0.18,-0.15,-0.47000000000000003,269.92
1671054542.59957790,102414365,1,-1.93,-1.17,274.82,0.015276730991899967,-0.0132518345490098,-0.03161006420850754,-0.0405416339635849,1.8622565269470215,-6.808729648590088,0.5609052181243896,0.18,-0.15,-0.47000000000000003,269.92
1671054542.63959885,102454386,1,-1.93,-1.17,274.83,0.014089792966842651,-0.013560464605689049,-0.030515044927597046,-0.02526150643825531,1.8618042469024658,-6.8091888427734375,0.5615428686141968,0.18,-0.15,-0.47000000000000003,269.92
1671054542.67955494,102494342,1,-1.93,-1.17,274.84000000000003,0.013228163123130798,-0.014196443371474743,-0.029820796102285385,-0.003308187937363982,1.8614323139190674,-6.80971622467041,0.5620219707489014,0.18,-0.15,-0.47000000000000003,269.92
1671054542.71955276,102534340,1,-1.92,-1.17,274.84000000000003,0.012321621179580688,-0.014739693142473698,-0.028846709057688713,0.009200051426887512,1.8609052896499634,-6.8103179931640625,0.5623561143875122,0.18,-0.15,-0.47000000000000003,269.92
1671054542.73960376,102554391,1,-1.92,-1.17,274.85,0.011898450553417206,-0.014939595013856888,-0.028600484132766724,0.012042614631354809,1.860910177230835,-6.810623645782471,0.562140703201294,0.18,-0.15,-0.47000000000000003,269.92
1671054542.75956392,102574351,1,-1.92,-1.17,274.85,0.011563478969037533,-0.015031521208584309,-0.028193172067403793,0.01296289637684822,1.8607244491577148,-6.810975551605225,0.5622159242630005,0.18,-0.15,-0.47000000000000003,269.92
1671054542.79959273,102614380,1,-1.92,-1.17,274.86,0.010754621587693691,-0.015549005940556526,-0.0276484414935112,0.011819357983767986,1.8606114387512207,-6.811683654785156,0.5620294213294983,0.18,-0.15,-0.47000000000000003,269.92
1671054542.83958578,102654373,1,-1.92,-1.17,274.86,0.009712726809084415,-0.014573492109775543,-0.026615234091877937,0.017517326399683952,1.8598928451538086,-6.811776161193848,0.5631887912750244,0.18,-0.15,-0.47000000000000003,269.92
1671054542.87958574,102694373,1,-1.92,-1.18,274.87,0.008756419643759727,-0.014711912721395493,-0.025865377858281136,0.0269157811999321,1.8592740297317505,-6.811934471130371,0.5641307234764099,0.18,-0.15,-0.47000000000000003,269.92
1671054542.91956496,102734352,1,-1.92,-1.18,274.88,0.007395243737846613,-0.013953177258372307,-0.02493886649608612,0.03015289269387722,1.858468770980835,-6.812040328979492,0.5651995539665222,0.18,-0.15,-0.47000000000000003,269.92
1671054542.93957281,102754360,1,-1.92,-1.18,274.88,0.007081006187945604,-0.013760310597717762,-0.02444632351398468,0.030328422784805298,1.8583616018295288,-6.812213897705078,0.5651821494102478,0.18,-0.15,-0.47000000000000003,269.92
1671054542.95956373,102774351,1,-1.92,-1.18,274.88,0.006720402743667364,-0.013816742226481438,-0.0243037398904562,0.02847255766391754,1.8580306768417358,-6.812295436859131,0.5656086206436157,0.18,-0.15,-0.47000000000000003,269.92
1671054542.99954891,102814336,1,-1.92,-1.18,274.89,0.006121739745140076,-0.01415573712438345,-0.023944422602653503,0.02376709133386612,1.857669711112976,-6.812615394592285,0.5659466981887817,0.18,-0.15,-0.47000000000000003,269.92
1671054543.03959394,102854381,1,-1.9100000000000001,-1.18,274.90000000000003,0.005092143546789885,-0.013189047574996948,-0.022645283490419388,0.032753799110651016,1.8568278551101685,-6.8122053146362305,0.56830894947052,0.18,-0.15,-0.47000000000000003,269.92
1671054543.07960582,102894393,1,-1.9100000000000001,-1.18,274.91,0.003851541317999363,-0.01222140807658434,-0.02172168530523777,0.04776318371295929,1.856066346168518,-6.811847686767578,0.570343017578125,0.18,-0.15,-0.47000000000000003,269.92
1671054543.11953592,102934323,1,-1.9100000000000001,-1.18,274.91,0.0025580136571079493,-0.010872352868318558,-0.020749811083078384,0.05765584483742714,1.8551199436187744,-6.811309337615967,0.5732010006904602,0.18,-0.15,-0.47000000000000003,269.92
1671054543.13959289,102954380,1,-1.9100000000000001,-1.19,274.91,0.002211433369666338,-0.010656614787876606,-0.020701443776488304,0.06037416681647301,1.8549281358718872,-6.811295986175537,0.5736278891563416,0.18,-0.15,-0.47000000000000003,269.92
1671054543.15955997,102974347,1,-1.9100000000000001,-1.19,274.92,0.0015458263223990798,-0.010195218957960606,-0.02007545530796051,0.06089022755622864,1.8545230627059937,-6.811071872711182,0.5748041868209839,0.18,-0.15,-0.47000000000000003,269.92
1671054543.19955778,103014345,1,-1.9100000000000001,-1.19,274.92,0.001157313585281372,-0.010126321576535702,-0.01981010101735592,0.05718386918306351,1.853988766670227,-6.810882568359375,0.5761887431144714,0.18,-0.15,-0.47000000000000003,269.92
1671054543.23958492,103054372,1,-1.9100000000000001,-1.19,274.93,-0.00028308757464401424,-0.009411044418811798,-0.018248168751597404,0.06459935754537582,1.8526427745819092,-6.8102264404296875,0.5795652270317078,0.18,-0.15,-0.47000000000000003,269.92
1671054543.27960086,103094388,1,-1.9100000000000001,-1.19,274.93,-0.0018011544598266482,-0.00878485944122076,-0.016690552234649658,0.07799151539802551,1.8513875007629395,-6.809643745422363,0.5825318098068237,0.18,-0.15,-0.47000000000000003,269.92
1671054543.31959176,103134379,1,-1.9000000000000001,-1.2,274.94,-0.0035746507346630096,-0.008091669529676437,-0.016247548162937164,0.08024869114160538,1.8498719930648804,-6.808876037597656,0.5858184099197388,0.18,-0.15,-0.47000000000000003,269.92
1671054543.33956575,103154353,1,-1.9000000000000001,-1.2,274.94,-0.004030656069517136,-0.00797517504543066,-0.01577710174024105,0.07967885583639145,1.8494808673858643,-6.808782577514648,0.5863983035087585,0.18,-0.15,-0.47000000000000003,269.92
1671054543.35956383,103174351,1,-1.9000000000000001,-1.2,274.94,-0.004766681231558323,-0.00796081405133009,-0.015217835083603859,0.07652140408754349,1.8488028049468994,-6.808459281921387,0.5877782702445984,0.18,-0.15,-0.47000000000000003,269.92
1671054543.39956093,103214348,1,-1.9000000000000001,-1.2,274.95,-0.005433510988950729,-0.007494145538657904,-0.014186154119670391,0.0673767700791359,1.8477976322174072,-6.808109283447266,0.5894163846969604,0.18,-0.15,-0.47000000000000003,269.92
1671054543.43958783,103254375,1,-1.9000000000000001,-1.2,274.95,-0.0065404740162193775,-0.006849626544862986,-0.01291106641292572,0.06849701702594757,1.8467254638671875,-6.807503700256348,0.5928016901016235,0.18,-0.15,-0.47000000000000003,269.92
1671054543.47959495,103294382,1,-1.9000000000000001,-1.2,274.96,-0.00750201940536499,-0.006446187850087881,-0.011746183037757874,0.0761931762099266,1.8457120656967163,-6.806966304779053,0.5957908034324646,0.18,-0.15,-0.47000000000000003,269.92
1671054543.51958680,103334374,1,-1.8900000000000001,-1.2,274.96,-0.007902403362095356,-0.005721357651054859,-0.010063725523650646,0.07796390354633331,1.8445807695388794,-6.806272983551025,0.5992602109909058,0.18,-0.15,-0.47000000000000003,269.92
1671054543.53954196,103354329,1,-1.8900000000000001,-1.2,274.96,-0.008372003212571144,-0.00515684112906456,-0.009405490942299366,0.07751715183258057,1.8442379236221313,-6.8061723709106445,0.5999429821968079,0.18,-0.15,-0.47000000000000003,269.92
1671054543.55960989,103374397,1,-1.8900000000000001,-1.2,274.96,-0.008690913207828999,-0.004813163075596094,-0.008895773440599442,0.07453472912311554,1.8437304496765137,-6.805875301361084,0.6014073491096497,0.18,-0.15,-0.47000000000000003,269.92
1671054543.59956074,103414348,1,-1.8900000000000001,-1.2,274.96,-0.009400061331689358,-0.002613457152619958,-0.008597224950790405,0.06699370592832565,1.8429591655731201,-6.805506229400635,0.6034819483757019,0.18,-0.15,-0.47000000000000003,269.92
1671054543.63954282,103454330,1,-1.8900000000000001,-1.2,274.97,-0.011482632718980312,-0.006854642648249865,-0.007805223111063242,0.072690948843956,1.8412346839904785,-6.805760383605957,0.607402503490448,0.18,-0.15,-0.47000000000000003,269.92
1671054543.67956686,103494354,1,-1.8900000000000001,-1.21,274.98,-0.012757680378854275,-0.002623748267069459,-0.0047313133254647255,0.08660586178302765,1.839694619178772,-6.805965423583984,0.6108805537223816,0.18,-0.15,-0.47000000000000003,269.92
1671054543.71959877,103534386,1,-1.8900000000000001,-1.21,274.98,-0.012504140846431255,-0.005704096518456936,-0.005574533715844154,0.08796022087335587,1.8378573656082153,-6.806295394897461,0.6148110032081604,0.18,-0.15,-0.47000000000000003,269.92
1671054543.73956895,103554356,1,-1.8900000000000001,-1.21,274.98,-0.014160524122416973,-0.003957083914428949,-0.005266509484499693,0.08751197159290314,1.8373104333877563,-6.806413650512695,0.6156546473503113,0.18,-0.15,-0.47000000000000003,269.92
1671054543.75957584,103574363,1,-1.8900000000000001,-1.2,274.98,-0.01571987196803093,-0.006103533785790205,-0.002900074003264308,0.08625555038452148,1.836474061012268,-6.806572437286377,0.6173282265663147,0.18,-0.15,-0.47000000000000003,269.92
1671054543.79957294,103614360,1,-1.8900000000000001,-1.21,274.99,-0.014010285958647728,-0.007780072279274464,-0.002562424633651972,0.07699909806251526,1.8351726531982422,-6.807015419006348,0.6194587349891663,0.18,-0.15,-0.47000000000000003,269.92
1671054543.83956194,103654349,1,-1.8900000000000001,-1.21,275.0,-0.01662536710500717,-0.010915291495621204,-0.0016251282067969441,0.0745704397559166,1.833475947380066,-6.807992458343506,0.6227925419807434,0.18,-0.15,-0.47000000000000003,269.92
1671054543.87955880,103694346,1,-1.8900000000000001,-1.22,275.02,-0.01717085763812065,-0.006782270036637783,-0.002416040515527129,0.07503119111061096,1.8319426774978638,-6.808958530426025,0.6257842779159546,0.18,-0.15,-0.47000000000000003,269.92
1671054543.91954780,103734335,1,-1.8800000000000001,-1.21,275.04,-0.0211213156580925,-0.007075102999806404,0.0013814877020195127,0.07607520371675491,1.8300907611846924,-6.809961318969727,0.629150927066803,0.18,-0.15,-0.47000000000000003,269.92
1671054543.93956494,103754352,1,-1.87,-1.21,275.03000000000003,-0.021419687196612358,-0.008077630773186684,0.0010613099439069629,0.07369480282068253,1.8294346332550049,-6.810293674468994,0.6299153566360474,0.18,-0.15,-0.46,269.92
1671054543.95958996,103774377,1,-1.87,-1.21,275.01,-0.01956971548497677,-0.008444823324680328,0.0014417245984077454,0.07025531679391861,1.8285918235778809,-6.810816764831543,0.6313531994819641,0.18,-0.15,-0.47000000000000003,269.92
1671054543.99961686,103814404,1,-1.87,-1.21,274.98,-0.011462068185210228,0.0010659504914656281,-7.894960435805842e-05,0.060413386672735214,1.827483057975769,-6.8114914894104,0.6332530975341797,0.18,-0.15,-0.46,269.92
1671054544.03953576,103854323,1,-1.8800000000000001,-1.2,275.0,-0.04100355505943298,-0.022964151576161385,0.002672177506610751,0.05500692501664162,1.826167345046997,-6.812170028686523,0.6354084610939026,0.18,-0.15,-0.46,269.92
1671054544.07956576,103894353,1,-1.83,-1.2,274.99,0.0008658653823658824,-0.005646551959216595,0.003841742407530546,0.05778016895055771,1.825181007385254,-6.813327312469482,0.6381429433822632,0.18,-0.15,-0.46,269.92
1671054544.11956787,103934355,1,-1.82,-1.19,275.02,-0.03100084699690342,-0.003769900416955352,0.007920345291495323,0.060318924486637115,1.8255326747894287,-6.813209056854248,0.6405593752861023,0.18,-0.15,-0.46,269.92
1671054544.13961077,103954398,1,-1.79,-1.2,275.04,-0.06822973489761353,-0.039866626262664795,0.009667253121733665,0.06001458689570427,1.8244878053665161,-6.813713550567627,0.6412575840950012,0.18,-0.15,-0.46,269.92
1671054544.15960193,103974389,1,-1.76,-1.18,275.04,-0.03125022351741791,-0.03245242312550545,0.0022198338992893696,0.04926430433988571,1.8235363960266113,-6.814583778381348,0.6423411965370178,0.18,-0.15,-0.46,269.92
1671054544.19959784,104014385,1,-1.8,-1.17,275.02,-0.005252756178379059,0.014145969413220882,0.006614106707274914,0.046349819749593735,1.8241453170776367,-6.8144917488098145,0.6437205672264099,0.18,-0.15,-0.46,269.92
1671054544.23959494,104054382,1,-1.77,-1.17,274.99,-0.034899499267339706,-0.020427826792001724,0.005432301666587591,0.055749859660863876,1.8224495649337769,-6.814809322357178,0.6480858325958252,0.18,-0.15,-0.46,269.92
1671054544.27956295,104094350,1,-1.78,-1.16,274.97,-0.005895326845347881,0.007336236536502838,0.010188285261392593,0.08298171311616898,1.8226181268692017,-6.814501762390137,0.6520305275917053,0.18,-0.15,-0.46,269.92
1671054544.31955695,104134344,1,-1.76,-1.1500000000000001,274.95,-0.04076962172985077,-0.006783039774745703,0.03288551792502403,0.11694971472024918,1.8217856884002686,-6.814764976501465,0.6564311981201172,0.18,-0.15,-0.46,269.92
1671054544.33955693,104154344,1,-1.75,-1.16,274.93,-0.026866942644119263,0.002931659109890461,0.0027256913017481565,0.08950219303369522,1.8212051391601562,-6.814781665802002,0.6575238704681396,0.18,-0.15,-0.46,269.92
1671054544.35956883,104174356,1,-1.74,-1.1400000000000001,274.91,-0.0004986493149772286,-0.01716240495443344,0.017459498718380928,0.10350915044546127,1.8211581707000732,-6.8147783279418945,0.6593853831291199,0.18,-0.15,-0.46,269.92
1671054544.39958191,104214369,1,-1.77,-1.17,274.91,-0.015016763471066952,-0.011078625917434692,0.0194826852530241,0.09883776307106018,1.821069598197937,-6.815566539764404,0.6618737578392029,0.18,-0.15,-0.46,269.92
1671054544.43957090,104254358,1,-1.74,-1.17,274.92,-0.01832401752471924,-0.028733117505908012,-0.005043943412601948,0.06690613925457001,1.8211997747421265,-6.816437244415283,0.6650132536888123,0.18,-0.15,-0.46,269.92
1671054544.47957873,104294366,1,-1.79,-1.18,274.87,-0.008054733276367188,-0.002485531149432063,0.011953053064644337,0.07930754125118256,1.822389841079712,-6.817910194396973,0.6679080128669739,0.18,-0.15,-0.46,269.92
1671054544.51956177,104334349,1,-1.77,-1.16,274.86,-0.012111087329685688,-0.021588388830423355,0.02208941988646984,0.07893151044845581,1.8227804899215698,-6.81895112991333,0.6704010963439941,0.18,-0.15,-0.45,269.92
1671054544.53959680,104354384,1,-1.77,-1.18,274.79,-0.007560597732663155,-0.0081534618511796,0.014999098144471645,0.06597268581390381,1.8230081796646118,-6.819366455078125,0.6711456179618835,0.18,-0.15,-0.45,269.92
1671054544.55956197,104374349,1,-1.76,-1.18,274.76,-0.011607974767684937,-0.014581833966076374,0.02151372842490673,0.0662214607000351,1.8235673904418945,-6.8198699951171875,0.6722256541252136,0.18,-0.15,-0.45,269.92
1671054544.59955692,104414344,1,-1.73,-1.18,274.75,-0.021755266934633255,0.009825902990996838,0.010605474933981895,0.04258592426776886,1.823999285697937,-6.820737838745117,0.6735067367553711,0.18,-0.15,-0.45,269.92
1671054544.63959885,104454386,1,-1.76,-1.1500000000000001,274.69,-0.002142807235941291,-0.04164036735892296,0.00817089807242155,0.02537335641682148,1.8237920999526978,-6.822686672210693,0.6745039820671082,0.18,-0.15,-0.45,269.92
1671054544.67959690,104494384,1,-1.76,-1.16,274.68,-0.018900873139500618,0.0055288211442530155,0.010620608925819397,0.016314513981342316,1.8245216608047485,-6.824954986572266,0.6754858493804932,0.18,-0.15,-0.45,269.92
1671054544.71958184,104534369,1,-1.74,-1.16,274.68,0.006035825703293085,-0.03135472163558006,0.01787843368947506,0.013705682009458542,1.8246116638183594,-6.826873302459717,0.6759478449821472,0.18,-0.15,-0.45,269.92
1671054544.73957396,104554361,1,-1.77,-1.17,274.65000000000003,0.005878168158233166,-0.03803771734237671,0.025689171627163887,0.017291003838181496,1.8249599933624268,-6.828052043914795,0.6762670278549194,0.18,-0.15,-0.45,269.92
1671054544.75955987,104574347,1,-1.76,-1.18,274.63,-0.019895704463124275,-0.017470967024564743,0.008933844044804573,-0.002620486542582512,1.8252300024032593,-6.829356670379639,0.6765429973602295,0.18,-0.15,-0.45,269.92
1671054544.79957485,104614362,1,-1.75,-1.16,274.63,-0.0034472772385925055,-0.025946347042918205,0.02599121816456318,0.008737321943044662,1.8251097202301025,-6.831045150756836,0.6765982508659363,0.18,-0.15,-0.45,269.92
1671054544.83959174,104654379,1,-1.75,-1.17,274.57,-0.007878419011831284,-0.03588123619556427,0.007350253406912088,-0.02145998366177082,1.8263068199157715,-6.833699703216553,0.6758620142936707,0.18,-0.15,-0.45,269.92
1671054544.87959290,104694380,1,-1.75,-1.18,274.53000000000003,-0.008022932335734367,0.0010077219922095537,0.01968388631939888,-0.01928728260099888,1.827304720878601,-6.83551025390625,0.6753008365631104,0.18,-0.15,-0.45,269.92
1671054544.91959476,104734382,1,-1.74,-1.19,274.51,0.00999900046736002,-0.055750444531440735,0.015424991026520729,-0.027873298153281212,1.8283425569534302,-6.838167190551758,0.6744527220726013,0.18,-0.15,-0.45,269.92
1671054544.93957496,104754362,1,-1.76,-1.2,274.48,0.014081286266446114,-0.015812786296010017,0.01385132223367691,-0.03003837540745735,1.8289724588394165,-6.83927059173584,0.6744757294654846,0.18,-0.15,-0.45,269.92
1671054544.95959187,104774379,1,-1.75,-1.19,274.48,-0.022297626361250877,0.004398646764457226,0.01435934565961361,-0.02856711857020855,1.8295339345932007,-6.839921474456787,0.6741088032722473,0.18,-0.15,-0.45,269.92
1671054544.99956179,104814349,1,-1.73,-1.18,274.45,0.0039772107265889645,-0.04315913841128349,0.010456539690494537,-0.029341453686356544,1.8299506902694702,-6.841825008392334,0.6738283038139343,0.18,-0.15,-0.44,269.92
1671054545.03953791,104854325,1,-1.73,-1.18,274.43,-0.005287627223879099,-0.014861516654491425,0.01414321456104517,-0.016919849440455437,1.8297827243804932,-6.842921257019043,0.6743935942649841,0.18,-0.15,-0.44,269.92
1671054545.07959676,104894384,1,-1.72,-1.19,274.43,-0.004257701802998781,-0.02804335579276085,0.012385045178234577,-0.006820205133408308,1.8295114040374756,-6.8434929847717285,0.6749026775360107,0.18,-0.15,-0.44,269.92
1671054545.11959791,104934385,1,-1.74,-1.18,274.40000000000003,0.011184302158653736,-0.03823072090744972,0.022614238783717155,0.013726896606385708,1.8294717073440552,-6.845325946807861,0.6755867600440979,0.18,-0.15,-0.44,269.92
1671054545.13954186,104954329,1,-1.75,-1.18,274.39,-0.007891974411904812,-0.0009321572724729776,0.008681660518050194,0.0038864165544509888,1.8294801712036133,-6.845699310302734,0.6759184002876282,0.18,-0.15,-0.44,269.92
1671054545.15961194,104974399,1,-1.73,-1.17,274.38,-0.017326120287179947,-0.014617480337619781,0.01565701887011528,0.013890407048165798,1.8291149139404297,-6.845739364624023,0.67618328332901,0.18,-0.15,-0.44,269.92
1671054545.19953394,105014321,1,-1.74,-1.19,274.34000000000003,0.01078762300312519,-0.046632204204797745,0.01949058473110199,0.022433249279856682,1.8291445970535278,-6.8476104736328125,0.6770932078361511,0.18,-0.15,-0.44,269.92
1671054545.23956490,105054352,1,-1.7,-1.19,274.33,-0.0166011955589056,-0.012924952432513237,0.012495525181293488,0.01869793049991131,1.8282538652420044,-6.8473639488220215,0.677700936794281,0.18,-0.15,-0.44,269.92
1671054545.27956986,105094357,1,-1.72,-1.19,274.27,0.010457773692905903,-0.04707416146993637,0.01003636047244072,0.016081230714917183,1.8279309272766113,-6.847934722900391,0.6783623099327087,0.18,-0.15,-0.44,269.92
1671054545.31958580,105134373,1,-1.72,-1.19,274.29,-0.012342041358351707,-0.000763365242164582,0.011605126783251762,0.012651866301894188,1.8271838426589966,-6.84816312789917,0.6783347725868225,0.18,-0.15,-0.44,269.92
1671054545.33956575,105154353,1,-1.71,-1.19,274.27,-0.007889438420534134,-0.009626170620322227,0.023484686389565468,0.021229544654488564,1.826871633529663,-6.847950458526611,0.6784363389015198,0.18,-0.15,-0.44,269.92
1671054545.35959387,105174381,1,-1.72,-1.18,274.26,0.007570004090666771,-0.056478168815374374,0.022557349875569344,0.017484884709119797,1.8266035318374634,-6.8481669425964355,0.6784769892692566,0.18,-0.15,-0.44,269.92
1671054545.39958596,105214373,1,-1.72,-1.21,274.25,-0.018823355436325073,0.004163485020399094,0.01883614808320999,0.009122599847614765,1.8266255855560303,-6.84906005859375,0.6786498427391052,0.18,-0.15,-0.44,269.92
1671054545.43956280,105254350,1,-1.69,-1.19,274.24,0.0006200303323566914,-0.051484592258930206,0.025961795821785927,0.013467486947774887,1.8256382942199707,-6.849005222320557,0.6788440346717834,0.18,-0.15,-0.44,269.92
1671054545.47956181,105294349,1,-1.7,-1.2,274.19,-0.013498405925929546,-0.014870542101562023,0.01992042362689972,0.0065614162012934685,1.8254319429397583,-6.849811553955078,0.6791207194328308,0.18,-0.15,-0.44,269.92
1671054545.51952887,105334316,1,-1.7,-1.21,274.17,0.002922659507021308,-0.02648302912712097,0.014844376593828201,-0.0004281654837541282,1.8250168561935425,-6.8495025634765625,0.6788530349731445,0.18,-0.15,-0.44,269.92
1671054545.53956175,105354349,1,-1.72,-1.21,274.15000000000003,-0.0012342665577307343,-0.05017153546214104,0.011259890161454678,-0.005451587960124016,1.8249843120574951,-6.850098133087158,0.6790155172348022,0.18,-0.15,-0.44,269.92
1671054545.55959988,105374387,1,-1.72,-1.21,274.15000000000003,-0.00042658517486415803,-0.03410700708627701,0.017100118100643158,-0.00039026010199449956,1.8249025344848633,-6.850619792938232,0.6789412498474121,0.18,-0.15,-0.44,269.92
1671054545.59957290,105414360,1,-1.72,-1.18,274.12,-0.0070672123692929745,-0.026404554024338722,0.011787829920649529,-0.007623303681612015,1.824378252029419,-6.850648403167725,0.6787389516830444,0.18,-0.15,-0.43,269.92
1671054545.63958383,105454371,1,-1.72,-1.21,274.09000000000003,0.0009132417617365718,-0.02127566747367382,0.01359964907169342,-0.014575413428246975,1.8253244161605835,-6.851983070373535,0.6777099370956421,0.18,-0.15,-0.43,269.92
1671054545.67956090,105494348,1,-1.7,-1.21,274.08,0.0019941620994359255,-0.0393962599337101,0.017344776540994644,-0.02034350112080574,1.8255561590194702,-6.852838039398193,0.6767921447753906,0.18,-0.15,-0.43,269.92
1671054545.71954584,105534333,1,-1.71,-1.2,274.04,-0.0073830136097967625,-0.032248061150312424,0.014845488592982292,-0.02699444815516472,1.8264321088790894,-6.853971004486084,0.675726592540741,0.18,-0.15,-0.43,269.92
1671054545.73956895,105554356,1,-1.7,-1.21,274.03000000000003,0.004955918528139591,-0.03462480381131172,0.018049409613013268,-0.024385297670960426,1.8265736103057861,-6.854667663574219,0.6756591796875,0.18,-0.15,-0.43,269.92
1671054545.75960279,105574390,1,-1.71,-1.21,274.01,0.008567235432565212,-0.021718056872487068,0.011961573734879494,-0.02970426343381405,1.8271504640579224,-6.855175495147705,0.6752166748046875,0.18,-0.15,-0.43,269.92
1671054545.79959273,105614380,1,-1.71,-1.21,274.0,-0.002400341210886836,-0.041448693722486496,0.021785885095596313,-0.01683756895363331,1.8276692628860474,-6.856262683868408,0.6747316718101501,0.18,-0.15,-0.43,269.92
1671054545.83961487,105654402,1,-1.7,-1.21,273.95,0.005786670371890068,-0.03148670867085457,0.007488918956369162,-0.04072652757167816,1.8273614645004272,-6.8568620681762695,0.6722123622894287,0.18,-0.15,-0.43,269.92
1671054545.87956595,105694353,1,-1.67,-1.22,273.93,-0.009322511032223701,-0.02125098556280136,0.016860440373420715,-0.04769458249211311,1.8271903991699219,-6.857302665710449,0.6700155138969421,0.18,-0.15,-0.43,269.92
1671054545.91956496,105734352,1,-1.69,-1.22,273.91,0.019681651145219803,-0.03576929494738579,0.011017805896699429,-0.06354094296693802,1.8269191980361938,-6.857999801635742,0.6670265197753906,0.18,-0.15,-0.43,269.92
1671054545.93957591,105754363,1,-1.68,-1.2,273.89,0.0031756709795445204,-0.013177579268813133,0.02043376863002777,-0.057292405515909195,1.8271082639694214,-6.858301639556885,0.6665043830871582,0.18,-0.15,-0.43,269.92
1671054545.95956373,105774351,1,-1.69,-1.2,273.87,-0.011474997736513615,-0.03273150324821472,0.010335929691791534,-0.06757443398237228,1.8267643451690674,-6.858432769775391,0.6651992797851562,0.18,-0.15,-0.43,269.92
1671054545.99960089,105814388,1,-1.68,-1.21,273.86,0.01956661231815815,-0.019328024238348007,0.011246111243963242,-0.06388361006975174,1.827169418334961,-6.8592095375061035,0.6635726094245911,0.18,-0.15,-0.43,269.92
1671054546.03959775,105854385,1,-1.68,-1.21,273.82,-0.0007879758486524224,-0.040153104811906815,0.010922770015895367,-0.04804787039756775,1.8267873525619507,-6.860091209411621,0.663754403591156,0.18,-0.15,-0.43,269.92
1671054546.07959580,105894383,1,-1.68,-1.21,273.8,0.018975140526890755,-0.030254488810896873,0.014795571565628052,-0.020806362852454185,1.82667076587677,-6.8607096672058105,0.6639643907546997,0.18,-0.15,-0.43,269.92
1671054546.11956477,105934352,1,-1.6600000000000001,-1.21,273.76,-0.004305893089622259,-0.04239466413855553,0.010662054643034935,-0.003211500821635127,1.8263916969299316,-6.861455917358398,0.6646230220794678,0.18,-0.15,-0.43,269.92
1671054546.13959074,105954378,1,-1.6600000000000001,-1.22,273.76,0.019202493131160736,-0.030663061887025833,0.020972784608602524,0.01584898680448532,1.8264880180358887,-6.862131118774414,0.6649647951126099,0.18,-0.15,-0.43,269.92
1671054546.15956187,105974349,1,-1.6600000000000001,-1.21,273.73,0.0034723731223493814,-0.01665790006518364,0.01432740967720747,0.01623392291367054,1.8265612125396729,-6.862330913543701,0.6652893424034119,0.18,-0.15,-0.43,269.92
1671054546.19956493,106014352,1,-1.67,-1.21,273.7,0.008014436811208725,-0.04558636620640755,0.010770331136882305,0.02145502157509327,1.8265435695648193,-6.863409996032715,0.6659736037254333,0.18,-0.15,-0.42,269.92
1671054546.23959875,106054386,1,-1.6600000000000001,-1.2,273.66,0.00958616565912962,-0.03197234869003296,0.01652485504746437,0.031557608395814896,1.8255597352981567,-6.864131450653076,0.6666396260261536,0.18,-0.15,-0.42,269.92
1671054546.27958775,106094375,1,-1.6400000000000001,-1.21,273.62,-0.002563273999840021,-0.028815489262342453,0.007674367167055607,0.02371373400092125,1.8245320320129395,-6.865134239196777,0.6673921346664429,0.18,-0.15,-0.42,269.92
1671054546.31959796,106134385,1,-1.6400000000000001,-1.21,273.57,0.010566914454102516,-0.02316529117524624,0.0070291259326040745,0.01940801553428173,1.823310375213623,-6.866192817687988,0.6676552891731262,0.18,-0.15,-0.42,269.92
1671054546.33961582,106154403,1,-1.6400000000000001,-1.19,273.59000000000003,0.007526416331529617,-0.03301810473203659,0.014015608467161655,0.023833410814404488,1.8231587409973145,-6.866631031036377,0.6678046584129333,0.18,-0.15,-0.42,269.92
1671054546.35956573,106174353,1,-1.6400000000000001,-1.2,273.55,0.011080721393227577,-0.028022319078445435,0.009854595176875591,0.017033666372299194,1.8227791786193848,-6.867230415344238,0.6680517196655273,0.18,-0.15,-0.42,269.92
1671054546.39955783,106214345,1,-1.6400000000000001,-1.2,273.52,0.022578727453947067,-0.03792821988463402,0.025165466591715813,0.027298951521515846,1.8221442699432373,-6.868504524230957,0.668142557144165,0.18,-0.15,-0.42,269.92
1671054546.43956280,106254350,1,-1.6400000000000001,-1.2,273.47,0.009392992593348026,-0.041010595858097076,0.011674048379063606,-0.0034149677958339453,1.8211957216262817,-6.8690266609191895,0.6663798093795776,0.18,-0.15,-0.42,269.92
1671054546.47958994,106294377,1,-1.62,-1.2,273.43,0.008558676578104496,-0.04164348915219307,0.010459929704666138,-0.025977279990911484,1.8205009698867798,-6.869844913482666,0.6649584770202637,0.18,-0.15,-0.42,269.92
1671054546.51960993,106334397,1,-1.6300000000000001,-1.21,273.39,0.0021647040266543627,-0.03360590711236,0.015471233986318111,-0.032931696623563766,1.8196651935577393,-6.870534420013428,0.6633043885231018,0.18,-0.15,-0.42,269.92
1671054546.53956985,106354357,1,-1.62,-1.2,273.38,0.002438134979456663,-0.03694924712181091,0.01965262182056904,-0.031916163861751556,1.8196070194244385,-6.871121883392334,0.6630483865737915,0.18,-0.15,-0.42,269.92
1671054546.55953693,106374324,1,-1.62,-1.21,273.36,0.0017086182488128543,-0.030091527849435806,-0.005901115480810404,-0.05802345275878906,1.8191659450531006,-6.871370792388916,0.6623897552490234,0.18,-0.15,-0.42,269.92
1671054546.59956789,106414355,1,-1.61,-1.2,273.31,0.0064096045680344105,-0.028947876766324043,0.01496714074164629,-0.03589380159974098,1.8189507722854614,-6.872275352478027,0.6613674163818359,0.18,-0.15,-0.41000000000000003,269.92
1671054546.63957286,106454360,1,-1.62,-1.19,273.25,0.0035792472772300243,-0.02844863198697567,0.0076595572754740715,-0.045215874910354614,1.8176515102386475,-6.87304162979126,0.6597612500190735,0.18,-0.15,-0.41000000000000003,269.92
1671054546.67957091,106494358,1,-1.6,-1.18,273.21,0.01000168640166521,-0.03333812206983566,0.018417390063405037,-0.036581482738256454,1.8163870573043823,-6.873846530914307,0.6583921313285828,0.18,-0.15,-0.41000000000000003,269.92
1671054546.71959186,106534379,1,-1.59,-1.18,273.16,0.0036122354213148355,-0.03286920115351677,0.01828557439148426,-0.034137800335884094,1.8148481845855713,-6.874660968780518,0.6568331718444824,0.18,-0.15,-0.41000000000000003,269.92
1671054546.73956895,106554356,1,-1.57,-1.18,273.15000000000003,0.006644928362220526,-0.03549957647919655,0.012832459062337875,-0.03747040033340454,1.8145772218704224,-6.875333786010742,0.6566032767295837,0.18,-0.15,-0.41000000000000003,269.92
1671054546.75959873,106574386,1,-1.57,-1.17,273.12,0.0010089061688631773,-0.030969418585300446,0.020370634272694588,-0.02676108293235302,1.813906192779541,-6.8756842613220215,0.6559531092643738,0.18,-0.15,-0.41000000000000003,269.92
1671054546.79958797,106614375,1,-1.6400000000000001,-1.1300000000000001,273.08,0.013919748365879059,-0.035039305686950684,0.005492499563843012,-0.035497501492500305,1.8131814002990723,-6.8768696784973145,0.6548094749450684,0.18,-0.15,-0.41000000000000003,269.92
1671054546.83956695,106654354,1,-1.6300000000000001,-1.1300000000000001,273.03000000000003,0.0010721146827563643,-0.03043309785425663,-0.009437291882932186,-0.04194588214159012,1.8124650716781616,-6.87694787979126,0.6548063158988953,0.18,-0.15,-0.41000000000000003,269.92
1671054546.87956095,106694348,1,-1.56,-1.12,272.97,0.01068731676787138,-0.028116676956415176,0.0060835424810647964,-0.014980743639171124,1.8118454217910767,-6.87719202041626,0.6546434760093689,0.18,-0.15,-0.41000000000000003,269.92
1671054546.91960096,106734388,1,-1.53,-1.1,272.91,0.0059106540866196156,-0.02613082528114319,0.004350971430540085,-0.009151581674814224,1.811051607131958,-6.877297878265381,0.6542254090309143,0.18,-0.15,-0.4,269.92
1671054546.93956089,106754348,1,-1.56,-1.07,272.89,0.008710572496056557,-0.03668911010026932,-0.0010960334911942482,-0.012227721512317657,1.8109546899795532,-6.877639293670654,0.6541683673858643,0.18,-0.15,-0.4,269.92
1671054546.95958591,106774373,1,-1.59,-1.06,272.86,0.003832110669463873,-0.01980205997824669,-0.0028177998028695583,-0.012055821716785431,1.8107386827468872,-6.877750873565674,0.6539919376373291,0.18,-0.15,-0.4,269.92
1671054546.99959373,106814381,1,-1.58,-1.03,272.8,0.012544051744043827,-0.020387757569551468,0.0040887934155762196,-0.003698390442878008,1.8104357719421387,-6.878096580505371,0.6534645557403564,0.18,-0.15,-0.4,269.92
1671054547.03958774,106854375,1,-1.56,-1.0,272.74,0.00731452414765954,-0.027530433610081673,0.012775932438671589,0.0025430102832615376,1.8102165460586548,-6.8784637451171875,0.6526113152503967,0.18,-0.15,-0.4,269.92
1671054547.07956076,106894348,1,-1.51,-0.97,272.68,0.01571839302778244,-0.029474973678588867,-0.00990266166627407,-0.02874758280813694,1.8098646402359009,-6.878886699676514,0.6512523293495178,0.18,-0.15,-0.4,269.92
1671054547.11958480,106934372,1,-1.44,-0.89,272.62,0.024472011253237724,-0.015064360573887825,-0.014200598932802677,-0.04548231139779091,1.8097296953201294,-6.879016399383545,0.648453414440155,0.18,-0.15,-0.4,269.92
1671054547.13958573,106954373,1,-1.48,-0.86,272.59000000000003,0.02012050338089466,-0.013305624015629292,-0.017383914440870285,-0.05518187955021858,1.8101238012313843,-6.8792500495910645,0.6475144028663635,0.18,-0.15,-0.4,269.92
1671054547.15959287,106974380,1,-1.46,-0.8300000000000001,272.59000000000003,0.048553939908742905,-0.020599903538823128,-0.01910868100821972,-0.061012621968984604,1.8104063272476196,-6.879209041595459,0.6459926962852478,0.18,-0.15,-0.4,269.92
1671054547.19957876,107014366,1,-1.46,-0.72,272.56,0.04516778513789177,-0.006483612582087517,-0.04361283779144287,-0.09163620322942734,1.8117774724960327,-6.87908411026001,0.6429559588432312,0.18,-0.15,-0.4,269.92
1671054547.23960280,107054390,1,-1.35,-0.59,272.54,0.07775303721427917,0.005605103448033333,-0.04014468565583229,-0.09994587302207947,1.8130717277526855,-6.8778252601623535,0.6381610035896301,0.18,-0.15,-0.4,269.92
1671054547.27956796,107094355,1,-1.16,-0.44,272.57,0.07039130479097366,0.016826527193188667,-0.11790791153907776,-0.18756568431854248,1.8149417638778687,-6.876267910003662,0.6326721906661987,0.18,-0.15,-0.4,269.92
1671054547.31956387,107134351,1,-0.98,-0.23,272.57,0.06785843521356583,0.02363794855773449,-0.15497718751430511,-0.2282029688358307,1.8169965744018555,-6.874092102050781,0.625216543674469,0.18,-0.15,-0.39,269.92
1671054547.33957982,107154367,1,-0.67,-0.12,272.6,0.08098559081554413,0.042554911226034164,-0.09540320187807083,-0.16877591609954834,1.8184130191802979,-6.873236656188965,0.6217048168182373,0.18,-0.15,-0.39,269.92
1671054547.35958791,107174375,1,-0.42,-0.03,272.65,0.09203960001468658,0.03647696599364281,-0.1577390879392624,-0.2286752164363861,1.8196855783462524,-6.872028827667236,0.6173163056373596,0.18,-0.15,-0.39,269.92
1671054547.39959097,107214378,1,0.2,0.2,272.74,0.0977533608675003,0.04002542048692703,-0.2594435214996338,-0.3252936899662018,1.8226717710494995,-6.869706153869629,0.6078504920005798,0.18,-0.15,-0.39,269.92
1671054547.43959880,107254386,1,0.53,0.46,272.79,0.10576066374778748,0.03713848814368248,-0.2443244904279709,-0.30862271785736084,1.82586669921875,-6.866697788238525,0.5968536734580994,0.18,-0.15,-0.39,269.92
1671054547.47953391,107294321,1,0.9500000000000001,0.58,272.87,0.11317367851734161,0.04727177694439888,-0.2325853407382965,-0.29521387815475464,1.8296581506729126,-6.86364221572876,0.5845436453819275,0.18,-0.15,-0.39,269.92
1671054547.51954889,107334336,1,1.6600000000000001,0.6,272.97,0.1350637823343277,0.05061718821525574,-0.30574050545692444,-0.36529383063316345,1.8339242935180664,-6.86014986038208,0.5701677799224854,0.18,-0.15,-0.39,269.92
1671054547.53958488,107354372,1,1.8800000000000001,0.55,273.02,0.1319972276687622,0.05533002316951752,-0.3333487808704376,-0.3920011818408966,1.8363373279571533,-6.858809947967529,0.5633877515792847,0.18,-0.15,-0.39,269.92
1671054547.55957174,107374359,1,2.09,0.48,273.06,0.14627288281917572,0.04511936753988266,-0.34710878133773804,-0.40359169244766235,1.8389712572097778,-6.857095241546631,0.5555636882781982,0.18,-0.15,-0.39,269.92
1671054547.59953380,107414321,1,2.57,0.36,273.14,0.1668480634689331,0.05922211706638336,-0.34617629647254944,-0.3978261947631836,1.844926118850708,-6.85383939743042,0.5394237637519836,0.18,-0.15,-0.39,269.92
1671054547.63958788,107454375,1,2.88,0.14,273.23,0.1849881410598755,0.062021512538194656,-0.37709692120552063,-0.4436267018318176,1.8519049882888794,-6.849721431732178,0.5191300511360168,0.18,-0.15,-0.39,269.92
1671054547.67958975,107494377,1,3.24,-0.1,273.33,0.20742018520832062,0.07029333710670471,-0.4486815333366394,-0.5396600365638733,1.859783411026001,-6.845612525939941,0.4976457357406616,0.18,-0.15,-0.39,269.92
1671054547.71956587,107534353,1,3.24,-0.39,273.42,0.2308473140001297,0.06646690517663956,-0.5385844111442566,-0.6424753665924072,1.8689810037612915,-6.841185092926025,0.4729503393173218,0.18,-0.15,-0.38,269.92
1671054547.73960280,107554390,1,3.0700000000000003,-0.61,273.44,0.23946121335029602,0.05719294771552086,-0.5793273448944092,-0.6860014796257019,1.8737702369689941,-6.839540004730225,0.46175098419189453,0.18,-0.15,-0.38,269.92
1671054547.75956893,107574356,1,3.0300000000000002,-0.86,273.49,0.24352094531059265,0.048975057899951935,-0.5868138074874878,-0.6930709481239319,1.879023551940918,-6.837553024291992,0.448703795671463,0.18,-0.15,-0.38,269.92
1671054547.79956579,107614353,1,2.87,-1.6400000000000001,273.54,0.2821741998195648,0.042032405734062195,-0.6134322881698608,-0.7126253843307495,1.8900264501571655,-6.8344197273254395,0.423383504152298,0.18,-0.15,-0.38,269.92
1671054547.83958793,107654375,1,2.74,-2.7,273.59000000000003,0.3008784055709839,0.024952208623290062,-0.6081591844558716,-0.7196492552757263,1.9020941257476807,-6.831954002380371,0.39327186346054077,0.18,-0.15,-0.38,269.92
1671054547.87956977,107694357,1,2.66,-3.93,273.67,0.32628902792930603,0.005671875551342964,-0.6506714224815369,-0.784027636051178,1.914928913116455,-6.8303914070129395,0.3632366955280304,0.18,-0.15,-0.38,269.92
1671054547.91959691,107734384,1,2.5100000000000002,-4.91,273.73,0.3558714985847473,-0.012647351250052452,-0.6635053753852844,-0.8058626055717468,1.9287389516830444,-6.829619884490967,0.3311753273010254,0.18,-0.15,-0.38,269.92
1671054547.93960285,107754390,1,2.45,-5.19,273.78000000000003,0.3611367344856262,-0.027345556765794754,-0.6713864803314209,-0.8142741918563843,1.9359140396118164,-6.829788684844971,0.3164609372615814,0.18,-0.15,-0.38,269.92
1671054547.95956182,107774349,1,2.39,-5.34,273.83,0.37982362508773804,-0.02514132298529148,-0.6613727807998657,-0.8004456758499146,1.9433213472366333,-6.83000373840332,0.300199419260025,0.18,-0.15,-0.38,269.92
1671054547.99955988,107814347,1,2.12,-5.16,273.95,0.38234302401542664,-0.05260681360960007,-0.711144208908081,-0.8368666172027588,1.9586161375045776,-6.8313517570495605,0.2688991129398346,0.18,-0.16,-0.38,269.92
1671054548.03957582,107854363,1,1.82,-4.51,274.07,0.40558505058288574,-0.08280565589666367,-0.7035252451896667,-0.8252761363983154,1.9737998247146606,-6.836024284362793,0.2354699820280075,0.18,-0.15,-0.38,269.92
1671054548.07959080,107894378,1,1.6600000000000001,-3.5700000000000003,274.21,0.41349372267723083,-0.1044265627861023,-0.7411015033721924,-0.8660805821418762,1.9898080825805664,-6.841506481170654,0.20227709412574768,0.18,-0.15,-0.38,269.92
1671054548.11957288,107934360,1,1.12,-2.5300000000000002,274.32,0.41277050971984863,-0.1273384988307953,-0.696812629699707,-0.8132892847061157,2.005776882171631,-6.8481340408325195,0.16999270021915436,0.18,-0.15,-0.37,269.92
1671054548.13956785,107954355,1,1.09,-2.0100000000000002,274.40000000000003,0.44310542941093445,-0.12404420226812363,-0.6843541860580444,-0.7938492298126221,2.0144221782684326,-6.85122537612915,0.15444539487361908,0.18,-0.15,-0.37,269.92
1671054548.15960479,107974392,1,0.93,-1.56,274.44,0.44179925322532654,-0.13440187275409698,-0.7081459164619446,-0.8081510066986084,2.023057460784912,-6.854925632476807,0.137922003865242,0.18,-0.15,-0.37,269.92
1671054548.19955993,108014347,1,0.52,-0.77,274.56,0.4311279058456421,-0.14757199585437775,-0.7066713571548462,-0.7884842753410339,2.0402379035949707,-6.862132549285889,0.10694713890552521,0.18,-0.15,-0.37,269.92
1671054548.23956585,108054353,1,0.27,-0.17,274.66,0.44744178652763367,-0.14981891214847565,-0.7353938221931458,-0.7997721433639526,2.057314872741699,-6.868902206420898,0.07565999031066895,0.18,-0.16,-0.37,269.92
1671054548.27959275,108094380,1,0.07,0.22,274.76,0.44662782549858093,-0.15728798508644104,-0.7155811190605164,-0.7769856452941895,2.0740630626678467,-6.874423980712891,0.04405856877565384,0.18,-0.16,-0.37,269.92
1671054548.31959891,108134386,1,0.0,0.47000000000000003,274.86,0.44970017671585083,-0.1561264544725418,-0.6824963092803955,-0.7389658689498901,2.090770721435547,-6.8798604011535645,0.013202796690165997,0.18,-0.16,-0.37,269.92
1671054548.33955979,108154347,1,0.01,0.55,274.90000000000003,0.45254775881767273,-0.15006889402866364,-0.6996027827262878,-0.7529441714286804,2.0996334552764893,-6.882801055908203,-0.0015173503197729588,0.18,-0.16,-0.37,269.92
1671054548.35956478,108174352,1,-0.03,0.61,274.96,0.45840513706207275,-0.14767657220363617,-0.6720171570777893,-0.7210260033607483,2.1080474853515625,-6.885528564453125,-0.016261406242847443,0.18,-0.16,-0.37,269.92
1671054548.39954782,108214335,1,-1.11,-1.02,208.20000000000002,0.4455851912498474,-0.1499170958995819,-0.6806879639625549,-0.7256796360015869,2.1252996921539307,-6.891119956970215,-0.04549584910273552,0.18,-0.16,-0.37,269.92
1671054548.43956375,108254351,1,-1.05,-1.17,208.3,0.42623764276504517,-0.1452847719192505,-0.6413907408714294,-0.6930491924285889,2.1406023502349854,-6.895933151245117,-0.0744839757680893,0.18,-0.16,-0.37,269.92
1671054548.47957277,108294360,1,-0.99,-1.51,208.4,0.4224972128868103,-0.14952853322029114,-0.636518120765686,-0.697574257850647,2.152540445327759,-6.89910888671875,-0.10300490260124207,0.18,-0.16,-0.37,269.92
1671054548.51957083,108334358,1,-0.87,-2.08,208.47,0.39092662930488586,-0.13973714411258698,-0.6108463406562805,-0.6719209551811218,2.1629221439361572,-6.90179967880249,-0.13091661036014557,0.18,-0.16,-0.37,269.92
1671054548.53957081,108354358,1,-0.85,-2.36,208.5,0.3929663598537445,-0.14626014232635498,-0.6172605752944946,-0.6760574579238892,2.1693243980407715,-6.90391731262207,-0.14384230971336365,0.18,-0.16,-0.37,269.92
1671054548.55959177,108374379,1,-0.81,-2.67,208.52,0.3701555132865906,-0.13944822549819946,-0.6084820628166199,-0.6631881594657898,2.174309730529785,-6.905461311340332,-0.15712255239486694,0.18,-0.16,-0.37,269.92
1671054548.59958291,108414370,1,-0.76,-3.16,208.55,0.36609315872192383,-0.1446523815393448,-0.5925983786582947,-0.635506808757782,2.185457944869995,-6.90930700302124,-0.18209277093410492,0.18,-0.16,-0.37,269.92
1671054548.63956594,108454353,1,-0.64,-3.42,208.52,0.3422064185142517,-0.1429300755262375,-0.5599154233932495,-0.579735517501831,2.193742275238037,-6.912893772125244,-0.2048751562833786,0.18,-0.16,-0.37,269.92
1671054548.67955995,108494347,1,-0.61,-3.43,208.5,0.32317519187927246,-0.14995509386062622,-0.530335545539856,-0.5278224945068359,2.2021045684814453,-6.916868209838867,-0.2265803962945938,0.18,-0.16,-0.37,269.92
1671054548.71956277,108534350,1,-0.51,-3.24,208.34,0.3222675919532776,-0.16092833876609802,-0.5142392516136169,-0.49488723278045654,2.209280490875244,-6.920741081237793,-0.246525838971138,0.18,-0.16,-0.37,269.92
1671054548.73959780,108554385,1,-0.46,-3.0500000000000003,208.25,0.3099694848060608,-0.1550975888967514,-0.47755566239356995,-0.45204320549964905,2.2143468856811523,-6.923400402069092,-0.25626271963119507,0.18,-0.16,-0.37,269.92
1671054548.75961185,108574399,1,-0.42,-2.86,208.15,0.3075505793094635,-0.16235952079296112,-0.48289212584495544,-0.4532548189163208,2.218285322189331,-6.92567253112793,-0.26545438170433044,0.18,-0.16,-0.37,269.92
1671054548.79959178,108614379,1,-0.36,-2.47,207.91,0.29709628224372864,-0.16339410841464996,-0.43636688590049744,-0.4041190445423126,2.2275421619415283,-6.930994510650635,-0.2834928631782532,0.18,-0.16,-0.37,269.92
1671054548.83960080,108654388,1,-0.36,-2.13,207.58,0.2864691913127899,-0.16816537082195282,-0.4341023564338684,-0.40556201338768005,2.2366015911102295,-6.935904026031494,-0.30046334862709045,0.18,-0.16,-0.37,269.92
1671054548.87956190,108694349,1,-0.33,-1.9000000000000001,207.26,0.29056689143180847,-0.17498013377189636,-0.4011683166027069,-0.36787688732147217,2.24469256401062,-6.939622402191162,-0.3158607482910156,0.18,-0.16,-0.37,269.92
1671054548.91954994,108734337,1,-0.36,-1.85,207.01,0.27151718735694885,-0.17668204009532928,-0.40015387535095215,-0.3658292293548584,2.2525196075439453,-6.94297981262207,-0.3312492072582245,0.18,-0.16,-0.37,269.92
1671054548.93959689,108754384,1,-0.32,-1.84,206.88,0.2798757255077362,-0.18181778490543365,-0.3741168975830078,-0.3409344553947449,2.2574713230133057,-6.9458088874816895,-0.33920300006866455,0.18,-0.16,-0.37,269.92
1671054548.95957375,108774361,1,-0.35000000000000003,-1.8900000000000001,206.78,0.2720523178577423,-0.18535752594470978,-0.39496752619743347,-0.3636804223060608,2.261662006378174,-6.947781085968018,-0.3465217649936676,0.18,-0.16,-0.37,269.92
1671054548.99959683,108814384,1,-0.28,-1.95,206.58,0.26882150769233704,-0.1843651682138443,-0.3753390908241272,-0.3506714105606079,2.271280527114868,-6.9531097412109375,-0.36219531297683716,0.18,-0.16,-0.37,269.92
1671054549.03959394,108854381,1,-0.27,-2.0,206.43,0.25307586789131165,-0.18384377658367157,-0.3736349046230316,-0.3614884912967682,2.2805960178375244,-6.958807468414307,-0.3774850070476532,0.18,-0.16,-0.37,269.92
1671054549.07955575,108894343,1,-0.24,-1.98,206.31,0.2565206289291382,-0.1936444342136383,-0.378186970949173,-0.37840020656585693,2.2899508476257324,-6.9655656814575195,-0.39299145340919495,0.18,-0.16,-0.37,269.92
1671054549.11955976,108934347,1,-0.13,-1.92,206.19,0.25249823927879333,-0.19049744307994843,-0.3653091490268707,-0.37566351890563965,2.299165725708008,-6.972260475158691,-0.40836888551712036,0.18,-0.16,-0.37,269.92
1671054549.13959479,108954382,1,-0.18,-1.87,206.16,0.2521408498287201,-0.2054075449705124,-0.36450663208961487,-0.3789505362510681,2.304103374481201,-6.976006984710693,-0.4159375727176666,0.18,-0.16,-0.37,269.92
1671054549.15956473,108974352,1,-0.18,-1.85,206.12,0.23661647737026215,-0.19269946217536926,-0.3569836914539337,-0.37397515773773193,2.3087356090545654,-6.9794769287109375,-0.4233753979206085,0.18,-0.16,-0.37,269.92
1671054549.19958997,109014377,1,-0.18,-1.82,206.07,0.23831035196781158,-0.21109414100646973,-0.37957659363746643,-0.39869600534439087,2.318324089050293,-6.987003803253174,-0.43833181262016296,0.18,-0.16,-0.37,269.92
1671054549.23961687,109054404,1,-0.13,-1.8900000000000001,206.02,0.22815604507923126,-0.2119445651769638,-0.36944782733917236,-0.3902996778488159,2.3273732662200928,-6.994838714599609,-0.4539043605327606,0.18,-0.16,-0.37,269.92
1671054549.27962589,109094413,1,-0.18,-2.09,205.99,0.22204342484474182,-0.217697411775589,-0.3525867760181427,-0.37572911381721497,2.3363842964172363,-7.003071308135986,-0.4694501757621765,0.18,-0.16,-0.37,269.92
1671054549.31954074,109134328,1,-0.18,-2.38,205.95000000000002,0.205133855342865,-0.22210347652435303,-0.37804290652275085,-0.40450772643089294,2.3451592922210693,-7.011515140533447,-0.485363632440567,0.18,-0.16,-0.37,269.92
1671054549.33959675,109154384,1,-0.22,-2.54,205.93,0.20158326625823975,-0.22396275401115417,-0.34126898646354675,-0.3695167899131775,2.349367380142212,-7.015905380249023,-0.4927993416786194,0.18,-0.16,-0.37,269.92
1671054549.35957193,109174359,1,-0.2,-2.67,205.91,0.1995571255683899,-0.22372061014175415,-0.35462257266044617,-0.3836566209793091,2.3535878658294678,-7.020310401916504,-0.5005290508270264,0.18,-0.16,-0.37,269.92
1671054549.39956379,109214351,1,-0.22,-2.89,205.91,0.1847529113292694,-0.2287461757659912,-0.34120336174964905,-0.3744337856769562,2.3617143630981445,-7.029379367828369,-0.5163390040397644,0.18,-0.16,-0.37,269.92
1671054549.43958783,109254375,1,-0.19,-2.91,205.92000000000002,0.1761334240436554,-0.24250225722789764,-0.33117586374282837,-0.37897321581840515,2.3707242012023926,-7.041677474975586,-0.5328112244606018,0.18,-0.16,-0.37,269.92
1671054549.47958779,109294375,1,-0.26,-2.7600000000000002,205.92000000000002,0.1670161634683609,-0.24756383895874023,-0.3312528431415558,-0.3897406756877899,2.379103660583496,-7.0538177490234375,-0.548081636428833,0.18,-0.16,-0.37,269.92
1671054549.51959276,109334380,1,-0.24,-2.46,205.92000000000002,0.16129495203495026,-0.25039994716644287,-0.3341650366783142,-0.3923310339450836,2.3877415657043457,-7.0671796798706055,-0.5629351139068604,0.18,-0.16,-0.37,269.92
