timestamp,TimeUS,C,Q1,Q2,Q3,Q4
1671054540.79959178,100614379,1,0.7340623736381531,-0.019357923418283463,0.004315009340643883,-0.6787923574447632
1671054540.83956695,100654354,1,0.7341032028198242,-0.01935253106057644,0.0043139951303601265,-0.678748369216919
1671054540.87955594,100694343,1,0.7341554164886475,-0.01935730129480362,0.004316881764680147,-0.6786917448043823
1671054540.91956186,100734349,1,0.7342157363891602,-0.01934593729674816,0.0043050628155469894,-0.6786268949508667
1671054540.93958974,100754377,1,0.7342401146888733,-0.01934918761253357,0.004307067021727562,-0.6786004304885864
1671054540.95957088,100774358,1,0.7342652082443237,-0.019359257072210312,0.0043029929511249065,-0.6785730123519897
1671054540.99957681,100814364,1,0.7343218326568604,-0.01935948245227337,0.0042847152799367905,-0.6785118579864502
1671054541.03960276,100854390,1,0.7343620657920837,-0.019356699660420418,0.004273997154086828,-0.6784684062004089
1671054541.07957077,100894358,1,0.7343986630439758,-0.019369449466466904,0.004275904502719641,-0.6784284114837646
1671054541.11955476,100934342,1,0.7344363331794739,-0.01937086693942547,0.004247051198035479,-0.6783877611160278
1671054541.13961387,100954401,1,0.7344534993171692,-0.019373968243598938,0.00424258504062891,-0.6783691644668579
1671054541.15955591,100974343,1,0.7344721555709839,-0.01937202177941799,0.004239077679812908,-0.6783490777015686
1671054541.19958591,101014373,1,0.73451167345047,-0.019386708736419678,0.004247099161148071,-0.6783058047294617
1671054541.23960996,101054397,1,0.7345506548881531,-0.019393611699342728,0.0042568170465528965,-0.6782633066177368
1671054541.27957487,101094362,1,0.73459792137146,-0.019410019740462303,0.00424998952075839,-0.6782116889953613
1671054541.31954479,101134332,1,0.7346372008323669,-0.01941486820578575,0.004244139883667231,-0.6781690120697021
1671054541.33958483,101154372,1,0.7346502542495728,-0.01942099817097187,0.0042523532174527645,-0.6781546473503113
1671054541.35956287,101174350,1,0.7346627116203308,-0.019426044076681137,0.004245241638273001,-0.6781410574913025
1671054541.39958787,101214375,1,0.7346981763839722,-0.019430257380008698,0.0042266808450222015,-0.6781026124954224
1671054541.43959284,101254380,1,0.7347326874732971,-0.019420979544520378,0.00421434361487627,-0.6780655980110168
1671054541.47958088,101294368,1,0.7347908020019531,-0.01942545175552368,0.004217843990772963,-0.6780024766921997
1671054541.51957583,101334363,1,0.7348302006721497,-0.019446060061454773,0.0042124404571950436,-0.6779592037200928
1671054541.53959179,101354379,1,0.7348484396934509,-0.019444027915596962,0.0042119682766497135,-0.6779394745826721
1671054541.55955696,101374344,1,0.7348730564117432,-0.019451677799224854,0.004215477034449577,-0.6779125928878784
1671054541.59957290,101414360,1,0.7349206805229187,-0.01945086568593979,0.004218314774334431,-0.6778609752655029
1671054541.63959289,101454380,1,0.7349631786346436,-0.019436029717326164,0.004226871766149998,-0.6778152585029602
1671054541.67957592,101494363,1,0.7349887490272522,-0.019434768706560135,0.004228450357913971,-0.6777875423431396
1671054541.71959281,101534380,1,0.7350307106971741,-0.019426871091127396,0.004216339439153671,-0.6777423620223999
1671054541.73960280,101554390,1,0.7350481748580933,-0.019415291026234627,0.004214358050376177,-0.67772376537323
1671054541.75955892,101574346,1,0.7350703477859497,-0.019418446347117424,0.004197689238935709,-0.6776996850967407
1671054541.79956174,101614349,1,0.7351228594779968,-0.019407697021961212,0.004177463240921497,-0.6776431798934937
1671054541.83956194,101654349,1,0.7351763844490051,-0.01939031481742859,0.0041673132218420506,-0.6775857210159302
1671054541.87959886,101694386,1,0.7352066040039062,-0.019381267949938774,0.004171659238636494,-0.677553117275238
1671054541.91957879,101734366,1,0.7352582216262817,-0.019381383433938026,0.004157697316259146,-0.677497148513794
1671054541.93956685,101754354,1,0.735275149345398,-0.019376475363969803,0.004158321302384138,-0.6774789094924927
1671054541.95959496,101774382,1,0.7352962493896484,-0.019372984766960144,0.004139590542763472,-0.6774562001228333
1671054541.99955773,101814345,1,0.7353388071060181,-0.019373377785086632,0.004105175379663706,-0.6774103045463562
1671054542.03956175,101854349,1,0.7353670001029968,-0.019363487139344215,0.0040884544141590595,-0.6773800253868103
1671054542.07957292,101894360,1,0.7354216575622559,-0.019364897161722183,0.0040475777350366116,-0.6773208975791931
1671054542.11957479,101934362,1,0.7354665398597717,-0.019352559000253677,0.004033625591546297,-0.677272617816925
1671054542.13955474,101954342,1,0.7354884743690491,-0.01934477686882019,0.004036277998238802,-0.677249014377594
1671054542.15959883,101974386,1,0.7355045676231384,-0.019351396709680557,0.004023875575512648,-0.6772313714027405
1671054542.19955873,102014346,1,0.7355290055274963,-0.01936151273548603,0.004006697330623865,-0.6772046685218811
1671054542.23956680,102054354,1,0.7355767488479614,-0.019367754459381104,0.003994894213974476,-0.677152693271637
1671054542.27953696,102094324,1,0.7356113791465759,-0.019378598779439926,0.0039734430611133575,-0.6771148443222046
1671054542.31959295,102134380,1,0.7356727719306946,-0.019382435828447342,0.003986115101724863,-0.6770480275154114
1671054542.33955383,102154341,1,0.735705554485321,-0.01939224824309349,0.003979983739554882,-0.6770121455192566
1671054542.35959697,102174384,1,0.735736072063446,-0.019394144415855408,0.003961546346545219,-0.6769790649414062
1671054542.39958596,102214373,1,0.735770046710968,-0.019380856305360794,0.003953767009079456,-0.6769425272941589
1671054542.43955183,102254339,1,0.7358174324035645,-0.01938561163842678,0.003945718985050917,-0.6768909096717834
1671054542.47955775,102294345,1,0.7358630895614624,-0.019371632486581802,0.00394016457721591,-0.676841676235199
1671054542.51955295,102334340,1,0.7359006404876709,-0.01937146671116352,0.003936416003853083,-0.6768009662628174
1671054542.53958774,102354375,1,0.7359274625778198,-0.019370926544070244,0.003927832003682852,-0.676771879196167
1671054542.55956483,102374352,1,0.7359427809715271,-0.0193722415715456,0.0039240350015461445,-0.6767551302909851
1671054542.59957790,102414365,1,0.7359947562217712,-0.019376879557967186,0.0039062018040567636,-0.6766985654830933
1671054542.63959885,102454386,1,0.7360336184501648,-0.019375381991267204,0.003880058880895376,-0.6766565442085266
1671054542.67955494,102494342,1,0.7360789179801941,-0.01937205344438553,0.003850003005936742,-0.6766075491905212
1671054542.71955276,102534340,1,0.7361207008361816,-0.01934591867029667,0.003832421498373151,-0.6765629053115845
1671054542.73960376,102554391,1,0.7361469864845276,-0.01935659721493721,0.0038124066777527332,-0.676534116268158
1671054542.75956392,102574351,1,0.736175537109375,-0.019354896619915962,0.00380296865478158,-0.6765031218528748
1671054542.79959273,102614380,1,0.7362158298492432,-0.019338304176926613,0.0038108876906335354,-0.6764597296714783
1671054542.83958578,102654373,1,0.736243724822998,-0.01934255100786686,0.0037882295437157154,-0.6764293909072876
1671054542.87958574,102694373,1,0.7363014221191406,-0.01934170350432396,0.003753694938495755,-0.6763667464256287
1671054542.91956496,102734352,1,0.7363340258598328,-0.019349204376339912,0.003740923712030053,-0.6763311624526978
1671054542.93957281,102754360,1,0.7363483905792236,-0.019339926540851593,0.0037467379588633776,-0.6763157248497009
1671054542.95956373,102774351,1,0.7363677024841309,-0.019327575340867043,0.0037411414086818695,-0.6762951016426086
1671054542.99954891,102814336,1,0.7364048361778259,-0.01932428777217865,0.003733328776434064,-0.6762547492980957
1671054543.03959394,102854381,1,0.7364497184753418,-0.01931614615023136,0.0037143612280488014,-0.6762062311172485
1671054543.07960582,102894393,1,0.73650062084198,-0.019337177276611328,0.0036901638377457857,-0.676150381565094
1671054543.11953592,102934323,1,0.736518383026123,-0.019349824637174606,0.003668988822028041,-0.6761307120323181
1671054543.13959289,102954380,1,0.7365397214889526,-0.019350111484527588,0.00365468324162066,-0.6761075854301453
1671054543.15955997,102974347,1,0.7365594506263733,-0.01935272291302681,0.003632711712270975,-0.6760861873626709
1671054543.19955778,103014345,1,0.7365925908088684,-0.019353829324245453,0.003597052302211523,-0.6760501861572266
1671054543.23958492,103054372,1,0.7366247177124023,-0.019346624612808228,0.003570207394659519,-0.6760155558586121
1671054543.27960086,103094388,1,0.7366489171981812,-0.019360575824975967,0.0035608026664704084,-0.6759887933731079
1671054543.31959176,103134379,1,0.7366731762886047,-0.019353574141860008,0.0035298429429531097,-0.6759626865386963
1671054543.33956575,103154353,1,0.7366787195205688,-0.019344203174114227,0.0035130195319652557,-0.6759570240974426
1671054543.35956383,103174351,1,0.7366994619369507,-0.019346071407198906,0.003499643411487341,-0.6759344935417175
1671054543.39956093,103214348,1,0.7367351651191711,-0.019329462200403214,0.0034752769861370325,-0.6758961081504822
1671054543.43958783,103254375,1,0.7367633581161499,-0.01933840662240982,0.0034612074960023165,-0.6758652329444885
1671054543.47959495,103294382,1,0.7367937564849854,-0.019338762387633324,0.0034467121586203575,-0.6758321523666382
1671054543.51958680,103334374,1,0.7368156909942627,-0.019320864230394363,0.0034343230072408915,-0.6758087873458862
1671054543.53954196,103354329,1,0.7368319034576416,-0.01932217925786972,0.0034249392338097095,-0.6757910847663879
1671054543.55960989,103374397,1,0.7368345260620117,-0.01931871473789215,0.0034240963868796825,-0.675788402557373
1671054543.59956074,103414348,1,0.7368322014808655,-0.019323695451021194,0.0034045707434415817,-0.6757908463478088
1671054543.63954282,103454330,1,0.7368826270103455,-0.019301380962133408,0.003383168950676918,-0.6757366061210632
1671054543.67956686,103494354,1,0.7369001507759094,-0.019326820969581604,0.003380807815119624,-0.6757168173789978
1671054543.71959877,103534386,1,0.7369375228881836,-0.01933245174586773,0.0033539547584950924,-0.6756759881973267
1671054543.73956895,103554356,1,0.7369476556777954,-0.01935429312288761,0.0033911089412868023,-0.6756641864776611
1671054543.75957584,103574363,1,0.73695307970047,-0.019325314089655876,0.003391954815015197,-0.6756591200828552
1671054543.79957294,103614360,1,0.7369863986968994,-0.019319603219628334,0.0033449302427470684,-0.6756231188774109
1671054543.83956194,103654349,1,0.7370404601097107,-0.019345784559845924,0.003300202079117298,-0.675563633441925
1671054543.87955880,103694346,1,0.7371782064437866,-0.01939125917851925,0.003276856616139412,-0.675412118434906
1671054543.91954780,103734335,1,0.7372697591781616,-0.019283050671219826,0.0032743520569056273,-0.6753153204917908
1671054543.93956494,103754352,1,0.7372139096260071,-0.019233742728829384,0.0032439683564007282,-0.6753778457641602
1671054543.95958996,103774377,1,0.7370827198028564,-0.01919485814869404,0.0032074120827019215,-0.6755222678184509
1671054543.99961686,103814404,1,0.736912727355957,-0.019247280433773994,0.0032038434874266386,-0.6757062077522278
1671054544.03953576,103854323,1,0.7370290160179138,-0.019197266548871994,0.003340712981298566,-0.6755801439285278
1671054544.07956576,103894353,1,0.7369822859764099,-0.01887991838157177,0.0030602840706706047,-0.6756414175033569
1671054544.11956787,103934355,1,0.7371858954429626,-0.018840676173567772,0.003058023750782013,-0.675420343875885
1671054544.13961077,103954398,1,0.7373058199882507,-0.01865576207637787,0.002874230733141303,-0.675295352935791
1671054544.15960193,103974389,1,0.7373046278953552,-0.018324704840779305,0.0027540598530322313,-0.6753062605857849
1671054544.19959784,104014385,1,0.7372111678123474,-0.01855129934847355,0.003098928602412343,-0.6754006147384644
1671054544.23959494,104054382,1,0.7369961142539978,-0.018349941819906235,0.002942329738289118,-0.6756414175033569
1671054544.27956295,104094350,1,0.7368911504745483,-0.01836804300546646,0.0030019774567335844,-0.6757551431655884
1671054544.31955695,104134344,1,0.7367528080940247,-0.018181541934609413,0.0030112273525446653,-0.6759109497070312
1671054544.33955693,104154344,1,0.7366514801979065,-0.018134819343686104,0.002892674645408988,-0.6760231852531433
1671054544.35956883,104174356,1,0.7365361452102661,-0.017932087182998657,0.002953068120405078,-0.6761540174484253
1671054544.39958191,104214369,1,0.7365614175796509,-0.01835465244948864,0.0028992420993745327,-0.6761153340339661
1671054544.43957090,104254358,1,0.7366043329238892,-0.01813141070306301,0.0027660049963742495,-0.6760752201080322
1671054544.47957873,104294366,1,0.7362784743309021,-0.018551740795373917,0.002991234650835395,-0.6764176487922668
1671054544.51956177,104334349,1,0.7362220883369446,-0.018318215385079384,0.0029850564897060394,-0.6764854788780212
1671054544.53959680,104354384,1,0.7358248829841614,-0.018417634069919586,0.002854794031009078,-0.6769153475761414
1671054544.55956197,104374349,1,0.7356759905815125,-0.01834363304078579,0.002850998193025589,-0.6770791411399841
1671054544.59955692,104414344,1,0.7355736494064331,-0.018093381077051163,0.002655862597748637,-0.6771978735923767
1671054544.63959885,104454386,1,0.7352682948112488,-0.018135227262973785,0.0030043935403227806,-0.6775268316268921
1671054544.67959690,104494384,1,0.7351782917976379,-0.018264897167682648,0.002964411396533251,-0.6776211857795715
1671054544.71958184,104534369,1,0.7351962924003601,-0.018092431128025055,0.002856561681255698,-0.6776067614555359
1671054544.73957396,104554361,1,0.7349957823753357,-0.01835162565112114,0.0029388107359409332,-0.6778169274330139
1671054544.75955987,104574347,1,0.734865128993988,-0.01837080903351307,0.0028364178724586964,-0.6779584884643555
1671054544.79957485,104614362,1,0.7349054217338562,-0.01815253682434559,0.0028540182393044233,-0.6779206395149231
1671054544.83959174,104654379,1,0.7345064878463745,-0.018232986330986023,0.0028300490230321884,-0.6783507466316223
1671054544.87959290,104694380,1,0.7343139052391052,-0.01827850565314293,0.0027808251325041056,-0.6785582304000854
1671054544.91959476,104734382,1,0.7341508865356445,-0.018263908103108406,0.0026879499200731516,-0.6787353754043579
1671054544.93957496,104754362,1,0.7340253591537476,-0.018421396613121033,0.0027432332281023264,-0.6788666248321533
1671054544.95959187,104774379,1,0.7339764833450317,-0.018318401649594307,0.002740631578490138,-0.6789222359657288
1671054544.99956179,104814349,1,0.73381507396698,-0.01809641160070896,0.002683765720576048,-0.6791029572486877
1671054545.03953791,104854325,1,0.7336958050727844,-0.018136249855160713,0.002699580043554306,-0.6792306900024414
1671054545.07959676,104894384,1,0.7336832284927368,-0.018101844936609268,0.002555297454819083,-0.6792457103729248
1671054545.11959791,104934385,1,0.7335193753242493,-0.01820085383951664,0.0027260812930762768,-0.6794193387031555
1671054545.13954186,104954329,1,0.7334689497947693,-0.01822902075946331,0.0028262229170650244,-0.6794725656509399
1671054545.15961194,104974399,1,0.7334074974060059,-0.018080374225974083,0.0027343258261680603,-0.6795433163642883
1671054545.19953394,105014321,1,0.7331795692443848,-0.01826082170009613,0.0026524346321821213,-0.6797847151756287
1671054545.23956490,105054352,1,0.7331424355506897,-0.01797335036098957,0.002489119302481413,-0.6798329949378967
1671054545.27956986,105094357,1,0.7327439188957214,-0.01813424751162529,0.0025623738765716553,-0.6802579760551453
1671054545.31958580,105134373,1,0.7328532338142395,-0.018108343705534935,0.0025606818962842226,-0.6801409125328064
1671054545.33956575,105154353,1,0.7327356934547424,-0.018050070852041245,0.002536296145990491,-0.6802692413330078
1671054545.35959387,105174381,1,0.732689380645752,-0.01807672530412674,0.0026229992508888245,-0.6803180575370789
1671054545.39958596,105214373,1,0.7326546311378479,-0.01826571673154831,0.002456808229908347,-0.6803510189056396
1671054545.43956280,105254350,1,0.7325589060783386,-0.017970938235521317,0.0024028669577091932,-0.680462121963501
1671054545.47956181,105294349,1,0.7323125004768372,-0.018044527620077133,0.002466771984472871,-0.6807251572608948
1671054545.51952887,105334316,1,0.7321485280990601,-0.01806607097387314,0.0023554267827421427,-0.6809013485908508
1671054545.53956175,105354349,1,0.7320477962493896,-0.01824217103421688,0.0025432100519537926,-0.6810042262077332
1671054545.55959988,105374387,1,0.7320535182952881,-0.01824435591697693,0.002504570409655571,-0.6809982061386108
1671054545.59957290,105414360,1,0.731866717338562,-0.018077638000249863,0.0026664549950510263,-0.68120276927948
1671054545.63958383,105454371,1,0.7316769361495972,-0.01825397089123726,0.0024963144678622484,-0.6814025640487671
1671054545.67956090,105494348,1,0.7316248416900635,-0.01809569075703621,0.0023847247939556837,-0.6814631223678589
1671054545.71954584,105534333,1,0.7313845753669739,-0.018077939748764038,0.002519208239391446,-0.6817209720611572
1671054545.73956895,105554356,1,0.7313108444213867,-0.018093105405569077,0.002426683437079191,-0.6817999482154846
1671054545.75960279,105574390,1,0.7312047481536865,-0.018206773325800896,0.002425470622256398,-0.6819107532501221
1671054545.79959273,105614380,1,0.7311623096466064,-0.018223701044917107,0.0024434442166239023,-0.6819556951522827
1671054545.83961487,105654402,1,0.7308512330055237,-0.01811404339969158,0.0023881345987319946,-0.6822922229766846
1671054545.87956595,105694353,1,0.7307313084602356,-0.017992515116930008,0.0021618492901325226,-0.6824246048927307
1671054545.91956496,105734352,1,0.7306011319160461,-0.01805143617093563,0.002285972237586975,-0.682561993598938
1671054545.93957591,105754363,1,0.7304750084877014,-0.017940208315849304,0.0023139314725995064,-0.6826997995376587
1671054545.95956373,105774351,1,0.7304065823554993,-0.017962517216801643,0.002379029057919979,-0.6827722191810608
1671054545.99960089,105814388,1,0.7302976250648499,-0.017998794093728065,0.002270178170874715,-0.6828881502151489
1671054546.03959775,105854385,1,0.730070948600769,-0.01795654371380806,0.002279302105307579,-0.6831315755844116
1671054546.07959580,105894383,1,0.7299902439117432,-0.017959754914045334,0.002322163200005889,-0.6832176446914673
1671054546.11956477,105934352,1,0.7297346591949463,-0.017837610095739365,0.0021430787164717913,-0.6834943890571594
1671054546.13959074,105954378,1,0.729708194732666,-0.017859818413853645,0.0021376418881118298,-0.68352210521698
1671054546.15956187,105974349,1,0.7295452952384949,-0.017890283837914467,0.002191390609368682,-0.6836949586868286
1671054546.19956493,106014352,1,0.729343593120575,-0.017929652705788612,0.0022399297449737787,-0.6839089393615723
1671054546.23959875,106054386,1,0.7291477918624878,-0.017765747383236885,0.0022753195371478796,-0.68412184715271
1671054546.27958775,106094375,1,0.7289102673530579,-0.017736531794071198,0.0021252406295388937,-0.6843761801719666
1671054546.31959796,106134385,1,0.7286279201507568,-0.017686935141682625,0.0021102395839989185,-0.6846780776977539
1671054546.33961582,106154403,1,0.7287018299102783,-0.017619160935282707,0.002188831800594926,-0.6846008896827698
1671054546.35956573,106174353,1,0.7284842133522034,-0.017678482457995415,0.0021639964543282986,-0.6848310232162476
1671054546.39955783,106214345,1,0.7282771468162537,-0.017691271379590034,0.0021909791976213455,-0.6850508451461792
1671054546.43956280,106254350,1,0.7280235886573792,-0.01765286922454834,0.0021243973169475794,-0.6853214502334595
1671054546.47958994,106294377,1,0.727769136428833,-0.01751350238919258,0.00202348199672997,-0.6855955719947815
1671054546.51960993,106334397,1,0.7275409698486328,-0.017623411491513252,0.0020788453985005617,-0.6858346462249756
1671054546.53956985,106354357,1,0.7274762988090515,-0.0175250843167305,0.0020946920849382877,-0.6859057545661926
1671054546.55953693,106374324,1,0.7273336052894592,-0.017586372792720795,0.0019744590390473604,-0.6860558390617371
1671054546.59956789,106414355,1,0.7270224094390869,-0.017496678978204727,0.002013727091252804,-0.6863877773284912
1671054546.63957286,106454360,1,0.7267079949378967,-0.017487945035099983,0.002153078094124794,-0.6867204904556274
1671054546.67957091,106494358,1,0.7264358997344971,-0.01725321263074875,0.002117950702086091,-0.6870143413543701
1671054546.71959186,106534379,1,0.7261472940444946,-0.017202207818627357,0.0020888964645564556,-0.6873207092285156
1671054546.73956895,106554356,1,0.7260830402374268,-0.01708141900599003,0.001974505838006735,-0.687391996383667
1671054546.75959873,106574386,1,0.7259072065353394,-0.017026720568537712,0.002048311522230506,-0.6875787973403931
1671054546.79958797,106614375,1,0.7256478071212769,-0.017257576808333397,0.002682870253920555,-0.6878446340560913
1671054546.83956695,106654354,1,0.7253593802452087,-0.01719762198626995,0.0026075432542711496,-0.6881505846977234
1671054546.87956095,106694348,1,0.7250463962554932,-0.016655368730425835,0.002266285941004753,-0.688494861125946
1671054546.91960096,106734388,1,0.7246769070625305,-0.01636376418173313,0.00219689030200243,-0.6888909339904785
1671054546.93956089,106754348,1,0.7245579361915588,-0.016376229003071785,0.0025983538944274187,-0.6890144348144531
1671054546.95958591,106774373,1,0.7243499159812927,-0.01654343120753765,0.0028602692764252424,-0.6892280578613281
1671054546.99959373,106814381,1,0.7240146398544312,-0.016261598095297813,0.003000121796503663,-0.689586341381073
1671054547.03958774,106854375,1,0.7236686944961548,-0.015964724123477936,0.0031015598215162754,-0.6899558901786804
1671054547.07956076,106894348,1,0.7233032584190369,-0.01543376874178648,0.0030216576997190714,-0.6903514266014099
1671054547.11958480,106934372,1,0.7229459881782532,-0.014470375142991543,0.0030819482635706663,-0.6907461285591125
1671054547.13958573,106954373,1,0.7227604389190674,-0.014568472281098366,0.0035149671602994204,-0.6909361481666565
1671054547.15959287,106974380,1,0.7227856516838074,-0.014240553602576256,0.0035801210906356573,-0.6909162402153015
1671054547.19957876,107014366,1,0.7226499319076538,-0.013602467253804207,0.004236991051584482,-0.6910673975944519
1671054547.23960280,107054390,1,0.7225251197814941,-0.012134009040892124,0.00438038120046258,-0.6912242770195007
1671054547.27956796,107094355,1,0.7227320671081543,-0.010060301050543785,0.004240571986883879,-0.6910421252250671
1671054547.31956387,107134351,1,0.7227809429168701,-0.007665602024644613,0.004458609502762556,-0.6910202503204346
1671054547.33957982,107154367,1,0.7230092883110046,-0.005053356755524874,0.0032860024366527796,-0.6908119916915894
1671054547.35958791,107174375,1,0.723309338092804,-0.0029051927849650383,0.002292748773470521,-0.6905142664909363
1671054547.39959097,107214378,1,0.7238654494285583,0.002560763154178858,4.8881032853387296e-05,-0.6899364590644836
1671054547.43959880,107254386,1,0.7241201400756836,0.006175771821290255,-0.00022989828721620142,-0.6896461844444275
1671054547.47953391,107294321,1,0.7245704531669617,0.00958922691643238,-0.002069776179268956,-0.6891309022903442
1671054547.51954889,107334336,1,0.7250617742538452,0.014178979210555553,-0.006194685120135546,-0.688510000705719
1671054547.53958488,107354372,1,0.7253756523132324,0.015256684273481369,-0.007775417994707823,-0.6881402134895325
1671054547.55957174,107374359,1,0.725580096244812,0.016159599646925926,-0.009491009637713432,-0.6878824830055237
1671054547.59953380,107414321,1,0.7260139584541321,0.018481280654668808,-0.013157831504940987,-0.6873056292533875
1671054547.63958788,107454375,1,0.7265380024909973,0.019145049154758453,-0.01641027070581913,-0.6866634488105774
1671054547.67958975,107494377,1,0.7270998358726501,0.01994531787931919,-0.02012772113084793,-0.6859467625617981
1671054547.71956587,107534353,1,0.7277067303657532,0.018226778134703636,-0.021893326193094254,-0.6852965950965881
1671054547.73960280,107554390,1,0.7278384566307068,0.015884902328252792,-0.022311879321932793,-0.6852014064788818
1671054547.75956893,107574356,1,0.7281882762908936,0.014096825383603573,-0.023667579516768456,-0.6848233342170715
1671054547.79956579,107614353,1,0.7286065220832825,0.008429138921201229,-0.02766990289092064,-0.6843214631080627
1671054547.83958793,107654375,1,0.7288945913314819,0.0012888567289337516,-0.03358621522784233,-0.6838003993034363
1671054547.87956977,107694357,1,0.7293140292167664,-0.006532150786370039,-0.04087429493665695,-0.682925820350647
1671054547.91959691,107734384,1,0.7295496463775635,-0.013317099772393703,-0.04625425487756729,-0.6822320222854614
1671054547.93960285,107754390,1,0.7298179864883423,-0.015355775132775307,-0.04765922203660011,-0.6818053126335144
1671054547.95956182,107774349,1,0.7300773859024048,-0.016612792387604713,-0.048304859548807144,-0.6814525723457336
1671054547.99955988,107814347,1,0.730760395526886,-0.017208270728588104,-0.045617833733558655,-0.6808907389640808
1671054548.03957582,107854363,1,0.7315542697906494,-0.015179554931819439,-0.03962662070989609,-0.6804613471031189
1671054548.07959080,107894378,1,0.7325190901756287,-0.01061286125332117,-0.03275209665298462,-0.6798753142356873
1671054548.11957288,107934360,1,0.7331973314285278,-0.007824241183698177,-0.02288610115647316,-0.6795856952667236
1671054548.13956785,107954355,1,0.733709454536438,-0.004946701228618622,-0.019369786605238914,-0.679169237613678
1671054548.15960479,107974392,1,0.7339811325073242,-0.003278586780652404,-0.015517636202275753,-0.6789847016334534
1671054548.19955993,108014347,1,0.7346911430358887,-0.0012357369996607304,-0.008114466443657875,-0.6783520579338074
1671054548.23956585,108054353,1,0.7353183627128601,0.0007078821654431522,-0.0027594338171184063,-0.6777158379554749
1671054548.27959275,108094380,1,0.7358800172805786,0.0018087534699589014,0.001029792707413435,-0.6771087050437927
1671054548.31959891,108134386,1,0.7364672422409058,0.002847847295925021,0.0030207582749426365,-0.6764605045318604
1671054548.33955979,108154347,1,0.7367355823516846,0.0033656591549515724,0.003531885799020529,-0.676163375377655
1671054548.35956478,108174352,1,0.7370549440383911,0.003409726545214653,0.004204922821372747,-0.6758111119270325
1671054548.39954782,108214335,1,0.24356073141098022,-0.01106721069663763,0.007255998905748129,-0.9697953462600708
1671054548.43956375,108254351,1,0.2443905919790268,-0.012157824821770191,0.006456172559410334,-0.9695791602134705
1671054548.47957277,108294360,1,0.24523770809173584,-0.014963849447667599,0.005126100964844227,-0.9693339467048645
1671054548.51957083,108334358,1,0.2457623928785324,-0.019519727677106857,0.00296361418440938,-0.9691290259361267
1671054548.53957081,108354358,1,0.24594910442829132,-0.021861480548977852,0.002187866484746337,-0.9690337181091309
1671054548.55959177,108374379,1,0.24615690112113953,-0.02435937523841858,0.001179780694656074,-0.9689230918884277
1671054548.59958291,108414370,1,0.2463117390871048,-0.02839748002588749,-0.00032376006129197776,-0.9687744975090027
1671054548.63956594,108454353,1,0.24612011015415192,-0.03034958988428116,-0.001898926217108965,-0.968762218952179
1671054548.67955995,108494347,1,0.24591270089149475,-0.0304079782217741,-0.002199413487687707,-0.9688124060630798
1671054548.71956277,108534350,1,0.24457766115665436,-0.028514010831713676,-0.002569141797721386,-0.9692069292068481
1671054548.73959780,108554385,1,0.24384792149066925,-0.026885533705353737,-0.002543229144066572,-0.9694374203681946
1671054548.75961185,108574399,1,0.24305157363414764,-0.02516896277666092,-0.00247937417589128,-0.9696835875511169
1671054548.79959178,108614379,1,0.2410653978586197,-0.02174161747097969,-0.002119052456691861,-0.9702630043029785
1671054548.83960080,108654388,1,0.23830923438072205,-0.01885751634836197,-0.0013638944365084171,-0.9710052609443665
1671054548.87956190,108694349,1,0.2356245219707489,-0.016826121136546135,-0.0010698281694203615,-0.9716979265213013
1671054548.91954994,108734337,1,0.2334778904914856,-0.016491010785102844,-0.0007030460401438177,-0.9722220301628113
1671054548.93959689,108754384,1,0.23242394626140594,-0.01636061817407608,-0.0009726079297251999,-0.9724764823913574
1671054548.95957375,108774361,1,0.23155350983142853,-0.016768382862210274,-0.0008408628054894507,-0.9726772904396057
1671054548.99959683,108814384,1,0.22982098162174225,-0.017137043178081512,-0.0015357243828475475,-0.9730808138847351
1671054549.03959394,108854381,1,0.22853043675422668,-0.017600927501916885,-0.0016655249055474997,-0.9733762145042419
1671054549.07955575,108894343,1,0.22753633558750153,-0.017375487834215164,-0.0018748503644019365,-0.9736127257347107
1671054549.11955976,108934347,1,0.2265627235174179,-0.016596276313066483,-0.002631730865687132,-0.9738516211509705
1671054549.13959479,108954382,1,0.22627750039100647,-0.01632177084684372,-0.002116523217409849,-0.9739238023757935
1671054549.15956473,108974352,1,0.2259674072265625,-0.016113150864839554,-0.0020527972374111414,-0.9739994406700134
1671054549.19958997,109014377,1,0.22555787861347198,-0.015854500234127045,-0.002048400230705738,-0.9740986227989197
1671054549.23961687,109054404,1,0.22507904469966888,-0.016410255804657936,-0.0025782324373722076,-0.9741988778114319
1671054549.27962589,109094413,1,0.22487269341945648,-0.0181961040943861,-0.00254549877718091,-0.9742149114608765
1671054549.31954074,109134328,1,0.22450591623783112,-0.0206440482288599,-0.003086680779233575,-0.9742491245269775
1671054549.33959675,109154384,1,0.2242674082517624,-0.022043833509087563,-0.00309047126211226,-0.9742733836174011
1671054549.35957193,109174359,1,0.22415490448474884,-0.023131372407078743,-0.0035171026829630136,-0.974272608757019
1671054549.39956379,109214351,1,0.22411762177944183,-0.025102825835347176,-0.0037338410038501024,-0.9742316007614136
1671054549.43958783,109254375,1,0.22417351603507996,-0.02518421970307827,-0.004030874464660883,-0.9742154479026794
1671054549.47958779,109294375,1,0.22422119975090027,-0.024027962237596512,-0.003189548384398222,-0.974236786365509
1671054549.51959276,109334380,1,0.2242516577243805,-0.021471476182341576,-0.0027140635065734386,-0.9742909073829651
1671054549.53953791,109354325,1,0.22428548336029053,-0.020038152113556862,-0.002134801121428609,-0.9743151068687439
1671054549.55957174,109374359,1,0.22419841587543488,-0.018553271889686584,-0.0023259692825376987,-0.9743641018867493
1671054549.59956884,109414356,1,0.22398099303245544,-0.016076648607850075,-0.0009886835468932986,-0.9744604229927063
1671054549.63956475,109454352,1,0.22326315939426422,-0.013942917808890343,-0.0006977178272791207,-0.9746582508087158
1671054549.67959881,109494386,1,0.2223903089761734,-0.012232652865350246,-3.679507062770426e-05,-0.9748809933662415
1671054549.71956897,109534356,1,0.2215941995382309,-0.010618757456541061,0.0005884169368073344,-0.9750809669494629
1671054549.73957992,109554367,1,0.22104160487651825,-0.009454429149627686,0.0013036173768341541,-0.9752177000045776
1671054549.75960374,109574391,1,0.22061695158481598,-0.008352288044989109,0.0022574213799089193,-0.9753221273422241
1671054549.79956293,109614350,1,0.21940504014492035,-0.005797482095658779,0.004780151881277561,-0.9756049513816833
1671054549.83954477,109654332,1,0.21828894317150116,-0.003261113539338112,0.00874343141913414,-0.9758395552635193
1671054549.87955284,109694340,1,0.21706053614616394,-0.0009796778904274106,0.012842049822211266,-0.9760732054710388
1671054549.91960883,109734396,1,0.21552105247974396,0.0004878730687778443,0.01594923436641693,-0.97636878490448
1671054549.93955994,109754347,1,0.21470695734024048,0.0009171348647214472,0.017401106655597687,-0.9765230417251587
1671054549.95959878,109774386,1,0.2139493227005005,0.0012409952469170094,0.018436064943671227,-0.97666996717453
1671054549.99957085,109814358,1,0.2123069316148758,0.0015993339475244284,0.019323810935020447,-0.9770106673240662
1671054550.03956175,109854349,1,0.2105589210987091,0.0015174525324255228,0.01923563703894615,-0.977390706539154
1671054550.07956290,109894350,1,0.20887058973312378,0.00127099035307765,0.01793840155005455,-0.9777779579162598
1671054550.11960483,109934392,1,0.2069975882768631,0.000602058251388371,0.01614117994904518,-0.9782081246376038
1671054550.13957095,109954358,1,0.20598238706588745,0.00015400603297166526,0.015070346184074879,-0.9784396290779114
1671054550.15960288,109974390,1,0.2050858438014984,-0.0004976487252861261,0.013450168073177338,-0.9786514639854431
1671054550.19960093,110014388,1,0.20316243171691895,-0.003505907254293561,0.010869150049984455,-0.979078471660614
1671054550.23956490,110054352,1,0.20124784111976624,-0.007488947361707687,0.006213343236595392,-0.9794920086860657
1671054550.27956295,110094350,1,0.1994580626487732,-0.012572681531310081,0.0022985050454735756,-0.9798229932785034
1671054550.31954694,110134334,1,0.19734293222427368,-0.016735773533582687,-0.001547974068671465,-0.9801904559135437
1671054550.33958077,110154368,1,0.19640156626701355,-0.01779266819357872,-0.003848831169307232,-0.9803545475006104
1671054550.35959697,110174384,1,0.19533951580524445,-0.01902811974287033,-0.005129113793373108,-0.9805376529693604
1671054550.39959192,110214379,1,0.19341765344142914,-0.020170465111732483,-0.006827704608440399,-0.98088538646698
1671054550.43957281,110254360,1,0.19160005450248718,-0.01978887990117073,-0.008392675779759884,-0.9812376499176025
1671054550.47956681,110294354,1,0.18989723920822144,-0.018956495448946953,-0.008393635042011738,-0.9815850853919983
1671054550.51955891,110334346,1,0.18787558376789093,-0.016872258856892586,-0.008608042262494564,-0.9820101857185364
1671054550.53959274,110354380,1,0.18701834976673126,-0.015950020402669907,-0.00819123350083828,-0.9821927547454834
1671054550.55956292,110374350,1,0.18615587055683136,-0.01487484946846962,-0.007579609751701355,-0.982378363609314
1671054550.59959984,110414387,1,0.1843910813331604,-0.012636332772672176,-0.007391913793981075,-0.9827439188957214
1671054550.63958192,110454369,1,0.18280841410160065,-0.010821959935128689,-0.006472230423241854,-0.9830676913261414
1671054550.67958975,110494377,1,0.1814759522676468,-0.00892829243093729,-0.006338123232126236,-0.9833344221115112
1671054550.71955991,110534347,1,0.18032586574554443,-0.007394555956125259,-0.005005658138543367,-0.983566403388977
1671054550.73959374,110554381,1,0.17978383600711823,-0.006249344442039728,-0.005755684804171324,-0.9836694598197937
1671054550.75955486,110574342,1,0.1793670803308487,-0.005599840544164181,-0.004860117565840483,-0.9837542772293091
1671054550.79961491,110614402,1,0.1785784512758255,-0.004287309478968382,-0.004506735596805811,-0.9839060306549072
1671054550.83960080,110654388,1,0.17798909544944763,-0.003223604755476117,-0.0043759532272815704,-0.9840174317359924
1671054550.87958980,110694377,1,0.17761527001857758,-0.002360518090426922,-0.004407876171171665,-0.9840872883796692
1671054550.91953278,110734320,1,0.17741762101650238,-0.001807685592211783,-0.003303825156763196,-0.984128475189209
1671054550.93959379,110754381,1,0.17733891308307648,-0.001168160350061953,-0.003967608790844679,-0.9841411709785461
1671054550.95956087,110774348,1,0.17733588814735413,-0.0008958675316534936,-0.00414611678570509,-0.9841412305831909
1671054550.99956679,110814354,1,0.17735935747623444,-0.0002096738899126649,-0.003034331602975726,-0.98414146900177
1671054551.03958297,110854370,1,0.17761600017547607,0.0002769573184195906,-0.002664105035364628,-0.9840962290763855
1671054551.07957387,110894361,1,0.17768605053424835,0.0007669955375604331,-0.002274362836033106,-0.9840843081474304
1671054551.11959481,110934382,1,0.17795442044734955,0.0009113141568377614,-0.0018954178085550666,-0.9840365052223206
1671054551.13956189,110954349,1,0.1781788021326065,0.0011477748630568385,-0.0018547255313023925,-0.9839957356452942
1671054551.15957689,110974364,1,0.17830497026443481,0.001053579500876367,-0.00118930172175169,-0.9839739799499512
1671054551.19957495,111014362,1,0.17873923480510712,0.0011789764976128936,-0.0011686594225466251,-0.9838950634002686
1671054551.23953891,111054326,1,0.17920508980751038,0.0009644803358241916,-0.0009059894946403801,-0.9838108420372009
1671054551.27960181,111094389,1,0.17954608798027039,0.0009151766425929964,-0.0007647779420949519,-0.9837488532066345
1671054551.31959176,111134379,1,0.1799841672182083,0.0007811038522049785,-0.0008280577603727579,-0.983668863773346
1671054551.33956981,111154357,1,0.18018566071987152,0.0006131327827461064,-0.00027016218518838286,-0.9836323857307434
1671054551.35957289,111174360,1,0.1803918331861496,0.0004528122954070568,-0.00043783843284472823,-0.9835946559906006
1671054551.39956474,111214352,1,0.18083302676677704,0.0006668142159469426,-0.0024740430526435375,-0.9835104942321777
1671054551.43956184,111254349,1,0.18123595416545868,0.0011145174503326416,-0.006460109259933233,-0.983417809009552
1671054551.47956276,111294350,1,0.1816263496875763,0.0017385614337399602,-0.011887199245393276,-0.9832942485809326
1671054551.51959491,111334382,1,0.18202254176139832,0.0025985052343457937,-0.017884761095046997,-0.9831282496452332
1671054551.53956175,111354349,1,0.18218517303466797,0.002921104896813631,-0.021199099719524384,-0.9830313324928284
1671054551.55956793,111374355,1,0.18237300217151642,0.0032438328489661217,-0.023176021873950958,-0.9829508662223816
1671054551.59958386,111414371,1,0.1827458292245865,0.004079663660377264,-0.028768742457032204,-0.9827307462692261
1671054551.63956785,111454355,1,0.18310730159282684,0.004414100665599108,-0.031182140111923218,-0.9825883507728577
1671054551.67956686,111494354,1,0.1834956556558609,0.0044426037929952145,-0.03243989124894142,-0.9824750423431396
1671054551.71960092,111534388,1,0.18392208218574524,0.004500559065490961,-0.03217948228120804,-0.9824036359786987
1671054551.73956180,111554349,1,0.18398694694042206,0.004326907452195883,-0.031088925898075104,-0.9824273586273193
1671054551.75960183,111574389,1,0.18413902819156647,0.004120354540646076,-0.030565543100237846,-0.9824162125587463
1671054551.79960680,111614394,1,0.18452982604503632,0.00379735603928566,-0.028239276260137558,-0.9824137687683105
1671054551.83954597,111654333,1,0.18506917357444763,0.0036350556183606386,-0.026445070281624794,-0.9823628664016724
1671054551.87956595,111694353,1,0.18541978299617767,0.0030055921524763107,-0.023704173043370247,-0.9823688864707947
1671054551.91956878,111734356,1,0.18607665598392487,0.002626614412292838,-0.021389856934547424,-0.9822988510131836
1671054551.93958783,111754375,1,0.18640567362308502,0.002363605424761772,-0.019522039219737053,-0.9822760224342346
1671054551.95959783,111774385,1,0.1867838352918625,0.001891052583232522,-0.017593875527381897,-0.9822416305541992
1671054551.99959373,111814381,1,0.1874701976776123,0.001143190311267972,-0.013328050263226032,-0.9821792244911194
1671054552.03959990,111854387,1,0.188136026263237,0.00019790165242739022,-0.007945451885461807,-0.9821107983589172
1671054552.07955384,111894341,1,0.18896383047103882,-0.0009104413911700249,-0.0026105402503162622,-0.9819801449775696
1671054552.11956477,111934352,1,0.18977312743663788,-0.0015881081344559789,0.000794718973338604,-0.9818263649940491
1671054552.13961697,111954404,1,0.19005189836025238,-0.0021386018488556147,0.0028720488771796227,-0.9817675352096558
1671054552.15956688,111974354,1,0.19052532315254211,-0.001991319004446268,0.003104700706899166,-0.9816753268241882
1671054552.19956684,112014354,1,0.1911020576953888,-0.0026277313008904457,0.0056851524859666824,-0.9815502166748047
1671054552.23959184,112054379,1,0.19192923605442047,-0.00272284890525043,0.0063529848121106625,-0.9813844561576843
1671054552.27958488,112094372,1,0.19290569424629211,-0.0025895859580487013,0.005704337731003761,-0.9811972975730896
1671054552.31956792,112134355,1,0.1934322863817215,-0.00254936539568007,0.005400274880230427,-0.9810954332351685
1671054552.33958793,112154375,1,0.1938694715499878,-0.002625097054988146,0.005503406282514334,-0.9810084104537964
1671054552.35957575,112174363,1,0.19407789409160614,-0.0025992244482040405,0.0057892343029379845,-0.9809656143188477
1671054552.39956379,112214351,1,0.19463203847408295,-0.0023427270352840424,0.004614423960447311,-0.9808626770973206
1671054552.43959975,112254387,1,0.19505271315574646,-0.002321425126865506,0.00507285725325346,-0.9807769060134888
1671054552.47956085,112294348,1,0.19554385542869568,-0.001904569915495813,0.004301108885556459,-0.9806836843490601
1671054552.51958680,112334374,1,0.19584636390209198,-0.0020988211035728455,0.004317281302064657,-0.9806228280067444
1671054552.53958988,112354377,1,0.19596554338932037,-0.0016406660433858633,0.003702497575432062,-0.9806024432182312
1671054552.55955887,112374346,1,0.1960638016462326,-0.0020206684712320566,0.004353999625891447,-0.9805793762207031
1671054552.59956288,112414350,1,0.19620126485824585,-0.0014875815249979496,0.0030976440757513046,-0.9805576205253601
1671054552.63959479,112454382,1,0.19646111130714417,-0.002065381035208702,0.003889399813488126,-0.9805017113685608
1671054552.67960477,112494392,1,0.1965506225824356,-0.001746538793668151,0.003333951346576214,-0.9804864525794983
1671054552.71954489,112534332,1,0.1965423822402954,-0.0018620206974446774,0.003278017044067383,-0.9804880619049072
1671054552.73956275,112554350,1,0.19660092890262604,-0.0018512007081881166,0.0034300931729376316,-0.9804758429527283
1671054552.75955176,112574339,1,0.19659359753131866,-0.0019565727561712265,0.0030165300704538822,-0.9804784655570984
1671054552.79956889,112614356,1,0.19657109677791595,-0.0022226220462471247,0.004196833353489637,-0.980478048324585
1671054552.83956194,112654349,1,0.19664087891578674,-0.0020638159476220608,0.0036285510286688805,-0.9804667234420776
1671054552.87959075,112694378,1,0.19653183221817017,-0.001555312192067504,0.0028160603251308203,-0.9804921746253967
1671054552.91959381,112734381,1,0.19635047018527985,-9.673352906247601e-05,0.004520864691585302,-0.9805233478546143
1671054552.93955588,112754343,1,0.19638872146606445,0.0012575620785355568,0.004119992256164551,-0.9805166721343994
1671054552.95959973,112774387,1,0.19630905985832214,0.003333089640364051,0.003177874954417348,-0.9805312752723694
1671054552.99954081,112814328,1,0.196253702044487,0.0072676255367696285,0.004442201927304268,-0.9805161356925964
1671054553.03956294,112854350,1,0.19586874544620514,0.012115835212171078,0.0037940486799925566,-0.9805479049682617
1671054553.07956481,112894352,1,0.19584378600120544,0.01557658240199089,0.005490208510309458,-0.9804959893226624
1671054553.11959696,112934384,1,0.19582869112491608,0.01842990145087242,0.005298629403114319,-0.9804506301879883
1671054553.13956189,112954349,1,0.19558635354042053,0.01930597797036171,0.00573823694139719,-0.9804796576499939
1671054553.15958595,112974373,1,0.19557484984397888,0.01978020928800106,0.006291964557021856,-0.9804691076278687
1671054553.19958091,113014368,1,0.19534705579280853,0.02021440677344799,0.0055121066980063915,-0.9805103540420532
1671054553.23956180,113054349,1,0.19537128508090973,0.018806980922818184,0.00538462121039629,-0.9805341958999634
1671054553.27958679,113094374,1,0.19549627602100372,0.016319507732987404,0.0043115089647471905,-0.9805591702461243
1671054553.31957293,113134360,1,0.1956617832183838,0.012643846683204174,0.002292279154062271,-0.9805872440338135
1671054553.33957195,113154359,1,0.19562101364135742,0.010733497329056263,0.0004920822684653103,-0.9806206822395325
1671054553.35960174,113174389,1,0.19585292041301727,0.008465705439448357,-0.0008071998599916697,-0.9805964231491089
1671054553.39958882,113214376,1,0.1959197223186493,0.005386174190789461,-0.006628093775361776,-0.9805827736854553
1671054553.43955994,113254347,1,0.19603277742862701,0.002266994211822748,-0.0109188761562109,-0.9805339574813843
1671054553.47956085,113294348,1,0.1963009387254715,0.00048008476733230054,-0.0162136722356081,-0.9804095029830933
1671054553.51956582,113334353,1,0.1966080218553543,-0.0003744811983779073,-0.019055135548114777,-0.9802969098091125
1671054553.53959489,113354382,1,0.1966022551059723,-0.0007087065605446696,-0.0203656367957592,-0.9802715182304382
1671054553.55959892,113374386,1,0.19679607450962067,-0.0004677412798628211,-0.021526705473661423,-0.9802079796791077
1671054553.59960175,113414389,1,0.19698607921600342,-0.0008697160519659519,-0.020848656073212624,-0.9801841974258423
1671054553.63958883,113454376,1,0.1972980797290802,-0.0012030962388962507,-0.018034715205430984,-0.9801769256591797
1671054553.67957091,113494358,1,0.19765755534172058,-0.0015835874946787953,-0.01543350424617529,-0.9801483750343323
1671054553.71957088,113534358,1,0.1978486329317093,-0.0021617275197058916,-0.010416308417916298,-0.9801748394966125
1671054553.73960376,113554391,1,0.19800253212451935,-0.002493390114977956,-0.008768820203840733,-0.9801591038703918
1671054553.75956488,113574352,1,0.198026642203331,-0.0025403485633432865,-0.007306219544261694,-0.9801661372184753
1671054553.79959679,113614384,1,0.19834807515144348,-0.0028895214200019836,-0.00443683285266161,-0.9801173210144043
1671054553.83959389,113654381,1,0.19888117909431458,-0.0034804483875632286,-0.0013494213344529271,-0.9800165295600891
1671054553.87958074,113694368,1,0.19932961463928223,-0.0031241141259670258,-0.001078721135854721,-0.9799269437789917
1671054553.91954780,113734335,1,0.19980670511722565,-0.003314307890832424,0.0013925887178629637,-0.9798287153244019
1671054553.93961978,113754407,1,0.19988951086997986,-0.002784870332106948,0.0007859606994315982,-0.9798141717910767
1671054553.95954490,113774332,1,0.20015215873718262,-0.0025986721739172935,0.0005713055143132806,-0.9797612428665161
1671054553.99956679,113814354,1,0.2004762440919876,-0.002355436561629176,0.0016088358825072646,-0.9796944260597229
1671054554.03959775,113854385,1,0.20098523795604706,-0.00222258479334414,0.0015080053126439452,-0.9795905947685242
1671054554.07957888,113894366,1,0.20131999254226685,-0.0018472532974556088,0.0021069778595119715,-0.9795215129852295
1671054554.11959386,113934381,1,0.20186391472816467,-0.001774705946445465,0.0018909304635599256,-0.9794101715087891
1671054554.13955688,113954344,1,0.20188459753990173,-0.0016189656453207135,0.0020433785393834114,-0.9794058203697205
1671054554.15956187,113974349,1,0.20212794840335846,-0.001644754782319069,0.002649639965966344,-0.9793541431427002
1671054554.19957495,114014362,1,0.2022770494222641,-0.0011496726656332612,0.0010211780900135636,-0.9793271422386169
1671054554.23956394,114054351,1,0.20236022770404816,-0.0010669095208868384,0.0010613841004669666,-0.9793099761009216
1671054554.27959085,114094378,1,0.20262451469898224,-0.0010391471441835165,0.0012526187347248197,-0.9792551398277283
1671054554.31961584,114134403,1,0.20277801156044006,-0.0005098686669953167,0.0007399377645924687,-0.9792243242263794
1671054554.33956790,114154355,1,0.20267467200756073,-0.0006113643757998943,0.00038947814027778804,-0.9792458415031433
1671054554.35959888,114174386,1,0.20288874208927155,-0.0007848051027394831,0.0008176358533091843,-0.9792011380195618
1671054554.39959383,114214381,1,0.20265671610832214,-0.000674702983815223,0.0010750009678304195,-0.9792490005493164
1671054554.43956089,114254348,1,0.20271062850952148,-0.0009354502544738352,0.0012291972525417805,-0.97923743724823
1671054554.47960782,114294395,1,0.20293109118938446,-0.000726239406503737,0.0007915238966234028,-0.9791924357414246
1671054554.51959777,114334385,1,0.2028014212846756,-0.0008485749713145196,0.0010201061377301812,-0.9792189598083496
1671054554.53955674,114354344,1,0.2027149796485901,-0.0006554967840202153,0.0001089202705770731,-0.9792375564575195
1671054554.55959177,114374379,1,0.20272184908390045,-0.000641306338366121,0.00015172538405749947,-0.9792361259460449
1671054554.59956193,114414349,1,0.20259089767932892,-0.0006552883423864841,0.00016498735931236297,-0.9792632460594177
1671054554.63956285,114454350,1,0.2026405781507492,-0.0007578895310871303,0.0003651416045613587,-0.979252815246582
1671054554.67958975,114494377,1,0.20273391902446747,-0.0005536277894861996,0.00026956936926580966,-0.9792336821556091
1671054554.71957374,114534361,1,0.20253178477287292,-0.00039237033342942595,0.0007090180879458785,-0.9792753458023071
1671054554.73956180,114554349,1,0.2026473730802536,-0.0003232177987229079,-5.486125883180648e-05,-0.9792517423629761
1671054554.75958276,114574370,1,0.202538400888443,-0.0007393166306428611,0.0009529231465421617,-0.9792735576629639
1671054554.79958582,114614373,1,0.20256999135017395,-0.0003480587911326438,0.00040836079278960824,-0.9792676568031311
1671054554.83956885,114654356,1,0.20263035595417023,-0.00048797106137499213,0.0004984104307368398,-0.9792550206184387
1671054554.87953997,114694327,1,0.20255881547927856,-0.0006958073354326189,0.0007871054694987833,-0.9792695641517639
1671054554.91956687,114734354,1,0.2026544213294983,-0.0006646389374509454,0.0010037722531706095,-0.9792495965957642
1671054554.93955684,114754344,1,0.2026045173406601,-0.0006775302463211119,0.0006633437587879598,-0.9792602062225342
1671054554.95959687,114774384,1,0.2027299404144287,-0.0005833023460581899,0.0004376099386718124,-0.9792343974113464
1671054554.99956489,114814352,1,0.20260876417160034,-0.0007195580401457846,0.0006980142206884921,-0.9792592525482178
1671054555.03960490,114854392,1,0.2027733325958252,-0.0009551316616125405,0.0009306170977652073,-0.9792248010635376
1671054555.07958794,114894375,1,0.20291194319725037,-0.0008787504048086703,0.000696937320753932,-0.9791963696479797
1671054555.11956477,114934352,1,0.20290319621562958,-0.0008501685806550086,0.001241482445038855,-0.97919762134552
1671054555.13959289,114954380,1,0.2031051516532898,-0.0008529734332114458,0.0012276478810235858,-0.9791557788848877
1671054555.15953493,114974322,1,0.2031065672636032,-0.0006025533657521009,0.0012039216235280037,-0.9791557192802429
1671054555.19961381,115014401,1,0.20322224497795105,-0.0009067320497706532,0.002098143333569169,-0.9791299700737
1671054555.23954296,115054330,1,0.2032822221517563,-0.0009603282669559121,0.002368711866438389,-0.9791168570518494
1671054555.27956486,115094352,1,0.20349664986133575,-0.0011854113545268774,0.002582504414021969,-0.9790714979171753
1671054555.31956196,115134349,1,0.203602135181427,-0.0014326731907203794,0.003399045905098319,-0.9790467619895935
1671054555.33959675,115154384,1,0.20366737246513367,-0.0012564270291477442,0.002376395044848323,-0.9790364503860474
1671054555.35957074,115174358,1,0.20369912683963776,-0.0012251260923221707,0.0020119142718613148,-0.9790307283401489
1671054555.39958692,115214374,1,0.20375090837478638,-0.001505198422819376,0.0028664101846516132,-0.979017436504364
1671054555.43958473,115254372,1,0.2039196938276291,-0.0015966488281264901,0.002755004446953535,-0.9789824485778809
1671054555.47959375,115294381,1,0.20396916568279266,-0.0019348765490576625,0.0026887506246566772,-0.9789717197418213
1671054555.51957083,115334358,1,0.20406845211982727,-0.002020536921918392,0.0033889978658407927,-0.9789486527442932
1671054555.53957987,115354367,1,0.20401112735271454,-0.002155713504180312,0.0033093602396547794,-0.9789606332778931
1671054555.55956197,115374349,1,0.20411182940006256,-0.0016260643023997545,0.0022715660743415356,-0.9789435863494873
1671054555.59956884,115414356,1,0.20407600700855255,-0.002388662425801158,0.003909542690962553,-0.9789443016052246
1671054555.63959575,115454383,1,0.20416700839996338,-0.0020665228366851807,0.0029437507037073374,-0.9789294600486755
1671054555.67958188,115494369,1,0.20437416434288025,-0.002196313813328743,0.002991100773215294,-0.9788858294487
1671054555.71959782,115534385,1,0.18125103414058685,-0.0019414575072005391,0.0029582250863313675,-0.9834305047988892
1671054555.73960876,115554396,1,0.18142160773277283,-0.0022339520510286093,0.003519929712638259,-0.983396589756012
1671054555.75956392,115574351,1,0.18118825554847717,-0.001822562888264656,0.002875737613067031,-0.9834425449371338
1671054555.79956675,115614354,1,0.18143416941165924,-0.0021624963264912367,0.003285756101831794,-0.9833952188491821
1671054555.83956385,115654351,1,0.1811865270137787,-0.0019572549499571323,0.002802687929943204,-0.9834427833557129
1671054555.87959695,115694384,1,0.1810789704322815,-0.0016483139479532838,0.002209738362580538,-0.9834647178649902
1671054555.91958094,115734368,1,0.1807616651058197,-0.0019906230736523867,0.002117013093084097,-0.9835226535797119
1671054555.93956494,115754352,1,0.1803862750530243,-0.0017924902494996786,0.0017696988070383668,-0.9835926294326782
1671054555.95959091,115774378,1,0.18037253618240356,-0.0021970707457512617,0.0020918957889080048,-0.9835937023162842
1671054555.99956775,115814355,1,0.17964160442352295,-0.00213062041439116,0.0018684385577216744,-0.9837280511856079
1671054556.03956294,115854350,1,0.1791408658027649,-0.002390631940215826,0.002420122269541025,-0.9838175773620605
1671054556.07958293,115894370,1,0.17865845561027527,-0.0023280512541532516,0.0011865367414429784,-0.9839076995849609
1671054556.11959887,115934386,1,0.17822380363941193,-0.00290190102532506,0.002825501374900341,-0.9839816689491272
1671054556.13956976,115954357,1,0.17812341451644897,-0.002517544897273183,0.001635745051316917,-0.9840036034584045
1671054556.15960383,115974391,1,0.1778985857963562,-0.0025315163657069206,0.002049725968390703,-0.9840434193611145
1671054556.19955087,116014338,1,0.1776980757713318,-0.0026985695585608482,0.0018598850583657622,-0.9840795993804932
1671054556.23956490,116054352,1,0.17742837965488434,-0.0027629381511360407,0.0021533367689698935,-0.9841274619102478
1671054556.27956176,116094349,1,0.1770942658185959,-0.0028095406014472246,0.002348237903788686,-0.9841870665550232
1671054556.31957483,116134362,1,0.1769903153181076,-0.00259008863940835,0.0011446173302829266,-0.9842085242271423
1671054556.33956575,116154353,1,0.17689600586891174,-0.0027102441526949406,0.0012265887344256043,-0.9842250347137451
1671054556.35957885,116174366,1,0.1769019067287445,-0.0026838735211640596,0.0017423664685338736,-0.9842233061790466
1671054556.39958978,116214377,1,0.17683331668376923,-0.002516581444069743,-0.0009460968431085348,-0.9842371344566345
1671054556.43956184,116254349,1,0.17674292623996735,-0.001810296904295683,-0.006735221482813358,-0.9842323660850525
1671054556.47956395,116294351,1,0.17672806978225708,-0.0010912880534306169,-0.012758647091686726,-0.9841763973236084
1671054556.51953673,116334324,1,0.1773405522108078,0.0001970037556020543,-0.02134758234024048,-0.9839179515838623
1671054556.53956795,116354355,1,0.17724256217479706,0.001099970075301826,-0.026351725682616234,-0.9838137030601501
1671054556.55960178,116374389,1,0.17744579911231995,0.001550975488498807,-0.031584132462739944,-0.9836223721504211
1671054556.59958196,116414369,1,0.1778680682182312,0.003049063729122281,-0.03914715349674225,-0.9832706451416016
1671054556.63959575,116454383,1,0.1784552037715912,0.0037173463497310877,-0.04440794885158539,-0.9829384088516235
1671054556.67956996,116494357,1,0.17913633584976196,0.004189914558082819,-0.04845480993390083,-0.9826213717460632
1671054556.71955895,116534346,1,0.17983359098434448,0.0047734444960951805,-0.050130199640989304,-0.98240727186203
1671054556.73962593,116554413,1,0.18024373054504395,0.004615806043148041,-0.05120948702096939,-0.9822772145271301
1671054556.75956392,116574351,1,0.18061445653438568,0.004760127514600754,-0.050629425793886185,-0.9822384715080261
1671054556.79961395,116614401,1,0.18141937255859375,0.004129425156861544,-0.04886163771152496,-0.982182502746582
1671054556.83955383,116654341,1,0.18227361142635345,0.003802209161221981,-0.047561164945364,-0.9820895195007324
1671054556.87957096,116694358,1,0.18333642184734344,0.0034475212451070547,-0.04643220826983452,-0.9819470047950745
1671054556.91956091,116734348,1,0.18454895913600922,0.003080144990235567,-0.044463999569416046,-0.9818121790885925
1671054556.93957996,116754367,1,0.18517671525478363,0.0027404206339269876,-0.042969945818185806,-0.9817615151405334
1671054556.95956492,116774352,1,0.1857597678899765,0.003121723188087344,-0.04290716350078583,-0.9816529750823975
1671054556.99960589,116814393,1,0.18713456392288208,0.0027835755608975887,-0.04136986285448074,-0.981458842754364
1671054557.03960180,116854389,1,0.1887478232383728,0.002618355443701148,-0.039265166968107224,-0.9812368154525757
1671054557.07953882,116894326,1,0.1915425956249237,0.0028311300557106733,-0.03898832947015762,-0.9807054996490479
1671054557.11955476,116934342,1,0.19446294009685516,0.0026599427219480276,-0.03639157488942146,-0.980230987071991
1671054557.13959694,116954384,1,0.19604356586933136,0.002527837408706546,-0.035398028790950775,-0.9799528121948242
1671054557.15957475,116974362,1,0.19724106788635254,0.0029161570128053427,-0.03508153185248375,-0.979722797870636
1671054557.19956493,117014352,1,0.20012670755386353,0.0030425721779465675,-0.03472346439957619,-0.9791498184204102
1671054557.23958588,117054373,1,0.20315209031105042,0.002776447916403413,-0.03298560529947281,-0.9785875082015991
1671054557.27960086,117094388,1,0.20751579105854034,0.0027699291240423918,-0.03221917152404785,-0.9776970148086548
1671054557.31957173,117134359,1,0.21186266839504242,0.00297333556227386,-0.03216167911887169,-0.9767655730247498
1671054557.33960485,117154392,1,0.21386834979057312,0.002565080998465419,-0.031751640141010284,-0.9763429760932922
1671054557.35956287,117174350,1,0.2157161384820938,0.002665131352841854,-0.03208779916167259,-0.975925087928772
1671054557.39956594,117214353,1,0.21945451200008392,0.002172938548028469,-0.030774760991334915,-0.9751347899436951
1671054557.43956184,117254349,1,0.22454948723316193,0.0019223223207518458,-0.028973478823900223,-0.9740299582481384
1671054557.47959089,117294378,1,0.22959445416927338,0.0019581601954996586,-0.027937492355704308,-0.9728833436965942
1671054557.51959395,117334381,1,0.23415708541870117,0.0009512023534625769,-0.02264331467449665,-0.9719345569610596
1671054557.53957176,117354359,1,0.23628190159797668,0.000470038503408432,-0.01875549927353859,-0.9715034365653992
1671054557.55957890,117374366,1,0.23804813623428345,0.00042116656550206244,-0.015622567385435104,-0.9711276292800903
1671054557.59957385,117414361,1,0.24143889546394348,-0.0008592599770054221,-0.007167772389948368,-0.970389187335968
1671054557.63957477,117454362,1,0.24600239098072052,-0.0016222127014771104,0.0019924144726246595,-0.9692658185958862
1671054557.67954874,117494336,1,0.2500918209552765,-0.0022905615624040365,0.009196051396429539,-0.9681757688522339
1671054557.71959376,117534381,1,0.2534145712852478,-0.003740866668522358,0.01598377153277397,-0.9672184586524963
1671054557.73957086,117554358,1,0.2544550597667694,-0.00378812407143414,0.01826179213821888,-0.9669047594070435
1671054557.75967288,117574460,1,0.2556309998035431,-0.004006297327578068,0.01882092095911503,-0.9665828943252563
1671054557.79956388,117614351,1,0.25746211409568787,-0.004466789774596691,0.019730091094970703,-0.9660766124725342
1671054557.83956289,117654350,1,0.2590469717979431,-0.005267064552754164,0.020216351374983788,-0.9656387567520142
1671054557.87959075,117694378,1,0.2611040472984314,-0.005090595688670874,0.01759100891649723,-0.9651369452476501
1671054557.91959977,117734387,1,0.2625765800476074,-0.005854176823049784,0.016674017533659935,-0.9647493362426758
1671054557.93958783,117754375,1,0.26293015480041504,-0.005634512286633253,0.014287128113210201,-0.9646926522254944
1671054557.95959878,117774386,1,0.2633535861968994,-0.005846433807164431,0.014719711616635323,-0.9645693302154541
1671054557.99959993,117814387,1,0.26313045620918274,-0.006445007398724556,0.013311190530657768,-0.9646468758583069
1671054558.03956175,117854349,1,0.2627080976963043,-0.006053681951016188,0.01193656399846077,-0.9647825360298157
1671054558.07956195,117894349,1,0.26155444979667664,-0.0055998545140028,0.010604726150631905,-0.9651142358779907
1671054558.11954975,117934337,1,0.2596832811832428,-0.005364937707781792,0.009061217308044434,-0.9656364321708679
1671054558.13959575,117954383,1,0.25844088196754456,-0.00528084859251976,0.008770938962697983,-0.9659728407859802
1671054558.15959477,117974382,1,0.2571777403354645,-0.0052777561359107494,0.00861628819257021,-0.9663112759590149
1671054558.19959974,118014387,1,0.25397855043411255,-0.006078445818275213,0.008939975872635841,-0.9671494364738464
