timestamp,TimeUS,DesRoll,Roll,DesPitch,Pitch,DesYaw,Yaw,ErrRP,ErrYaw,AEKF
312.86699700,312866997,0.0,0.27,0.0,-0.9500000000000001,28.94,28.94,0.0,0.05,0
312.96690000,312966900,0.0,0.27,0.0,-0.9500000000000001,28.95,28.95,0.0,0.04,0
313.06692400,313066924,0.0,0.27,0.0,-0.9500000000000001,29.0,29.0,0.0,0.05,0
313.16694700,313166947,0.0,0.28,0.0,-0.9500000000000001,28.98,28.98,0.0,0.05,0
313.26721400,313267214,0.0,0.28,0.0,-0.9500000000000001,28.94,28.94,0.0,0.05,0
313.36717400,313367174,0.0,0.28,0.0,-0.9500000000000001,28.990000000000002,28.990000000000002,0.0,0.06,0
313.46700700,313467007,0.0,0.28,0.0,-0.9500000000000001,29.04,29.04,0.0,0.06,0
313.56697300,313566973,0.0,0.28,0.0,-0.9500000000000001,29.04,29.04,0.0,0.05,0
313.66691200,313666912,0.0,0.28,0.0,-0.9500000000000001,29.0,29.0,0.0,0.05,0
313.76727800,313767278,0.0,0.28,0.0,-0.9500000000000001,29.04,29.04,0.0,0.05,0
315.86694000,315866940,0.0,0.29,0.0,-0.9500000000000001,29.66,29.66,0.0,0.06,0
315.96696500,315966965,0.0,0.29,0.0,-0.9400000000000001,29.62,29.62,0.0,0.06,0
316.06691700,316066917,0.0,0.29,0.0,-0.9400000000000001,29.69,29.69,0.0,0.07,0
316.16688800,316166888,0.0,0.28,0.0,-0.9400000000000001,29.740000000000002,29.740000000000002,0.0,0.07,0
316.26722100,316267221,0.0,0.29,0.0,-0.9400000000000001,29.66,29.66,0.0,0.09,0
316.36719500,316367195,0.0,0.29,0.0,-0.9400000000000001,29.64,29.64,0.0,0.08,0
316.46689500,316466895,0.0,0.29,0.0,-0.9400000000000001,29.62,29.62,0.0,0.07,0
316.56692700,316566927,0.0,0.29,0.0,-0.9400000000000001,29.69,29.69,0.0,0.07,0
316.66695000,316666950,0.0,0.29,0.0,-0.9400000000000001,29.72,29.72,0.0,0.07,0
316.76727400,316767274,0.0,0.29,0.0,-0.9400000000000001,29.740000000000002,29.740000000000002,0.0,0.06,0
316.86692100,316866921,0.0,0.29,0.0,-0.9400000000000001,29.71,29.71,0.0,0.05,0
316.96693400,316966934,0.0,0.29,0.0,-0.9400000000000001,29.71,29.71,0.0,0.04,0
317.06697700,317066977,0.0,0.29,0.0,-0.9400000000000001,29.67,29.67,0.0,0.05,0
317.16693800,317166938,0.0,0.29,0.0,-0.9400000000000001,29.63,29.63,0.0,0.05,0
317.26723100,317267231,0.0,0.29,0.0,-0.9400000000000001,29.66,29.66,0.0,0.05,0
317.36719200,317367192,0.0,0.29,0.0,-0.9400000000000001,29.67,29.67,0.0,0.04,0
317.46693600,317466936,0.0,0.29,0.0,-0.9400000000000001,29.740000000000002,29.740000000000002,0.0,0.06,0
317.56695500,317566955,0.0,0.29,0.0,-0.9400000000000001,29.71,29.71,0.0,0.06,0
317.66691900,317666919,0.0,0.29,0.0,-0.9400000000000001,29.650000000000002,29.650000000000002,0.0,0.07,0
317.76724900,317767249,0.0,0.3,0.0,-0.9400000000000001,29.580000000000002,29.580000000000002,0.0,0.07,0
317.86690900,317866909,0.0,0.3,0.0,-0.9400000000000001,29.55,29.55,0.0,0.07,0
317.96691100,317966911,0.0,0.3,0.0,-0.9400000000000001,29.53,29.53,0.0,0.06,0
318.06693400,318066934,0.0,0.3,0.0,-0.9400000000000001,29.48,29.48,0.0,0.07,0
318.16692500,318166925,0.0,0.3,0.0,-0.9400000000000001,29.5,29.5,0.0,0.06,0
318.26725300,318267253,0.0,0.3,0.0,-0.9400000000000001,29.47,29.47,0.0,0.06,0
318.36732800,318367328,0.0,0.3,0.0,-0.9400000000000001,29.45,29.45,0.0,0.05,0
318.46691000,318466910,0.0,0.31,0.0,-0.9400000000000001,29.400000000000002,29.400000000000002,0.0,0.06,0
318.56692100,318566921,0.0,0.31,0.0,-0.9400000000000001,29.34,29.34,0.0,0.07,0
318.66700500,318667005,0.0,0.31,0.0,-0.9400000000000001,29.22,29.22,0.0,0.1,0
318.76721300,318767213,0.0,0.31,0.0,-0.9400000000000001,29.2,29.2,0.0,0.09,0
318.86690000,318866900,0.0,0.31,0.0,-0.9400000000000001,29.22,29.22,0.0,0.07,0
318.96694800,318966948,0.0,0.31,0.0,-0.9400000000000001,29.12,29.12,0.0,0.09,0
319.06695000,319066950,0.0,0.31,0.0,-0.9400000000000001,29.150000000000002,29.150000000000002,0.0,0.08,0
319.16692100,319166921,0.0,0.31,0.0,-0.9400000000000001,29.1,29.1,0.0,0.09,0
319.26723000,319267230,0.0,0.31,0.0,-0.9400000000000001,29.080000000000002,29.080000000000002,0.0,0.08,0
319.36719500,319367195,0.0,0.31,0.0,-0.9400000000000001,29.080000000000002,29.080000000000002,0.0,0.06,0
319.46692000,319466920,0.0,0.31,0.0,-0.9400000000000001,29.12,29.12,0.0,0.06,0
319.56692300,319566923,0.0,0.31,0.0,-0.9400000000000001,29.11,29.11,0.0,0.05,0
319.66692600,319666926,0.0,0.31,0.0,-0.9400000000000001,29.04,29.04,0.0,0.06,0
319.76723700,319767237,0.0,0.31,0.0,-0.93,29.03,29.03,0.0,0.06,0
319.86697600,319866976,0.0,0.31,0.0,-0.93,29.080000000000002,29.080000000000002,0.0,0.06,0
319.96691800,319966918,0.0,0.31,0.0,-0.9400000000000001,29.14,29.14,0.0,0.06,0
320.06690900,320066909,0.0,0.31,0.0,-0.93,29.150000000000002,29.150000000000002,0.0,0.05,0
320.16694800,320166948,0.0,0.31,0.0,-0.93,29.2,29.2,0.0,0.05,0
320.26726900,320267269,0.0,0.31,0.0,-0.93,29.14,29.14,0.0,0.06,0
320.36718100,320367181,0.0,0.31,0.0,-0.93,29.14,29.14,0.0,0.05,0
320.46693100,320466931,0.0,0.31,0.0,-0.93,29.17,29.17,0.0,0.05,0
320.56693900,320566939,0.0,0.31,0.0,-0.93,29.17,29.17,0.0,0.04,0
320.66695700,320666957,0.0,0.31,0.0,-0.93,29.13,29.13,0.0,0.05,0
320.76721300,320767213,0.0,0.32,0.0,-0.93,29.060000000000002,29.060000000000002,0.0,0.07,0
320.86690500,320866905,0.0,0.32,0.0,-0.93,29.04,29.04,0.0,0.06,0
320.96694000,320966940,0.0,0.32,0.0,-0.93,29.09,29.09,0.0,0.06,0
321.06688600,321066886,0.0,0.32,0.0,-0.93,29.16,29.16,0.0,0.07,0
321.16690200,321166902,0.0,0.32,0.0,-0.93,29.11,29.11,0.0,0.07,0
321.26728500,321267285,0.0,0.32,0.0,-0.93,29.02,29.02,0.0,0.09,0
321.36728400,321367284,0.0,0.32,0.0,-0.93,28.98,28.98,0.0,0.09,0
321.46697000,321466970,0.0,0.32,0.0,-0.93,28.98,28.98,0.0,0.07,0
321.56693000,321566930,0.0,0.33,0.0,-0.93,29.01,29.01,0.0,0.07,0
321.66693000,321666930,0.0,0.33,0.0,-0.93,28.96,28.96,0.0,0.07,0
321.76722800,321767228,0.0,0.33,0.0,-0.93,29.04,29.04,0.0,0.08,0
321.86705800,321867058,0.0,0.33,0.0,-0.93,29.05,29.05,0.0,0.07,0
321.96691200,321966912,0.0,0.34,0.0,-0.93,29.04,29.04,0.0,0.06,0
322.06694000,322066940,0.0,0.34,0.0,-0.93,29.11,29.11,0.0,0.07,0
322.16697600,322166976,0.0,0.34,0.0,-0.93,29.080000000000002,29.080000000000002,0.0,0.07,0
322.26727900,322267279,0.0,0.34,0.0,-0.93,29.080000000000002,29.080000000000002,0.0,0.05,0
322.36718600,322367186,0.0,0.34,0.0,-0.93,29.02,29.02,0.0,0.06,0
322.46691900,322466919,0.0,0.34,0.0,-0.93,29.0,29.0,0.0,0.06,0
322.56695400,322566954,0.0,0.34,0.0,-0.93,29.060000000000002,29.060000000000002,0.0,0.06,0
322.66692700,322666927,0.0,0.34,0.0,-0.93,29.060000000000002,29.060000000000002,0.0,0.05,0
322.76720300,322767203,0.0,0.35000000000000003,0.0,-0.93,29.07,29.07,0.0,0.04,0
322.86693800,322866938,0.0,0.35000000000000003,0.0,-0.93,29.05,29.05,0.0,0.04,0
322.96694600,322966946,0.0,0.35000000000000003,0.0,-0.93,29.14,29.14,0.0,0.06,0
323.06692000,323066920,0.0,0.35000000000000003,0.0,-0.9400000000000001,29.17,29.17,0.0,0.05,0
323.16694200,323166942,0.0,0.35000000000000003,0.0,-0.9400000000000001,29.17,29.17,0.0,0.04,0
323.26721400,323267214,0.0,0.35000000000000003,0.0,-0.9400000000000001,29.11,29.11,0.0,0.05,0
323.36719700,323367197,0.0,0.35000000000000003,0.0,-0.9400000000000001,29.12,29.12,0.0,0.04,0
323.46691200,323466912,0.0,0.35000000000000003,0.0,-0.9400000000000001,29.14,29.14,0.0,0.04,0
323.56692000,323566920,0.0,0.35000000000000003,0.0,-0.9400000000000001,29.080000000000002,29.080000000000002,0.0,0.05,0
323.66693200,323666932,0.0,0.35000000000000003,0.0,-0.9400000000000001,29.12,29.12,0.0,0.05,0
323.76721800,323767218,0.0,0.35000000000000003,0.0,-0.9400000000000001,29.13,29.13,0.0,0.04,0
323.86692100,323866921,0.0,0.35000000000000003,0.0,-0.9400000000000001,29.11,29.11,0.0,0.04,0
323.96692300,323966923,0.0,0.36,0.0,-0.9400000000000001,29.12,29.12,0.0,0.03,0
324.06693000,324066930,0.0,0.35000000000000003,0.0,-0.9400000000000001,29.17,29.17,0.0,0.04,0
324.16693600,324166936,0.0,0.35000000000000003,0.0,-0.9400000000000001,29.25,29.25,0.0,0.06,0
324.26724300,324267243,0.0,0.35000000000000003,0.0,-0.9400000000000001,29.25,29.25,0.0,0.05,0
324.36721700,324367217,0.0,0.35000000000000003,0.0,-0.9400000000000001,29.310000000000002,29.310000000000002,0.0,0.06,0
324.46696900,324466969,0.0,0.35000000000000003,0.0,-0.9400000000000001,29.29,29.29,0.0,0.05,0
324.56697000,324566970,0.0,0.35000000000000003,0.0,-0.9400000000000001,29.330000000000002,29.330000000000002,0.0,0.05,0
324.66692100,324666921,0.0,0.35000000000000003,0.0,-0.9400000000000001,29.35,29.35,0.0,0.05,0
324.76720800,324767208,0.0,0.35000000000000003,0.0,-0.9500000000000001,29.37,29.37,0.0,0.04,0
324.86696900,324866969,0.0,0.35000000000000003,0.0,-0.9500000000000001,29.37,29.37,0.0,0.03,0
324.96698600,324966986,0.0,0.35000000000000003,0.0,-0.9500000000000001,29.45,29.45,0.0,0.05,0
325.06696700,325066967,0.0,0.35000000000000003,0.0,-0.9500000000000001,29.48,29.48,0.0,0.05,0
325.16694600,325166946,0.0,0.35000000000000003,0.0,-0.9500000000000001,29.46,29.46,0.0,0.05,0
325.26722700,325267227,0.0,0.35000000000000003,0.0,-0.9500000000000001,29.45,29.45,0.0,0.04,0
325.36735200,325367352,0.0,0.35000000000000003,0.0,-0.9500000000000001,29.490000000000002,29.490000000000002,0.0,0.05,0
325.46690900,325466909,0.0,0.35000000000000003,0.0,-0.9500000000000001,29.45,29.45,0.0,0.05,0
325.56691500,325566915,0.0,0.36,0.0,-0.9500000000000001,29.38,29.38,0.0,0.07,0
325.66693100,325666931,0.0,0.36,0.0,-0.9500000000000001,29.41,29.41,0.0,0.06,0
325.76722800,325767228,0.0,0.36,0.0,-0.9500000000000001,29.35,29.35,0.0,0.07,0
325.86692600,325866926,0.0,0.36,0.0,-0.9500000000000001,29.35,29.35,0.0,0.05,0
325.96691400,325966914,0.0,0.36,0.0,-0.9500000000000001,29.25,29.25,0.0,0.08,0
326.06704400,326067044,0.0,0.36,0.0,-0.9500000000000001,29.25,29.25,0.0,0.06,0
326.16693100,326166931,0.0,0.36,0.0,-0.9500000000000001,29.27,29.27,0.0,0.05,0
326.26719900,326267199,0.0,0.36,0.0,-0.9500000000000001,29.27,29.27,0.0,0.04,0
326.36713400,326367134,0.0,0.36,0.0,-0.9500000000000001,29.240000000000002,29.240000000000002,0.0,0.04,0
326.46695400,326466954,0.0,0.36,0.0,-0.9500000000000001,29.23,29.23,0.0,0.04,0
328.56692500,328566925,0.0,0.37,0.0,-0.96,29.04,29.04,0.0,0.06,0
328.66690700,328666907,0.0,0.37,0.0,-0.96,29.02,29.02,0.0,0.06,0
328.76723800,328767238,0.0,0.37,0.0,-0.96,29.11,29.11,0.0,0.07,0
328.86691000,328866910,0.0,0.37,0.0,-0.96,29.14,29.14,0.0,0.07,0
328.96692300,328966923,0.0,0.37,0.0,-0.96,29.22,29.22,0.0,0.08,0
329.06693000,329066930,0.0,0.37,0.0,-0.96,29.29,29.29,0.0,0.09,0
329.16694300,329166943,0.0,0.37,0.0,-0.96,29.29,29.29,0.0,0.07,0
329.26728200,329267282,0.0,0.37,0.0,-0.96,29.28,29.28,0.0,0.06,0
331.36717200,331367172,0.0,0.37,0.0,-0.96,29.330000000000002,29.330000000000002,0.0,0.06,0
331.46692800,331466928,0.0,0.37,0.0,-0.96,29.310000000000002,29.310000000000002,0.0,0.06,0
331.56697000,331566970,0.0,0.37,0.0,-0.96,29.38,29.38,0.0,0.07,0
331.66690600,331666906,0.0,0.37,0.0,-0.96,29.400000000000002,29.400000000000002,0.0,0.06,0
331.76723500,331767235,0.0,0.37,0.0,-0.96,29.400000000000002,29.400000000000002,0.0,0.05,0
331.86697200,331866972,0.0,0.37,0.0,-0.96,29.39,29.39,0.0,0.04,0
331.96691400,331966914,0.0,0.37,0.0,-0.96,29.42,29.42,0.0,0.04,0
332.06691400,332066914,0.0,0.37,0.0,-0.96,29.38,29.38,0.0,0.05,0
332.16696300,332166963,0.0,0.37,0.0,-0.96,29.39,29.39,0.0,0.04,0
332.26723200,332267232,0.0,0.37,0.0,-0.96,29.46,29.46,0.0,0.06,0
332.36728100,332367281,0.0,0.37,0.0,-0.96,29.47,29.47,0.0,0.05,0
332.46691900,332466919,0.0,0.37,0.0,-0.96,29.44,29.44,0.0,0.05,0
332.56693300,332566933,0.0,0.37,0.0,-0.96,29.43,29.43,0.0,0.04,0
332.66693100,332666931,0.0,0.37,0.0,-0.96,29.39,29.39,0.0,0.04,0
332.76720700,332767207,0.0,0.37,0.0,-0.96,29.3,29.3,0.0,0.06,0
332.86695900,332866959,0.0,0.37,0.0,-0.96,29.29,29.29,0.0,0.05,0
332.96693100,332966931,0.0,0.37,0.0,-0.9500000000000001,29.28,29.28,0.0,0.05,0
333.06694500,333066945,0.0,0.37,0.0,-0.9500000000000001,29.330000000000002,29.330000000000002,0.0,0.05,0
333.16687600,333166876,0.0,0.37,0.0,-0.9500000000000001,29.29,29.29,0.0,0.06,0
333.26719100,333267191,0.0,0.36,0.0,-0.9500000000000001,29.25,29.25,0.0,0.06,0
333.36721500,333367215,0.0,0.37,0.0,-0.9500000000000001,29.240000000000002,29.240000000000002,0.0,0.05,0
333.46692500,333466925,0.0,0.37,0.0,-0.9500000000000001,29.310000000000002,29.310000000000002,0.0,0.06,0
333.56694300,333566943,0.0,0.36,0.0,-0.9500000000000001,29.330000000000002,29.330000000000002,0.0,0.05,0
333.66689600,333666896,0.0,0.37,0.0,-0.9500000000000001,29.27,29.27,0.0,0.06,0
333.76722600,333767226,0.0,0.37,0.0,-0.9500000000000001,29.28,29.28,0.0,0.05,0
333.86697100,333866971,0.0,0.37,0.0,-0.9500000000000001,29.29,29.29,0.0,0.04,0
333.96693500,333966935,0.0,0.36,0.0,-0.9500000000000001,29.330000000000002,29.330000000000002,0.0,0.05,0
334.06690400,334066904,0.0,0.36,0.0,-0.96,29.400000000000002,29.400000000000002,0.0,0.06,0
334.16691600,334166916,0.0,0.36,0.0,-0.96,29.39,29.39,0.0,0.05,0
334.26725800,334267258,0.0,0.36,0.0,-0.96,29.35,29.35,0.0,0.05,0
334.36718800,334367188,0.0,0.36,0.0,-0.96,29.46,29.46,0.0,0.07,0
334.46705800,334467058,0.0,0.36,0.0,-0.96,29.46,29.46,0.0,0.06,0
334.56692600,334566926,0.0,0.36,0.0,-0.96,29.46,29.46,0.0,0.05,0
334.66697700,334666977,0.0,0.36,0.0,-0.96,29.400000000000002,29.400000000000002,0.0,0.06,0
334.76720800,334767208,0.0,0.36,0.0,-0.96,29.42,29.42,0.0,0.06,0
334.86695100,334866951,0.0,0.37,0.0,-0.96,29.37,29.37,0.0,0.06,0
334.96691700,334966917,0.0,0.37,0.0,-0.96,29.36,29.36,0.0,0.05,0
335.06692500,335066925,0.0,0.37,0.0,-0.96,29.3,29.3,0.0,0.06,0
335.16690400,335166904,0.0,0.36,0.0,-0.96,29.39,29.39,0.0,0.08,0
335.26721400,335267214,0.0,0.36,0.0,-0.96,29.36,29.36,0.0,0.07,0
335.36722300,335367223,0.0,0.36,0.0,-0.96,29.37,29.37,0.0,0.05,0
335.46697200,335466972,0.0,0.37,0.0,-0.96,29.330000000000002,29.330000000000002,0.0,0.06,0
335.56689800,335566898,0.0,0.37,0.0,-0.96,29.330000000000002,29.330000000000002,0.0,0.04,0
335.66691000,335666910,0.0,0.37,0.0,-0.96,29.35,29.35,0.0,0.04,0
335.76727900,335767279,0.0,0.37,0.0,-0.96,29.35,29.35,0.0,0.03,0
335.86695700,335866957,0.0,0.37,0.0,-0.96,29.330000000000002,29.330000000000002,0.0,0.03,0
335.96692500,335966925,0.0,0.37,0.0,-0.96,29.37,29.37,0.0,0.04,0
336.06691600,336066916,0.0,0.37,0.0,-0.9500000000000001,29.35,29.35,0.0,0.04,0
338.16692300,338166923,0.0,0.38,0.0,-0.96,29.23,29.23,0.0,0.07,0
338.26723700,338267237,0.0,0.38,0.0,-0.96,29.25,29.25,0.0,0.07,0
338.36717900,338367179,0.0,0.38,0.0,-0.96,29.240000000000002,29.240000000000002,0.0,0.06,0
338.46693800,338466938,0.0,0.38,0.0,-0.96,29.21,29.21,0.0,0.05,0
338.56698700,338566987,0.0,0.38,0.0,-0.96,29.2,29.2,0.0,0.05,0
338.66693000,338666930,0.0,0.38,0.0,-0.96,29.17,29.17,0.0,0.05,0
338.76721300,338767213,0.0,0.38,0.0,-0.96,29.17,29.17,0.0,0.04,0
338.86691100,338866911,0.0,0.38,0.0,-0.9500000000000001,29.11,29.11,0.0,0.05,0
338.96697800,338966978,0.0,0.38,0.0,-0.96,29.12,29.12,0.0,0.04,0
339.06695300,339066953,0.0,0.38,0.0,-0.96,29.16,29.16,0.0,0.04,0
339.16694300,339166943,0.0,0.38,0.0,-0.96,29.17,29.17,0.0,0.04,0
339.26719700,339267197,0.0,0.38,0.0,-0.96,29.16,29.16,0.0,0.03,0
339.36727700,339367277,0.0,0.38,0.0,-0.96,29.2,29.2,0.0,0.04,0
339.46691000,339466910,0.0,0.38,0.0,-0.96,29.17,29.17,0.0,0.04,0
339.56692000,339566920,0.0,0.38,0.0,-0.96,29.22,29.22,0.0,0.04,0
339.66693500,339666935,0.0,0.38,0.0,-0.96,29.2,29.2,0.0,0.04,0
339.76721700,339767217,0.0,0.38,0.0,-0.96,29.18,29.18,0.0,0.04,0
339.86693100,339866931,0.0,0.38,0.0,-0.9500000000000001,29.18,29.18,0.0,0.03,0
339.96690900,339966909,0.0,0.38,0.0,-0.9500000000000001,29.13,29.13,0.0,0.04,0
340.06697100,340066971,0.0,0.38,0.0,-0.9500000000000001,29.17,29.17,0.0,0.04,0
340.16694600,340166946,0.0,0.38,0.0,-0.9500000000000001,29.13,29.13,0.0,0.05,0
340.26727300,340267273,0.0,0.38,0.0,-0.9500000000000001,29.1,29.1,0.0,0.05,0
340.36716800,340367168,0.0,0.38,0.0,-0.96,29.2,29.2,0.0,0.07,0
340.46692900,340466929,0.0,0.38,0.0,-0.96,29.25,29.25,0.0,0.07,0
340.56697500,340566975,0.0,0.38,0.0,-0.9500000000000001,29.240000000000002,29.240000000000002,0.0,0.06,0
340.66699100,340666991,0.0,0.38,0.0,-0.9500000000000001,29.22,29.22,0.0,0.05,0
340.76722300,340767223,0.0,0.38,0.0,-0.96,29.2,29.2,0.0,0.05,0
340.86693900,340866939,0.0,0.38,0.0,-0.96,29.19,29.19,0.0,0.04,0
340.96688100,340966881,0.0,0.38,0.0,-0.96,29.23,29.23,0.0,0.04,0
341.06690100,341066901,0.0,0.38,0.0,-0.96,29.17,29.17,0.0,0.05,0
341.16694000,341166940,0.0,0.38,0.0,-0.96,29.19,29.19,0.0,0.05,0
341.26721300,341267213,0.0,0.38,0.0,-0.96,29.18,29.18,0.0,0.04,0
341.36724100,341367241,0.0,0.39,0.0,-0.96,29.12,29.12,0.0,0.05,0
341.46690100,341466901,0.0,0.39,0.0,-0.96,29.060000000000002,29.060000000000002,0.0,0.06,0
341.56693800,341566938,0.0,0.39,0.0,-0.96,29.07,29.07,0.0,0.05,0
341.66695000,341666950,0.0,0.39,0.0,-0.9500000000000001,29.04,29.04,0.0,0.05,0
341.76727900,341767279,0.0,0.39,0.0,-0.96,29.07,29.07,0.0,0.04,0
341.86691200,341866912,0.0,0.39,0.0,-0.9500000000000001,29.080000000000002,29.080000000000002,0.0,0.04,0
341.96690300,341966903,0.0,0.39,0.0,-0.9500000000000001,29.150000000000002,29.150000000000002,0.0,0.05,0
342.06699700,342066997,0.0,0.39,0.0,-0.9500000000000001,29.150000000000002,29.150000000000002,0.0,0.04,0
342.16698300,342166983,0.0,0.39,0.0,-0.9500000000000001,29.240000000000002,29.240000000000002,0.0,0.06,0
342.26721400,342267214,0.0,0.39,0.0,-0.9500000000000001,29.22,29.22,0.0,0.06,0
342.36716600,342367166,0.0,0.39,0.0,-0.9500000000000001,29.25,29.25,0.0,0.06,0
342.46694300,342466943,0.0,0.39,0.0,-0.9500000000000001,29.18,29.18,0.0,0.07,0
342.56692000,342566920,0.0,0.38,0.0,-0.9500000000000001,29.17,29.17,0.0,0.06,0
342.66686700,342666867,0.0,0.39,0.0,-0.9500000000000001,29.16,29.16,0.0,0.05,0
342.76723000,342767230,0.0,0.38,0.0,-0.9500000000000001,29.150000000000002,29.150000000000002,0.0,0.05,0
342.86694200,342866942,0.0,0.39,0.0,-0.9500000000000001,29.150000000000002,29.150000000000002,0.0,0.04,0
342.96692900,342966929,0.0,0.38,0.0,-0.9500000000000001,29.150000000000002,29.150000000000002,0.0,0.03,0
343.06692400,343066924,0.0,0.38,0.0,-0.9500000000000001,29.18,29.18,0.0,0.03,0
343.16693600,343166936,0.0,0.38,0.0,-0.96,29.2,29.2,0.0,0.03,0
343.26728900,343267289,0.0,0.38,0.0,-0.9500000000000001,29.18,29.18,0.0,0.04,0
343.36712800,343367128,0.0,0.38,0.0,-0.9500000000000001,29.18,29.18,0.0,0.03,0
343.46691300,343466913,0.0,0.39,0.0,-0.9500000000000001,29.16,29.16,0.0,0.03,0
343.56695200,343566952,0.0,0.39,0.0,-0.9500000000000001,29.150000000000002,29.150000000000002,0.0,0.02,0
343.66694200,343666942,0.0,0.39,0.0,-0.9500000000000001,29.12,29.12,0.0,0.03,0
343.76723600,343767236,0.0,0.38,0.0,-0.9500000000000001,29.19,29.19,0.0,0.04,0
343.86693700,343866937,0.0,0.39,0.0,-0.9500000000000001,29.09,29.09,0.0,0.07,0
343.96693900,343966939,0.0,0.39,0.0,-0.9500000000000001,29.04,29.04,0.0,0.07,0
344.06690000,344066900,0.0,0.39,0.0,-0.9500000000000001,29.01,29.01,0.0,0.07,0
344.16692900,344166929,0.0,0.39,0.0,-0.9500000000000001,28.95,28.95,0.0,0.07,0
344.26723800,344267238,0.0,0.39,0.0,-0.9500000000000001,28.85,28.85,0.0,0.09,0
344.36721300,344367213,0.0,0.39,0.0,-0.96,28.88,28.88,0.0,0.08,0
344.46694000,344466940,0.0,0.39,0.0,-0.96,28.810000000000002,28.810000000000002,0.0,0.09,0
344.56690800,344566908,0.0,0.39,0.0,-0.96,28.79,28.79,0.0,0.07,0
344.66691800,344666918,0.0,0.39,0.0,-0.96,28.86,28.86,0.0,0.08,0
344.76724900,344767249,0.0,0.39,0.0,-0.96,28.810000000000002,28.810000000000002,0.0,0.08,0
344.86696200,344866962,0.0,0.39,0.0,-0.96,28.810000000000002,28.810000000000002,0.0,0.07,0
344.96693300,344966933,0.0,0.39,0.0,-0.96,28.82,28.82,0.0,0.06,0
345.06692500,345066925,0.0,0.39,0.0,-0.96,28.830000000000002,28.830000000000002,0.0,0.05,0
345.16696300,345166963,0.0,0.39,0.0,-0.96,28.85,28.85,0.0,0.04,0
345.26725500,345267255,0.0,0.39,0.0,-0.96,28.84,28.84,0.0,0.03,0
345.36716700,345367167,0.0,0.38,0.0,-0.96,28.85,28.85,0.0,0.03,0
345.46693800,345466938,0.0,0.38,0.0,-0.96,28.93,28.93,0.0,0.05,0
345.56694600,345566946,0.0,0.38,0.0,-0.96,28.89,28.89,0.0,0.05,0
345.66691300,345666913,0.0,0.38,0.0,-0.97,28.95,28.95,0.0,0.05,0
345.76721600,345767216,0.0,0.38,0.0,-0.96,28.94,28.94,0.0,0.05,0
345.86690800,345866908,0.0,0.38,0.0,-0.96,28.95,28.95,0.0,0.04,0
345.96692700,345966927,0.0,0.38,0.0,-0.96,28.91,28.91,0.0,0.04,0
346.06693200,346066932,0.0,0.38,0.0,-0.96,28.97,28.97,0.0,0.05,0
346.16692900,346166929,0.0,0.38,0.0,-0.96,28.93,28.93,0.0,0.05,0
346.26730000,346267300,0.0,0.38,0.0,-0.96,28.96,28.96,0.0,0.05,0
346.36713100,346367131,0.0,0.38,0.0,-0.96,28.93,28.93,0.0,0.05,0
346.46699200,346466992,0.0,0.38,0.0,-0.96,28.93,28.93,0.0,0.04,0
346.56694100,346566941,0.0,0.38,0.0,-0.96,28.91,28.91,0.0,0.04,0
346.66692200,346666922,0.0,0.38,0.0,-0.96,28.89,28.89,0.0,0.04,0
346.76726300,346767263,0.0,0.39,0.0,-0.96,28.82,28.82,0.0,0.05,0
346.86695300,346866953,0.0,0.39,0.0,-0.96,28.8,28.8,0.0,0.05,0
346.96691500,346966915,0.0,0.39,0.0,-0.96,28.79,28.79,0.0,0.04,0
347.06704700,347067047,0.0,0.39,0.0,-0.96,28.82,28.82,0.0,0.04,0
347.16693700,347166937,0.0,0.39,0.0,-0.96,28.77,28.77,0.0,0.05,0
347.26721200,347267212,0.0,0.38,0.0,-0.96,28.810000000000002,28.810000000000002,0.0,0.05,0
347.36718800,347367188,0.0,0.39,0.0,-0.96,28.79,28.79,0.0,0.04,0
347.46693900,347466939,0.0,0.39,0.0,-0.96,28.75,28.75,0.0,0.04,0
347.56691600,347566916,0.0,0.39,0.0,-0.96,28.79,28.79,0.0,0.05,0
347.66692500,347666925,0.0,0.39,0.0,-0.96,28.76,28.76,0.0,0.05,0
347.76729100,347767291,0.0,0.39,0.0,-0.96,28.76,28.76,0.0,0.04,0
347.86692600,347866926,0.0,0.39,0.0,-0.96,28.740000000000002,28.740000000000002,0.0,0.04,0
347.96697600,347966976,0.0,0.39,0.0,-0.96,28.8,28.8,0.0,0.05,0
348.06691300,348066913,0.0,0.38,0.0,-0.96,28.86,28.86,0.0,0.06,0
348.16691600,348166916,0.0,0.38,0.0,-0.96,28.88,28.88,0.0,0.05,0
348.26726300,348267263,0.0,0.38,0.0,-0.96,28.830000000000002,28.830000000000002,0.0,0.06,0
348.36728200,348367282,0.0,0.38,0.0,-0.96,28.85,28.85,0.0,0.05,0
348.46691400,348466914,0.0,0.38,0.0,-0.96,28.86,28.86,0.0,0.05,0
348.56692300,348566923,0.0,0.38,0.0,-0.96,28.84,28.84,0.0,0.04,0
348.66695200,348666952,0.0,0.38,0.0,-0.96,28.78,28.78,0.0,0.05,0
348.76720800,348767208,0.0,0.38,0.0,-0.97,28.810000000000002,28.810000000000002,0.0,0.05,0
348.86691000,348866910,0.0,0.38,0.0,-0.97,28.84,28.84,0.0,0.05,0
348.96693900,348966939,0.0,0.37,0.0,-0.97,28.88,28.88,0.0,0.05,0
349.06697500,349066975,0.0,0.37,0.0,-0.97,28.93,28.93,0.0,0.06,0
349.16703400,349167034,0.0,0.37,0.0,-0.97,28.97,28.97,0.0,0.06,0
349.26722000,349267220,0.0,0.37,0.0,-0.97,29.11,29.11,0.0,0.1,0
349.36720100,349367201,0.0,0.37,0.0,-0.97,29.1,29.1,0.0,0.08,0
349.46696600,349466966,0.0,0.37,0.0,-0.97,29.060000000000002,29.060000000000002,0.0,0.08,0
349.56696600,349566966,0.0,0.37,0.0,-0.97,29.05,29.05,0.0,0.06,0
349.66691800,349666918,0.0,0.37,0.0,-0.97,29.05,29.05,0.0,0.05,0
349.76721600,349767216,0.0,0.37,0.0,-0.97,29.03,29.03,0.0,0.04,0
349.86696300,349866963,0.0,0.36,0.0,-0.97,29.0,29.0,0.0,0.04,0
349.96695000,349966950,0.0,0.36,0.0,-0.97,29.02,29.02,0.0,0.04,0
350.06692900,350066929,0.0,0.36,0.0,-0.97,28.95,28.95,0.0,0.05,0
350.16694900,350166949,0.0,0.36,0.0,-0.97,29.01,29.01,0.0,0.06,0
350.26721500,350267215,0.0,0.36,0.0,-0.97,29.07,29.07,0.0,0.07,0
350.36716800,350367168,0.0,0.36,0.0,-0.97,29.02,29.02,0.0,0.07,0
350.46696900,350466969,0.0,0.36,0.0,-0.97,29.1,29.1,0.0,0.09,0
350.56694200,350566942,0.0,0.35000000000000003,0.0,-0.97,29.17,29.17,0.0,0.09,0
350.66692000,350666920,0.0,0.35000000000000003,0.0,-0.97,29.14,29.14,0.0,0.09,0
350.76721900,350767219,0.0,0.35000000000000003,0.0,-0.97,29.09,29.09,0.0,0.08,0
350.86691700,350866917,0.0,0.35000000000000003,0.0,-0.97,29.07,29.07,0.0,0.07,0
350.96691200,350966912,0.0,0.35000000000000003,0.0,-0.97,29.09,29.09,0.0,0.06,0
351.06697300,351066973,0.0,0.35000000000000003,0.0,-0.97,29.01,29.01,0.0,0.07,0
351.16693400,351166934,0.0,0.35000000000000003,0.0,-0.97,28.97,28.97,0.0,0.07,0
351.26729400,351267294,0.0,0.35000000000000003,0.0,-0.97,28.95,28.95,0.0,0.06,0
351.36717000,351367170,0.0,0.35000000000000003,0.0,-0.97,28.87,28.87,0.0,0.07,0
351.46694600,351466946,0.0,0.35000000000000003,0.0,-0.97,28.86,28.86,0.0,0.06,0
351.56700400,351567004,0.0,0.35000000000000003,0.0,-0.97,28.830000000000002,28.830000000000002,0.0,0.06,0
351.66690700,351666907,0.0,0.35000000000000003,0.0,-0.97,28.82,28.82,0.0,0.04,0
351.76721100,351767211,0.0,0.34,0.0,-0.97,28.810000000000002,28.810000000000002,0.0,0.04,0
351.86697200,351866972,0.0,0.35000000000000003,0.0,-0.97,28.77,28.77,0.0,0.04,0
351.96699400,351966994,0.0,0.34,0.0,-0.97,28.830000000000002,28.830000000000002,0.0,0.06,0
352.06690200,352066902,0.0,0.34,0.0,-0.97,28.85,28.85,0.0,0.05,0
352.16695000,352166950,0.0,0.35000000000000003,0.0,-0.97,28.810000000000002,28.810000000000002,0.0,0.05,0
352.26726500,352267265,0.0,0.35000000000000003,0.0,-0.97,28.830000000000002,28.830000000000002,0.0,0.05,0
352.36719200,352367192,0.0,0.34,0.0,-0.97,28.89,28.89,0.0,0.06,0
352.46696000,352466960,0.0,0.35000000000000003,0.0,-0.97,28.82,28.82,0.0,0.07,0
352.56697300,352566973,0.0,0.35000000000000003,0.0,-0.97,28.79,28.79,0.0,0.06,0
352.66696600,352666966,0.0,0.34,0.0,-0.97,28.84,28.84,0.0,0.07,0
352.76720100,352767201,0.0,0.34,0.0,-0.97,28.830000000000002,28.830000000000002,0.0,0.06,0
352.86693900,352866939,0.0,0.34,0.0,-0.97,28.8,28.8,0.0,0.06,0
352.96696800,352966968,0.0,0.34,0.0,-0.98,28.85,28.85,0.0,0.06,0
353.06696100,353066961,0.0,0.34,0.0,-0.98,28.87,28.87,0.0,0.06,0
363.26723700,363267237,0.0,0.33,0.0,-0.98,28.52,28.52,0.0,0.06,0
363.36709700,363367097,0.0,0.33,0.0,-0.98,28.45,28.45,0.0,0.07,0
363.46691900,363466919,0.0,0.33,0.0,-0.98,28.44,28.44,0.0,0.06,0
363.56698100,363566981,0.0,0.33,0.0,-0.98,28.48,28.48,0.0,0.06,0
363.66691600,363666916,0.0,0.32,0.0,-0.98,28.48,28.48,0.0,0.05,0
363.76725900,363767259,0.0,0.33,0.0,-0.98,28.46,28.46,0.0,0.04,0
363.86701500,363867015,0.0,0.33,0.0,-0.98,28.43,28.43,0.0,0.04,0
363.96699100,363966991,0.0,0.33,0.0,-0.97,28.45,28.45,0.0,0.04,0
364.06691500,364066915,0.0,0.33,0.0,-0.97,28.44,28.44,0.0,0.04,0
364.16692500,364166925,0.0,0.33,0.0,-0.97,28.46,28.46,0.0,0.04,0
364.26720000,364267200,0.0,0.33,0.0,-0.97,28.51,28.51,0.0,0.05,0
364.36715400,364367154,0.0,0.33,0.0,-0.97,28.51,28.51,0.0,0.04,0
364.46691700,364466917,0.0,0.33,0.0,-0.97,28.51,28.51,0.0,0.03,0
364.56692700,364566927,0.0,0.33,0.0,-0.97,28.53,28.53,0.0,0.03,0
364.66692600,364666926,0.0,0.33,0.0,-0.97,28.55,28.55,0.0,0.03,0
364.76722200,364767222,0.0,0.33,0.0,-0.97,28.51,28.51,0.0,0.04,0
364.86692700,364866927,0.0,0.33,0.0,-0.97,28.560000000000002,28.560000000000002,0.0,0.04,0
364.96692100,364966921,0.0,0.33,0.0,-0.97,28.55,28.55,0.0,0.03,0
365.06696900,365066969,0.0,0.33,0.0,-0.97,28.560000000000002,28.560000000000002,0.0,0.03,0
365.16692700,365166927,0.0,0.33,0.0,-0.97,28.560000000000002,28.560000000000002,0.0,0.02,0
365.26720900,365267209,0.0,0.33,0.0,-0.98,28.62,28.62,0.0,0.04,0
365.36709100,365367091,0.0,0.33,0.0,-0.98,28.69,28.69,0.0,0.05,0
365.46698200,365466982,0.0,0.33,0.0,-0.98,28.67,28.67,0.0,0.05,0
367.56691600,367566916,0.0,0.34,0.0,-0.99,28.67,28.67,0.0,0.03,0
367.66690100,367666901,0.0,0.34,0.0,-0.99,28.650000000000002,28.650000000000002,0.0,0.03,0
367.76721700,367767217,0.0,0.34,0.0,-0.99,28.67,28.67,0.0,0.03,0
367.86692700,367866927,0.0,0.34,0.0,-0.99,28.68,28.68,0.0,0.03,0
367.96691500,367966915,0.0,0.34,0.0,-0.99,28.69,28.69,0.0,0.03,0
368.06694000,368066940,0.0,0.34,0.0,-0.99,28.66,28.66,0.0,0.03,0
368.16696100,368166961,0.0,0.34,0.0,-0.99,28.7,28.7,0.0,0.04,0
368.26727700,368267277,0.0,0.34,0.0,-0.99,28.75,28.75,0.0,0.05,0
368.36715100,368367151,0.0,0.34,0.0,-0.99,28.740000000000002,28.740000000000002,0.0,0.04,0
368.46694000,368466940,0.0,0.34,0.0,-0.99,28.740000000000002,28.740000000000002,0.0,0.03,0
368.56695500,368566955,0.0,0.34,0.0,-0.99,28.77,28.77,0.0,0.03,0
368.66697900,368666979,0.0,0.34,0.0,-0.99,28.7,28.7,0.0,0.05,0
368.76721900,368767219,0.0,0.34,0.0,-0.99,28.76,28.76,0.0,0.06,0
368.86693600,368866936,0.0,0.34,0.0,-0.99,28.77,28.77,0.0,0.05,0
368.96693500,368966935,0.0,0.34,0.0,-1.0,28.71,28.71,0.0,0.05,0
369.06700100,369067001,0.0,0.34,0.0,-1.0,28.72,28.72,0.0,0.04,0
369.16689600,369166896,0.0,0.34,0.0,-0.99,28.63,28.63,0.0,0.07,0
371.26719900,371267199,0.0,0.33,0.0,-0.98,28.73,28.73,0.0,0.05,0
371.36717300,371367173,0.0,0.33,0.0,-0.98,28.69,28.69,0.0,0.05,0
371.46691500,371466915,0.0,0.34,0.0,-0.98,28.650000000000002,28.650000000000002,0.0,0.06,0
371.56691900,371566919,0.0,0.34,0.0,-0.98,28.61,28.61,0.0,0.06,0
371.66696000,371666960,0.0,0.33,0.0,-0.98,28.64,28.64,0.0,0.05,0
371.76731100,371767311,0.0,0.33,0.0,-0.98,28.650000000000002,28.650000000000002,0.0,0.05,0
371.86692200,371866922,0.0,0.33,0.0,-0.98,28.7,28.7,0.0,0.05,0
371.96693400,371966934,0.0,0.33,0.0,-0.99,28.650000000000002,28.650000000000002,0.0,0.06,0
372.06695800,372066958,0.0,0.33,0.0,-0.98,28.580000000000002,28.580000000000002,0.0,0.07,0
372.16688200,372166882,0.0,0.33,0.0,-0.98,28.68,28.68,0.0,0.09,0
372.26723000,372267230,0.0,0.33,0.0,-0.99,28.72,28.72,0.0,0.08,0
372.36718600,372367186,0.0,0.33,0.0,-0.98,28.69,28.69,0.0,0.08,0
372.46691400,372466914,0.0,0.33,0.0,-0.98,28.67,28.67,0.0,0.07,0
372.56691000,372566910,0.0,0.33,0.0,-0.98,28.63,28.63,0.0,0.06,0
372.66691800,372666918,0.0,0.33,0.0,-0.98,28.61,28.61,0.0,0.06,0
374.76724200,374767242,0.0,0.35000000000000003,0.0,-0.98,28.63,28.63,0.0,0.04,0
374.86700800,374867008,0.0,0.35000000000000003,0.0,-0.98,28.71,28.71,0.0,0.06,0
374.96691700,374966917,0.0,0.35000000000000003,0.0,-0.98,28.7,28.7,0.0,0.05,0
375.06693500,375066935,0.0,0.35000000000000003,0.0,-0.98,28.7,28.7,0.0,0.04,0
375.16694200,375166942,0.0,0.35000000000000003,0.0,-0.98,28.68,28.68,0.0,0.04,0
375.26719300,375267193,0.0,0.35000000000000003,0.0,-0.98,28.6,28.6,0.0,0.06,0
375.36727900,375367279,0.0,0.35000000000000003,0.0,-0.98,28.62,28.62,0.0,0.05,0
375.46690400,375466904,0.0,0.35000000000000003,0.0,-0.98,28.62,28.62,0.0,0.04,0
375.56697700,375566977,0.0,0.35000000000000003,0.0,-0.98,28.64,28.64,0.0,0.03,0
375.66693300,375666933,0.0,0.35000000000000003,0.0,-0.98,28.68,28.68,0.0,0.04,0
375.76721200,375767212,0.0,0.35000000000000003,0.0,-0.98,28.69,28.69,0.0,0.03,0
375.86694600,375866946,0.0,0.35000000000000003,0.0,-0.97,28.69,28.69,0.0,0.03,0
375.96693500,375966935,0.0,0.34,0.0,-0.97,28.75,28.75,0.0,0.04,0
376.06693100,376066931,0.0,0.35000000000000003,0.0,-0.97,28.810000000000002,28.810000000000002,0.0,0.05,0
376.16693300,376166933,0.0,0.34,0.0,-0.97,28.82,28.82,0.0,0.04,0
376.26727700,376267277,0.0,0.35000000000000003,0.0,-0.97,28.8,28.8,0.0,0.04,0
376.36713900,376367139,0.0,0.35000000000000003,0.0,-0.97,28.810000000000002,28.810000000000002,0.0,0.03,0
376.46703300,376467033,0.0,0.35000000000000003,0.0,-0.97,28.85,28.85,0.0,0.04,0
376.56697000,376566970,0.0,0.35000000000000003,0.0,-0.97,28.86,28.86,0.0,0.03,0
376.66691400,376666914,0.0,0.35000000000000003,0.0,-0.97,28.87,28.87,0.0,0.03,0
376.76722000,376767220,0.0,0.35000000000000003,0.0,-0.97,28.86,28.86,0.0,0.03,0
376.86689000,376866890,0.0,0.35000000000000003,0.0,-0.97,28.82,28.82,0.0,0.03,0
376.96690800,376966908,0.0,0.35000000000000003,0.0,-0.97,28.87,28.87,0.0,0.04,0
377.06690900,377066909,0.0,0.35000000000000003,0.0,-0.97,28.92,28.92,0.0,0.05,0
377.16697400,377166974,0.0,0.35000000000000003,0.0,-0.97,28.900000000000002,28.900000000000002,0.0,0.04,0
377.26721400,377267214,0.0,0.35000000000000003,0.0,-0.97,28.89,28.89,0.0,0.04,0
379.36711300,379367113,0.0,0.36,0.0,-0.97,28.76,28.76,0.0,0.06,0
379.46695700,379466957,0.0,0.36,0.0,-0.97,28.77,28.77,0.0,0.05,0
379.56699400,379566994,0.0,0.36,0.0,-0.97,28.75,28.75,0.0,0.05,0
379.66696900,379666969,0.0,0.36,0.0,-0.97,28.77,28.77,0.0,0.04,0
379.76725000,379767250,0.0,0.35000000000000003,0.0,-0.98,28.810000000000002,28.810000000000002,0.0,0.04,0
379.86696300,379866963,0.0,0.36,0.0,-0.97,28.810000000000002,28.810000000000002,0.0,0.04,0
379.96688500,379966885,0.0,0.35000000000000003,0.0,-0.98,28.8,28.8,0.0,0.03,0
380.06698000,380066980,0.0,0.35000000000000003,0.0,-0.98,28.82,28.82,0.0,0.03,0
380.16692500,380166925,0.0,0.35000000000000003,0.0,-0.97,28.84,28.84,0.0,0.03,0
380.26722700,380267227,0.0,0.35000000000000003,0.0,-0.98,28.84,28.84,0.0,0.02,0
380.36716600,380367166,0.0,0.35000000000000003,0.0,-0.98,28.86,28.86,0.0,0.02,0
380.46694800,380466948,0.0,0.35000000000000003,0.0,-0.98,28.900000000000002,28.900000000000002,0.0,0.03,0
380.56693900,380566939,0.0,0.35000000000000003,0.0,-0.98,28.990000000000002,28.990000000000002,0.0,0.05,0
380.66703100,380667031,0.0,0.35000000000000003,0.0,-0.98,28.98,28.98,0.0,0.05,0
380.76727800,380767278,0.0,0.35000000000000003,0.0,-0.98,28.97,28.97,0.0,0.04,0
380.86691800,380866918,0.0,0.35000000000000003,0.0,-0.98,28.97,28.97,0.0,0.03,0
380.96692000,380966920,0.0,0.35000000000000003,0.0,-0.98,28.95,28.95,0.0,0.03,0
381.06696800,381066968,0.0,0.35000000000000003,0.0,-0.98,28.96,28.96,0.0,0.03,0
381.16697900,381166979,0.0,0.35000000000000003,0.0,-0.98,28.97,28.97,0.0,0.02,0
381.26720800,381267208,0.0,0.35000000000000003,0.0,-0.98,29.060000000000002,29.060000000000002,0.0,0.05,0
381.36719500,381367195,0.0,0.35000000000000003,0.0,-0.98,29.09,29.09,0.0,0.05,0
381.46693500,381466935,0.0,0.35000000000000003,0.0,-0.98,29.060000000000002,29.060000000000002,0.0,0.05,0
381.56692800,381566928,0.0,0.35000000000000003,0.0,-0.98,29.05,29.05,0.0,0.04,0
381.66693300,381666933,0.0,0.35000000000000003,0.0,-0.98,29.03,29.03,0.0,0.04,0
381.76722400,381767224,0.0,0.36,0.0,-0.98,28.990000000000002,28.990000000000002,0.0,0.04,0
381.86692500,381866925,0.0,0.35000000000000003,0.0,-0.99,29.04,29.04,0.0,0.05,0
381.96691900,381966919,0.0,0.35000000000000003,0.0,-0.99,29.07,29.07,0.0,0.05,0
382.06691200,382066912,0.0,0.35000000000000003,0.0,-0.99,29.060000000000002,29.060000000000002,0.0,0.04,0
382.16691400,382166914,0.0,0.35000000000000003,0.0,-0.99,29.02,29.02,0.0,0.04,0
382.26725800,382267258,0.0,0.35000000000000003,0.0,-0.99,28.96,28.96,0.0,0.06,0
382.36716500,382367165,0.0,0.35000000000000003,0.0,-0.99,28.93,28.93,0.0,0.05,0
382.46690800,382466908,0.0,0.35000000000000003,0.0,-0.99,29.0,29.0,0.0,0.07,0
382.56697000,382566970,0.0,0.35000000000000003,0.0,-0.99,29.02,29.02,0.0,0.06,0
382.66696200,382666962,0.0,0.35000000000000003,0.0,-0.99,28.96,28.96,0.0,0.07,0
382.76744100,382767441,0.0,0.35000000000000003,0.0,-0.99,28.900000000000002,28.900000000000002,0.0,0.08,0
382.86693900,382866939,0.0,0.35000000000000003,0.0,-0.99,28.92,28.92,0.0,0.07,0
382.96694600,382966946,0.0,0.35000000000000003,0.0,-0.99,28.900000000000002,28.900000000000002,0.0,0.06,0
383.06696100,383066961,0.0,0.35000000000000003,0.0,-0.99,28.92,28.92,0.0,0.05,0
383.16691600,383166916,0.0,0.35000000000000003,0.0,-0.99,28.88,28.88,0.0,0.05,0
383.26719000,383267190,0.0,0.35000000000000003,0.0,-0.99,28.88,28.88,0.0,0.04,0
383.36717800,383367178,0.0,0.34,0.0,-0.99,28.900000000000002,28.900000000000002,0.0,0.04,0
383.46693100,383466931,0.0,0.34,0.0,-0.99,28.92,28.92,0.0,0.04,0
383.56691300,383566913,0.0,0.34,0.0,-0.99,28.900000000000002,28.900000000000002,0.0,0.03,0
383.66689900,383666899,0.0,0.34,0.0,-0.99,28.91,28.91,0.0,0.03,0
383.76725600,383767256,0.0,0.34,0.0,-0.99,28.94,28.94,0.0,0.03,0
383.86698400,383866984,0.0,0.34,0.0,-0.99,28.97,28.97,0.0,0.03,0
383.96694400,383966944,0.0,0.34,0.0,-0.99,28.96,28.96,0.0,0.03,0
384.06690400,384066904,0.0,0.34,0.0,-0.99,28.96,28.96,0.0,0.02,0
384.16696300,384166963,0.0,0.34,0.0,-0.99,28.92,28.92,0.0,0.03,0
384.26729200,384267292,0.0,0.34,0.0,-0.98,28.97,28.97,0.0,0.04,0
384.36722800,384367228,0.0,0.34,0.0,-0.98,28.97,28.97,0.0,0.03,0
384.46693400,384466934,0.0,0.34,0.0,-0.99,29.060000000000002,29.060000000000002,0.0,0.05,0
384.56694300,384566943,0.0,0.34,0.0,-0.99,29.18,29.18,0.0,0.08,0
384.66690500,384666905,0.0,0.34,0.0,-0.99,29.28,29.28,0.0,0.1,0
384.76718300,384767183,0.0,0.34,0.0,-0.99,29.26,29.26,0.0,0.08,0
384.86693500,384866935,0.0,0.34,0.0,-0.99,29.310000000000002,29.310000000000002,0.0,0.08,0
384.96691000,384966910,0.0,0.34,0.0,-0.99,29.32,29.32,0.0,0.07,0
385.06692500,385066925,0.0,0.34,0.0,-0.99,29.330000000000002,29.330000000000002,0.0,0.06,0
385.16690300,385166903,0.0,0.34,0.0,-0.99,29.34,29.34,0.0,0.05,0
385.26730000,385267300,0.0,0.34,0.0,-0.99,29.34,29.34,0.0,0.04,0
385.36742600,385367426,0.0,0.34,0.0,-0.99,29.37,29.37,0.0,0.04,0
385.46695800,385466958,0.0,0.34,0.0,-0.99,29.36,29.36,0.0,0.04,0
385.56691100,385566911,0.0,0.34,0.0,-0.99,29.41,29.41,0.0,0.05,0
385.66692100,385666921,0.0,0.34,0.0,-0.99,29.44,29.44,0.0,0.04,0
385.76727000,385767270,0.0,0.34,0.0,-0.99,29.39,29.39,0.0,0.05,0
385.86702400,385867024,0.0,0.34,0.0,-0.99,29.310000000000002,29.310000000000002,0.0,0.07,0
385.96691600,385966916,0.0,0.34,0.0,-0.99,29.3,29.3,0.0,0.06,0
386.06693200,386066932,0.0,0.34,0.0,-0.99,29.39,29.39,0.0,0.08,0
386.16696100,386166961,0.0,0.34,0.0,-0.99,29.41,29.41,0.0,0.06,0
386.26719000,386267190,0.0,0.34,0.0,-0.99,29.44,29.44,0.0,0.06,0
386.36719500,386367195,0.0,0.34,0.0,-0.99,29.41,29.41,0.0,0.06,0
386.46691600,386466916,0.0,0.34,0.0,-0.99,29.42,29.42,0.0,0.05,0
386.56694300,386566943,0.0,0.34,0.0,-0.99,29.42,29.42,0.0,0.04,0
386.66692800,386666928,0.0,0.35000000000000003,0.0,-0.98,29.45,29.45,0.0,0.04,0
386.76727000,386767270,0.0,0.35000000000000003,0.0,-0.98,29.490000000000002,29.490000000000002,0.0,0.04,0
386.86698200,386866982,0.0,0.35000000000000003,0.0,-0.98,29.48,29.48,0.0,0.04,0
386.96704600,386967046,0.0,0.35000000000000003,0.0,-0.98,29.47,29.47,0.0,0.03,0
387.06692800,387066928,0.0,0.35000000000000003,0.0,-0.98,29.39,29.39,0.0,0.05,0
387.16694200,387166942,0.0,0.35000000000000003,0.0,-0.99,29.39,29.39,0.0,0.04,0
387.26720800,387267208,0.0,0.35000000000000003,0.0,-0.99,29.37,29.37,0.0,0.04,0
387.36716700,387367167,0.0,0.36,0.0,-0.99,29.34,29.34,0.0,0.04,0
387.46697600,387466976,0.0,0.35000000000000003,0.0,-0.99,29.310000000000002,29.310000000000002,0.0,0.04,0
387.56692300,387566923,0.0,0.35000000000000003,0.0,-0.99,29.27,29.27,0.0,0.05,0
387.66693300,387666933,0.0,0.35000000000000003,0.0,-0.99,29.29,29.29,0.0,0.04,0
387.76719300,387767193,0.0,0.35000000000000003,0.0,-0.99,29.27,29.27,0.0,0.04,0
387.86691200,387866912,0.0,0.35000000000000003,0.0,-0.99,29.22,29.22,0.0,0.05,0
387.96695700,387966957,0.0,0.36,0.0,-0.99,29.2,29.2,0.0,0.05,0
388.06694400,388066944,0.0,0.36,0.0,-0.98,29.150000000000002,29.150000000000002,0.0,0.05,0
388.16692100,388166921,0.0,0.36,0.0,-0.98,29.11,29.11,0.0,0.06,0
388.26724300,388267243,0.0,0.35000000000000003,0.0,-0.98,29.19,29.19,0.0,0.07,0
388.36722600,388367226,0.0,0.35000000000000003,0.0,-0.98,29.2,29.2,0.0,0.06,0
388.46696700,388466967,0.0,0.35000000000000003,0.0,-0.98,29.240000000000002,29.240000000000002,0.0,0.06,0
388.56698400,388566984,0.0,0.35000000000000003,0.0,-0.98,29.26,29.26,0.0,0.05,0
388.66693000,388666930,0.0,0.35000000000000003,0.0,-0.98,29.3,29.3,0.0,0.05,0
388.76723600,388767236,0.0,0.35000000000000003,0.0,-0.98,29.330000000000002,29.330000000000002,0.0,0.05,0
388.86697500,388866975,0.0,0.35000000000000003,0.0,-0.98,29.32,29.32,0.0,0.04,0
388.96697000,388966970,0.0,0.35000000000000003,0.0,-0.98,29.28,29.28,0.0,0.05,0
389.06692300,389066923,0.0,0.35000000000000003,0.0,-0.99,29.29,29.29,0.0,0.04,0
389.16692400,389166924,0.0,0.35000000000000003,0.0,-0.99,29.32,29.32,0.0,0.04,0
389.26721900,389267219,0.0,0.35000000000000003,0.0,-0.99,29.28,29.28,0.0,0.05,0
389.36719600,389367196,0.0,0.35000000000000003,0.0,-0.99,29.29,29.29,0.0,0.04,0
389.46696000,389466960,0.0,0.34,0.0,-0.99,29.3,29.3,0.0,0.03,0
389.56690600,389566906,0.0,0.35000000000000003,0.0,-0.99,29.3,29.3,0.0,0.03,0
389.66692000,389666920,0.0,0.35000000000000003,0.0,-0.99,29.3,29.3,0.0,0.02,0
389.76723300,389767233,0.0,0.35000000000000003,0.0,-0.99,29.310000000000002,29.310000000000002,0.0,0.02,0
389.86690500,389866905,0.0,0.34,0.0,-0.99,29.26,29.26,0.0,0.03,0
389.96694100,389966941,0.0,0.34,0.0,-0.99,29.26,29.26,0.0,0.03,0
390.06697500,390066975,0.0,0.34,0.0,-0.99,29.26,29.26,0.0,0.02,0
390.16692100,390166921,0.0,0.34,0.0,-0.99,29.37,29.37,0.0,0.05,0
390.26724900,390267249,0.0,0.34,0.0,-0.99,29.37,29.37,0.0,0.04,0
390.36710000,390367100,0.0,0.34,0.0,-0.99,29.38,29.38,0.0,0.04,0
390.46696600,390466966,0.0,0.34,0.0,-0.99,29.37,29.37,0.0,0.03,0
390.56690900,390566909,0.0,0.34,0.0,-0.99,29.43,29.43,0.0,0.05,0
390.66694000,390666940,0.0,0.34,0.0,-0.99,29.53,29.53,0.0,0.07,0
390.76722300,390767223,0.0,0.34,0.0,-0.99,29.52,29.52,0.0,0.06,0
390.86693500,390866935,0.0,0.34,0.0,-0.99,29.55,29.55,0.0,0.05,0
390.96692000,390966920,0.0,0.34,0.0,-0.99,29.5,29.5,0.0,0.06,0
391.06696100,391066961,0.0,0.34,0.0,-0.98,29.47,29.47,0.0,0.06,0
391.16698600,391166986,0.0,0.34,0.0,-0.98,29.41,29.41,0.0,0.06,0
391.26721200,391267212,0.0,0.34,0.0,-0.98,29.3,29.3,0.0,0.09,0
391.36723300,391367233,0.0,0.34,0.0,-0.98,29.25,29.25,0.0,0.09,0
391.46692300,391466923,0.0,0.34,0.0,-0.98,29.25,29.25,0.0,0.07,0
391.56695400,391566954,0.0,0.34,0.0,-0.98,29.16,29.16,0.0,0.09,0
391.66698000,391666980,0.0,0.34,0.0,-0.98,29.150000000000002,29.150000000000002,0.0,0.08,0
391.76727200,391767272,0.0,0.34,0.0,-0.98,29.12,29.12,0.0,0.07,0
391.86691600,391866916,0.0,0.34,0.0,-0.98,29.13,29.13,0.0,0.06,0
391.96693700,391966937,0.0,0.34,0.0,-0.98,29.12,29.12,0.0,0.05,0
392.06696200,392066962,0.0,0.34,0.0,-0.98,29.11,29.11,0.0,0.04,0
392.16691800,392166918,0.0,0.34,0.0,-0.98,29.080000000000002,29.080000000000002,0.0,0.05,0
392.26724000,392267240,0.0,0.34,0.0,-0.98,29.09,29.09,0.0,0.04,0
392.36719300,392367193,0.0,0.34,0.0,-0.98,29.07,29.07,0.0,0.04,0
392.46699000,392466990,0.0,0.34,0.0,-0.98,29.12,29.12,0.0,0.04,0
392.56691500,392566915,0.0,0.34,0.0,-0.98,29.150000000000002,29.150000000000002,0.0,0.04,0
392.66691600,392666916,0.0,0.34,0.0,-0.98,29.150000000000002,29.150000000000002,0.0,0.03,0
392.76721200,392767212,0.0,0.34,0.0,-0.98,29.22,29.22,0.0,0.05,0
392.86693500,392866935,0.0,0.34,0.0,-0.98,29.21,29.21,0.0,0.04,0
392.96692300,392966923,0.0,0.33,0.0,-0.98,29.17,29.17,0.0,0.05,0
393.06694500,393066945,0.0,0.34,0.0,-0.98,29.16,29.16,0.0,0.04,0
393.16695500,393166955,0.0,0.34,0.0,-0.98,29.19,29.19,0.0,0.04,0
393.26724000,393267240,0.0,0.34,0.0,-0.98,29.22,29.22,0.0,0.04,0
393.36720100,393367201,0.0,0.34,0.0,-0.98,29.21,29.21,0.0,0.03,0
393.46692200,393466922,0.0,0.34,0.0,-0.98,29.19,29.19,0.0,0.04,0
393.56694900,393566949,0.0,0.34,0.0,-0.98,29.21,29.21,0.0,0.03,0
393.66698100,393666981,0.0,0.34,0.0,-0.98,29.22,29.22,0.0,0.03,0
393.76720900,393767209,0.0,0.34,0.0,-0.98,29.16,29.16,0.0,0.04,0
393.86693000,393866930,0.0,0.35000000000000003,0.0,-0.98,29.1,29.1,0.0,0.05,0
393.96696000,393966960,0.0,0.35000000000000003,0.0,-0.98,29.04,29.04,0.0,0.06,0
394.06689500,394066895,0.0,0.35000000000000003,0.0,-0.97,29.080000000000002,29.080000000000002,0.0,0.06,0
394.16691600,394166916,0.0,0.35000000000000003,0.0,-0.97,28.990000000000002,28.990000000000002,0.0,0.08,0
394.26723600,394267236,0.0,0.35000000000000003,0.0,-0.97,29.03,29.03,0.0,0.07,0
403.46697300,403466973,0.0,0.34,0.0,-0.97,29.45,29.45,0.0,0.04,0
403.56692000,403566920,0.0,0.34,0.0,-0.97,29.44,29.44,0.0,0.04,0
403.66691600,403666916,0.0,0.34,0.0,-0.98,29.45,29.45,0.0,0.03,0
403.76724600,403767246,0.0,0.34,0.0,-0.98,29.39,29.39,0.0,0.05,0
403.86691000,403866910,0.0,0.34,0.0,-0.98,29.35,29.35,0.0,0.05,0
403.96692900,403966929,0.0,0.34,0.0,-0.98,29.37,29.37,0.0,0.04,0
404.06693200,404066932,0.0,0.34,0.0,-0.98,29.36,29.36,0.0,0.04,0
404.16698700,404166987,0.0,0.34,0.0,-0.98,29.400000000000002,29.400000000000002,0.0,0.04,0
404.26721200,404267212,0.0,0.34,0.0,-0.98,29.330000000000002,29.330000000000002,0.0,0.06,0
404.36714200,404367142,0.0,0.34,0.0,-0.98,29.240000000000002,29.240000000000002,0.0,0.08,0
404.46696000,404466960,0.0,0.34,0.0,-0.98,29.22,29.22,0.0,0.07,0
404.56696700,404566967,0.0,0.34,0.0,-0.98,29.19,29.19,0.0,0.06,0
404.66690100,404666901,0.0,0.34,0.0,-0.98,29.27,29.27,0.0,0.07,0
404.76723600,404767236,0.0,0.34,0.0,-0.98,29.29,29.29,0.0,0.06,0
404.86695000,404866950,0.0,0.34,0.0,-0.97,29.330000000000002,29.330000000000002,0.0,0.06,0
404.96690100,404966901,0.0,0.34,0.0,-0.97,29.3,29.3,0.0,0.06,0
405.06693700,405066937,0.0,0.34,0.0,-0.97,29.3,29.3,0.0,0.05,0
405.16690700,405166907,0.0,0.34,0.0,-0.97,29.3,29.3,0.0,0.04,0
405.26723100,405267231,0.0,0.34,0.0,-0.97,29.29,29.29,0.0,0.03,0
407.36712800,407367128,0.0,0.34,0.0,-0.97,29.32,29.32,0.0,0.05,0
407.46691200,407466912,0.0,0.34,0.0,-0.97,29.36,29.36,0.0,0.05,0
407.56693600,407566936,0.0,0.34,0.0,-0.97,29.35,29.35,0.0,0.05,0
407.66698300,407666983,0.0,0.34,0.0,-0.97,29.35,29.35,0.0,0.04,0
407.76722400,407767224,0.0,0.34,0.0,-0.97,29.42,29.42,0.0,0.05,0
407.86694200,407866942,0.0,0.34,0.0,-0.97,29.43,29.43,0.0,0.05,0
407.96705800,407967058,0.0,0.34,0.0,-0.97,29.43,29.43,0.0,0.04,0
408.06694000,408066940,0.0,0.34,0.0,-0.96,29.37,29.37,0.0,0.05,0
408.16692300,408166923,0.0,0.34,0.0,-0.96,29.330000000000002,29.330000000000002,0.0,0.05,0
408.26721700,408267217,0.0,0.34,0.0,-0.97,29.3,29.3,0.0,0.05,0
408.36724000,408367240,0.0,0.34,0.0,-0.97,29.26,29.26,0.0,0.05,0
408.46692400,408466924,0.0,0.34,0.0,-0.97,29.25,29.25,0.0,0.04,0
408.56691800,408566918,0.0,0.34,0.0,-0.97,29.25,29.25,0.0,0.04,0
408.66694000,408666940,0.0,0.34,0.0,-0.97,29.3,29.3,0.0,0.05,0
408.76726100,408767261,0.0,0.34,0.0,-0.97,29.26,29.26,0.0,0.05,0
408.86696600,408866966,0.0,0.34,0.0,-0.97,29.27,29.27,0.0,0.04,0
408.96691200,408966912,0.0,0.34,0.0,-0.97,29.26,29.26,0.0,0.03,0
409.06693700,409066937,0.0,0.34,0.0,-0.97,29.26,29.26,0.0,0.03,0
409.16696600,409166966,0.0,0.35000000000000003,0.0,-0.97,29.23,29.23,0.0,0.03,0
409.26719800,409267198,0.0,0.35000000000000003,0.0,-0.97,29.25,29.25,0.0,0.03,0
409.36718300,409367183,0.0,0.35000000000000003,0.0,-0.97,29.25,29.25,0.0,0.02,0
409.46693300,409466933,0.0,0.35000000000000003,0.0,-0.97,29.19,29.19,0.0,0.04,0
409.56697100,409566971,0.0,0.35000000000000003,0.0,-0.97,29.21,29.21,0.0,0.04,0
409.66688000,409666880,0.0,0.35000000000000003,0.0,-0.97,29.310000000000002,29.310000000000002,0.0,0.06,0
409.76718400,409767184,0.0,0.35000000000000003,0.0,-0.97,29.330000000000002,29.330000000000002,0.0,0.06,0
409.86691300,409866913,0.0,0.35000000000000003,0.0,-0.97,29.310000000000002,29.310000000000002,0.0,0.05,0
409.96690900,409966909,0.0,0.35000000000000003,0.0,-0.97,29.29,29.29,0.0,0.04,0
410.06703600,410067036,0.0,0.34,0.0,-0.97,29.37,29.37,0.0,0.06,0
410.16691000,410166910,0.0,0.34,0.0,-0.97,29.35,29.35,0.0,0.06,0
410.26722200,410267222,0.0,0.34,0.0,-0.98,29.44,29.44,0.0,0.07,0
410.36716500,410367165,0.0,0.34,0.0,-0.98,29.45,29.45,0.0,0.06,0
410.46692900,410466929,0.0,0.34,0.0,-0.98,29.400000000000002,29.400000000000002,0.0,0.06,0
410.56690800,410566908,0.0,0.34,0.0,-0.98,29.45,29.45,0.0,0.07,0
410.66693500,410666935,0.0,0.34,0.0,-0.98,29.46,29.46,0.0,0.05,0
410.76724600,410767246,0.0,0.34,0.0,-0.98,29.41,29.41,0.0,0.06,0
410.86692700,410866927,0.0,0.34,0.0,-0.98,29.41,29.41,0.0,0.05,0
410.96693300,410966933,0.0,0.34,0.0,-0.98,29.38,29.38,0.0,0.04,0
411.06694400,411066944,0.0,0.34,0.0,-0.98,29.44,29.44,0.0,0.05,0
411.16694200,411166942,0.0,0.34,0.0,-0.98,29.44,29.44,0.0,0.04,0
411.26718700,411267187,0.0,0.34,0.0,-0.98,29.45,29.45,0.0,0.04,0
411.36727500,411367275,0.0,0.34,0.0,-0.98,29.46,29.46,0.0,0.03,0
411.46694900,411466949,0.0,0.34,0.0,-0.98,29.46,29.46,0.0,0.03,0
411.56692200,411566922,0.0,0.34,0.0,-0.98,29.47,29.47,0.0,0.02,0
411.66690400,411666904,0.0,0.34,0.0,-0.98,29.44,29.44,0.0,0.03,0
411.76721100,411767211,0.0,0.35000000000000003,0.0,-0.98,29.44,29.44,0.0,0.02,0
413.86697900,413866979,0.0,0.35000000000000003,0.0,-0.98,29.66,29.66,0.0,0.03,0
413.96697800,413966978,0.0,0.35000000000000003,0.0,-0.98,29.66,29.66,0.0,0.02,0
414.06692300,414066923,0.0,0.35000000000000003,0.0,-0.98,29.64,29.64,0.0,0.03,0
414.16692100,414166921,0.0,0.35000000000000003,0.0,-0.98,29.62,29.62,0.0,0.03,0
414.26723400,414267234,0.0,0.35000000000000003,0.0,-0.98,29.63,29.63,0.0,0.02,0
414.36719200,414367192,0.0,0.35000000000000003,0.0,-0.98,29.59,29.59,0.0,0.03,0
414.46689500,414466895,0.0,0.35000000000000003,0.0,-0.98,29.59,29.59,0.0,0.03,0
414.56693200,414566932,0.0,0.35000000000000003,0.0,-0.98,29.580000000000002,29.580000000000002,0.0,0.02,0
414.66691800,414666918,0.0,0.35000000000000003,0.0,-0.98,29.6,29.6,0.0,0.02,0
414.76727300,414767273,0.0,0.35000000000000003,0.0,-0.97,29.580000000000002,29.580000000000002,0.0,0.02,0
414.86692200,414866922,0.0,0.35000000000000003,0.0,-0.97,29.53,29.53,0.0,0.03,0
414.96698700,414966987,0.0,0.36,0.0,-0.97,29.51,29.51,0.0,0.03,0
415.06697500,415066975,0.0,0.35000000000000003,0.0,-0.97,29.560000000000002,29.560000000000002,0.0,0.04,0
415.16691200,415166912,0.0,0.35000000000000003,0.0,-0.97,29.560000000000002,29.560000000000002,0.0,0.03,0
417.26721600,417267216,0.0,0.31,0.0,-0.97,29.580000000000002,29.580000000000002,0.0,0.05,0
417.36717900,417367179,0.0,0.33,0.0,-0.96,29.560000000000002,29.560000000000002,0.0,0.04,0
417.46695300,417466953,0.0,0.34,0.0,-0.9500000000000001,29.59,29.59,0.0,0.05,0
417.56694700,417566947,0.0,0.34,0.0,-0.96,29.560000000000002,29.560000000000002,0.0,0.05,0
417.66690900,417666909,0.0,0.35000000000000003,0.0,-0.96,29.6,29.6,0.0,0.05,0
417.76723900,417767239,0.0,0.35000000000000003,0.0,-0.97,29.580000000000002,29.580000000000002,0.0,0.05,0
417.86695600,417866956,0.0,0.35000000000000003,0.0,-0.97,29.560000000000002,29.560000000000002,0.0,0.05,0
417.96696700,417966967,0.0,0.35000000000000003,0.0,-0.96,29.580000000000002,29.580000000000002,0.0,0.04,0
418.06692100,418066921,0.0,0.36,0.0,-0.96,29.63,29.63,0.0,0.05,0
418.16695900,418166959,0.0,0.38,0.0,-0.9500000000000001,29.61,29.61,0.0,0.05,0
418.26727400,418267274,0.0,0.39,0.0,-0.9500000000000001,29.68,29.68,0.0,0.07,0
418.36708600,418367086,0.0,0.38,0.0,-0.96,29.67,29.67,0.0,0.06,0
418.46701400,418467014,0.0,0.38,0.0,-0.9500000000000001,29.63,29.63,0.0,0.06,0
418.56698200,418566982,0.0,0.36,0.0,-0.96,29.76,29.76,0.0,0.09,0
418.66691100,418666911,0.0,0.37,0.0,-0.96,29.73,29.73,0.0,0.07,0
418.76722700,418767227,0.0,0.35000000000000003,0.0,-0.96,29.71,29.71,0.0,0.07,0
418.86692500,418866925,0.0,0.36,0.0,-0.96,29.67,29.67,0.0,0.07,0
418.96694600,418966946,0.0,0.39,0.0,-0.96,29.63,29.63,0.0,0.07,0
419.06688900,419066889,0.0,0.38,0.0,-0.96,29.68,29.68,0.0,0.07,0
419.16694700,419166947,0.0,0.38,0.0,-0.96,29.72,29.72,0.0,0.07,0
419.26722400,419267224,0.0,0.38,0.0,-0.96,29.71,29.71,0.0,0.06,0
419.36722300,419367223,0.0,0.38,0.0,-0.96,29.7,29.7,0.0,0.05,0
419.46692300,419466923,0.0,0.37,0.0,-0.96,29.72,29.72,0.0,0.04,0
419.56692900,419566929,0.0,0.38,0.0,-0.96,29.69,29.69,0.0,0.04,0
419.66691600,419666916,0.0,0.38,0.0,-0.96,29.650000000000002,29.650000000000002,0.0,0.04,0
419.76725600,419767256,0.0,0.39,0.0,-0.96,29.650000000000002,29.650000000000002,0.0,0.04,0
419.86693300,419866933,0.0,0.38,0.0,-0.96,29.64,29.64,0.0,0.03,0
419.96690800,419966908,0.0,0.38,0.0,-0.96,29.57,29.57,0.0,0.05,0
420.06692300,420066923,0.0,0.39,0.0,-0.96,29.490000000000002,29.490000000000002,0.0,0.06,0
420.16696000,420166960,0.0,0.39,0.0,-0.96,29.43,29.43,0.0,0.07,0
420.26721100,420267211,0.0,0.4,0.0,-0.96,29.43,29.43,0.0,0.06,0
420.36722600,420367226,0.0,0.4,0.0,-0.96,29.41,29.41,0.0,0.05,0
420.46694300,420466943,0.0,0.39,0.0,-0.96,29.44,29.44,0.0,0.04,0
420.56704100,420567041,0.0,0.38,0.0,-0.97,29.45,29.45,0.0,0.04,0
420.66691100,420666911,0.0,0.39,0.0,-0.96,29.43,29.43,0.0,0.03,0
420.76721000,420767210,0.0,0.39,0.0,-0.97,29.400000000000002,29.400000000000002,0.0,0.04,0
420.86695800,420866958,0.0,0.39,0.0,-0.97,29.45,29.45,0.0,0.05,0
420.96691500,420966915,0.0,0.39,0.0,-0.97,29.42,29.42,0.0,0.04,0
421.06691200,421066912,0.0,0.38,0.0,-0.97,29.47,29.47,0.0,0.05,0
421.16691500,421166915,0.0,0.38,0.0,-0.97,29.45,29.45,0.0,0.05,0
421.26726600,421267266,0.0,0.38,0.0,-0.97,29.41,29.41,0.0,0.05,0
421.36716800,421367168,0.0,0.38,0.0,-0.97,29.400000000000002,29.400000000000002,0.0,0.04,0
423.46691900,423466919,0.0,0.37,0.0,-0.97,29.740000000000002,29.740000000000002,0.0,0.08,0
423.56694600,423566946,0.0,0.37,0.0,-0.97,29.73,29.73,0.0,0.07,0
423.66696000,423666960,0.0,0.37,0.0,-0.97,29.7,29.7,0.0,0.07,0
423.76720900,423767209,0.0,0.37,0.0,-0.97,29.64,29.64,0.0,0.08,0
423.86691100,423866911,0.0,0.36,0.0,-0.97,29.62,29.62,0.0,0.07,0
423.96697400,423966974,0.0,0.36,0.0,-0.97,29.580000000000002,29.580000000000002,0.0,0.07,0
424.06691400,424066914,0.0,0.36,0.0,-0.97,29.59,29.59,0.0,0.05,0
424.16692000,424166920,0.0,0.36,0.0,-0.97,29.53,29.53,0.0,0.06,0
424.26720700,424267207,0.0,0.36,0.0,-0.97,29.52,29.52,0.0,0.05,0
424.36713800,424367138,0.0,0.35000000000000003,0.0,-0.97,29.51,29.51,0.0,0.04,0
424.46696500,424466965,0.0,0.35000000000000003,0.0,-0.97,29.54,29.54,0.0,0.05,0
424.56691100,424566911,0.0,0.35000000000000003,0.0,-0.97,29.48,29.48,0.0,0.06,0
424.66693400,424666934,0.0,0.35000000000000003,0.0,-0.97,29.42,29.42,0.0,0.06,0
424.76740000,424767400,0.0,0.35000000000000003,0.0,-0.97,29.44,29.44,0.0,0.05,0
424.86691900,424866919,0.0,0.34,0.0,-0.97,29.45,29.45,0.0,0.04,0
424.96698100,424966981,0.0,0.34,0.0,-0.97,29.41,29.41,0.0,0.05,0
425.06692100,425066921,0.0,0.34,0.0,-0.97,29.36,29.36,0.0,0.05,0
425.16693600,425166936,0.0,0.33,0.0,-0.97,29.35,29.35,0.0,0.05,0
425.26721400,425267214,0.0,0.33,0.0,-0.97,29.34,29.34,0.0,0.04,0
425.36719300,425367193,0.0,0.34,0.0,-0.97,29.310000000000002,29.310000000000002,0.0,0.04,0
425.46693400,425466934,0.0,0.33,0.0,-0.97,29.37,29.37,0.0,0.05,0
425.56691500,425566915,0.0,0.33,0.0,-0.97,29.330000000000002,29.330000000000002,0.0,0.06,0
425.66693300,425666933,0.0,0.32,0.0,-0.97,29.28,29.28,0.0,0.06,0
425.76729900,425767299,0.0,0.32,0.0,-0.97,29.26,29.26,0.0,0.05,0
425.86690200,425866902,0.0,0.33,0.0,-0.97,29.3,29.3,0.0,0.05,0
425.96696800,425966968,0.0,0.34,0.0,-0.97,29.26,29.26,0.0,0.05,0
426.06696900,426066969,0.0,0.33,0.0,-0.96,29.23,29.23,0.0,0.05,0
426.16691200,426166912,0.0,0.33,0.0,-0.96,29.22,29.22,0.0,0.04,0
426.26723300,426267233,0.0,0.33,0.0,-0.97,29.22,29.22,0.0,0.03,0
426.36716300,426367163,0.0,0.33,0.0,-0.97,29.25,29.25,0.0,0.04,0
426.46691300,426466913,0.0,0.33,0.0,-0.97,29.26,29.26,0.0,0.03,0
426.56697500,426566975,0.0,0.33,0.0,-0.97,29.29,29.29,0.0,0.03,0
426.66692800,426666928,0.0,0.33,0.0,-0.97,29.32,29.32,0.0,0.03,0
426.76722300,426767223,0.0,0.33,0.0,-0.97,29.32,29.32,0.0,0.03,0
426.86691200,426866912,0.0,0.33,0.0,-0.97,29.3,29.3,0.0,0.03,0
426.96688800,426966888,0.0,0.33,0.0,-0.96,29.32,29.32,0.0,0.03,0
427.06692500,427066925,0.0,0.33,0.0,-0.96,29.3,29.3,0.0,0.02,0
427.16692400,427166924,0.0,0.33,0.0,-0.96,29.28,29.28,0.0,0.03,0
427.26726400,427267264,0.0,0.32,0.0,-0.96,29.240000000000002,29.240000000000002,0.0,0.03,0
427.36709600,427367096,0.0,0.32,0.0,-0.96,29.19,29.19,0.0,0.04,0
427.46691400,427466914,0.0,0.33,0.0,-0.96,29.150000000000002,29.150000000000002,0.0,0.05,0
427.56700900,427567009,0.0,0.33,0.0,-0.96,29.1,29.1,0.0,0.05,0
427.66691900,427666919,0.0,0.33,0.0,-0.96,29.09,29.09,0.0,0.05,0
427.76720800,427767208,0.0,0.32,0.0,-0.96,29.13,29.13,0.0,0.05,0
427.86694500,427866945,0.0,0.33,0.0,-0.96,29.13,29.13,0.0,0.04,0
427.96696300,427966963,0.0,0.32,0.0,-0.96,29.16,29.16,0.0,0.04,0
428.06695900,428066959,0.0,0.32,0.0,-0.96,29.18,29.18,0.0,0.04,0
428.16691400,428166914,0.0,0.33,0.0,-0.96,29.17,29.17,0.0,0.03,0
428.26723800,428267238,0.0,0.33,0.0,-0.96,29.17,29.17,0.0,0.03,0
428.36718700,428367187,0.0,0.33,0.0,-0.96,29.16,29.16,0.0,0.02,0
428.46692600,428466926,0.0,0.32,0.0,-0.96,29.17,29.17,0.0,0.02,0
428.56689300,428566893,0.0,0.32,0.0,-0.96,29.17,29.17,0.0,0.01,0
428.66694500,428666945,0.0,0.32,0.0,-0.96,29.18,29.18,0.0,0.01,0
428.76722800,428767228,0.0,0.32,0.0,-0.96,29.21,29.21,0.0,0.02,0
428.86690600,428866906,0.0,0.32,0.0,-0.96,29.21,29.21,0.0,0.02,0
428.96695500,428966955,0.0,0.32,0.0,-0.96,29.18,29.18,0.0,0.02,0
429.06692900,429066929,0.0,0.33,0.0,-0.96,29.11,29.11,0.0,0.04,0
429.16697000,429166970,0.0,0.33,0.0,-0.96,29.12,29.12,0.0,0.04,0
429.26719000,429267190,0.0,0.33,0.0,-0.96,29.11,29.11,0.0,0.03,0
429.36716900,429367169,0.0,0.33,0.0,-0.96,29.14,29.14,0.0,0.04,0
429.46697100,429466971,0.0,0.33,0.0,-0.96,29.14,29.14,0.0,0.03,0
429.56695600,429566956,0.0,0.33,0.0,-0.96,29.12,29.12,0.0,0.03,0
429.66691600,429666916,0.0,0.33,0.0,-0.96,29.080000000000002,29.080000000000002,0.0,0.03,0
429.76723300,429767233,0.0,0.33,0.0,-0.96,29.060000000000002,29.060000000000002,0.0,0.03,0
429.86693900,429866939,0.0,0.33,0.0,-0.96,29.05,29.05,0.0,0.03,0
429.96690500,429966905,0.0,0.33,0.0,-0.96,29.060000000000002,29.060000000000002,0.0,0.03,0
430.06693000,430066930,0.0,0.33,0.0,-0.96,29.07,29.07,0.0,0.02,0
430.16692400,430166924,0.0,0.33,0.0,-0.9500000000000001,29.04,29.04,0.0,0.02,0
430.26727200,430267272,0.0,0.33,0.0,-0.9500000000000001,29.05,29.05,0.0,0.02,0
430.36716300,430367163,0.0,0.33,0.0,-0.9500000000000001,29.05,29.05,0.0,0.02,0
430.46693900,430466939,0.0,0.33,0.0,-0.9500000000000001,29.03,29.03,0.0,0.02,0
430.56696000,430566960,0.0,0.33,0.0,-0.9500000000000001,29.05,29.05,0.0,0.03,0
430.66696800,430666968,0.0,0.33,0.0,-0.9500000000000001,29.1,29.1,0.0,0.04,0
430.76730400,430767304,0.0,0.33,0.0,-0.9500000000000001,29.16,29.16,0.0,0.05,0
430.86693400,430866934,0.0,0.33,0.0,-0.9500000000000001,29.13,29.13,0.0,0.05,0
430.96691100,430966911,0.0,0.33,0.0,-0.9500000000000001,29.17,29.17,0.0,0.05,0
431.06704000,431067040,0.0,0.33,0.0,-0.96,29.150000000000002,29.150000000000002,0.0,0.04,0
431.16699300,431166993,0.0,0.33,0.0,-0.96,29.18,29.18,0.0,0.05,0
431.26720700,431267207,0.0,0.33,0.0,-0.96,29.14,29.14,0.0,0.05,0
431.36717600,431367176,0.0,0.33,0.0,-0.96,29.21,29.21,0.0,0.06,0
431.46694900,431466949,0.0,0.33,0.0,-0.96,29.16,29.16,0.0,0.06,0
431.56691600,431566916,0.0,0.33,0.0,-0.96,29.13,29.13,0.0,0.06,0
431.66687900,431666879,0.0,0.33,0.0,-0.96,29.12,29.12,0.0,0.05,0
431.76723600,431767236,0.0,0.33,0.0,-0.96,29.11,29.11,0.0,0.04,0
431.86692100,431866921,0.0,0.33,0.0,-0.96,29.13,29.13,0.0,0.04,0
431.96693000,431966930,0.0,0.33,0.0,-0.96,29.11,29.11,0.0,0.03,0
432.06694800,432066948,0.0,0.33,0.0,-0.97,29.1,29.1,0.0,0.03,0
432.16692200,432166922,0.0,0.34,0.0,-0.97,29.060000000000002,29.060000000000002,0.0,0.03,0
432.26722700,432267227,0.0,0.34,0.0,-0.97,29.04,29.04,0.0,0.03,0
432.36714400,432367144,0.0,0.34,0.0,-0.97,29.02,29.02,0.0,0.03,0
432.46692900,432466929,0.0,0.34,0.0,-0.97,29.02,29.02,0.0,0.03,0
432.56694000,432566940,0.0,0.34,0.0,-0.97,29.03,29.03,0.0,0.02,0
432.66697000,432666970,0.0,0.33,0.0,-0.97,29.01,29.01,0.0,0.02,0
432.76721800,432767218,0.0,0.34,0.0,-0.97,29.0,29.0,0.0,0.02,0
432.86691700,432866917,0.0,0.33,0.0,-0.97,28.98,28.98,0.0,0.02,0
432.96695600,432966956,0.0,0.33,0.0,-0.97,28.94,28.94,0.0,0.03,0
433.06694300,433066943,0.0,0.33,0.0,-0.97,28.82,28.82,0.0,0.06,0
433.16692800,433166928,0.0,0.34,0.0,-0.97,28.8,28.8,0.0,0.05,0
433.26721300,433267213,0.0,0.34,0.0,-0.97,28.82,28.82,0.0,0.05,0
433.36726500,433367265,0.0,0.34,0.0,-0.97,28.810000000000002,28.810000000000002,0.0,0.04,0
433.46691300,433466913,0.0,0.34,0.0,-0.98,28.8,28.8,0.0,0.03,0
433.56689900,433566899,0.0,0.34,0.0,-0.97,28.78,28.78,0.0,0.03,0
433.66696400,433666964,0.0,0.34,0.0,-0.97,28.76,28.76,0.0,0.03,0
433.76725100,433767251,0.0,0.34,0.0,-0.98,28.73,28.73,0.0,0.03,0
433.86699900,433866999,0.0,0.34,0.0,-0.97,28.72,28.72,0.0,0.03,0
433.96691900,433966919,0.0,0.34,0.0,-0.98,28.67,28.67,0.0,0.03,0
434.06692300,434066923,0.0,0.34,0.0,-0.97,28.63,28.63,0.0,0.04,0
434.16698500,434166985,0.0,0.34,0.0,-0.98,28.63,28.63,0.0,0.03,0
436.26723100,436267231,0.0,0.34,0.0,-0.97,28.38,28.38,0.0,0.03,0
436.36719200,436367192,0.0,0.34,0.0,-0.97,28.36,28.36,0.0,0.03,0
436.46690900,436466909,0.0,0.34,0.0,-0.97,28.37,28.37,0.0,0.03,0
438.56691900,438566919,0.0,0.35000000000000003,0.0,-0.97,28.6,28.6,0.0,0.05,0
438.66692300,438666923,0.0,0.35000000000000003,0.0,-0.97,28.6,28.6,0.0,0.04,0
438.76720800,438767208,0.0,0.35000000000000003,0.0,-0.97,28.59,28.59,0.0,0.03,0
438.86695600,438866956,0.0,0.35000000000000003,0.0,-0.97,28.580000000000002,28.580000000000002,0.0,0.03,0
438.96694900,438966949,0.0,0.35000000000000003,0.0,-0.97,28.59,28.59,0.0,0.03,0
439.06691900,439066919,0.0,0.35000000000000003,0.0,-0.97,28.580000000000002,28.580000000000002,0.0,0.02,0
439.16694500,439166945,0.0,0.35000000000000003,0.0,-0.97,28.560000000000002,28.560000000000002,0.0,0.02,0
439.26720900,439267209,0.0,0.35000000000000003,0.0,-0.97,28.580000000000002,28.580000000000002,0.0,0.03,0
441.36719200,441367192,0.0,0.35000000000000003,0.0,-0.98,28.5,28.5,0.0,0.05,0
441.46692200,441466922,0.0,0.35000000000000003,0.0,-0.98,28.51,28.51,0.0,0.04,0
