timestamp,TimeUS,DesRoll,Roll,DesPitch,Pitch,DesYaw,Yaw,ErrRP,ErrYaw,AEKF
1693165865.27078795,16077937,0.0,-0.42,0.0,-0.46,359.93,359.94,1.0,1.0,0
1693165865.37054110,16177690,0.0,-0.43,0.0,-0.46,297.92,297.93,1.0,0.64,0
1693165865.47062707,16277776,0.0,-0.51,0.0,-0.48,297.98,297.99,0.8,0.51,0
1693165865.57063413,16377783,0.0,-0.59,0.0,-0.49,297.91,297.92,0.8,0.41000000000000003,0
1693165865.67066312,16477812,0.0,-0.6900000000000001,0.0,-0.45,297.92,297.93,0.64,0.33,0
1693165865.77056813,16577717,0.0,-0.77,0.0,-0.42,297.89,297.90000000000003,0.64,0.26,0
1693165865.87049818,16677647,0.0,-0.85,0.0,-0.36,297.8,297.81,0.51,0.21,0
1693165865.97045612,16777605,0.0,-0.9,0.0,-0.31,297.68,297.69,0.51,0.17,0
1693165866.07046509,16877614,0.0,-0.9500000000000001,0.0,-0.28,297.65000000000003,297.66,0.41000000000000003,0.14,0
1693165866.17058110,16977730,0.0,-0.97,0.0,-0.24,297.63,297.64,0.41000000000000003,0.11,0
1693165866.27065015,17077799,0.0,-1.01,0.0,-0.23,297.61,297.62,0.33,0.09,0
1693165866.37077808,17177927,0.0,-1.02,0.0,-0.23,297.59000000000003,297.6,0.33,0.07,0
1693165866.47075605,17277905,0.0,-1.04,0.0,-0.2,297.68,297.69,0.26,0.06,0
1693165866.57079601,17377945,0.0,-1.04,0.0,-0.19,297.63,297.64,0.26,0.05,0
1693165866.67075396,17477903,0.0,-1.04,0.0,-0.18,297.68,297.69,0.21,0.04,0
1693165866.77064109,17577790,0.0,-1.05,0.0,-0.17,297.7,297.71,0.21,0.03,0
1693165866.87058306,17677732,0.0,-1.04,0.0,-0.18,297.66,297.67,0.17,0.03,0
1693165866.97055697,17777706,0.0,-1.05,0.0,-0.18,297.66,297.67,0.17,0.02,0
1693165867.07062602,17877775,0.0,-1.04,0.0,-0.18,297.66,297.67,0.13,0.02,0
1693165867.17071009,17977859,0.0,-1.05,0.0,-0.18,297.69,297.7,0.13,0.01,0
1693165867.27081704,18077966,-0.02,-1.09,-0.06,-0.31,0.0,0.0,0.1,0.01,3
1693165867.37081409,18177963,-0.01,-1.1,-0.03,-0.31,359.99,0.0,0.1,0.01,3
1693165867.47085309,18278002,0.0,-1.09,-0.01,-0.31,359.95,359.96,0.08,0.01,3
1693165867.57105708,18378206,0.0,-1.09,0.0,-0.31,359.96,359.97,0.08,0.0,3
1693165867.67097902,18478128,0.0,-1.08,0.0,-0.31,359.95,359.96,0.07,0.0,3
1693165867.77099705,18578146,0.0,-1.07,0.0,-0.32,359.91,359.92,0.07,0.0,3
1693165867.87090802,18678057,0.0,-1.06,0.0,-0.32,359.91,359.92,0.05,0.0,3
1693165867.97100306,18778152,0.0,-1.06,0.0,-0.32,359.90000000000003,359.91,0.05,0.0,3
1693165868.07091713,18878066,0.0,-1.06,0.0,-0.33,359.87,359.88,0.04,0.0,3
1693165868.17109203,18978241,0.0,-1.06,0.0,-0.33,359.87,359.88,0.04,0.01,3
1693165868.27097416,19078123,0.0,-1.08,0.0,-0.34,359.86,359.87,0.03,0.0,3
1693165868.37101197,19178161,0.0,-1.09,0.0,-0.35000000000000003,359.82,359.83,0.03,0.0,3
1693165868.47103500,19278184,0.0,-1.11,0.0,-0.36,359.82,359.83,0.02,0.0,3
1693165868.57097316,19378122,0.0,-1.1300000000000001,0.0,-0.37,359.81,359.82,0.02,0.0,3
1693165868.67061996,19477769,0.0,-1.1500000000000001,0.0,-0.38,359.77,359.78000000000003,0.02,0.0,3
1693165868.77062416,19577773,-0.01,-1.18,0.03,-0.35000000000000003,296.46,296.47,0.02,0.0,3
1693165868.87071896,19677868,0.0,-1.18,0.01,-0.37,296.52,296.53000000000003,0.01,0.0,3
1693165868.97072697,19777876,0.0,-1.18,0.0,-0.38,296.61,296.62,0.01,0.0,3
1693165869.07081509,19877964,0.0,-1.17,0.0,-0.39,296.74,296.75,0.01,0.0,3
1693165869.17083907,19977988,0.0,-1.17,0.0,-0.39,296.86,296.87,0.01,0.0,3
1693165869.27083397,20077983,0.0,-1.16,0.0,-0.39,296.94,296.95,0.01,0.0,3
1693165869.37078500,20177934,0.0,-1.16,0.0,-0.4,297.0,297.01,0.01,0.0,3
1693165869.47070813,20277857,0.0,-1.1500000000000001,0.0,-0.4,297.06,297.07,0.01,0.0,3
1693165869.57062411,20377773,0.0,-1.1500000000000001,0.0,-0.4,297.08,297.09000000000003,0.01,0.0,3
1693165869.67062807,20477777,0.0,-1.1500000000000001,0.0,-0.41000000000000003,297.11,297.12,0.0,0.0,3
1693165869.77071714,20577866,0.0,-1.16,0.0,-0.41000000000000003,297.15000000000003,297.16,0.0,0.0,3
1693165869.87073112,20677880,0.0,-1.1500000000000001,0.0,-0.41000000000000003,297.16,297.17,0.0,0.0,3
1693165869.97080612,20777955,0.0,-1.16,0.0,-0.42,297.17,297.18,0.0,0.0,3
1693165870.07086396,20878013,0.0,-1.16,0.0,-0.42,297.2,297.21,0.0,0.0,3
1693165870.17088914,20978038,0.0,-1.17,0.0,-0.41000000000000003,297.19,297.2,0.0,0.0,3
1693165870.27080512,21077954,0.0,-1.18,0.0,-0.41000000000000003,297.18,297.19,0.0,0.0,3
1693165870.37072897,21177878,0.0,-1.19,0.0,-0.41000000000000003,297.13,297.14,0.0,0.02,3
1693165870.47066498,21277814,0.0,-1.2,0.0,-0.41000000000000003,296.97,296.98,0.0,0.04,3
1693165870.57063198,21377781,0.0,-1.2,0.0,-0.41000000000000003,296.71,296.72,0.0,0.05,3
1693165870.67072415,21477873,0.0,-1.21,0.0,-0.41000000000000003,296.42,296.43,0.0,0.05,3
1693165870.77073407,21577883,0.0,-1.21,0.0,-0.41000000000000003,296.09000000000003,296.1,0.0,0.06,3
1693165870.87081718,21677966,0.0,-1.21,0.0,-0.41000000000000003,295.75,295.76,0.0,0.06,3
1693165870.97081304,21777962,0.0,-1.23,0.0,-0.4,295.43,295.44,0.0,0.06,3
1693165871.07085299,21878002,0.0,-1.24,0.0,-0.4,295.12,295.13,0.0,0.06,3
1693165871.17088699,21978036,0.0,-1.25,0.0,-0.39,294.8,294.81,0.0,0.06,3
1693165871.27072001,22077869,0.0,-1.26,0.0,-0.38,294.53000000000003,294.54,0.0,0.06,3
1693165871.37065697,22177806,0.0,-1.27,0.0,-0.37,294.27,294.28000000000003,0.0,0.06,3
1693165871.47063208,22277781,0.0,-1.28,0.0,-0.36,294.01,294.02,0.0,0.06,3
1693165871.57070708,22377856,0.0,-1.29,0.0,-0.35000000000000003,293.77,293.78000000000003,0.0,0.05,3
1693165871.67072511,22477874,0.0,-1.29,0.0,-0.34,293.54,293.55,0.0,0.05,3
1693165871.77082300,22577972,0.0,-1.3,0.0,-0.33,293.31,293.32,0.0,0.04,3
1693165871.87082815,22677977,0.0,-1.3,0.0,-0.32,293.1,293.11,0.0,0.04,3
1693165871.97087717,22778026,0.0,-1.31,0.0,-0.32,292.90000000000003,292.91,0.0,0.03,3
1693165872.07106400,22878213,0.0,-1.31,0.0,-0.32,292.71,292.72,0.0,0.03,3
1693165872.17113304,22978282,0.0,-1.32,0.0,-0.32,292.54,292.55,0.0,0.03,3
1693165872.27101398,23078163,0.0,-1.32,0.0,-0.32,292.38,292.39,0.0,0.02,3
1693165872.37091398,23178063,0.0,-1.32,0.0,-0.31,292.22,292.23,0.0,0.02,3
1693165872.47072411,23277873,0.0,-1.32,0.0,-0.31,292.08,292.09000000000003,0.0,0.02,3
1693165872.57072401,23377873,0.0,-1.33,0.0,-0.31,291.94,291.95,0.0,0.02,3
1693165872.67080808,23477957,0.0,-1.34,0.0,-0.32,291.78000000000003,291.79,0.0,0.02,3
1693165872.77081418,23577963,0.0,-1.34,0.0,-0.32,291.63,291.64,0.0,0.02,3
1693165872.87085700,23678006,0.0,-1.34,0.0,-0.32,291.48,291.49,0.0,0.02,3
1693165872.97080708,23777956,0.0,-1.34,0.0,-0.32,291.33,291.34000000000003,0.0,0.01,3
1693165873.07071614,23877865,0.0,-1.35,0.0,-0.32,291.19,291.2,0.0,0.01,3
1693165873.17074108,23977890,0.0,-1.35,0.0,-0.33,291.07,291.08,0.0,0.01,3
1693165873.27063918,24077788,0.0,-1.35,0.0,-0.33,290.95,290.96,0.0,0.01,3
1693165873.37072706,24177876,0.0,-1.35,0.0,-0.34,290.82,290.83,0.0,0.01,3
1693165873.47072411,24277873,0.0,-1.36,0.0,-0.34,290.7,290.71,0.0,0.01,3
1693165873.57081914,24377968,0.0,-1.35,0.0,-0.35000000000000003,290.57,290.58,0.0,0.01,3
1693165873.67080498,24477954,0.0,-1.35,0.0,-0.35000000000000003,290.44,290.45,0.0,0.01,3
1693165873.77084613,24577995,0.0,-1.35,0.0,-0.35000000000000003,290.32,290.33,0.0,0.01,3
1693165873.87080097,24677950,0.0,-1.35,0.0,-0.35000000000000003,290.19,290.2,0.0,0.01,3
1693165873.97071695,24777866,0.0,-1.35,0.0,-0.35000000000000003,290.08,290.09000000000003,0.0,0.01,3
1693165874.07066417,24877813,0.0,-1.35,0.0,-0.36,289.98,289.99,0.0,0.0,3
1693165874.17072201,24977871,0.0,-1.34,0.0,-0.36,289.89,289.90000000000003,0.0,0.0,3
1693165874.27071118,25077860,0.0,-1.34,0.0,-0.36,289.81,289.82,0.0,0.0,3
1693165874.37072396,25177873,0.0,-1.34,0.0,-0.36,289.75,289.76,0.0,0.0,3
1693165874.47081304,25277962,0.0,-1.34,0.0,-0.36,289.69,289.7,0.0,0.0,3
1693165874.57082009,25377969,0.0,-1.34,0.0,-0.35000000000000003,289.62,289.63,0.0,0.0,3
1693165874.67085600,25478005,0.0,-1.34,0.0,-0.36,289.55,289.56,0.0,0.0,3
1693165874.77081418,25577963,0.0,-1.33,0.0,-0.36,289.47,289.48,0.0,0.0,3
1693165874.87104297,25678192,0.0,-1.33,0.0,-0.35000000000000003,289.40000000000003,289.41,0.0,0.0,3
1693165874.97102308,25778172,0.0,-1.33,0.0,-0.35000000000000003,289.33,289.34000000000003,0.0,0.0,3
1693165875.07093906,25878088,0.0,-1.33,0.0,-0.35000000000000003,289.28000000000003,289.29,0.0,0.0,3
1693165875.17112207,25978271,0.0,-1.33,0.0,-0.35000000000000003,289.23,289.24,0.0,0.0,3
1693165875.27074599,26077895,0.0,-1.33,0.0,-0.35000000000000003,289.2,289.21,0.0,0.0,3
1693165875.37082601,26177975,0.0,-1.33,0.0,-0.35000000000000003,289.17,289.18,0.0,0.0,3
1693165875.47082496,26277974,0.0,-1.32,0.0,-0.35000000000000003,289.13,289.14,0.0,0.01,3
1693165875.57101202,26378161,0.0,-1.32,0.0,-0.35000000000000003,289.1,289.11,0.0,0.0,3
1693165875.67101598,26478165,0.0,-1.32,0.0,-0.34,289.08,289.09000000000003,0.0,0.0,3
1693165875.77094507,26578094,0.0,-1.31,0.0,-0.34,289.05,289.06,0.0,0.0,3
1693165875.87087011,26678019,0.0,-1.31,0.0,-0.34,289.04,289.05,0.0,0.0,3
1693165875.97090411,26778053,0.0,-1.31,0.0,-0.34,289.03000000000003,289.04,0.0,0.0,3
1693165876.07092118,26878070,0.0,-1.31,0.0,-0.34,289.02,289.03000000000003,0.0,0.0,3
1693165876.17096305,26978112,0.0,-1.31,0.0,-0.33,289.03000000000003,289.04,0.0,0.0,3
1693165876.27101803,27078167,0.0,-1.31,0.0,-0.33,289.04,289.05,0.0,0.01,3
1693165876.37096715,27178116,0.0,-1.31,0.0,-0.33,289.06,289.07,0.0,0.0,3
1693165876.47101116,27278160,0.0,-1.3,0.0,-0.33,289.07,289.08,0.0,0.0,3
1693165876.57102609,27378175,0.0,-1.3,0.0,-0.33,289.08,289.09000000000003,0.0,0.0,3
1693165876.67095017,27478099,0.0,-1.3,0.0,-0.32,289.08,289.09000000000003,0.0,0.0,3
1693165876.77087402,27578023,0.0,-1.3,0.0,-0.32,289.07,289.08,0.0,0.0,3
1693165876.87087297,27678022,0.0,-1.29,0.0,-0.32,289.05,289.06,0.0,0.0,3
1693165876.97091818,27778067,0.0,-1.29,0.0,-0.32,289.03000000000003,289.04,0.0,0.0,3
1693165877.07088017,27878029,0.0,-1.29,0.0,-0.32,289.0,289.01,0.0,0.0,3
1693165877.17108011,27978229,0.0,-1.29,0.0,-0.33,288.98,288.99,0.0,0.0,3
1693165877.27114105,28078290,0.0,-1.29,0.0,-0.32,288.96,288.97,0.0,0.0,3
1693165877.37118506,28178334,0.0,-1.28,0.0,-0.32,288.95,288.96,0.0,0.0,3
1693165877.47127604,28278425,0.0,-1.28,0.0,-0.32,288.94,288.95,0.0,0.0,3
1693165877.57098603,28378135,0.0,-1.28,0.0,-0.32,288.93,288.94,0.0,0.0,3
1693165877.67098904,28478138,0.0,-1.27,0.0,-0.32,288.92,288.93,0.0,0.0,3
1693165877.77091098,28578060,0.0,-1.27,0.0,-0.32,288.91,288.92,0.0,0.0,3
1693165877.87104416,28678193,0.0,-1.26,0.0,-0.32,288.91,288.92,0.0,0.01,3
1693165877.97096109,28778110,0.0,-1.26,0.0,-0.31,288.92,288.93,0.0,0.01,3
1693165878.07108116,28878230,0.0,-1.25,0.0,-0.32,288.95,288.96,0.0,0.01,3
1693165878.17103910,28978188,0.0,-1.25,0.0,-0.32,288.99,289.0,0.0,0.01,3
1693165878.27104497,29078194,0.0,-1.25,0.0,-0.32,289.02,289.03000000000003,0.0,0.01,3
1693165878.37080598,29177955,0.0,-1.24,0.0,-0.32,289.06,289.07,0.0,0.0,3
1693165878.47072697,29277876,0.0,-1.24,0.0,-0.32,289.09000000000003,289.1,0.0,0.0,3
1693165878.57066417,29377813,0.0,-1.23,0.0,-0.32,289.11,289.12,0.0,0.0,3
1693165878.67062712,29477776,0.0,-1.23,0.0,-0.31,289.13,289.14,0.0,0.0,3
1693165878.77073216,29577881,0.0,-1.23,0.0,-0.31,289.14,289.15000000000003,0.0,0.01,3
1693165878.87073708,29677886,0.0,-1.22,0.0,-0.32,289.14,289.15000000000003,0.0,0.0,3
1693165878.97084403,29777993,0.0,-1.22,0.0,-0.32,289.14,289.15000000000003,0.0,0.0,3
1693165879.07085395,29878003,0.0,-1.22,0.0,-0.32,289.14,289.15000000000003,0.0,0.0,3
1693165879.17094207,29978091,0.0,-1.22,0.0,-0.32,289.13,289.14,0.0,0.0,3
1693165879.27078795,30077937,0.0,-1.21,0.0,-0.31,289.12,289.13,0.0,0.0,3
1693165879.37071109,30177860,0.0,-1.21,0.0,-0.31,289.12,289.13,0.0,0.0,3
1693165879.47065210,30277801,0.0,-1.21,0.0,-0.31,289.11,289.12,0.0,0.0,3
1693165879.57063699,30377786,0.0,-1.2,0.0,-0.31,289.11,289.12,0.0,0.0,3
1693165879.67071700,30477866,0.0,-1.2,0.0,-0.31,289.11,289.12,0.0,0.0,3
1693165879.77072811,30577877,0.0,-1.2,0.0,-0.31,289.11,289.12,0.0,0.0,3
1693165879.87082100,30677970,0.0,-1.2,0.0,-0.32,289.11,289.12,0.0,0.0,3
1693165879.97080803,30777957,0.0,-1.19,0.0,-0.32,289.11,289.12,0.0,0.0,3
1693165880.07085013,30877999,0.0,-1.19,0.0,-0.32,289.11,289.12,0.0,0.0,3
1693165880.17083907,30977988,0.0,-1.19,0.0,-0.31,289.1,289.11,0.0,0.0,3
1693165880.27069712,31077846,0.0,-1.19,0.0,-0.32,289.09000000000003,289.1,0.0,0.0,3
1693165880.37066102,31177810,0.0,-1.19,0.0,-0.31,289.08,289.09000000000003,0.0,0.0,3
1693165880.47063613,31277785,0.0,-1.18,0.0,-0.32,289.08,289.09000000000003,0.0,0.0,3
1693165880.57073617,31377885,0.0,-1.18,0.0,-0.31,289.08,289.09000000000003,0.0,0.0,3
1693165880.67072296,31477872,0.0,-1.18,0.0,-0.31,289.08,289.09000000000003,0.0,0.01,3
1693165880.77080607,31577955,0.0,-1.18,0.0,-0.31,289.08,289.09000000000003,0.0,0.01,3
1693165880.87080312,31677952,0.0,-1.18,0.0,-0.31,289.1,289.11,0.0,0.01,3
1693165880.97086811,31778017,0.0,-1.18,0.0,-0.32,289.12,289.13,0.0,0.01,3
1693165881.07077909,31877928,0.0,-1.18,0.0,-0.32,289.14,289.15000000000003,0.0,0.0,3
1693165881.17075205,31977901,0.0,-1.18,0.0,-0.32,289.17,289.18,0.0,0.0,3
1693165881.27066398,32077813,0.0,-1.18,0.0,-0.32,289.18,289.19,0.0,0.0,3
1693165881.37061501,32177764,0.0,-1.18,0.0,-0.32,289.2,289.21,0.0,0.0,3
1693165881.47065711,32277806,0.0,-1.17,0.0,-0.32,289.21,289.22,0.0,0.0,3
1693165881.57070804,32377857,0.0,-1.17,0.0,-0.33,289.23,289.24,0.0,0.0,3
1693165881.67079711,32477946,0.0,-1.17,0.0,-0.33,289.24,289.25,0.0,0.0,3
1693165881.77081108,32577960,0.0,-1.17,0.0,-0.33,289.24,289.25,0.0,0.0,3
1693165881.87087607,32678025,0.0,-1.17,0.0,-0.33,289.25,289.26,0.0,0.0,3
1693165881.97080517,32777954,0.0,-1.16,0.0,-0.33,289.26,289.27,0.0,0.0,3
1693165882.07071614,32877865,0.0,-1.16,0.0,-0.33,289.26,289.27,0.0,0.0,3
1693165882.17073107,32977880,0.0,-1.16,0.0,-0.33,289.26,289.27,0.0,0.0,3
1693165882.27061105,33077760,0.0,-1.16,0.0,-0.33,289.27,289.28000000000003,0.0,0.0,3
1693165882.37070608,33177855,0.0,-1.16,0.0,-0.33,289.27,289.28000000000003,0.0,0.0,3
1693165882.47072601,33277875,0.0,-1.16,0.0,-0.33,289.28000000000003,289.29,0.0,0.0,3
1693165882.57080007,33377949,0.0,-1.16,0.0,-0.33,289.29,289.3,0.0,0.0,3
1693165882.67080116,33477950,0.0,-1.16,0.0,-0.33,289.31,289.32,0.0,0.0,3
1693165882.77082801,33577977,0.0,-1.16,0.0,-0.34,289.32,289.33,0.0,0.0,3
1693165882.87077808,33677927,0.0,-1.16,0.0,-0.34,289.33,289.34000000000003,0.0,0.0,3
1693165882.97069311,33777842,0.0,-1.16,0.0,-0.33,289.33,289.34000000000003,0.0,0.0,3
1693165883.07061815,33877767,0.0,-1.16,0.0,-0.33,289.33,289.34000000000003,0.0,0.0,3
1693165883.17070699,33977856,0.0,-1.1500000000000001,0.0,-0.33,289.33,289.34000000000003,0.0,0.0,3
1693165883.27072001,34077869,0.0,-1.1500000000000001,0.0,-0.33,289.32,289.33,0.0,0.0,3
1693165883.37071896,34177868,0.0,-1.1500000000000001,0.0,-0.33,289.33,289.34000000000003,0.0,0.0,3
1693165883.47080708,34277956,0.0,-1.1500000000000001,0.0,-0.33,289.34000000000003,289.35,0.0,0.0,3
1693165883.57080412,34377953,0.0,-1.1500000000000001,0.0,-0.32,289.35,289.36,0.0,0.0,3
1693165883.67083311,34477982,0.0,-1.1500000000000001,0.0,-0.32,289.37,289.38,0.0,0.0,3
1693165883.77083611,34577985,0.0,-1.1500000000000001,0.0,-0.32,289.39,289.40000000000003,0.0,0.0,3
1693165883.87069607,34677845,0.0,-1.1500000000000001,0.0,-0.33,289.41,289.42,0.0,0.0,3
1693165883.97061396,34777763,0.0,-1.1500000000000001,0.0,-0.32,289.42,289.43,0.0,0.0,3
1693165884.07061195,34877761,0.0,-1.1400000000000001,0.0,-0.33,289.43,289.44,0.0,0.0,3
1693165884.17076302,34977912,0.0,-1.1400000000000001,0.0,-0.32,289.44,289.45,0.0,0.0,3
1693165884.27072001,35077869,0.0,-1.1400000000000001,0.0,-0.33,289.45,289.46,0.0,0.0,3
1693165884.37080812,35177957,0.0,-1.1400000000000001,0.0,-0.33,289.46,289.47,0.0,0.0,3
1693165884.47081804,35277967,0.0,-1.1400000000000001,0.0,-0.33,289.46,289.47,0.0,0.0,3
1693165884.57085109,35378000,0.0,-1.1400000000000001,0.0,-0.33,289.46,289.47,0.0,0.0,3
1693165884.67080116,35477950,0.0,-1.1400000000000001,0.0,-0.33,289.46,289.47,0.0,0.0,3
1693165884.77070618,35577855,0.0,-1.1300000000000001,0.0,-0.33,289.46,289.47,0.0,0.0,3
1693165884.87064695,35677796,0.0,-1.1300000000000001,0.0,-0.33,289.46,289.47,0.0,0.0,3
1693165884.97061396,35777763,0.0,-1.1300000000000001,0.0,-0.33,289.46,289.47,0.0,0.0,3
1693165885.07071400,35877863,0.0,-1.1300000000000001,0.0,-0.33,289.46,289.47,0.0,0.0,3
1693165885.17076802,35977917,0.0,-1.1300000000000001,0.0,-0.33,289.47,289.48,0.0,0.0,3
1693165885.27080512,36077954,0.0,-1.12,0.0,-0.33,289.5,289.51,0.0,0.0,3
1693165885.37080717,36177956,0.0,-1.12,0.0,-0.33,289.51,289.52,0.0,0.0,3
1693165885.47084808,36277997,0.0,-1.12,0.0,-0.33,289.53000000000003,289.54,0.0,0.0,3
1693165885.57078099,36377930,0.0,-1.12,0.0,-0.33,289.54,289.55,0.0,0.0,3
1693165885.67069912,36477848,0.0,-1.12,0.0,-0.33,289.55,289.56,0.0,0.0,3
1693165885.77060795,36577757,0.0,-1.12,0.0,-0.33,289.55,289.56,0.0,0.0,3
1693165885.87096810,36678117,0.0,-1.12,0.0,-0.33,289.55,289.56,0.0,0.0,3
1693165885.97094011,36778089,0.0,-1.11,0.0,-0.33,289.55,289.56,0.0,0.0,3
1693165886.07091713,36878066,0.0,-1.11,0.0,-0.33,289.55,289.56,0.0,0.0,3
1693165886.17109513,36978244,0.0,-1.11,0.0,-0.33,289.54,289.55,0.0,0.0,3
1693165886.27097702,37078126,0.0,-1.12,0.0,-0.33,289.54,289.55,0.0,0.0,3
1693165886.37103295,37178182,0.0,-1.11,0.0,-0.33,289.54,289.55,0.0,0.0,3
1693165886.47104502,37278194,0.0,-1.11,0.0,-0.33,289.55,289.56,0.0,0.0,3
1693165886.57068610,37377835,0.0,-1.1,0.0,-0.33,289.55,289.56,0.0,0.0,3
1693165886.67063999,37477789,0.0,-1.1,0.0,-0.33,289.56,289.57,0.0,0.0,3
1693165886.77061296,37577762,0.0,-1.1,0.0,-0.33,289.57,289.58,0.0,0.0,3
1693165886.87072611,37677875,0.0,-1.1,0.0,-0.34,289.59000000000003,289.6,0.0,0.0,3
1693165886.97071600,37777865,0.0,-1.11,0.0,-0.34,289.61,289.62,0.0,0.0,3
1693165887.07080913,37877958,0.0,-1.1,0.0,-0.34,289.63,289.64,0.0,0.0,3
1693165887.17085910,37978008,0.0,-1.1,0.0,-0.35000000000000003,289.65000000000003,289.66,0.0,0.0,3
1693165887.27087116,38078020,0.0,-1.1,0.0,-0.35000000000000003,289.66,289.67,0.0,0.0,3
1693165887.37080002,38177949,0.0,-1.1,0.0,-0.35000000000000003,289.67,289.68,0.0,0.0,3
1693165887.47071505,38277864,0.0,-1.1,0.0,-0.36,289.67,289.68,0.0,0.0,3
1693165887.57062316,38377772,0.0,-1.1,0.0,-0.35000000000000003,289.67,289.68,0.0,0.0,3
1693165887.67062807,38477777,0.0,-1.1,0.0,-0.35000000000000003,289.67,289.68,0.0,0.0,3
1693165887.77072597,38577875,0.0,-1.09,0.0,-0.35000000000000003,289.67,289.68,0.0,0.0,3
1693165887.87072301,38677872,0.0,-1.09,0.0,-0.35000000000000003,289.68,289.69,0.0,0.0,3
1693165887.97080803,38777957,0.0,-1.09,0.0,-0.35000000000000003,289.68,289.69,0.0,0.0,3
1693165888.07081008,38877959,0.0,-1.09,0.0,-0.35000000000000003,289.69,289.7,0.0,0.0,3
1693165888.17089200,38978041,0.0,-1.09,0.0,-0.35000000000000003,289.69,289.7,0.0,0.0,3
1693165888.27076697,39077916,0.0,-1.09,0.0,-0.35000000000000003,289.7,289.71,0.0,0.0,3
1693165888.37070417,39177853,0.0,-1.1,0.0,-0.35000000000000003,289.71,289.72,0.0,0.0,3
1693165888.47061801,39277767,0.0,-1.09,0.0,-0.35000000000000003,289.71,289.72,0.0,0.0,3
1693165888.57061696,39377766,0.0,-1.09,0.0,-0.35000000000000003,289.72,289.73,0.0,0.0,3
1693165888.67074895,39477898,0.0,-1.09,0.0,-0.36,289.72,289.73,0.0,0.0,3
1693165888.77072716,39577876,0.0,-1.09,0.0,-0.35000000000000003,289.73,289.74,0.0,0.0,3
1693165888.87081599,39677965,0.0,-1.09,0.0,-0.35000000000000003,289.73,289.74,0.0,0.0,3
1693165888.97082114,39777970,0.0,-1.09,0.0,-0.36,289.73,289.74,0.0,0.0,3
1693165889.07084513,39877994,0.0,-1.09,0.0,-0.36,289.74,289.75,0.0,0.0,3
1693165889.17109013,39978239,0.0,-1.08,0.0,-0.36,289.74,289.75,0.0,0.0,3
1693165889.27097511,40078124,0.0,-1.08,0.0,-0.36,289.74,289.75,0.0,0.0,3
1693165889.37098813,40178137,0.0,-1.08,0.0,-0.36,289.74,289.75,0.0,0.0,3
1693165889.47090697,40278056,0.0,-1.08,0.0,-0.36,289.74,289.75,0.0,0.0,3
1693165889.57094097,40378090,0.0,-1.09,0.0,-0.36,289.75,289.76,0.0,0.0,3
1693165889.67094016,40478089,0.0,-1.09,0.0,-0.36,289.75,289.76,0.0,0.0,3
1693165889.77107406,40578223,0.0,-1.09,0.0,-0.36,289.76,289.77,0.0,0.0,3
1693165889.87100506,40678154,0.0,-1.09,0.0,-0.36,289.77,289.78000000000003,0.0,0.0,3
1693165889.97105503,40778204,0.0,-1.09,0.0,-0.36,289.78000000000003,289.79,0.0,0.0,3
1693165890.07113910,40878288,0.0,-1.08,0.0,-0.36,289.79,289.8,0.0,0.0,3
1693165890.17109299,40978242,0.0,-1.08,0.0,-0.36,289.8,289.81,0.0,0.0,3
1693165890.27066898,41077818,0.0,-1.08,0.0,-0.36,289.81,289.82,0.0,0.0,3
1693165890.37062812,41177777,0.0,-1.08,0.0,-0.36,289.81,289.82,0.0,0.0,3
1693165890.47070599,41277855,0.0,-1.08,0.0,-0.37,289.81,289.82,0.0,0.0,3
1693165890.57071805,41377867,0.0,-1.08,0.0,-0.37,289.82,289.83,0.0,0.0,3
1693165890.67081809,41477967,0.0,-1.08,0.0,-0.37,289.83,289.84000000000003,0.0,0.0,3
1693165890.77081299,41577962,0.0,-1.08,0.0,-0.37,289.84000000000003,289.85,0.0,0.0,3
1693165890.87086010,41678009,0.0,-1.08,0.0,-0.37,289.86,289.87,0.0,0.0,3
1693165890.97079802,41777947,0.0,-1.08,0.0,-0.37,289.86,289.87,0.0,0.0,3
1693165891.07072306,41877872,0.0,-1.08,0.0,-0.37,289.87,289.88,0.0,0.01,3
1693165891.17073417,41977883,0.0,-1.08,0.0,-0.37,289.88,289.89,0.0,0.01,3
1693165891.27064705,42077796,0.0,-1.08,0.0,-0.37,289.89,289.90000000000003,0.0,0.0,3
1693165891.37074113,42177890,0.0,-1.08,0.0,-0.36,289.90000000000003,289.91,0.0,0.01,3
1693165891.47072101,42277870,0.0,-1.08,0.0,-0.36,289.91,289.92,0.0,0.01,3
1693165891.57080507,42377954,0.0,-1.08,0.0,-0.36,289.91,289.92,0.0,0.0,3
1693165891.67097402,42478123,0.0,-1.08,0.0,-0.36,289.91,289.92,0.0,0.0,3
1693165891.77102017,42578169,0.0,-1.08,0.0,-0.36,289.92,289.93,0.0,0.0,3
1693165891.87104106,42678190,0.0,-1.08,0.0,-0.36,289.92,289.93,0.0,0.0,3
1693165891.97096515,42778114,0.0,-1.08,0.0,-0.36,289.91,289.92,0.0,0.0,3
1693165892.07100701,42878156,0.0,-1.08,0.0,-0.36,289.91,289.92,0.0,0.0,3
1693165892.17100811,42978157,0.0,-1.08,0.0,-0.36,289.92,289.93,0.0,0.01,3
1693165892.27092505,43078074,0.0,-1.08,0.0,-0.36,289.92,289.93,0.0,0.0,3
1693165892.37095618,43178105,0.0,-1.08,0.0,-0.37,289.93,289.94,0.0,0.0,3
1693165892.47107100,43278220,0.0,-1.08,0.0,-0.37,289.95,289.96,0.0,0.0,3
1693165892.57099319,43378142,0.0,-1.08,0.0,-0.37,289.96,289.97,0.0,0.01,3
1693165892.67103314,43478182,0.0,-1.07,0.0,-0.37,289.96,289.97,0.0,0.0,3
1693165892.77103305,43578182,0.0,-1.07,0.0,-0.38,289.97,289.98,0.0,0.0,3
1693165892.87107396,43678223,0.0,-1.08,0.0,-0.38,289.97,289.98,0.0,0.0,3
1693165892.97098613,43778135,0.0,-1.07,0.0,-0.38,289.97,289.98,0.0,0.0,3
1693165893.07091713,43878066,0.0,-1.07,0.0,-0.38,289.97,289.98,0.0,0.0,3
1693165893.17104411,43978193,0.0,-1.07,0.0,-0.38,289.98,289.99,0.0,0.0,3
1693165893.27091503,44078064,0.0,-1.08,0.0,-0.38,289.98,289.99,0.0,0.0,3
1693165893.37101316,44178162,0.0,-1.08,0.0,-0.38,289.98,289.99,0.0,0.0,3
1693165893.47098303,44278132,0.0,-1.08,0.0,-0.38,289.99,290.0,0.0,0.0,3
1693165893.57103395,44378183,0.0,-1.07,0.0,-0.38,289.99,290.0,0.0,0.0,3
1693165893.67103410,44478183,0.0,-1.08,0.0,-0.38,289.99,290.0,0.0,0.0,3
1693165893.77097797,44578127,0.0,-1.08,0.0,-0.38,289.99,290.0,0.0,0.01,3
1693165893.87099004,44678139,0.0,-1.07,0.0,-0.38,289.99,290.0,0.0,0.0,3
1693165893.97087908,44778028,0.0,-1.07,0.0,-0.38,290.0,290.01,0.0,0.0,3
1693165894.07098103,44878130,0.0,-1.07,0.0,-0.38,290.0,290.01,0.0,0.0,3
1693165894.17097497,44978124,0.0,-1.07,0.0,-0.38,290.01,290.02,0.0,0.0,3
1693165894.27104497,45078194,0.0,-1.06,0.0,-0.38,290.01,290.02,0.0,0.0,3
1693165894.37097406,45178123,0.0,-1.06,0.0,-0.38,290.01,290.02,0.0,0.0,3
1693165894.47100902,45278158,0.0,-1.06,0.0,-0.38,290.02,290.03000000000003,0.0,0.0,3
1693165894.57104111,45378190,0.0,-1.06,0.0,-0.38,290.03000000000003,290.04,0.0,0.01,3
1693165894.67101598,45478165,0.0,-1.06,0.0,-0.38,290.03000000000003,290.04,0.0,0.01,3
1693165894.77100110,45578150,0.0,-1.06,0.0,-0.38,290.02,290.03000000000003,0.0,0.01,3
1693165894.87089705,45678046,0.0,-1.06,0.0,-0.38,290.02,290.03000000000003,0.0,0.01,3
1693165894.97091699,45778066,0.0,-1.06,0.0,-0.38,290.02,290.03000000000003,0.0,0.01,3
1693165895.07093406,45878083,0.0,-1.06,0.0,-0.38,290.03000000000003,290.04,0.0,0.01,3
1693165895.17111707,45978266,0.0,-1.06,0.0,-0.39,290.04,290.05,0.0,0.01,3
1693165895.27098513,46078134,0.0,-1.06,0.0,-0.39,290.05,290.06,0.0,0.01,3
1693165895.37102509,46178174,0.0,-1.06,0.0,-0.39,290.07,290.08,0.0,0.01,3
1693165895.47103715,46278186,0.0,-1.06,0.0,-0.39,290.08,290.09000000000003,0.0,0.01,3
1693165895.57097197,46378121,0.0,-1.06,0.0,-0.39,290.08,290.09000000000003,0.0,0.0,3
1693165895.67098808,46478137,0.0,-1.06,0.0,-0.39,290.09000000000003,290.1,0.0,0.0,3
1693165895.77090812,46578057,0.0,-1.06,0.0,-0.4,290.09000000000003,290.1,0.0,0.0,3
1693165895.87097216,46678121,0.0,-1.06,0.0,-0.39,290.09000000000003,290.1,0.0,0.0,3
1693165895.97094297,46778092,0.0,-1.06,0.0,-0.39,290.09000000000003,290.1,0.0,0.0,3
1693165896.07102799,46878177,0.0,-1.06,0.0,-0.39,290.09000000000003,290.1,0.0,0.0,3
1693165896.17104506,46978194,0.0,-1.06,0.0,-0.39,290.09000000000003,290.1,0.0,0.0,3
1693165896.27105498,47078204,0.0,-1.05,0.0,-0.39,290.09000000000003,290.1,0.0,0.0,3
1693165896.37113309,47178282,0.0,-1.05,0.0,-0.39,290.1,290.11,0.0,0.0,3
1693165896.47103405,47278183,0.0,-1.05,0.0,-0.39,290.1,290.11,0.0,0.0,3
1693165896.57100511,47378154,0.0,-1.05,0.0,-0.39,290.11,290.12,0.0,0.0,3
1693165896.67090106,47478050,0.0,-1.05,0.0,-0.39,290.11,290.12,0.0,0.0,3
1693165896.77098012,47578129,0.0,-1.05,0.0,-0.39,290.12,290.13,0.0,0.0,3
1693165896.87090206,47678051,0.0,-1.05,0.0,-0.39,290.13,290.14,0.0,0.01,3
1693165896.97107410,47778223,0.0,-1.05,0.0,-0.39,290.14,290.15000000000003,0.0,0.01,3
1693165897.07099319,47878142,0.0,-1.05,0.0,-0.39,290.14,290.15000000000003,0.0,0.01,3
1693165897.17108607,47978235,0.0,-1.05,0.0,-0.39,290.15000000000003,290.16,0.0,0.01,3
1693165897.27105403,48078203,0.0,-1.05,0.0,-0.39,290.15000000000003,290.16,0.0,0.01,3
1693165897.37098312,48178132,0.0,-1.05,0.0,-0.39,290.16,290.17,0.0,0.0,3
1693165897.47099614,48278145,0.0,-1.05,0.0,-0.39,290.16,290.17,0.0,0.01,3
1693165897.57090306,48378052,0.0,-1.05,0.0,-0.39,290.16,290.17,0.0,0.01,3
1693165897.67093801,48478087,0.0,-1.05,0.0,-0.39,290.16,290.17,0.0,0.01,3
1693165897.77089310,48578042,0.0,-1.05,0.0,-0.39,290.18,290.19,0.0,0.01,3
1693165897.87102199,48678171,0.0,-1.05,0.0,-0.39,290.19,290.2,0.0,0.01,3
1693165897.97097898,48778128,0.0,-1.05,0.0,-0.39,290.21,290.22,0.0,0.01,3
1693165898.07104897,48878198,0.0,-1.05,0.0,-0.39,290.22,290.23,0.0,0.01,3
1693165898.17108798,48978237,0.0,-1.05,0.0,-0.38,290.23,290.24,0.0,0.01,3
1693165898.27097702,49078126,0.0,-1.05,0.0,-0.39,290.23,290.24,0.0,0.01,3
1693165898.37101102,49178160,0.0,-1.05,0.0,-0.38,290.24,290.25,0.0,0.01,3
1693165898.47096300,49278112,0.0,-1.05,0.0,-0.38,290.25,290.26,0.0,0.01,3
1693165898.57091808,49378067,0.0,-1.05,0.0,-0.38,290.25,290.26,0.0,0.0,3
1693165898.67072010,49477869,0.0,-1.05,0.0,-0.38,290.26,290.27,0.0,0.0,3
1693165898.77081609,49577965,0.0,-1.05,0.0,-0.38,290.26,290.27,0.0,0.0,3
1693165898.87082505,49677974,0.0,-1.05,0.0,-0.38,290.26,290.27,0.0,0.0,3
1693165898.97087097,49778020,0.0,-1.04,0.0,-0.38,290.26,290.27,0.0,0.0,3
1693165899.07079911,49877948,0.0,-1.04,0.0,-0.38,290.27,290.28000000000003,0.0,0.01,3
1693165899.17084599,49977995,0.0,-1.04,0.0,-0.37,290.27,290.28000000000003,0.0,0.01,3
1693165899.27061009,50077759,0.0,-1.04,0.0,-0.37,290.27,290.28000000000003,0.0,0.01,3
1693165899.37061095,50177760,0.0,-1.04,0.0,-0.37,290.28000000000003,290.29,0.0,0.0,3
1693165899.47072411,50277873,0.0,-1.04,0.0,-0.37,290.28000000000003,290.29,0.0,0.0,3
1693165899.57072616,50377875,0.0,-1.04,0.0,-0.37,290.28000000000003,290.29,0.0,0.0,3
1693165899.67081308,50477962,0.0,-1.03,0.0,-0.37,290.28000000000003,290.29,0.0,0.0,3
1693165899.77080703,50577956,0.0,-1.04,0.0,-0.36,290.28000000000003,290.29,0.0,0.0,3
1693165899.87086201,50678011,0.0,-1.03,0.0,-0.37,290.28000000000003,290.29,0.0,0.0,3
1693165899.97079301,50777942,0.0,-1.03,0.0,-0.36,290.28000000000003,290.29,0.0,0.0,3
1693165900.07098198,50878131,0.0,-1.03,0.0,-0.36,290.29,290.3,0.0,0.0,3
1693165900.17113495,50978284,0.0,-1.03,0.0,-0.36,290.29,290.3,0.0,0.0,3
1693165900.27094102,51078090,0.0,-1.03,0.0,-0.36,290.3,290.31,0.0,0.0,3
1693165900.37095308,51178102,0.0,-1.03,0.0,-0.37,290.3,290.31,0.0,0.0,3
1693165900.47089314,51278042,0.0,-1.03,0.0,-0.37,290.3,290.31,0.0,0.0,3
1693165900.57104111,51378190,0.0,-1.03,0.0,-0.37,290.3,290.31,0.0,0.01,3
1693165900.67080116,51477950,0.0,-1.03,0.0,-0.37,290.31,290.32,0.0,0.0,3
1693165900.77115011,51578299,0.0,-1.03,0.0,-0.36,290.31,290.32,0.0,0.0,3
1693165900.87117600,51678325,0.0,-1.03,0.0,-0.36,290.31,290.32,0.0,0.0,3
1693165900.97098112,51778130,0.0,-1.03,0.0,-0.36,290.32,290.33,0.0,0.0,3
1693165901.07098913,51878138,0.0,-1.03,0.0,-0.36,290.32,290.33,0.0,0.0,3
1693165901.17095399,51978103,0.0,-1.03,0.0,-0.36,290.32,290.33,0.0,0.0,3
1693165901.27091908,52078068,0.0,-1.03,0.0,-0.36,290.33,290.34000000000003,0.0,0.01,3
1693165901.37096310,52178112,0.0,-1.03,0.0,-0.36,290.33,290.34000000000003,0.0,0.0,3
1693165901.47102809,52278177,0.0,-1.03,0.0,-0.36,290.33,290.34000000000003,0.0,0.0,3
1693165901.57098818,52378137,0.0,-1.03,0.0,-0.36,290.33,290.34000000000003,0.0,0.0,3
1693165901.67102504,52478174,0.0,-1.03,0.0,-0.36,290.34000000000003,290.35,0.0,0.0,3
1693165901.77103305,52578182,0.0,-1.03,0.0,-0.36,290.34000000000003,290.35,0.0,0.0,3
1693165901.87097406,52678123,0.0,-1.03,0.0,-0.36,290.35,290.36,0.0,0.0,3
1693165901.97097707,52778126,0.0,-1.03,0.0,-0.36,290.35,290.36,0.0,0.0,3
1693165902.07089710,52878046,0.0,-1.03,0.0,-0.36,290.35,290.36,0.0,0.0,3
1693165902.17109013,52978239,0.0,-1.03,0.0,-0.36,290.35,290.36,0.0,0.0,3
1693165902.27094603,53078095,0.0,-1.03,0.0,-0.36,290.35,290.36,0.0,0.0,3
1693165902.37106800,53178217,0.0,-1.03,0.0,-0.36,290.35,290.36,0.0,0.0,3
1693165902.47099805,53278147,0.0,-1.03,0.0,-0.36,290.36,290.37,0.0,0.0,3
1693165902.57105803,53378207,0.0,-1.03,0.0,-0.36,290.35,290.36,0.0,0.0,3
1693165902.67114496,53478294,0.0,-1.04,0.0,-0.36,290.35,290.36,0.0,0.0,3
1693165902.77103305,53578182,0.0,-1.04,0.0,-0.36,290.34000000000003,290.35,0.0,0.0,3
1693165902.87097907,53678128,0.0,-1.03,0.0,-0.36,290.34000000000003,290.35,0.0,0.0,3
1693165902.97092199,53778071,0.0,-1.03,0.0,-0.35000000000000003,290.34000000000003,290.35,0.0,0.0,3
1693165903.07091618,53878065,0.0,-1.03,0.0,-0.36,290.34000000000003,290.35,0.0,0.0,3
1693165903.17097998,53978129,0.0,-1.03,0.0,-0.36,290.35,290.36,0.0,0.0,3
1693165903.27102208,54078171,0.0,-1.03,0.0,-0.36,290.35,290.36,0.0,0.01,3
1693165903.37099218,54178141,0.0,-1.03,0.0,-0.36,290.35,290.36,0.0,0.01,3
1693165903.47105002,54278199,0.0,-1.03,0.0,-0.36,290.36,290.37,0.0,0.01,3
1693165903.57104516,54378194,0.0,-1.03,0.0,-0.37,290.37,290.38,0.0,0.01,3
1693165903.67098117,54478130,0.0,-1.03,0.0,-0.36,290.38,290.39,0.0,0.01,3
1693165903.77102113,54578170,0.0,-1.03,0.0,-0.37,290.39,290.40000000000003,0.0,0.01,3
1693165903.87090707,54678056,0.0,-1.03,0.0,-0.37,290.39,290.40000000000003,0.0,0.01,3
1693165903.97095203,54778101,0.0,-1.03,0.0,-0.37,290.39,290.40000000000003,0.0,0.01,3
1693165904.07089710,54878046,0.0,-1.03,0.0,-0.37,290.40000000000003,290.41,0.0,0.0,3
1693165904.17109108,54978240,0.0,-1.03,0.0,-0.37,290.40000000000003,290.41,0.0,0.0,3
1693165904.27097607,55078125,0.0,-1.03,0.0,-0.37,290.39,290.40000000000003,0.0,0.0,3
1693165904.37102509,55178174,0.0,-1.03,0.0,-0.37,290.39,290.40000000000003,0.0,0.0,3
1693165904.47121310,55278362,0.0,-1.02,0.0,-0.37,290.39,290.40000000000003,0.0,0.0,3
1693165904.57121301,55378362,0.0,-1.02,0.0,-0.37,290.38,290.39,0.0,0.0,3
1693165904.67118096,55478330,0.0,-1.01,0.0,-0.37,290.38,290.39,0.0,0.0,3
1693165904.77097106,55578120,0.0,-1.01,0.0,-0.37,290.38,290.39,0.0,0.0,3
1693165904.87093997,55678089,0.0,-1.0,0.0,-0.38,290.38,290.39,0.0,0.0,3
1693165904.97090006,55778049,0.0,-1.0,0.0,-0.38,290.38,290.39,0.0,0.0,3
1693165905.07081318,55877962,0.0,-0.99,0.0,-0.38,290.38,290.39,0.0,0.0,3
1693165905.17085004,55977999,0.0,-0.99,0.0,-0.38,290.37,290.38,0.0,0.0,3
1693165905.27084303,56077992,0.0,-0.98,0.0,-0.39,290.36,290.37,0.0,0.0,3
1693165905.37079215,56177941,0.0,-0.98,0.0,-0.39,290.35,290.36,0.0,0.0,3
1693165905.47070503,56277854,0.0,-0.97,0.0,-0.39,290.35,290.36,0.0,0.0,3
1693165905.57066202,56377811,0.0,-0.96,0.0,-0.39,290.34000000000003,290.35,0.0,0.0,3
1693165905.67061710,56477766,0.0,-0.96,0.0,-0.39,290.34000000000003,290.35,0.0,0.0,3
1693165905.77070808,56577857,0.0,-0.9500000000000001,0.0,-0.39,290.34000000000003,290.35,0.0,0.01,3
1693165905.87071109,56677860,0.0,-0.9500000000000001,0.0,-0.4,290.34000000000003,290.35,0.0,0.0,3
1693165905.97079515,56777944,0.0,-0.9500000000000001,0.0,-0.4,290.33,290.34000000000003,0.0,0.01,3
1693165906.07082701,56877976,0.0,-0.9500000000000001,0.0,-0.4,290.34000000000003,290.35,0.0,0.0,3
1693165906.17091203,56978061,0.0,-0.9400000000000001,0.0,-0.4,290.34000000000003,290.35,0.0,0.01,3
1693165906.27079916,57077948,0.0,-0.9400000000000001,0.0,-0.4,290.35,290.36,0.0,0.01,3
1693165906.37071800,57177867,0.0,-0.9400000000000001,0.0,-0.4,290.35,290.36,0.0,0.01,3
1693165906.47062397,57277773,0.0,-0.9400000000000001,0.0,-0.41000000000000003,290.35,290.36,0.0,0.01,3
1693165906.57061100,57377760,0.0,-0.93,0.0,-0.41000000000000003,290.36,290.37,0.0,0.01,3
1693165906.67065811,57477807,0.0,-0.9400000000000001,0.0,-0.41000000000000003,290.36,290.37,0.0,0.01,3
1693165906.77071404,57577863,0.0,-0.9400000000000001,0.0,-0.41000000000000003,290.36,290.37,0.0,0.01,3
1693165906.87080216,57677951,0.0,-0.9400000000000001,0.0,-0.41000000000000003,290.37,290.38,0.0,0.01,3
1693165906.97080207,57777951,0.0,-0.9400000000000001,0.0,-0.41000000000000003,290.37,290.38,0.0,0.01,3
1693165907.07084513,57877994,0.0,-0.9500000000000001,0.0,-0.41000000000000003,290.37,290.38,0.0,0.01,3
1693165907.17083406,57977983,0.0,-0.9500000000000001,0.0,-0.41000000000000003,290.37,290.38,0.0,0.01,3
1693165907.27070498,58077854,0.0,-0.9500000000000001,0.0,-0.41000000000000003,290.37,290.38,0.0,0.01,3
1693165907.37098408,58178133,0.0,-0.9500000000000001,0.0,-0.41000000000000003,290.38,290.39,0.0,0.01,3
1693165907.47090816,58278057,0.0,-0.96,0.0,-0.42,290.38,290.39,0.0,0.01,3
1693165907.57105112,58378200,0.0,-0.96,0.0,-0.42,290.38,290.39,0.0,0.01,3
1693165907.67094111,58478090,0.0,-0.96,0.0,-0.42,290.38,290.39,0.0,0.0,3
1693165907.77104211,58578191,0.0,-0.97,0.0,-0.42,290.38,290.39,0.0,0.01,3
1693165907.87097597,58678125,0.0,-0.97,0.0,-0.42,290.38,290.39,0.0,0.01,3
1693165907.97101307,58778162,0.0,-0.97,0.0,-0.43,290.37,290.38,0.0,0.01,3
1693165908.07103896,58878188,0.0,-0.98,0.0,-0.43,290.37,290.38,0.0,0.01,3
1693165908.17108202,58978231,0.0,-0.98,0.0,-0.43,290.38,290.39,0.0,0.01,3
1693165908.27102995,59078179,0.0,-0.98,0.0,-0.44,290.38,290.39,0.0,0.01,3
1693165908.37061810,59177767,0.0,-0.98,0.0,-0.44,290.39,290.40000000000003,0.0,0.01,3
1693165908.47071695,59277866,0.0,-0.98,0.0,-0.43,290.40000000000003,290.41,0.0,0.01,3
1693165908.57071614,59377865,0.0,-0.99,0.0,-0.43,290.39,290.40000000000003,0.0,0.0,3
1693165908.67087197,59478021,0.0,-1.0,0.0,-0.43,290.39,290.40000000000003,0.0,0.0,3
1693165908.77082801,59577977,0.0,-1.0,0.0,-0.42,290.39,290.40000000000003,0.0,0.0,3
1693165908.87087202,59678021,0.0,-1.01,0.0,-0.42,290.38,290.39,0.0,0.0,3
1693165908.97086215,59778011,0.0,-1.02,0.0,-0.42,290.38,290.39,0.0,0.01,3
1693165909.07070303,59877852,0.0,-1.02,0.0,-0.41000000000000003,290.38,290.39,0.0,0.01,3
1693165909.17074203,59977891,0.0,-1.02,0.0,-0.4,290.38,290.39,0.0,0.01,3
1693165909.27061200,60077761,0.0,-1.03,0.0,-0.39,290.39,290.40000000000003,0.0,0.0,3
1693165909.37066102,60177810,0.0,-1.03,0.0,-0.39,290.39,290.40000000000003,0.0,0.0,3
1693165909.47072196,60277871,0.0,-1.04,0.0,-0.38,290.39,290.40000000000003,0.0,0.01,3
1693165909.57080507,60377954,0.0,-1.04,0.0,-0.37,290.40000000000003,290.41,0.0,0.01,3
1693165909.67080498,60477954,0.0,-1.05,0.0,-0.37,290.40000000000003,290.41,0.0,0.01,3
1693165909.77085495,60578004,0.0,-1.05,0.0,-0.37,290.41,290.42,0.0,0.01,3
1693165909.87080312,60677952,0.0,-1.06,0.0,-0.37,290.41,290.42,0.0,0.01,3
1693165909.97072196,60777871,0.0,-1.06,0.0,-0.37,290.43,290.44,0.0,0.01,3
1693165910.07065701,60877806,0.0,-1.06,0.0,-0.37,290.43,290.44,0.0,0.01,3
1693165910.17071414,60977863,0.0,-1.07,0.0,-0.36,290.44,290.45,0.0,0.01,3
1693165910.27073312,61077882,0.0,-1.07,0.0,-0.37,290.44,290.45,0.0,0.01,3
1693165910.37072015,61177869,0.0,-1.07,0.0,-0.37,290.44,290.45,0.0,0.01,3
1693165910.47080207,61277951,0.0,-1.08,0.0,-0.37,290.44,290.45,0.0,0.01,3
1693165910.57080507,61377954,0.0,-1.08,0.0,-0.36,290.45,290.46,0.0,0.01,3
1693165910.67100906,61478158,0.0,-1.08,0.0,-0.36,290.45,290.46,0.0,0.0,3
1693165910.77103114,61578180,0.0,-1.08,0.0,-0.36,290.45,290.46,0.0,0.0,3
1693165910.87097406,61678123,0.0,-1.09,0.0,-0.35000000000000003,290.45,290.46,0.0,0.0,3
1693165910.97097802,61778127,0.0,-1.09,0.0,-0.36,290.44,290.45,0.0,0.01,3
1693165911.07098103,61878130,0.0,-1.09,0.0,-0.36,290.45,290.46,0.0,0.01,3
1693165911.17107797,61978227,0.0,-1.09,0.0,-0.36,290.45,290.46,0.0,0.01,3
1693165911.27089906,62078048,0.0,-1.09,0.0,-0.35000000000000003,290.45,290.46,0.0,0.01,3
1693165911.37099004,62178139,0.0,-1.09,0.0,-0.35000000000000003,290.45,290.46,0.0,0.01,3
1693165911.47094297,62278092,0.0,-1.09,0.0,-0.34,290.46,290.47,0.0,0.01,3
1693165911.57101297,62378162,0.0,-1.09,0.0,-0.34,290.46,290.47,0.0,0.01,3
1693165911.67100596,62478155,0.0,-1.09,0.0,-0.34,290.46,290.47,0.0,0.01,3
1693165911.77095819,62578107,0.0,-1.09,0.0,-0.33,290.47,290.48,0.0,0.01,3
1693165911.87088299,62678032,0.0,-1.09,0.0,-0.33,290.47,290.48,0.0,0.01,3
1693165911.97087312,62778022,0.0,-1.09,0.0,-0.33,290.48,290.49,0.0,0.01,3
1693165912.07088804,62878037,0.0,-1.09,0.0,-0.33,290.49,290.5,0.0,0.01,3
1693165912.17095804,62978107,0.0,-1.09,0.0,-0.33,290.5,290.51,0.0,0.01,3
1693165912.27099109,63078140,0.0,-1.09,0.0,-0.33,290.5,290.51,0.0,0.01,3
1693165912.37095499,63178104,0.0,-1.08,0.0,-0.33,290.51,290.52,0.0,0.01,3
1693165912.47100616,63278155,0.0,-1.08,0.0,-0.33,290.51,290.52,0.0,0.0,3
1693165912.57101417,63378163,0.0,-1.08,0.0,-0.33,290.51,290.52,0.0,0.0,3
1693165912.67097497,63478124,0.0,-1.09,0.0,-0.33,290.51,290.52,0.0,0.01,3
1693165912.77061200,63577761,0.0,-1.09,0.0,-0.33,290.51,290.52,0.0,0.01,3
1693165912.87061596,63677765,0.0,-1.09,0.0,-0.32,290.51,290.52,0.0,0.01,3
1693165912.97073412,63777883,0.0,-1.09,0.0,-0.32,290.51,290.52,0.0,0.01,3
1693165913.07073617,63877885,0.0,-1.09,0.0,-0.32,290.51,290.52,0.0,0.0,3
1693165913.17092109,63978070,0.0,-1.09,0.0,-0.32,290.51,290.52,0.0,0.01,3
1693165913.27083015,64077979,0.0,-1.09,0.0,-0.32,290.51,290.52,0.0,0.01,3
1693165913.37088299,64178032,0.0,-1.09,0.0,-0.32,290.51,290.52,0.0,0.01,3
1693165913.47081709,64277966,0.0,-1.09,0.0,-0.32,290.52,290.53000000000003,0.0,0.01,3
1693165913.57071805,64377867,0.0,-1.09,0.0,-0.32,290.52,290.53000000000003,0.0,0.0,3
1693165913.67098713,64478136,0.0,-1.09,0.0,-0.32,290.52,290.53000000000003,0.0,0.0,3
1693165913.77092695,64578076,0.0,-1.09,0.0,-0.32,290.52,290.53000000000003,0.0,0.0,3
1693165913.87096906,64678118,0.0,-1.09,0.0,-0.32,290.52,290.53000000000003,0.0,0.01,3
1693165913.97090006,64778049,0.0,-1.09,0.0,-0.31,290.52,290.53000000000003,0.0,0.0,3
1693165914.07102299,64878172,0.0,-1.09,0.0,-0.31,290.52,290.53000000000003,0.0,0.0,3
1693165914.17103314,64978182,0.0,-1.08,0.0,-0.32,290.52,290.53000000000003,0.0,0.0,3
1693165914.27102113,65078170,0.0,-1.09,0.0,-0.32,290.52,290.53000000000003,0.0,0.0,3
1693165914.37103701,65178186,0.0,-1.08,0.0,-0.32,290.52,290.53000000000003,0.0,0.0,3
1693165914.47098303,65278132,0.0,-1.08,0.0,-0.32,290.51,290.52,0.0,0.01,3
1693165914.57098818,65378137,0.0,-1.08,0.0,-0.32,290.51,290.52,0.0,0.01,3
1693165914.67061710,65477766,0.0,-1.08,0.0,-0.32,290.52,290.53000000000003,0.0,0.01,3
1693165914.77089906,65578048,0.0,-1.08,0.0,-0.32,290.53000000000003,290.54,0.0,0.01,3
1693165914.87090206,65678051,0.0,-1.07,0.0,-0.32,290.53000000000003,290.54,0.0,0.01,3
1693165914.97104096,65778190,0.0,-1.07,0.0,-0.33,290.54,290.55,0.0,0.01,3
1693165915.07098007,65878129,0.0,-1.06,0.0,-0.33,290.54,290.55,0.0,0.01,3
1693165915.17106605,65978215,0.0,-1.06,0.0,-0.33,290.55,290.56,0.0,0.01,3
1693165915.27113914,66078288,0.0,-1.06,0.0,-0.32,290.55,290.56,0.0,0.01,3
1693165915.37097406,66178123,0.0,-1.06,0.0,-0.32,290.56,290.57,0.0,0.01,3
1693165915.47099209,66278141,0.0,-1.06,0.0,-0.32,290.56,290.57,0.0,0.01,3
1693165915.57089996,66378049,0.0,-1.06,0.0,-0.32,290.57,290.58,0.0,0.01,3
1693165915.67095399,66478103,0.0,-1.06,0.0,-0.32,290.57,290.58,0.0,0.01,3
1693165915.77090216,66578051,0.0,-1.05,0.0,-0.32,290.58,290.59000000000003,0.0,0.01,3
1693165915.87104106,66678190,0.0,-1.05,0.0,-0.32,290.59000000000003,290.6,0.0,0.01,3
1693165915.97097301,66778122,0.0,-1.05,0.0,-0.32,290.6,290.61,0.0,0.01,3
1693165916.07102609,66878175,0.0,-1.05,0.0,-0.32,290.6,290.61,0.0,0.01,3
1693165916.17107701,66978226,0.0,-1.05,0.0,-0.33,290.61,290.62,0.0,0.01,3
1693165916.27096915,67078118,0.0,-1.05,0.0,-0.33,290.61,290.62,0.0,0.0,3
1693165916.37101007,67178159,0.0,-1.05,0.0,-0.32,290.61,290.62,0.0,0.0,3
1693165916.47089195,67278041,0.0,-1.05,0.0,-0.33,290.61,290.62,0.0,0.01,3
1693165916.57091618,67378065,0.0,-1.05,0.0,-0.33,290.61,290.62,0.0,0.01,3
1693165916.67091513,67478064,0.0,-1.05,0.0,-0.34,290.61,290.62,0.0,0.01,3
1693165916.77102304,67578172,0.0,-1.05,0.0,-0.34,290.61,290.62,0.0,0.01,3
1693165916.87100005,67678149,0.0,-1.05,0.0,-0.35000000000000003,290.6,290.61,0.0,0.0,3
1693165916.97104001,67778189,0.0,-1.05,0.0,-0.35000000000000003,290.6,290.61,0.0,0.0,3
1693165917.07103300,67878182,0.0,-1.06,0.0,-0.35000000000000003,290.6,290.61,0.0,0.0,3
1693165917.17109203,67978241,0.0,-1.06,0.0,-0.35000000000000003,290.59000000000003,290.6,0.0,0.0,3
1693165917.27089095,68078040,0.0,-1.06,0.0,-0.36,290.6,290.61,0.0,0.0,3
1693165917.37096810,68178117,0.0,-1.06,0.0,-0.36,290.6,290.61,0.0,0.0,3
1693165917.47093916,68278088,0.0,-1.05,0.0,-0.36,290.59000000000003,290.6,0.0,0.0,3
1693165917.57120609,68378355,0.0,-1.05,0.0,-0.36,290.59000000000003,290.6,0.0,0.0,3
1693165917.67105603,68478205,0.0,-1.05,0.0,-0.35000000000000003,290.59000000000003,290.6,0.0,0.0,3
1693165917.77099609,68578145,0.0,-1.05,0.0,-0.35000000000000003,290.59000000000003,290.6,0.0,0.0,3
1693165917.87105918,68678208,0.0,-1.05,0.0,-0.35000000000000003,290.59000000000003,290.6,0.0,0.0,3
1693165917.97105098,68778200,0.0,-1.04,0.0,-0.35000000000000003,290.59000000000003,290.6,0.0,0.0,3
1693165918.07099319,68878142,0.0,-1.04,0.0,-0.35000000000000003,290.59000000000003,290.6,0.0,0.0,3
1693165918.17105198,68978201,0.0,-1.04,0.0,-0.34,290.59000000000003,290.6,0.0,0.0,3
1693165918.27090096,69078050,0.0,-1.04,0.0,-0.34,290.59000000000003,290.6,0.0,0.0,3
1693165918.37097716,69178126,0.0,-1.04,0.0,-0.34,290.6,290.61,0.0,0.0,3
1693165918.47089410,69278043,0.0,-1.04,0.0,-0.34,290.6,290.61,0.0,0.0,3
1693165918.57102609,69378175,0.0,-1.04,0.0,-0.33,290.61,290.62,0.0,0.01,3
1693165918.67098618,69478135,0.0,-1.04,0.0,-0.33,290.61,290.62,0.0,0.01,3
1693165918.77103901,69578188,0.0,-1.04,0.0,-0.33,290.61,290.62,0.0,0.01,3
1693165918.87104511,69678194,0.0,-1.03,0.0,-0.34,290.62,290.63,0.0,0.01,3
1693165918.97121596,69778365,0.0,-1.03,0.0,-0.34,290.62,290.63,0.0,0.01,3
1693165919.07120299,69878352,0.0,-1.03,0.0,-0.34,290.62,290.63,0.0,0.01,3
1693165919.17095113,69978100,0.0,-1.03,0.0,-0.34,290.62,290.63,0.0,0.01,3
1693165919.27094197,70078091,0.0,-1.02,0.0,-0.34,290.63,290.64,0.0,0.01,3
1693165919.37090111,70178050,0.0,-1.02,0.0,-0.33,290.63,290.64,0.0,0.01,3
1693165919.47105408,70278203,0.0,-1.03,0.0,-0.33,290.64,290.65000000000003,0.0,0.01,3
1693165919.57081318,70377962,0.0,-1.03,0.0,-0.33,290.64,290.65000000000003,0.0,0.01,3
1693165919.67085814,70478007,0.0,-1.02,0.0,-0.34,290.65000000000003,290.66,0.0,0.01,3
1693165919.77078104,70577930,0.0,-1.02,0.0,-0.34,290.65000000000003,290.66,0.0,0.0,3
1693165919.87071300,70677862,0.0,-1.02,0.0,-0.34,290.65000000000003,290.66,0.0,0.0,3
1693165919.97065711,70777806,0.0,-1.02,0.0,-0.34,290.65000000000003,290.66,0.0,0.0,3
1693165920.07061911,70877768,0.0,-1.02,0.0,-0.34,290.65000000000003,290.66,0.0,0.0,3
1693165920.17076397,70977913,0.0,-1.02,0.0,-0.34,290.65000000000003,290.66,0.0,0.0,3
1693165920.27072597,71077875,0.0,-1.02,0.0,-0.34,290.65000000000003,290.66,0.0,0.01,3
1693165920.37081718,71177966,0.0,-1.02,0.0,-0.34,290.65000000000003,290.66,0.0,0.01,3
1693165920.47081113,71277960,0.0,-1.02,0.0,-0.34,290.65000000000003,290.66,0.0,0.01,3
1693165920.57086396,71378013,0.0,-1.01,0.0,-0.34,290.65000000000003,290.66,0.0,0.01,3
1693165920.67079997,71477949,0.0,-1.02,0.0,-0.34,290.66,290.67,0.0,0.01,3
1693165920.77070904,71577858,0.0,-1.02,0.0,-0.34,290.66,290.67,0.0,0.0,3
1693165920.87065601,71677805,0.0,-1.02,0.0,-0.34,290.66,290.67,0.0,0.0,3
1693165920.97063112,71777780,0.0,-1.02,0.0,-0.35000000000000003,290.66,290.67,0.0,0.0,3
1693165921.07071304,71877862,0.0,-1.02,0.0,-0.35000000000000003,290.67,290.68,0.0,0.0,3
1693165921.17076707,71977916,0.0,-1.02,0.0,-0.35000000000000003,290.67,290.68,0.0,0.0,3
1693165921.27081704,72077966,0.0,-1.02,0.0,-0.36,290.67,290.68,0.0,0.0,3
1693165921.37081218,72177961,0.0,-1.01,0.0,-0.36,290.68,290.69,0.0,0.0,3
1693165921.47086310,72278012,0.0,-1.01,0.0,-0.36,290.67,290.68,0.0,0.0,3
1693165921.57086802,72378017,0.0,-1.01,0.0,-0.36,290.67,290.68,0.0,0.0,3
1693165921.67071104,72477860,0.0,-1.01,0.0,-0.36,290.66,290.67,0.0,0.0,3
1693165921.77065206,72577801,0.0,-1.01,0.0,-0.36,290.66,290.67,0.0,0.0,3
1693165921.87091112,72678060,0.0,-1.01,0.0,-0.36,290.66,290.67,0.0,0.0,3
1693165921.97096300,72778112,0.0,-1.0,0.0,-0.37,290.65000000000003,290.66,0.0,0.0,3
1693165922.07095003,72878099,0.0,-1.0,0.0,-0.37,290.65000000000003,290.66,0.0,0.0,3
1693165922.17111111,72978260,0.0,-1.0,0.0,-0.37,290.65000000000003,290.66,0.0,0.0,3
1693165922.27099514,73078144,0.0,-1.0,0.0,-0.37,290.65000000000003,290.66,0.0,0.0,3
1693165922.37104511,73178194,0.0,-1.0,0.0,-0.37,290.65000000000003,290.66,0.0,0.0,3
1693165922.47105813,73278207,0.0,-1.0,0.0,-0.38,290.65000000000003,290.66,0.0,0.0,3
1693165922.57104015,73378189,0.0,-1.0,0.0,-0.38,290.65000000000003,290.66,0.0,0.0,3
1693165922.67098498,73478134,0.0,-1.0,0.0,-0.38,290.65000000000003,290.66,0.0,0.0,3
1693165922.77089310,73578042,0.0,-1.0,0.0,-0.38,290.64,290.65000000000003,0.0,0.01,3
1693165922.87095618,73678105,0.0,-1.01,0.0,-0.39,290.64,290.65000000000003,0.0,0.0,3
1693165922.97094417,73778093,0.0,-1.0,0.0,-0.39,290.64,290.65000000000003,0.0,0.0,3
1693165923.07105517,73878204,0.0,-1.0,0.0,-0.39,290.64,290.65000000000003,0.0,0.0,3
1693165923.17086506,73978014,0.0,-1.0,0.0,-0.38,290.64,290.65000000000003,0.0,0.0,3
1693165923.27086806,74078017,0.0,-1.0,0.0,-0.38,290.64,290.65000000000003,0.0,0.0,3
1693165923.37079906,74177948,0.0,-1.0,0.0,-0.38,290.64,290.65000000000003,0.0,0.0,3
1693165923.47070003,74277849,0.0,-1.0,0.0,-0.38,290.64,290.64,0.0,0.0,3
1693165923.57087016,74378019,0.0,-1.0,0.0,-0.38,290.64,290.65000000000003,0.0,0.0,3
1693165923.67093706,74478086,0.0,-1.0,0.0,-0.38,290.63,290.64,0.0,0.0,3
1693165923.77092099,74578070,0.0,-0.99,0.0,-0.38,290.64,290.65000000000003,0.0,0.0,3
1693165923.87087607,74678025,0.0,-0.99,0.0,-0.38,290.64,290.65000000000003,0.0,0.0,3
1693165923.97098613,74778135,0.0,-0.99,0.0,-0.38,290.64,290.65000000000003,0.0,0.0,3
1693165924.07095408,74878103,0.0,-0.99,0.0,-0.38,290.63,290.64,0.0,0.0,3
1693165924.17103004,74978179,0.0,-0.99,0.0,-0.38,290.63,290.64,0.0,0.0,3
1693165924.27100396,75078153,0.0,-0.99,0.0,-0.38,290.63,290.64,0.0,0.0,3
1693165924.37094307,75178092,0.0,-0.98,0.0,-0.38,290.63,290.64,0.0,0.0,3
1693165924.47084808,75277997,0.0,-0.98,0.0,-0.38,290.62,290.63,0.0,0.0,3
1693165924.57087398,75378023,0.0,-0.98,0.0,-0.38,290.62,290.63,0.0,0.0,3
1693165924.67088819,75478037,0.0,-0.98,0.0,-0.38,290.62,290.63,0.0,0.0,3
1693165924.77086306,75578012,0.0,-0.98,0.0,-0.38,290.62,290.63,0.0,0.0,3
1693165924.87100816,75678157,0.0,-0.98,0.0,-0.38,290.62,290.63,0.0,0.0,3
1693165924.97096014,75778109,0.0,-0.97,0.0,-0.38,290.62,290.63,0.0,0.0,3
1693165925.07102108,75878170,0.0,-0.97,0.0,-0.38,290.62,290.63,0.0,0.0,3
1693165925.17105508,75978204,0.0,-0.97,0.0,-0.38,290.62,290.63,0.0,0.0,3
1693165925.27095199,76078101,0.0,-0.97,0.0,-0.37,290.62,290.63,0.0,0.0,3
1693165925.37086296,76178012,0.0,-0.96,0.0,-0.37,290.62,290.63,0.0,0.0,3
1693165925.47114897,76278298,0.0,-0.96,0.0,-0.37,290.62,290.63,0.0,0.0,3
1693165925.57096410,76378113,0.0,-0.96,0.0,-0.36,290.61,290.62,0.0,0.0,3
1693165925.67091608,76478065,0.0,-0.96,0.0,-0.36,290.61,290.62,0.0,0.0,3
1693165925.77109098,76578240,0.0,-0.96,0.0,-0.36,290.61,290.62,0.0,0.0,3
1693165925.87099695,76678146,0.0,-0.96,0.0,-0.36,290.61,290.62,0.0,0.0,3
1693165925.97104907,76778198,0.0,-0.96,0.0,-0.35000000000000003,290.61,290.62,0.0,0.01,3
1693165926.07107806,76878227,0.0,-0.96,0.0,-0.35000000000000003,290.61,290.62,0.0,0.01,3
1693165926.17075896,76977908,0.0,-0.96,0.0,-0.35000000000000003,290.61,290.62,0.0,0.0,3
1693165926.27066302,77077812,0.0,-0.96,0.0,-0.35000000000000003,290.61,290.62,0.0,0.0,3
1693165926.37062502,77177774,0.0,-0.96,0.0,-0.35000000000000003,290.61,290.62,0.0,0.0,3
1693165926.47074795,77277897,0.0,-0.96,0.0,-0.35000000000000003,290.62,290.63,0.0,0.0,3
1693165926.57074308,77377892,0.0,-0.96,0.0,-0.35000000000000003,290.62,290.63,0.0,0.0,3
1693165926.67086506,77478014,0.0,-0.96,0.0,-0.36,290.61,290.62,0.0,0.01,3
1693165926.77082396,77577973,0.0,-0.9500000000000001,0.0,-0.36,290.61,290.62,0.0,0.0,3
1693165926.87088609,77678035,0.0,-0.9500000000000001,0.0,-0.36,290.61,290.62,0.0,0.0,3
1693165926.97082400,77777973,0.0,-0.9500000000000001,0.0,-0.36,290.61,290.62,0.0,0.0,3
1693165927.07071400,77877863,0.0,-0.96,0.0,-0.36,290.6,290.61,0.0,0.0,3
1693165927.17077208,77977921,0.0,-0.9500000000000001,0.0,-0.36,290.61,290.62,0.0,0.0,3
1693165927.27065516,78077804,0.0,-0.96,0.0,-0.36,290.61,290.62,0.0,0.0,3
1693165927.37069798,78177847,0.0,-0.96,0.0,-0.36,290.61,290.62,0.0,0.0,3
1693165927.47073913,78277888,0.0,-0.96,0.0,-0.36,290.61,290.62,0.0,0.0,3
1693165927.57082009,78377969,0.0,-0.96,0.0,-0.37,290.6,290.61,0.0,0.0,3
1693165927.67080903,78477958,0.0,-0.9500000000000001,0.0,-0.37,290.6,290.61,0.0,0.0,3
1693165927.77085304,78578002,0.0,-0.9500000000000001,0.0,-0.38,290.6,290.61,0.0,0.0,3
1693165927.87085605,78678005,0.0,-0.9500000000000001,0.0,-0.38,290.6,290.61,0.0,0.0,3
1693165927.97070312,78777852,0.0,-0.9500000000000001,0.0,-0.38,290.6,290.61,0.0,0.0,3
1693165928.07061195,78877761,0.0,-0.9500000000000001,0.0,-0.38,290.6,290.61,0.0,0.0,3
1693165928.17070913,78977858,0.0,-0.9500000000000001,0.0,-0.38,290.6,290.61,0.0,0.0,3
1693165928.27071905,79077868,0.0,-0.9500000000000001,0.0,-0.38,290.59000000000003,290.6,0.0,0.0,3
1693165928.37090111,79178050,0.0,-0.9500000000000001,0.0,-0.38,290.59000000000003,290.6,0.0,0.0,3
1693165928.47081208,79277961,0.0,-0.9500000000000001,0.0,-0.37,290.59000000000003,290.6,0.0,0.0,3
1693165928.57082009,79377969,0.0,-0.9500000000000001,0.0,-0.37,290.59000000000003,290.6,0.0,0.0,3
1693165928.67087197,79478021,0.0,-0.9500000000000001,0.0,-0.37,290.59000000000003,290.6,0.0,0.0,3
1693165928.77079010,79577939,0.0,-0.9500000000000001,0.0,-0.37,290.6,290.61,0.0,0.01,3
1693165928.87071800,79677867,0.0,-0.9500000000000001,0.0,-0.37,290.6,290.61,0.0,0.01,3
1693165928.97061896,79777768,0.0,-0.9400000000000001,0.0,-0.36,290.6,290.61,0.0,0.01,3
1693165929.07063198,79877781,0.0,-0.9400000000000001,0.0,-0.36,290.61,290.62,0.0,0.01,3
1693165929.17077303,79977922,0.0,-0.9400000000000001,0.0,-0.36,290.6,290.61,0.0,0.01,3
1693165929.27072906,80077878,0.0,-0.9400000000000001,0.0,-0.36,290.61,290.62,0.0,0.01,3
1693165929.37081313,80177962,0.0,-0.9400000000000001,0.0,-0.36,290.62,290.63,0.0,0.01,3
1693165929.47080612,80277955,0.0,-0.9400000000000001,0.0,-0.36,290.62,290.63,0.0,0.01,3
1693165929.57086301,80378012,0.0,-0.93,0.0,-0.36,290.62,290.63,0.0,0.01,3
1693165929.67079711,80477946,0.0,-0.9400000000000001,0.0,-0.36,290.61,290.62,0.0,0.01,3
1693165929.77070403,80577853,0.0,-0.93,0.0,-0.36,290.61,290.62,0.0,0.01,3
1693165929.87062001,80677769,0.0,-0.93,0.0,-0.36,290.62,290.63,0.0,0.01,3
1693165929.97075510,80777904,0.0,-0.93,0.0,-0.36,290.62,290.63,0.0,0.0,3
1693165930.07072616,80877875,0.0,-0.93,0.0,-0.36,290.62,290.63,0.0,0.0,3
1693165930.17078495,80977934,0.0,-0.93,0.0,-0.37,290.62,290.63,0.0,0.0,3
1693165930.27086210,81078011,0.0,-0.93,0.0,-0.37,290.62,290.63,0.0,0.0,3
1693165930.37083912,81177988,0.0,-0.93,0.0,-0.37,290.62,290.63,0.0,0.0,3
1693165930.47087312,81278022,0.0,-0.92,0.0,-0.36,290.63,290.64,0.0,0.0,3
1693165930.57079697,81377946,0.0,-0.92,0.0,-0.35000000000000003,290.63,290.64,0.0,0.0,3
1693165930.67070913,81477858,0.0,-0.92,0.0,-0.35000000000000003,290.63,290.64,0.0,0.0,3
1693165930.77062607,81577775,0.0,-0.92,0.0,-0.35000000000000003,290.63,290.64,0.0,0.0,3
1693165930.87062097,81677770,0.0,-0.92,0.0,-0.35000000000000003,290.62,290.63,0.0,0.0,3
1693165930.97072196,81777871,0.0,-0.92,0.0,-0.35000000000000003,290.62,290.63,0.0,0.01,3
1693165931.07072306,81877872,0.0,-0.92,0.0,-0.35000000000000003,290.62,290.63,0.0,0.0,3
1693165931.17089510,81978044,0.0,-0.92,0.0,-0.36,290.62,290.63,0.0,0.0,3
1693165931.27082801,82077977,0.0,-0.92,0.0,-0.35000000000000003,290.62,290.63,0.0,0.0,3
1693165931.37085009,82177999,0.0,-0.91,0.0,-0.35000000000000003,290.63,290.64,0.0,0.0,3
1693165931.47081804,82277967,0.0,-0.91,0.0,-0.35000000000000003,290.63,290.64,0.0,0.01,3
1693165931.57073116,82377880,0.0,-0.91,0.0,-0.34,290.64,290.65000000000003,0.0,0.01,3
1693165931.67099118,82478140,0.0,-0.91,0.0,-0.34,290.63,290.64,0.0,0.01,3
1693165931.77092099,82578070,0.0,-0.9,0.0,-0.34,290.63,290.64,0.0,0.0,3
1693165931.87097907,82678128,0.0,-0.9,0.0,-0.34,290.63,290.64,0.0,0.0,3
1693165931.97090316,82778052,0.0,-0.91,0.0,-0.35000000000000003,290.62,290.63,0.0,0.0,3
1693165932.07107902,82878228,0.0,-0.91,0.0,-0.35000000000000003,290.62,290.63,0.0,0.0,3
1693165932.17103815,82978187,0.0,-0.91,0.0,-0.35000000000000003,290.62,290.63,0.0,0.0,3
1693165932.27102208,83078171,0.0,-0.9,0.0,-0.35000000000000003,290.62,290.63,0.0,0.0,3
1693165932.37105107,83178200,0.0,-0.9,0.0,-0.34,290.62,290.63,0.0,0.0,3
1693165932.47097898,83278128,0.0,-0.9,0.0,-0.34,290.62,290.63,0.0,0.0,3
1693165932.57097697,83378126,0.0,-0.9,0.0,-0.34,290.62,290.63,0.0,0.0,3
1693165932.67062712,83477776,0.0,-0.9,0.0,-0.34,290.62,290.63,0.0,0.0,3
1693165932.77095318,83578102,0.0,-0.9,0.0,-0.34,290.63,290.64,0.0,0.0,3
1693165932.87094498,83678094,0.0,-0.91,0.0,-0.33,290.63,290.64,0.0,0.0,3
1693165932.97102404,83778173,0.0,-0.9,0.0,-0.33,290.64,290.65000000000003,0.0,0.0,3
1693165933.07098413,83878133,0.0,-0.9,0.0,-0.33,290.64,290.65000000000003,0.0,0.0,3
1693165933.17109108,83978240,0.0,-0.9,0.0,-0.33,290.64,290.65000000000003,0.0,0.0,3
1693165933.27103496,84078184,0.0,-0.91,0.0,-0.33,290.64,290.65000000000003,0.0,0.0,3
1693165933.37097311,84178122,0.0,-0.9,0.0,-0.33,290.64,290.65000000000003,0.0,0.0,3
1693165933.47100997,84278159,0.0,-0.9,0.0,-0.33,290.64,290.65000000000003,0.0,0.0,3
1693165933.57091212,84378061,0.0,-0.9,0.0,-0.33,290.64,290.65000000000003,0.0,0.0,3
1693165933.67096901,84478118,0.0,-0.9,0.0,-0.33,290.65000000000003,290.66,0.0,0.0,3
1693165933.77094913,84578098,0.0,-0.9,0.0,-0.33,290.65000000000003,290.66,0.0,0.0,3
1693165933.87107015,84678219,0.0,-0.9,0.0,-0.33,290.64,290.65000000000003,0.0,0.0,3
1693165933.97098804,84778137,0.0,-0.9,0.0,-0.33,290.65000000000003,290.66,0.0,0.0,3
1693165934.07104516,84878194,0.0,-0.91,0.0,-0.33,290.64,290.65000000000003,0.0,0.0,3
1693165934.17119098,84978340,0.0,-0.9,0.0,-0.33,290.64,290.65000000000003,0.0,0.0,3
1693165934.27097702,85078126,0.0,-0.91,0.0,-0.33,290.65000000000003,290.66,0.0,0.0,3
1693165934.37101603,85178165,0.0,-0.91,0.0,-0.33,290.65000000000003,290.66,0.0,0.0,3
1693165934.47090101,85278050,0.0,-0.91,0.0,-0.33,290.65000000000003,290.66,0.0,0.0,3
1693165934.57098198,85378131,0.0,-0.91,0.0,-0.33,290.65000000000003,290.66,0.0,0.0,3
1693165934.67094398,85478093,0.0,-0.9,0.0,-0.33,290.66,290.67,0.0,0.0,3
1693165934.77104402,85578193,0.0,-0.91,0.0,-0.33,290.66,290.67,0.0,0.0,3
1693165934.87100315,85678152,0.0,-0.9,0.0,-0.33,290.66,290.67,0.0,0.0,3
1693165934.97101903,85778168,0.0,-0.91,0.0,-0.33,290.67,290.68,0.0,0.0,3
1693165935.07103896,85878188,0.0,-0.9,0.0,-0.33,290.67,290.68,0.0,0.01,3
1693165935.17109299,85978242,0.0,-0.91,0.0,-0.32,290.67,290.68,0.0,0.01,3
1693165935.27099609,86078145,0.0,-0.91,0.0,-0.32,290.67,290.68,0.0,0.0,3
1693165935.37090611,86178055,0.0,-0.91,0.0,-0.32,290.67,290.68,0.0,0.0,3
1693165935.47094297,86278092,0.0,-0.91,0.0,-0.32,290.67,290.68,0.0,0.01,3
1693165935.57094502,86378094,0.0,-0.91,0.0,-0.31,290.66,290.67,0.0,0.01,3
1693165935.67104506,86478194,0.0,-0.91,0.0,-0.31,290.66,290.67,0.0,0.01,3
1693165935.77099013,86578139,0.0,-0.91,0.0,-0.31,290.67,290.68,0.0,0.01,3
1693165935.87119412,86678343,0.0,-0.91,0.0,-0.31,290.67,290.68,0.0,0.01,3
1693165935.97104406,86778193,0.0,-0.9,0.0,-0.31,290.67,290.68,0.0,0.0,3
1693165936.07097602,86878125,0.0,-0.9,0.0,-0.31,290.68,290.69,0.0,0.0,3
1693165936.17102408,86978173,0.0,-0.9,0.0,-0.31,290.68,290.69,0.0,0.0,3
1693165936.27096605,87078115,0.0,-0.9,0.0,-0.31,290.68,290.69,0.0,0.0,3
1693165936.37094212,87178091,0.0,-0.9,0.0,-0.31,290.68,290.69,0.0,0.01,3
1693165936.47089696,87278046,0.0,-0.91,0.0,-0.31,290.68,290.69,0.0,0.01,3
1693165936.57099199,87378141,0.0,-0.91,0.0,-0.3,290.68,290.69,0.0,0.01,3
1693165936.67096710,87478116,0.0,-0.92,0.0,-0.3,290.68,290.69,0.0,0.0,3
1693165936.77101207,87578161,0.0,-0.92,0.0,-0.3,290.68,290.69,0.0,0.0,3
1693165936.87101698,87678166,0.0,-0.92,0.0,-0.3,290.67,290.68,0.0,0.01,3
1693165936.97095609,87778105,0.0,-0.92,0.0,-0.3,290.68,290.69,0.0,0.0,3
1693165937.07086205,87878011,0.0,-0.92,0.0,-0.3,290.68,290.69,0.0,0.0,3
1693165937.17092109,87978070,0.0,-0.92,0.0,-0.3,290.68,290.69,0.0,0.0,3
1693165937.27090502,88078054,0.0,-0.92,0.0,-0.3,290.69,290.7,0.0,0.0,3
1693165937.37088299,88178032,0.0,-0.92,0.0,-0.3,290.69,290.7,0.0,0.0,3
1693165937.47100616,88278155,0.0,-0.92,0.0,-0.3,290.69,290.7,0.0,0.01,3
1693165937.57096195,88378111,0.0,-0.92,0.0,-0.3,290.69,290.7,0.0,0.0,3
1693165937.67100406,88478153,0.0,-0.92,0.0,-0.3,290.7,290.71,0.0,0.01,3
1693165937.77102804,88578177,0.0,-0.92,0.0,-0.3,290.7,290.71,0.0,0.01,3
1693165937.87095308,88678102,0.0,-0.92,0.0,-0.3,290.7,290.71,0.0,0.0,3
1693165937.97088003,88778029,0.0,-0.92,0.0,-0.3,290.7,290.71,0.0,0.01,3
1693165938.07087803,88878027,0.0,-0.92,0.0,-0.3,290.69,290.7,0.0,0.0,3
1693165938.17097306,88978122,0.0,-0.92,0.0,-0.3,290.69,290.7,0.0,0.0,3
1693165938.27088213,89078031,0.0,-0.92,0.0,-0.29,290.7,290.71,0.0,0.0,3
1693165938.37100601,89178155,0.0,-0.92,0.0,-0.29,290.69,290.7,0.0,0.0,3
1693165938.47095895,89278108,0.0,-0.92,0.0,-0.29,290.69,290.7,0.0,0.0,3
1693165938.57099795,89378147,0.0,-0.92,0.0,-0.29,290.7,290.71,0.0,0.0,3
1693165938.67100596,89478155,0.0,-0.92,0.0,-0.28,290.7,290.71,0.0,0.0,3
1693165938.77094316,89578092,0.0,-0.92,0.0,-0.29,290.7,290.71,0.0,0.01,3
1693165938.87088013,89678029,0.0,-0.92,0.0,-0.28,290.7,290.71,0.0,0.01,3
1693165938.97088099,89778030,0.0,-0.91,0.0,-0.28,290.7,290.71,0.0,0.01,3
1693165939.07089615,89878045,0.0,-0.91,0.0,-0.28,290.69,290.7,0.0,0.01,3
1693165939.17099214,89978141,0.0,-0.91,0.0,-0.28,290.69,290.7,0.0,0.01,3
1693165939.27101803,90078167,0.0,-0.91,0.0,-0.29,290.69,290.7,0.0,0.01,3
1693165939.37098002,90178129,0.0,-0.91,0.0,-0.29,290.69,290.7,0.0,0.01,3
1693165939.47102904,90278178,0.0,-0.91,0.0,-0.29,290.69,290.7,0.0,0.01,3
1693165939.57103705,90378186,0.0,-0.91,0.0,-0.29,290.68,290.69,0.0,0.01,3
1693165939.67097402,90478123,0.0,-0.91,0.0,-0.29,290.68,290.69,0.0,0.01,3
1693165939.77100801,90578157,0.0,-0.91,0.0,-0.3,290.68,290.69,0.0,0.01,3
1693165939.87090516,90678054,0.0,-0.9,0.0,-0.29,290.67,290.68,0.0,0.01,3
1693165939.97098804,90778137,0.0,-0.9,0.0,-0.3,290.67,290.68,0.0,0.0,3
1693165940.07072616,90877875,0.0,-0.91,0.0,-0.3,290.67,290.68,0.0,0.0,3
1693165940.17089200,90978041,0.0,-0.9,0.0,-0.3,290.68,290.69,0.0,0.0,3
1693165940.27080202,91077951,0.0,-0.9,0.0,-0.3,290.67,290.68,0.0,0.0,3
1693165940.37085319,91178002,0.0,-0.9,0.0,-0.31,290.67,290.68,0.0,0.0,3
1693165940.47085595,91278005,0.0,-0.9,0.0,-0.31,290.67,290.68,0.0,0.0,3
