timestamp,TimeUS,C,Q1,Q2,Q3,Q4
1693165866.27023816,17077387,2,1.0,0.0,0.0,0.0
1693165866.37026596,17177415,2,1.0,0.0,0.0,0.0
1693165866.47027302,17277422,2,1.0,0.0,0.0,0.0
1693165866.57022905,17377378,2,1.0,0.0,0.0,0.0
1693165866.67020512,17477354,2,1.0,0.0,0.0,0.0
1693165866.77019501,17577344,2,1.0,0.0,0.0,0.0
1693165866.87020707,17677356,2,1.0,0.0,0.0,0.0
1693165866.97020602,17777355,2,1.0,0.0,0.0,0.0
1693165867.07019496,17877344,2,1.0,0.0,0.0,0.0
1693165867.17024612,17977395,2,1.0,0.0,0.0,0.0
1693165867.27026200,18077411,2,0.9999743700027466,-0.007153225596994162,0.00014996156096458435,0.00012410800263751298
1693165867.37026906,18177418,2,0.9999743700027466,-0.0071572368033230305,0.00013741065049543977,-2.0923593524457829e-07
1693165867.47022414,18277373,2,0.9999750256538391,-0.0070566353388130665,8.547354082111269e-05,-0.00036431674379855394
1693165867.57020903,18377358,2,0.99997478723526,-0.00709806103259325,6.458147254306823e-05,-0.00028498194296844304
1693165867.67020512,18477354,2,0.9999755620956421,-0.006974626332521439,5.040914038545452e-05,-0.0004197398666292429
1693165867.77019596,18577345,2,0.9999750852584839,-0.00702678831294179,6.0695856518577784e-05,-0.0007017122698016465
1693165867.87020111,18677350,2,0.9999754428863525,-0.006976003758609295,-2.5838566216407344e-05,-0.0006613266887143254
1693165867.97021198,18777361,2,0.9999755620956421,-0.006955232936888933,-4.118836295674555e-05,-0.0007402333430945873
1693165868.07023501,18877384,2,0.9999745488166809,-0.007062584161758423,-0.00010998798097716644,-0.0009953558910638094
1693165868.17026114,18977410,2,0.9999747276306152,-0.007039131596684456,-0.00014144270971883088,-0.0009600755292922258
1693165868.27026701,19077416,2,0.9999741911888123,-0.0071104783564805984,-0.00023070722818374634,-0.0010294710518792272
1693165868.37022114,19177370,2,0.9999731183052063,-0.007202949374914169,-0.00032083605765365064,-0.0013375857379287481
1693165868.47020411,19277353,2,0.9999716281890869,-0.00738444784656167,-0.0004211681371089071,-0.0014113497454673052
1693165868.57021117,19377360,2,0.9999710321426392,-0.007459052372723818,-0.0004950643051415682,-0.0014446941204369068
1693165868.67019105,19477340,2,0.9999694228172302,-0.007616359740495682,-0.0005648382939398289,-0.0016976440092548728
1693165868.77019405,19577343,2,0.8533112406730652,-0.0068146646954119205,0.0037809056229889393,-0.5213436484336853
1693165868.87022114,19677370,2,0.853589653968811,-0.006855201907455921,0.0036902623251080513,-0.5208877921104431
1693165868.97023702,19777386,2,0.8540264964103699,-0.0068438234739005566,0.003586526494473219,-0.5201721787452698
1693165869.07025313,19877402,2,0.8546535968780518,-0.0068506780080497265,0.0035181185230612755,-0.5191415548324585
1693165869.17027807,19977427,2,0.8552531599998474,-0.006887170951813459,0.003442181274294853,-0.518153190612793
1693165869.27022696,20077376,2,0.8556391596794128,-0.006818086374551058,0.0033939143177121878,-0.5175167918205261
1693165869.37019205,20177341,2,0.8559404611587524,-0.006807774305343628,0.0033660687040537596,-0.5170186161994934
1693165869.47021008,20277359,2,0.8562010526657104,-0.0067604780197143555,0.003302296856418252,-0.5165879726409912
1693165869.57020903,20377358,2,0.8563141226768494,-0.006760425865650177,0.003304359968751669,-0.5164005756378174
1693165869.67019200,20477341,2,0.8564692139625549,-0.006734875496476889,0.0032434561289846897,-0.5161439776420593
1693165869.77021217,20577361,2,0.8566679358482361,-0.0067459228448569775,0.003224029205739498,-0.5158140659332275
1693165869.87024498,20677394,2,0.8567018508911133,-0.006712645757943392,0.003182603046298027,-0.5157583951950073
1693165869.97025609,20777405,2,0.8567399978637695,-0.006730402819812298,0.003232227871194482,-0.5156944990158081
1693165870.07026911,20877418,2,0.8568652868270874,-0.0068209609016776085,0.0032410891726613045,-0.5154850482940674
1693165870.17022610,20977375,2,0.8568534851074219,-0.006888081785291433,0.0032815844751894474,-0.5155035853385925
1693165870.27020311,21077352,2,0.856834352016449,-0.006953848991543055,0.0033392494078725576,-0.5155341029167175
1693165870.37020111,21177350,2,0.8566280007362366,-0.006986498832702637,0.0033618404995650053,-0.515876293182373
1693165870.47020197,21277351,2,0.8559336066246033,-0.0070908148773014545,0.0033447013702243567,-0.5170263051986694
1693165870.57019114,21377340,2,0.8548277616500854,-0.007101207040250301,0.0033496266696602106,-0.5188524723052979
1693165870.67021608,21477365,2,0.8535030484199524,-0.007093348074704409,0.0034247636795043945,-0.5210282802581787
1693165870.77023697,21577386,2,0.8519889712333679,-0.0070952158421278,0.0035073955077677965,-0.5234999060630798
1693165870.87026095,21677410,2,0.8504512310028076,-0.007138777989894152,0.0036592374090105295,-0.525992751121521
1693165870.97027898,21777428,2,0.8489970564842224,-0.007179228588938713,0.003788837231695652,-0.5283352136611938
1693165871.07021999,21877369,2,0.8475133180618286,-0.007177913095802069,0.003949223551899195,-0.5307109355926514
1693165871.17021012,21977359,2,0.8460551500320435,-0.007175684906542301,0.004075472708791494,-0.5330314636230469
1693165871.27021503,22077364,2,0.8447805047035217,-0.007212234195321798,0.004191173240542412,-0.5350479483604431
1693165871.37019897,22177348,2,0.8435866236686707,-0.007207517046481371,0.004312493372708559,-0.5369274616241455
1693165871.47019506,22277344,2,0.8424140810966492,-0.007200583815574646,0.0044071185402572155,-0.5387645363807678
1693165871.57020998,22377359,2,0.84131920337677,-0.007180697750300169,0.0045366063714027405,-0.5404718518257141
1693165871.67023301,22477382,2,0.8402442336082458,-0.007129057310521603,0.004586715716868639,-0.542141854763031
1693165871.77025604,22577405,2,0.8391391634941101,-0.007117141038179398,0.004735276568681002,-0.5438495874404907
1693165871.87028503,22677434,2,0.8381339311599731,-0.007139765657484531,0.004828195087611675,-0.5453964471817017
1693165871.97022414,22777373,2,0.8372026085853577,-0.007173717021942139,0.00486849807202816,-0.5468241572380066
1693165872.07020497,22877354,2,0.8363286256790161,-0.007174736820161343,0.004949585534632206,-0.5481591820716858
1693165872.17020512,22977354,2,0.8355504870414734,-0.007171500939875841,0.00497689051553607,-0.5493443012237549
1693165872.27020216,23077351,2,0.8347799777984619,-0.007200573571026325,0.005030781030654907,-0.5505135655403137
1693165872.37019014,23177339,2,0.8339992761611938,-0.007184433285146952,0.005100035574287176,-0.5516951680183411
1693165872.47021604,23277365,2,0.8333273530006409,-0.007181977387517691,0.005047360435128212,-0.5527101159095764
1693165872.57023597,23377385,2,0.8327019810676575,-0.007226530462503433,0.005030597094446421,-0.5536514520645142
1693165872.67025709,23477406,2,0.8319585919380188,-0.007246190682053566,0.005053547210991383,-0.5547674298286438
1693165872.77027202,23577421,2,0.8312088251113892,-0.007260334677994251,0.005093473009765148,-0.5558896064758301
1693165872.87022901,23677378,2,0.830498993396759,-0.00733425235375762,0.005100752227008343,-0.5569484233856201
1693165872.97019506,23777344,2,0.8297542333602905,-0.007357999682426453,0.005045745521783829,-0.5580576658248901
1693165873.07019114,23877340,2,0.8291279077529907,-0.0073728542774915695,0.00506614102050662,-0.5589873194694519
1693165873.17019796,23977347,2,0.8285642266273499,-0.0073859370313584805,0.005112608429044485,-0.5598220229148865
1693165873.27019501,24077344,2,0.8279727101325989,-0.007395958993583918,0.005163651891052723,-0.5606958270072937
1693165873.37022305,24177372,2,0.8273641467094421,-0.007407901342958212,0.005161631386727095,-0.5615932941436768
1693165873.47023702,24277386,2,0.8267467021942139,-0.007422629278153181,0.005130466539412737,-0.5625019669532776
1693165873.57025909,24377408,2,0.82610023021698,-0.007432747166603804,0.005148778203874826,-0.5634506344795227
1693165873.67026305,24477412,2,0.8254664540290833,-0.007436156272888184,0.005195952020585537,-0.5643782615661621
1693165873.77022409,24577373,2,0.8248582482337952,-0.007426682393997908,0.005191270727664232,-0.5652669668197632
1693165873.87019706,24677346,2,0.8242354989051819,-0.0074480753391981125,0.005173576530069113,-0.5661745071411133
1693165873.97019196,24777341,2,0.8236680030822754,-0.007486689370125532,0.005176237318664789,-0.5669992566108704
1693165874.07019210,24877341,2,0.8231955766677856,-0.007455026265233755,0.005164047237485647,-0.5676854848861694
1693165874.17020106,24977350,2,0.8227676153182983,-0.007453431375324726,0.005203092470765114,-0.5683051943778992
1693165874.27019811,25077347,2,0.8223850727081299,-0.007420750334858894,0.005224931053817272,-0.5688589215278625
1693165874.37023306,25177382,2,0.8220717310905457,-0.007435043808072805,0.0052470434457063675,-0.5693112015724182
1693165874.47025609,25277405,2,0.8217747807502747,-0.007443338166922331,0.005194477271288633,-0.5697401165962219
1693165874.57027102,25377420,2,0.8214068412780762,-0.007515491917729378,0.005185452755540609,-0.5702695846557617
1693165874.67022300,25477372,2,0.8210732340812683,-0.007524555083364248,0.0052534593269228935,-0.570749044418335
1693165874.77019310,25577342,2,0.8206923007965088,-0.00751491030678153,0.005219495855271816,-0.5712971687316895
1693165874.87019396,25677343,2,0.8203180432319641,-0.007555838208645582,0.005188204348087311,-0.571834146976471
1693165874.97019506,25777344,2,0.8200008273124695,-0.007588384207338095,0.005214309319853783,-0.5722882747650146
1693165875.07021904,25877368,2,0.8196806907653809,-0.007623000536113977,0.005230460315942764,-0.5727460980415344
1693165875.17024302,25977392,2,0.8194121718406677,-0.007649948820471764,0.005209443159401417,-0.5731300711631775
1693165875.27024698,26077396,2,0.8192761540412903,-0.0076720076613128185,0.005210232455283403,-0.5733241438865662
1693165875.37026095,26177410,2,0.8191311359405518,-0.007665253710001707,0.005200676620006561,-0.5735315084457397
1693165875.47027898,26277428,2,0.8189578652381897,-0.007734132464975119,0.005150918383151293,-0.5737784504890442
1693165875.57023001,26377379,2,0.8188081383705139,-0.007740271743386984,0.005164710339158773,-0.5739918351173401
1693165875.67020416,26477353,2,0.818649172782898,-0.007809296250343323,0.005151456221938133,-0.5742177367210388
1693165875.77020311,26577352,2,0.8185281157493591,-0.007813982665538788,0.00515948748216033,-0.574390172958374
1693165875.87021708,26677366,2,0.8184253573417664,-0.007771182339638472,0.005156491417437792,-0.5745371580123901
1693165875.97023010,26777379,2,0.818352997303009,-0.0077963718213140965,0.005158761516213417,-0.5746399164199829
1693165876.07026505,26877414,2,0.8182673454284668,-0.007784402463585138,0.005202324595302343,-0.5747615694999695
1693165876.17024517,26977394,2,0.8182346820831299,-0.007758486084640026,0.0052292803302407265,-0.5748081803321838
1693165876.27025914,27077408,2,0.8182234168052673,-0.007784789893776178,0.005254760384559631,-0.5748236179351807
1693165876.37026501,27177414,2,0.8182610273361206,-0.007729509379714727,0.00526401586830616,-0.5747707486152649
1693165876.47022700,27277376,2,0.8183027505874634,-0.007762620225548744,0.00529653811827302,-0.5747106075286865
1693165876.57020617,27377355,2,0.8183431625366211,-0.00774910394102335,0.005254507530480623,-0.5746536254882812
1693165876.67020106,27477350,2,0.8182792663574219,-0.007762415800243616,0.005269190762192011,-0.5747443437576294
1693165876.77019906,27577348,2,0.818183958530426,-0.007741741370409727,0.005280588753521442,-0.5748801231384277
1693165876.87019515,27677344,2,0.8180652856826782,-0.007769809570163488,0.005248792935162783,-0.5750489234924316
1693165876.97022009,27777369,2,0.8179166913032532,-0.007817604579031467,0.00529854791238904,-0.5752592086791992
1693165877.07023406,27877383,2,0.8177779912948608,-0.00783616490662098,0.005356535781174898,-0.5754554867744446
1693165877.17025900,27977408,2,0.817649245262146,-0.007863074541091919,0.005309656262397766,-0.5756385326385498
1693165877.27028012,28077429,2,0.8175373673439026,-0.007894841022789478,0.0053003933280706406,-0.5757970213890076
1693165877.37022114,28177370,2,0.8174657821655273,-0.007921508513391018,0.0052934568375349045,-0.5758983492851257
1693165877.47019815,28277347,2,0.817399263381958,-0.007908712141215801,0.005245576612651348,-0.5759933590888977
1693165877.57020807,28377357,2,0.8172694444656372,-0.007878528907895088,0.005193717777729034,-0.5761784315109253
1693165877.67019701,28477346,2,0.8171991109848022,-0.007887127809226513,0.00520737562328577,-0.5762779712677002
1693165877.77019811,28577347,2,0.8171657919883728,-0.007877856492996216,0.005145743489265442,-0.5763258934020996
1693165877.87024999,28677399,2,0.8171812295913696,-0.007923646830022335,0.005101528950035572,-0.5763037204742432
1693165877.97023511,28777384,2,0.8172195553779602,-0.00791977345943451,0.005012074019759893,-0.5762502551078796
1693165878.07025599,28877405,2,0.817362368106842,-0.007937898859381676,0.005025810562074184,-0.5760473012924194
1693165878.17026806,28977417,2,0.8175315856933594,-0.0079549765214324,0.0050147282890975475,-0.5758069753646851
1693165878.27023005,29077379,2,0.8177019953727722,-0.007976380176842213,0.004962048027664423,-0.5755650997161865
1693165878.37019014,29177339,2,0.8178746104240417,-0.007989248260855675,0.0049269176088273525,-0.5753199458122253
1693165878.47019410,29277343,2,0.8179631233215332,-0.007990104146301746,0.004889622330665588,-0.5751943588256836
1693165878.57019496,29377344,2,0.8180329203605652,-0.00805541779845953,0.004871318116784096,-0.5750943422317505
1693165878.67019105,29477340,2,0.8180961608886719,-0.00804203376173973,0.004872571211308241,-0.5750045776367188
1693165878.77021599,29577365,2,0.8181052207946777,-0.008037293329834938,0.004823224153369665,-0.5749921202659607
1693165878.87023711,29677386,2,0.8180606961250305,-0.00802383292466402,0.004803402349352837,-0.5750558376312256
1693165878.97026801,29777417,2,0.8180351853370667,-0.008008530363440514,0.004806983284652233,-0.5750923156738281
1693165879.07026100,29877410,2,0.8179827332496643,-0.007933774963021278,0.004754136316478252,-0.5751683712005615
1693165879.17022395,29977373,2,0.8179100751876831,-0.007938123308122158,0.004746090155094862,-0.575271725654602
1693165879.27018404,30077333,2,0.8178818821907043,-0.007928523235023022,0.0047257267870008945,-0.575312077999115
1693165879.37018108,30177330,2,0.8177987933158875,-0.007907633669674397,0.004726601764559746,-0.5754304528236389
1693165879.47018218,30277331,2,0.8177181482315063,-0.007896697148680687,0.0047428361140191555,-0.5755451321601868
1693165879.57019711,30377346,2,0.8176850080490112,-0.00790789071470499,0.004790896084159613,-0.5755916833877563
1693165879.67019916,30477348,2,0.8176727890968323,-0.007854177616536617,0.004812727682292461,-0.575609564781189
1693165879.77022815,30577377,2,0.8176124691963196,-0.007812721654772758,0.004837327171117067,-0.5756956338882446
1693165879.87024903,30677398,2,0.8176194429397583,-0.007809449918568134,0.004858665633946657,-0.5756855607032776
1693165879.97019196,30777341,2,0.8176203370094299,-0.007795616518706083,0.004835821688175201,-0.575684666633606
1693165880.07020998,30877359,2,0.8175665736198425,-0.007761445827782154,0.004791296552866697,-0.5757617950439453
1693165880.17018318,30977332,2,0.8175286650657654,-0.007743957918137312,0.004787215031683445,-0.5758159160614014
1693165880.27018499,31077334,2,0.817493736743927,-0.007745837792754173,0.00479839276522398,-0.5758653879165649
1693165880.37019396,31177343,2,0.8174319267272949,-0.007733146660029888,0.004759855102747679,-0.5759536623954773
1693165880.47018814,31277337,2,0.8174097537994385,-0.007761282846331596,0.004769233521074057,-0.5759845972061157
1693165880.57023716,31377386,2,0.8173667788505554,-0.00783328153192997,0.0047833616845309734,-0.576044499874115
1693165880.67022610,31477375,2,0.8173492550849915,-0.007836487144231796,0.0048067765310406685,-0.5760691165924072
1693165880.77024603,31577395,2,0.8173673748970032,-0.007872510701417923,0.004874137695878744,-0.5760423541069031
1693165880.87025499,31677404,2,0.8174453377723694,-0.007858149707317352,0.004884012974798679,-0.5759318470954895
1693165880.97021198,31777361,2,0.8175309896469116,-0.007902354001998901,0.004873253870755434,-0.5758097767829895
1693165881.07018304,31877332,2,0.8176124691963196,-0.007937277667224407,0.004856480751186609,-0.5756937265396118
1693165881.17018318,31977332,2,0.8177058100700378,-0.007977139204740524,0.00486790994182229,-0.5755605101585388
1693165881.27018309,32077332,2,0.8177490830421448,-0.007967954501509666,0.004892774857580662,-0.5754989385604858
1693165881.37018418,32177333,2,0.8178008794784546,-0.00796797126531601,0.00486866757273674,-0.5754255056381226
1693165881.47020316,32277352,2,0.8178602457046509,-0.007984542287886143,0.004916701931506395,-0.5753405094146729
1693165881.57022715,32377376,2,0.8179096579551697,-0.00795644149184227,0.004884195048362017,-0.5752708911895752
1693165881.67024112,32477390,2,0.8179439902305603,-0.007981463335454464,0.0048535591922700405,-0.5752220153808594
1693165881.77019215,32577341,2,0.817942202091217,-0.007994987070560455,0.004822082817554474,-0.5752246379852295
1693165881.87022018,32677369,2,0.8179720044136047,-0.007980640046298504,0.004786618519574404,-0.5751827359199524
1693165881.97018003,32777329,2,0.817947268486023,-0.007985010743141174,0.004742656834423542,-0.5752182602882385
1693165882.07018113,32877330,2,0.817944347858429,-0.007954834960401058,0.004717986565083265,-0.5752230286598206
1693165882.17018414,32977333,2,0.8179546594619751,-0.007912087254226208,0.004757431335747242,-0.5752086043357849
1693165882.27018118,33077330,2,0.817935585975647,-0.007916534319519997,0.004734546411782503,-0.575235903263092
1693165882.37019801,33177347,2,0.817949652671814,-0.007910506799817085,0.004768492188304663,-0.5752156972885132
1693165882.47023416,33277383,2,0.8179947137832642,-0.007870469242334366,0.004763208795338869,-0.5751522183418274
1693165882.57024312,33377392,2,0.8180597424507141,-0.007904639467597008,0.004767430014908314,-0.575059175491333
1693165882.67025900,33477408,2,0.8181215524673462,-0.007883156649768353,0.004791002720594406,-0.5749713182449341
1693165882.77021003,33577359,2,0.8181692957878113,-0.00791407935321331,0.004836231470108032,-0.5749025940895081
1693165882.87018108,33677330,2,0.8181672096252441,-0.00787821039557457,0.004827823024243116,-0.5749061107635498
1693165882.97017908,33777328,2,0.8181679844856262,-0.007911347784101963,0.0048056128434836864,-0.57490473985672
1693165883.07018614,33877335,2,0.8181631565093994,-0.007918091490864754,0.0048281606286764145,-0.5749112963676453
1693165883.17018795,33977337,2,0.8181533217430115,-0.007876127026975155,0.004757801070809364,-0.574926495552063
1693165883.27021599,34077365,2,0.8181291222572327,-0.007879417389631271,0.004794592969119549,-0.5749605894088745
1693165883.37022209,34177371,2,0.8181394338607788,-0.007889125496149063,0.004799634218215942,-0.5749456882476807
1693165883.47025108,34277400,2,0.8181995153427124,-0.007937970571219921,0.004821827169507742,-0.5748593807220459
1693165883.57025814,34377407,2,0.8182452917098999,-0.007967911660671234,0.004780827090144157,-0.5747941136360168
1693165883.67021513,34477364,2,0.8183282017707825,-0.007962454110383987,0.004832700360566378,-0.5746757388114929
1693165883.77017903,34577328,2,0.8184368014335632,-0.007965771481394768,0.004802139010280371,-0.5745213031768799
1693165883.87018609,34677335,2,0.8185210227966309,-0.00796708557754755,0.004800816997885704,-0.5744012594223022
1693165883.97018504,34777334,2,0.8186327815055847,-0.008023076690733433,0.004754312336444855,-0.5742416381835938
1693165884.07018113,34877330,2,0.8186776041984558,-0.008019105531275272,0.0047464556992053986,-0.5741778016090393
1693165884.17021918,34977368,2,0.8187559247016907,-0.008038080297410488,0.00476720230653882,-0.5740656852722168
1693165884.27022505,35077374,2,0.818780243396759,-0.008065667003393173,0.004836099687963724,-0.5740299820899963
1693165884.37024307,35177392,2,0.8187830448150635,-0.008056597784161568,0.004867709707468748,-0.5740258693695068
1693165884.47020411,35277353,2,0.8188113570213318,-0.008101677522063255,0.004917026497423649,-0.5739844441413879
1693165884.57021403,35377363,2,0.8187869787216187,-0.008081232197582722,0.004914403893053532,-0.5740194916725159
1693165884.67017913,35477328,2,0.8188029527664185,-0.00811770185828209,0.004954845644533634,-0.5739958882331848
1693165884.77018213,35577331,2,0.818785548210144,-0.00812242180109024,0.004977426957339048,-0.5740204453468323
1693165884.87018204,35677331,2,0.8187544941902161,-0.008107783272862434,0.005004189442843199,-0.5740647315979004
1693165884.97018695,35777336,2,0.8187819123268127,-0.008130509406328201,0.005021355114877224,-0.5740251541137695
1693165885.07020211,35877351,2,0.8187980055809021,-0.008137110620737076,0.00504801981151104,-0.5740018486976624
1693165885.17022395,35977373,2,0.8188617825508118,-0.008149116300046444,0.005067639518529177,-0.5739105343818665
1693165885.27025414,36077403,2,0.8189418911933899,-0.00816904567182064,0.005029711872339249,-0.573796272277832
1693165885.37019205,36177341,2,0.8190455436706543,-0.008184771053493023,0.005046586971729994,-0.5736479163169861
1693165885.47021103,36277360,2,0.8190916776657104,-0.00819771084934473,0.005117949564009905,-0.5735812187194824
1693165885.57018614,36377335,2,0.8191697597503662,-0.008167178370058537,0.005142204463481903,-0.573469877243042
1693165885.67018008,36477329,2,0.8192072510719299,-0.008175177499651909,0.005158774554729462,-0.5734160542488098
1693165885.77017903,36577328,2,0.8192405104637146,-0.008228969760239124,0.005177152808755636,-0.573367714881897
1693165885.87019014,36677339,2,0.819210946559906,-0.008221420459449291,0.005211775656789541,-0.5734096765518188
1693165885.97021413,36777363,2,0.8191955089569092,-0.008280395530164242,0.005213290918618441,-0.5734308362007141
1693165886.07022214,36877371,2,0.819190502166748,-0.008300094865262508,0.005219578742980957,-0.5734376907348633
1693165886.17024517,36977394,2,0.8191863298416138,-0.008328817784786224,0.0052114324644207954,-0.5734433531761169
1693165886.27019215,37077341,2,0.8191868662834167,-0.008323204703629017,0.005224315449595451,-0.5734425187110901
1693165886.37020898,37177358,2,0.8191799521446228,-0.008343888446688652,0.005197404883801937,-0.5734522938728333
1693165886.47019005,37277339,2,0.8191983699798584,-0.008323399350047112,0.005250105634331703,-0.573425829410553
1693165886.57018209,37377331,2,0.8192341923713684,-0.008368091657757759,0.005231712944805622,-0.5733742117881775
1693165886.67018509,37477334,2,0.8192507028579712,-0.008355267345905304,0.00525375222787261,-0.5733505487442017
1693165886.77019000,37577339,2,0.8193193078041077,-0.008340539410710335,0.005281220655888319,-0.5732524991035461
1693165886.87022400,37677373,2,0.8194124698638916,-0.00833360105752945,0.005333656910806894,-0.5731188654899597
1693165886.97023106,37777380,2,0.8195225596427917,-0.008303667418658733,0.005362305790185928,-0.572961688041687
1693165887.07024097,37877390,2,0.8196126818656921,-0.008331965655088425,0.005321525502949953,-0.5728326439857483
1693165887.17025399,37977403,2,0.8196646571159363,-0.008349656127393246,0.005368594545871019,-0.5727576613426208
1693165887.27022409,38077373,2,0.8196961879730225,-0.008306663483381271,0.005430166609585285,-0.5727125406265259
1693165887.37018204,38177331,2,0.819678783416748,-0.0083112558349967,0.005447964649647474,-0.5727372169494629
1693165887.47018909,38277338,2,0.8196799755096436,-0.00831279344856739,0.0054705096408724785,-0.5727353096008301
1693165887.57018614,38377335,2,0.819661557674408,-0.008265058510005474,0.005526645574718714,-0.5727617740631104
1693165887.67018414,38477333,2,0.8196697235107422,-0.00830154400318861,0.005541481077671051,-0.5727494359016418
1693165887.77020502,38577354,2,0.8197001814842224,-0.008297566324472427,0.00558874849230051,-0.5727054476737976
1693165887.87022805,38677377,2,0.819717526435852,-0.008350254036486149,0.005611964035779238,-0.5726795792579651
1693165887.97024608,38777395,2,0.8197392821311951,-0.008322617970407009,0.005632698070257902,-0.5726487040519714
1693165888.07019305,38877342,2,0.8197629451751709,-0.008341058157384396,0.005656770430505276,-0.572614312171936
1693165888.17021203,38977361,2,0.8197631239891052,-0.008361835032701492,0.0056703113950788975,-0.5726135969161987
1693165888.27017999,39077329,2,0.8197975158691406,-0.008330723270773888,0.005711509846150875,-0.5725643634796143
1693165888.37017918,39177328,2,0.8198330998420715,-0.008364013396203518,0.005699391942471266,-0.5725130438804626
1693165888.47018218,39277331,2,0.8198555111885071,-0.008395448327064514,0.005670562386512756,-0.5724807977676392
1693165888.57018304,39377332,2,0.8199132680892944,-0.008421147242188454,0.005692918319255114,-0.5723975300788879
1693165888.67019796,39477347,2,0.8199530839920044,-0.0084232734516263,0.005708965007215738,-0.5723402500152588
1693165888.77022195,39577371,2,0.8199467658996582,-0.008409317582845688,0.005714338272809982,-0.572349488735199
1693165888.87024498,39677394,2,0.8199280500411987,-0.008394121192395687,0.005753729958087206,-0.5723761320114136
1693165888.97020507,39777354,2,0.8199394345283508,-0.008407955057919025,0.005742981564253569,-0.5723597407341003
1693165889.07021618,39877365,2,0.8199101090431213,-0.008344287052750587,0.005769526585936546,-0.5724023580551147
1693165889.17018318,39977332,2,0.8199074864387512,-0.008354250341653824,0.005756243597716093,-0.5724061131477356
1693165889.27018404,40077333,2,0.819913387298584,-0.00837788451462984,0.005743950139731169,-0.5723974704742432
1693165889.37018013,40177329,2,0.8199477195739746,-0.008445575833320618,0.005754865240305662,-0.5723472237586975
1693165889.47018504,40277334,2,0.8199684023857117,-0.008446590043604374,0.005777281709015369,-0.5723173022270203
1693165889.57020497,40377354,2,0.8200055360794067,-0.00845357496291399,0.005784784443676472,-0.5722639560699463
1693165889.67022204,40477371,2,0.8200666904449463,-0.008466311730444431,0.005777120124548674,-0.5721762180328369
1693165889.77024102,40577390,2,0.8200858235359192,-0.008494440466165543,0.005800031591206789,-0.5721480846405029
1693165889.87025714,40677406,2,0.8201703429222107,-0.008535324595868587,0.005775640718638897,-0.5720266103744507
1693165889.97021008,40777359,2,0.8202462196350098,-0.008520555682480335,0.005762531887739897,-0.5719181299209595
1693165890.07017803,40877327,2,0.8202903866767883,-0.008529918268322945,0.005789911840111017,-0.5718543529510498
1693165890.17018795,40977337,2,0.8203485012054443,-0.008531312458217144,0.005798795726150274,-0.5717708468437195
1693165890.27018595,41077335,2,0.8203555941581726,-0.008535687811672688,0.005739634390920401,-0.5717611908912659
1693165890.37018013,41177329,2,0.8203789591789246,-0.00856628268957138,0.005716708488762379,-0.5717275142669678
1693165890.47019815,41277347,2,0.8204122185707092,-0.008569260127842426,0.005681577604264021,-0.5716800689697266
1693165890.57022810,41377377,2,0.8204589486122131,-0.008524630218744278,0.00563973281532526,-0.5716140270233154
1693165890.67024517,41477394,2,0.8204805850982666,-0.00850837305188179,0.005620740819722414,-0.5715834498405457
1693165890.77019310,41577342,2,0.8205080032348633,-0.00855234544724226,0.005658294074237347,-0.5715430378913879
1693165890.87021804,41677367,2,0.8205567598342896,-0.008531968109309673,0.005614913534373045,-0.5714737772941589
1693165890.97019005,41777339,2,0.8205997347831726,-0.008538400754332542,0.00561593659222126,-0.5714119672775269
1693165891.07017899,41877328,2,0.820626974105835,-0.008568849414587021,0.005592542700469494,-0.5713725686073303
1693165891.17018104,41977330,2,0.8206915855407715,-0.008583741262555122,0.005563272628933191,-0.5712798833847046
1693165891.27020812,42077357,2,0.8207253813743591,-0.00860070250928402,0.005469716619700193,-0.57123202085495
1693165891.37019801,42177347,2,0.8207954168319702,-0.008641797117888927,0.0054762111976742744,-0.571130633354187
1693165891.47022510,42277374,2,0.8208394050598145,-0.00863627903163433,0.005451141390949488,-0.5710676908493042
1693165891.57025909,42377408,2,0.8208593130111694,-0.008635940961539745,0.005452297627925873,-0.5710391402244568
1693165891.67025805,42477407,2,0.8208415508270264,-0.008651248179376125,0.005428606644272804,-0.5710646510124207
1693165891.77020907,42577358,2,0.8208118081092834,-0.008660604245960712,0.005432101897895336,-0.5711072087287903
1693165891.87019014,42677339,2,0.8207857012748718,-0.008664478547871113,0.005428812932223082,-0.571144700050354
1693165891.97018099,42777330,2,0.8207893371582031,-0.008709443733096123,0.00536121241748333,-0.571139395236969
1693165892.07018018,42877329,2,0.820759654045105,-0.008743341080844402,0.00537131866440177,-0.5711814761161804
1693165892.17018199,42977331,2,0.820779025554657,-0.008744924329221249,0.005381452850997448,-0.5711535811424255
1693165892.27019906,43077348,2,0.8208006620407104,-0.00873311422765255,0.005343173164874315,-0.5711230039596558
1693165892.37022209,43177371,2,0.820857048034668,-0.00873867329210043,0.005317104980349541,-0.5710421204566956
1693165892.47024608,43277395,2,0.8209561109542847,-0.008754859678447247,0.005373041145503521,-0.5708988904953003
1693165892.57027602,43377425,2,0.8210117816925049,-0.008713907562196255,0.005346533376723528,-0.5708197355270386
1693165892.67021203,43477361,2,0.8210363388061523,-0.00868149008601904,0.005319126415997744,-0.5707851052284241
1693165892.77017903,43577328,2,0.8210254311561584,-0.008678678423166275,0.005305133294314146,-0.5708009600639343
1693165892.87018704,43677336,2,0.8210123181343079,-0.008737032301723957,0.005285774823278189,-0.5708191394805908
1693165892.97018313,43777332,2,0.8210245370864868,-0.008747996762394905,0.005288492422550917,-0.5708013772964478
1693165893.07019615,43877345,2,0.8210472464561462,-0.008721877820789814,0.0053087458945810795,-0.5707689523696899
1693165893.17020917,43977358,2,0.8210273385047913,-0.008725595660507679,0.005309885833412409,-0.5707975029945374
1693165893.27022910,44077378,2,0.8210450410842896,-0.00873727910220623,0.005251872353255749,-0.5707724094390869
1693165893.37024117,44177390,2,0.8210856318473816,-0.00869146641343832,0.005285750608891249,-0.5707144141197205
1693165893.47025514,44277404,2,0.8211143612861633,-0.008677265606820583,0.00530398590490222,-0.5706730484962463
1693165893.57021713,44377366,2,0.8211352229118347,-0.00866927020251751,0.005310385022312403,-0.5706431269645691
1693165893.67018008,44477329,2,0.8211156725883484,-0.008720152080059052,0.005371286068111658,-0.570669949054718
1693165893.77017999,44577329,2,0.8210681676864624,-0.008770494721829891,0.005409552715718746,-0.5707371234893799
1693165893.87018514,44677334,2,0.8210559487342834,-0.008757654577493668,0.005417943000793457,-0.5707548260688782
1693165893.97018099,44777330,2,0.8210808038711548,-0.00874927919358015,0.005496678873896599,-0.5707184672355652
1693165894.07019615,44877345,2,0.8211174607276917,-0.008743242360651493,0.005525671876966953,-0.5706655383110046
1693165894.17023015,44977379,2,0.8211153745651245,-0.008688846603035927,0.005529193673282862,-0.5706693530082703
1693165894.27024508,45077394,2,0.8211348056793213,-0.00868714228272438,0.005498078186064959,-0.5706416964530945
1693165894.37026000,45177409,2,0.8211429715156555,-0.008682933636009693,0.005517726298421621,-0.5706298351287842
1693165894.47021103,45277360,2,0.8211681246757507,-0.008734953589737415,0.005526573397219181,-0.5705927014350891
1693165894.57018209,45377331,2,0.8211815357208252,-0.008729971945285797,0.005592417437583208,-0.5705728530883789
1693165894.67018008,45477329,2,0.8212206959724426,-0.008708678185939789,0.005631048697978258,-0.5705164670944214
1693165894.77017999,45577329,2,0.8212522864341736,-0.008734110742807388,0.00568880932405591,-0.5704699754714966
1693165894.87018895,45677338,2,0.8212510943412781,-0.008731921203434467,0.0057432325556874275,-0.5704712867736816
1693165894.97019696,45777346,2,0.8212385773658752,-0.008753410540521145,0.005757639184594154,-0.570488691329956
1693165895.07022905,45877378,2,0.8212848901748657,-0.008805802091956139,0.005779718980193138,-0.5704210996627808
1693165895.17025518,45977404,2,0.8213363289833069,-0.008870317600667477,0.005789459217339754,-0.570345938205719
1693165895.27025914,46077408,2,0.8213911056518555,-0.00887707807123661,0.00576130673289299,-0.5702672004699707
1693165895.37021017,46177359,2,0.8214537501335144,-0.008826019242405891,0.0057184393517673016,-0.570178210735321
1693165895.47018313,46277332,2,0.8214691281318665,-0.008862031623721123,0.005719075910747051,-0.5701554417610168
1693165895.57018614,46377335,2,0.821526825428009,-0.008867237716913223,0.005769533570855856,-0.5700716972351074
1693165895.67018008,46477329,2,0.8215026259422302,-0.008864261209964752,0.0057324911467731,-0.5701069831848145
1693165895.77019405,46577343,2,0.8215043544769287,-0.008840460330247879,0.005725090391933918,-0.5701049566268921
1693165895.87024117,46677390,2,0.8215445876121521,-0.008817559108138084,0.005789083894342184,-0.5700467228889465
1693165895.97022295,46777372,2,0.8215302228927612,-0.008785293437540531,0.005768067203462124,-0.5700681209564209
1693165896.07024908,46877398,2,0.8215273022651672,-0.008809360675513744,0.005779005587100983,-0.570071816444397
1693165896.17020416,46977353,2,0.8215162754058838,-0.008795682340860367,0.005752895027399063,-0.5700882077217102
1693165896.27021217,47077361,2,0.8215211033821106,-0.008771935477852821,0.005759585183113813,-0.5700815320014954
1693165896.37017918,47177328,2,0.8215643167495728,-0.008739709854125977,0.005722003988921642,-0.5700201392173767
1693165896.47018695,47277336,2,0.821614146232605,-0.008753005415201187,0.00574230682104826,-0.5699478983879089
1693165896.57018209,47377331,2,0.8216220736503601,-0.008788803592324257,0.005744873080402613,-0.5699359178543091
1693165896.67018008,47477329,2,0.8216357231140137,-0.008812274783849716,0.005760781466960907,-0.5699157118797302
1693165896.77021503,47577364,2,0.8216926455497742,-0.00880421232432127,0.005715877749025822,-0.5698341727256775
1693165896.87022400,47677373,2,0.8217175602912903,-0.008772773668169975,0.005707313772290945,-0.5697988271713257
1693165896.97025418,47777403,2,0.8217813968658447,-0.008789327926933765,0.005721758585423231,-0.5697063207626343
1693165897.07019210,47877341,2,0.8218360543251038,-0.008768310770392418,0.005728378426283598,-0.5696278214454651
1693165897.17021203,47977361,2,0.8218613862991333,-0.008744269609451294,0.005738726817071438,-0.5695914626121521
1693165897.27018404,48077333,2,0.8218986988067627,-0.00870491098612547,0.005745814181864262,-0.5695382356643677
1693165897.37018013,48177329,2,0.8218865394592285,-0.008714280091226101,0.005760778207331896,-0.569555401802063
1693165897.47018814,48277337,2,0.8218891024589539,-0.00871316809207201,0.0057380180805921555,-0.5695520043373108
1693165897.57019305,48377342,2,0.8218857049942017,-0.00873920600861311,0.005723038222640753,-0.5695565938949585
1693165897.67021203,48477361,2,0.8219239711761475,-0.008757791481912136,0.00571185490116477,-0.5695012211799622
1693165897.77022910,48577378,2,0.8219645023345947,-0.008788338862359524,0.0057065850123763084,-0.5694423317909241
1693165897.87025404,48677403,2,0.8220624327659607,-0.008800833486020565,0.005747565533965826,-0.5693003535270691
1693165897.97019196,48777341,2,0.8221100568771362,-0.008839945308864117,0.005716502200812101,-0.5692312717437744
1693165898.07020998,48877359,2,0.8221551179885864,-0.008795407600700855,0.005700491834431887,-0.5691670179367065
1693165898.17018199,48977331,2,0.8221887350082397,-0.008793586865067482,0.005643742624670267,-0.5691190958023071
1693165898.27017903,49077328,2,0.8222507238388062,-0.008861789479851723,0.005666845943778753,-0.5690282583236694
1693165898.37018013,49177329,2,0.8222807049751282,-0.008900702930986881,0.005657883360981941,-0.56898432970047
1693165898.47018600,49277335,2,0.8223392963409424,-0.008872007019817829,0.005653895437717438,-0.5689001679420471
1693165898.57020402,49377353,2,0.8223606944084167,-0.008883734233677387,0.005639045964926481,-0.5688691735267639
1693165898.67023206,49477381,2,0.8223705887794495,-0.008854275569319725,0.00559838255867362,-0.5688557624816895
1693165898.77024198,49577391,2,0.822417676448822,-0.008876258507370949,0.00559028098359704,-0.5687873959541321
1693165898.87025499,49677404,2,0.8224422335624695,-0.008899254724383354,0.005533177405595779,-0.5687521696090698
1693165898.97021317,49777362,2,0.8224598169326782,-0.008860397152602673,0.005539553239941597,-0.5687271952629089
1693165899.07018018,49877329,2,0.8224645256996155,-0.00886843167245388,0.005561106838285923,-0.5687200427055359
1693165899.17018318,49977332,2,0.8224679827690125,-0.008898899890482426,0.0055919308215379715,-0.5687143206596375
1693165899.27018309,50077332,2,0.8224865794181824,-0.008885644376277924,0.005656527820974588,-0.5686870217323303
1693165899.37017798,50177327,2,0.8224911689758301,-0.008902731351554394,0.005686480086296797,-0.5686797499656677
1693165899.47021508,50277364,2,0.8225322961807251,-0.008915959857404232,0.0056985714472830296,-0.568619966506958
1693165899.57022810,50377377,2,0.82255619764328,-0.008939867839217186,0.005747287999838591,-0.5685845613479614
1693165899.67024207,50477391,2,0.822556734085083,-0.008936046622693539,0.005727248732000589,-0.5685840249061584
1693165899.77019215,50577341,2,0.8225637674331665,-0.008950343355536461,0.005789690650999546,-0.568572998046875
1693165899.87021518,50677364,2,0.8225734233856201,-0.009038351476192474,0.005867346655577421,-0.5685567855834961
1693165899.97017908,50777328,2,0.8225626945495605,-0.009080667980015278,0.005902329459786415,-0.5685713291168213
1693165900.07018018,50877329,2,0.8225893378257751,-0.009076295420527458,0.005911365617066622,-0.5685327649116516
1693165900.17024398,50977393,2,0.8225901126861572,-0.009040662087500095,0.00591030390933156,-0.5685322284698486
1693165900.27019095,51077340,2,0.8226311206817627,-0.008983772248029709,0.005887605715543032,-0.5684739351272583
1693165900.37021518,51177364,2,0.8226372599601746,-0.008977355435490608,0.0058909086510539055,-0.5684651136398315
1693165900.47022796,51277377,2,0.8226509690284729,-0.009024431928992271,0.005868358537554741,-0.5684447884559631
1693165900.57025003,51377399,2,0.8226679563522339,-0.00898897647857666,0.005888401530683041,-0.5684205293655396
1693165900.67019606,51477345,2,0.8226775527000427,-0.008997543714940548,0.005903232377022505,-0.5684064030647278
1693165900.77021003,51577359,2,0.8226681351661682,-0.008988261222839355,0.005930268671363592,-0.568419873714447
1693165900.87018299,51677332,2,0.8226786255836487,-0.009022712707519531,0.00591420941054821,-0.5684043169021606
1693165900.97018409,51777333,2,0.8226903676986694,-0.009029769338667393,0.005959460511803627,-0.5683867931365967
1693165901.07017899,51877328,2,0.8226940035820007,-0.009059377014636993,0.005955939181149006,-0.5683810710906982
1693165901.17018509,51977334,2,0.8227075338363647,-0.009114691987633705,0.005982083734124899,-0.5683602690696716
1693165901.27019906,52077348,2,0.8227230906486511,-0.009098435752093792,0.0060181510634720325,-0.5683376789093018
1693165901.37022805,52177377,2,0.8227408528327942,-0.009126517921686172,0.0060201650485396385,-0.5683115124702454
1693165901.47024798,52277397,2,0.8227903842926025,-0.009065056219696999,0.006041763816028833,-0.5682405829429626
1693165901.57025909,52377408,2,0.8228038549423218,-0.009031237103044987,0.006039050407707691,-0.5682215690612793
1693165901.67021704,52477366,2,0.8228310942649841,-0.009032487869262695,0.006038155872374773,-0.5681821703910828
1693165901.77019000,52577339,2,0.8228422403335571,-0.008985703811049461,0.006077475845813751,-0.5681663751602173
1693165901.87020111,52677350,2,0.8228462338447571,-0.008977524936199188,0.006114273797720671,-0.5681602954864502
1693165901.97018099,52777330,2,0.8228440284729004,-0.00898709800094366,0.006116969510912895,-0.568163275718689
1693165902.07018018,52877329,2,0.8228718638420105,-0.00895402766764164,0.006160433869808912,-0.5681229829788208
1693165902.17021298,52977362,2,0.8228956460952759,-0.009014294482767582,0.0062076929025352,-0.5680871605873108
1693165902.27023101,53077380,2,0.8229058384895325,-0.009045127779245377,0.006261829752475023,-0.5680713057518005
1693165902.37027907,53177428,2,0.8228940963745117,-0.00905608106404543,0.006262535694986582,-0.5680881142616272
1693165902.47019696,53277346,2,0.8229319453239441,-0.00902438722550869,0.006226042751222849,-0.5680341720581055
1693165902.57021713,53377366,2,0.8229284882545471,-0.009069402702152729,0.006205589044839144,-0.5680387020111084
1693165902.67018914,53477338,2,0.8229227662086487,-0.009074646979570389,0.006210288964211941,-0.5680468082427979
1693165902.77019095,53577340,2,0.8229188919067383,-0.009081707336008549,0.006179670803248882,-0.5680527091026306
1693165902.87018299,53677332,2,0.8229306936264038,-0.009071622975170612,0.006173016503453255,-0.5680358409881592
1693165902.97020411,53777353,2,0.8229365348815918,-0.009091793559491634,0.006133153568953276,-0.5680274367332458
1693165903.07019997,53877349,2,0.8229720592498779,-0.009093870408833027,0.0061370194889605045,-0.5679758787155151
1693165903.17022896,53977378,2,0.8230243921279907,-0.009064547717571259,0.006165103055536747,-0.5679002404212952
1693165903.27026200,54077411,2,0.8230068683624268,-0.009105256758630276,0.0061437408439815044,-0.5679251551628113
1693165903.37027597,54177425,2,0.8230305910110474,-0.00912101287394762,0.006124688312411308,-0.5678907632827759
1693165903.47021604,54277365,2,0.8230571746826172,-0.009145747870206833,0.006148535292595625,-0.5678516030311584
1693165903.57019401,54377343,2,0.8230829238891602,-0.009119715541601181,0.0061635482124984264,-0.5678145289421082
1693165903.67019510,54477344,2,0.8231474757194519,-0.009094048291444778,0.0061728497967123985,-0.5677212476730347
1693165903.77019000,54577339,2,0.823199450969696,-0.00916225090622902,0.006124354433268309,-0.5676453113555908
1693165903.87018609,54677335,2,0.823225200176239,-0.009171221405267715,0.006167917978018522,-0.5676074028015137
1693165903.97021317,54777362,2,0.8232285380363464,-0.009188330732285976,0.006149491295218468,-0.5676023960113525
1693165904.07022214,54877371,2,0.8232316374778748,-0.009179985150694847,0.006192494183778763,-0.5675976276397705
1693165904.17025208,54977401,2,0.8232223391532898,-0.009196561761200428,0.006179888732731342,-0.5676109790802002
1693165904.27026606,55077415,2,0.8232028484344482,-0.009146464988589287,0.0062649366445839405,-0.5676391124725342
1693165904.37021017,55177359,2,0.823208749294281,-0.009195598773658276,0.006307149771600962,-0.5676292777061462
1693165904.47019315,55277342,2,0.8232000470161438,-0.009184976108372211,0.006305126007646322,-0.567642092704773
1693165904.57019615,55377345,2,0.8231610655784607,-0.00920396950095892,0.006326698232442141,-0.5676981210708618
1693165904.67018414,55477333,2,0.8231561779975891,-0.009149674326181412,0.006328430492430925,-0.5677060484886169
1693165904.77017999,55577329,2,0.8231664299964905,-0.009197006933391094,0.006346339359879494,-0.5676901936531067
1693165904.87020302,55677352,2,0.823133111000061,-0.009225176647305489,0.006368833594024181,-0.5677378177642822
1693165904.97023416,55777383,2,0.8231219053268433,-0.009264903143048286,0.006407393142580986,-0.5677529573440552
1693165905.07024002,55877389,2,0.8230835795402527,-0.009253166615962982,0.006442341487854719,-0.5678082704544067
1693165905.17025018,55977399,2,0.823096752166748,-0.00931631587445736,0.006467228755354881,-0.5677879452705383
1693165905.27021599,56077365,2,0.823072075843811,-0.009349087253212929,0.006515210028737783,-0.5678226351737976
1693165905.37018013,56177329,2,0.823050320148468,-0.009315861389040947,0.006579779554158449,-0.5678539276123047
1693165905.47018218,56277331,2,0.8230276703834534,-0.009329676628112793,0.006645923480391502,-0.5678857564926147
1693165905.57018709,56377336,2,0.8229892253875732,-0.00939567107707262,0.006685382220894098,-0.5679398775100708
1693165905.67018318,56477332,2,0.8229869604110718,-0.0094127357006073,0.006700825411826372,-0.5679427981376648
1693165905.77019715,56577346,2,0.8229706287384033,-0.009443546645343304,0.006749813910573721,-0.5679653882980347
1693165905.87022805,56677377,2,0.8229747414588928,-0.009400822222232819,0.006742936093360186,-0.5679601430892944
1693165905.97024202,56777391,2,0.8230102062225342,-0.009419865906238556,0.006779634393751621,-0.5679080486297607
1693165906.07019305,56877342,2,0.8230231404304504,-0.009437021799385548,0.0067477901466190815,-0.567889392375946
1693165906.17022109,56977370,2,0.8230723738670349,-0.009467348456382751,0.0067549510858953,-0.5678173899650574
1693165906.27019215,57077341,2,0.8230981230735779,-0.009460126981139183,0.006692913826555014,-0.5677809119224548
1693165906.37019110,57177340,2,0.8231055736541748,-0.009419823996722698,0.0066934991627931595,-0.567770779132843
1693165906.47019315,57277342,2,0.8231313228607178,-0.009486024267971516,0.006671420764178038,-0.5677326321601868
1693165906.57018209,57377331,2,0.8231745958328247,-0.009443515911698341,0.006669491063803434,-0.5676705837249756
1693165906.67020798,57477357,2,0.8231871128082275,-0.00946141593158245,0.006591177079826593,-0.5676531195640564
1693165906.77022195,57577371,2,0.8231978416442871,-0.009467462077736855,0.006520661059767008,-0.5676382184028625
1693165906.87024617,57677395,2,0.8231908679008484,-0.009462090209126472,0.006590738892555237,-0.5676475763320923
1693165906.97026014,57777409,2,0.8231658935546875,-0.009478278458118439,0.006580089218914509,-0.5676836371421814
1693165907.07021618,57877365,2,0.8231571316719055,-0.009475366212427616,0.006578129716217518,-0.5676964521408081
1693165907.17019200,57977341,2,0.8231507539749146,-0.009506662376224995,0.006575246807187796,-0.5677052736282349
1693165907.27019811,58077347,2,0.8231252431869507,-0.009478618390858173,0.006558126769959927,-0.5677428245544434
1693165907.37018800,58177337,2,0.823147177696228,-0.009485733695328236,0.006526885088533163,-0.5677112936973572
1693165907.47018814,58277337,2,0.8231521844863892,-0.009480948559939861,0.006474368739873171,-0.5677047371864319
1693165907.57022309,58377372,2,0.8231611251831055,-0.009513420052826405,0.006467974279075861,-0.5676913261413574
1693165907.67022514,58477374,2,0.8231423497200012,-0.009453571401536465,0.006441264413297176,-0.5677198171615601
1693165907.77024508,58577394,2,0.8231560587882996,-0.009407649748027325,0.006441017147153616,-0.5677006840705872
1693165907.87025714,58677406,2,0.8231549263000488,-0.009380302391946316,0.006355830002576113,-0.5677037835121155
1693165907.97022915,58777378,2,0.8231431245803833,-0.009423729963600636,0.00638821255415678,-0.5677198171615601
1693165908.07019401,58877343,2,0.8231592178344727,-0.009386585094034672,0.00627200398594141,-0.5676984190940857
1693165908.17019510,58977344,2,0.8231865763664246,-0.009342033416032791,0.006175904534757137,-0.5676605105400085
1693165908.27022195,59077371,2,0.8232077956199646,-0.009303323924541473,0.006081818137317896,-0.5676313638687134
1693165908.37018013,59177329,2,0.8232517242431641,-0.009268440306186676,0.006009859964251518,-0.5675690174102783
1693165908.47020602,59277355,2,0.8232516646385193,-0.009248534217476845,0.005924984812736511,-0.5675703287124634
1693165908.57022500,59377374,2,0.8232801556587219,-0.009214100427925587,0.005881851073354483,-0.5675299763679504
1693165908.67028999,59477439,2,0.8232731223106384,-0.009206869639456272,0.005870987195521593,-0.5675404667854309
1693165908.77019310,59577342,2,0.823264479637146,-0.009205611422657967,0.005880349315702915,-0.5675528645515442
1693165908.87021208,59677361,2,0.8232393860816956,-0.009215381927788258,0.0058127581141889095,-0.5675897598266602
1693165908.97018409,59777333,2,0.823237955570221,-0.009183132089674473,0.0058099497109651566,-0.567592442035675
1693165909.07018018,59877329,2,0.8232214450836182,-0.009156008251011372,0.005809141788631678,-0.5676168203353882
1693165909.17018318,59977332,2,0.8232547044754028,-0.00917685218155384,0.005769945215433836,-0.5675687193870544
1693165909.27018595,60077335,2,0.823244571685791,-0.009192085824906826,0.005773683078587055,-0.5675830245018005
1693165909.37020111,60177350,2,0.823222279548645,-0.009131791070103645,0.00577040808275342,-0.5676164031028748
1693165909.47022915,60277378,2,0.8231942653656006,-0.009084531106054783,0.005727334413677454,-0.5676582455635071
1693165909.57025313,60377402,2,0.82313472032547,-0.009031189605593681,0.005703232251107693,-0.5677456855773926
1693165909.67019105,60477340,2,0.8231282234191895,-0.00904716644436121,0.005671278573572636,-0.5677551627159119
1693165909.77021003,60577359,2,0.8231558203697205,-0.009037218056619167,0.005659945774823427,-0.5677154660224915
1693165909.87018204,60677331,2,0.8231701254844666,-0.00902323704212904,0.005599383730441332,-0.5676954984664917
1693165909.97018003,60777329,2,0.8231884837150574,-0.008988329209387302,0.005530673544853926,-0.5676701068878174
1693165910.07018018,60877329,2,0.8232073783874512,-0.008983706124126911,0.005443248897790909,-0.5676435828208923
1693165910.17018199,60977331,2,0.8232036828994751,-0.0090101957321167,0.005461810156702995,-0.5676483511924744
1693165910.27021217,61077361,2,0.8232166767120361,-0.009037635289132595,0.00536155141890049,-0.5676301121711731
1693165910.37022710,61177376,2,0.8232183456420898,-0.008994610980153084,0.00526227755472064,-0.5676292777061462
1693165910.47024107,61277390,2,0.8232002854347229,-0.008954496122896671,0.005258009769022465,-0.5676561594009399
1693165910.57026005,61377409,2,0.8232159614562988,-0.009001108817756176,0.0052346158772706985,-0.5676328539848328
1693165910.67021918,61477368,2,0.8232015371322632,-0.008933210745453835,0.0051825991831719875,-0.5676553249359131
1693165910.77017999,61577329,2,0.8231750726699829,-0.008942950516939163,0.0051161739975214005,-0.5676941275596619
1693165910.87018299,61677332,2,0.8231807351112366,-0.008973819203674793,0.00507068308070302,-0.5676858425140381
1693165910.97018695,61777336,2,0.823158323764801,-0.008970548398792744,0.005020116921514273,-0.5677188634872437
1693165911.07018113,61877330,2,0.8231561183929443,-0.008978578262031078,0.0049551562406122684,-0.567722499370575
1693165911.17023015,61977379,2,0.8231393098831177,-0.008974413387477398,0.004887126851826906,-0.5677475333213806
1693165911.27023101,62077380,2,0.8231778740882874,-0.008922150358557701,0.004851252306252718,-0.567692756652832
1693165911.37024212,62177391,2,0.8231974840164185,-0.008866621181368828,0.004812706261873245,-0.5676655173301697
1693165911.47019315,62277342,2,0.8232182860374451,-0.00890197604894638,0.004840237088501453,-0.5676345229148865
1693165911.57021499,62377364,2,0.8232105374336243,-0.00893113762140274,0.004837807733565569,-0.5676453709602356
1693165911.67018509,62477334,2,0.8232321739196777,-0.008927215822041035,0.004864173475652933,-0.5676138401031494
1693165911.77019501,62577344,2,0.8232564330101013,-0.0089271804317832,0.004805415868759155,-0.5675791501998901
1693165911.87019300,62677342,2,0.8232558369636536,-0.008913029916584492,0.0047577060759067535,-0.5675806403160095
1693165911.97018003,62777329,2,0.8232523798942566,-0.008869865909218788,0.004741379525512457,-0.5675864219665527
1693165912.07019496,62877344,2,0.8232840299606323,-0.00886553805321455,0.004713221453130245,-0.5675408244132996
1693165912.17022514,62977374,2,0.8233034014701843,-0.008896810933947563,0.004745976999402046,-0.5675119757652283
1693165912.27026415,63077413,2,0.8233476877212524,-0.008879309520125389,0.004725285340100527,-0.5674481987953186
1693165912.37019300,63177342,2,0.8233751058578491,-0.008877106010913849,0.004717863164842129,-0.5674085021018982
1693165912.47021103,63277360,2,0.8233678936958313,-0.008900954388082027,0.004710349719971418,-0.5674186944961548
1693165912.57019615,63377345,2,0.8233928084373474,-0.00892710778862238,0.004756104201078415,-0.5673816800117493
1693165912.67019796,63477347,2,0.8233768939971924,-0.008901113644242287,0.004721569828689098,-0.5674054622650146
1693165912.77017999,63577329,2,0.8233488202095032,-0.008934400975704193,0.004684762563556433,-0.5674459338188171
1693165912.87018609,63677335,2,0.8233320116996765,-0.008933155797421932,0.0047118267975747585,-0.5674701929092407
1693165912.97020912,63777358,2,0.8233303427696228,-0.008990545757114887,0.004724730737507343,-0.5674716234207153
1693165913.07022119,63877370,2,0.8233060240745544,-0.008984813466668129,0.004636209458112717,-0.5675076842308044
1693165913.17025018,63977399,2,0.8233053088188171,-0.008963021449744701,0.004602971486747265,-0.5675093531608582
1693165913.27025914,64077408,2,0.8233227133750916,-0.008967204950749874,0.004611262585967779,-0.5674839615821838
1693165913.37020802,64177357,2,0.8233395218849182,-0.008990515023469925,0.004594257101416588,-0.5674593448638916
1693165913.47017908,64277328,2,0.8233755230903625,-0.009041689336299896,0.004505625460296869,-0.5674070119857788
1693165913.57018614,64377335,2,0.8234056234359741,-0.009058695286512375,0.004538307897746563,-0.5673627853393555
1693165913.67019200,64477341,2,0.8234072923660278,-0.00904177688062191,0.004560021683573723,-0.5673604607582092
1693165913.77020001,64577349,2,0.8233930468559265,-0.009014764800667763,0.004613833501935005,-0.5673810839653015
1693165913.87021518,64677364,2,0.8233964443206787,-0.009035914205014706,0.004627061076462269,-0.5673757195472717
1693165913.97022510,64777374,2,0.8234416842460632,-0.009043995290994644,0.004665324464440346,-0.5673096776008606
1693165914.07024407,64877393,2,0.8234570622444153,-0.009075668640434742,0.0046816663816571236,-0.5672866702079773
1693165914.17020512,64977354,2,0.8234198093414307,-0.009088970720767975,0.0046792831271886826,-0.5673405528068542
1693165914.27021313,65077362,2,0.8234174847602844,-0.009100692346692085,0.004686645232141018,-0.5673436522483826
1693165914.37017918,65177328,2,0.8233834505081177,-0.009090149775147438,0.004698921926319599,-0.5673931241035461
1693165914.47018003,65277329,2,0.8233721256256104,-0.009093630127608776,0.004723801743239164,-0.5674092769622803
1693165914.57019806,65377347,2,0.823395848274231,-0.009100317023694515,0.004705747123807669,-0.5673748850822449
1693165914.67019105,65477340,2,0.823418140411377,-0.009115139953792095,0.004715512041002512,-0.5673422813415527
1693165914.77018499,65577334,2,0.823445737361908,-0.009107043035328388,0.004660275299102068,-0.5673028230667114
1693165914.87023616,65677385,2,0.8234655857086182,-0.009177572093904018,0.0046807243488729,-0.5672727227210999
1693165914.97024918,65777398,2,0.8234833478927612,-0.009187708608806133,0.004641545470803976,-0.5672470927238464
1693165915.07019210,65877341,2,0.8234973549842834,-0.009199854917824268,0.004614179488271475,-0.5672267079353333
1693165915.17021203,65977361,2,0.823505699634552,-0.009258393198251724,0.004634529817849398,-0.5672134757041931
1693165915.27018714,66077336,2,0.8235219717025757,-0.009262523613870144,0.004590528551489115,-0.5671901702880859
1693165915.37017918,66177328,2,0.8235477209091187,-0.009257975034415722,0.004567037336528301,-0.5671530961990356
1693165915.47018003,66277329,2,0.82359778881073,-0.009265976026654243,0.004566056653857231,-0.5670802593231201
1693165915.57018614,66377335,2,0.8236228823661804,-0.009290832094848156,0.004622509237378836,-0.567042887210846
1693165915.67020798,66477357,2,0.823620617389679,-0.009303941391408443,0.004663017578423023,-0.5670456290245056
1693165915.77022195,66577371,2,0.8236521482467651,-0.009282045066356659,0.004692540038377047,-0.5669999718666077
1693165915.87024808,66677397,2,0.823688268661499,-0.009303919039666653,0.004698684439063072,-0.5669471025466919
1693165915.97019196,66777341,2,0.8237054944038391,-0.009264778345823288,0.004713096190243959,-0.5669225454330444
1693165916.07021213,66877361,2,0.8237342238426208,-0.009260904975235462,0.004673950374126434,-0.5668812394142151
1693165916.17018199,66977331,2,0.8237519860267639,-0.009250467643141747,0.004692693706601858,-0.5668554306030273
1693165916.27019215,67077341,2,0.8237578272819519,-0.009257243946194649,0.00472274050116539,-0.5668465495109558
1693165916.37018800,67177337,2,0.8237369656562805,-0.009213736280798912,0.00469669234007597,-0.5668777823448181
1693165916.47017908,67277328,2,0.8236996531486511,-0.009251169860363007,0.004729647189378738,-0.5669311881065369
1693165916.57021117,67377360,2,0.8236622214317322,-0.009228941053152084,0.004731374327093363,-0.5669858455657959
1693165916.67023206,67477381,2,0.8236762881278992,-0.00926352757960558,0.004769088700413704,-0.5669645667076111
1693165916.77024913,67577398,2,0.823636531829834,-0.0092924227938056,0.004771027714014053,-0.5670218467712402
1693165916.87026000,67677409,2,0.823639452457428,-0.009299817495048046,0.004761741496622562,-0.5670174956321716
1693165916.97022414,67777373,2,0.8236138820648193,-0.009297567419707775,0.004799604415893555,-0.5670544505119324
1693165917.07018995,67877339,2,0.8236124515533447,-0.009274248033761978,0.004775972105562687,-0.5670570731163025
1693165917.17019606,67977345,2,0.8235811591148376,-0.009281205013394356,0.004795164801180363,-0.5671022534370422
1693165917.27019501,68077344,2,0.8235740661621094,-0.009272736497223377,0.004834027495235205,-0.5671123266220093
1693165917.37018013,68177329,2,0.8235748410224915,-0.009279601275920868,0.004826986696571112,-0.5671111345291138
1693165917.47019601,68277345,2,0.8235489726066589,-0.009216724894940853,0.004802134353667498,-0.5671499967575073
1693165917.57022905,68377378,2,0.8235712051391602,-0.009194367565214634,0.0048520914278924465,-0.5671176314353943
1693165917.67024398,68477393,2,0.823594868183136,-0.009178039617836475,0.004871848970651627,-0.5670832991600037
1693165917.77019215,68577341,2,0.8235942125320435,-0.009165185503661633,0.0048322356306016445,-0.5670848488807678
1693165917.87021112,68677360,2,0.8236156702041626,-0.00917583703994751,0.0048813060857355595,-0.5670530796051025
1693165917.97019100,68777340,2,0.8235816955566406,-0.009166622534394264,0.004904589150100946,-0.5671023726463318
1693165918.07019305,68877342,2,0.8235873579978943,-0.009203304536640644,0.0049309139139950275,-0.5670933127403259
1693165918.17019606,68977345,2,0.8235808610916138,-0.00920647569000721,0.004944207612425089,-0.5671025514602661
1693165918.27018595,69077335,2,0.8236269354820251,-0.009207190945744514,0.004929158836603165,-0.5670357942581177
1693165918.37020111,69177350,2,0.8236370086669922,-0.009203486144542694,0.004966753534972668,-0.5670208930969238
1693165918.47022605,69277375,2,0.8236310482025146,-0.009183517657220364,0.004981950391083956,-0.5670297741889954
1693165918.57025504,69377404,2,0.8236486911773682,-0.009204231202602386,0.004993477836251259,-0.5670037269592285
1693165918.67019415,69477343,2,0.8236717581748962,-0.009191108867526054,0.004975991323590279,-0.5669705271720886
1693165918.77021718,69577366,2,0.823685348033905,-0.00918551068753004,0.004928120877593756,-0.566951334476471
1693165918.87019110,69677340,2,0.8237159252166748,-0.00915108248591423,0.004904699046164751,-0.5669076442718506
1693165918.97019410,69777343,2,0.8237496614456177,-0.009140866808593273,0.004902382381260395,-0.5668588280677795
1693165919.07018113,69877330,2,0.823786735534668,-0.009176199324429035,0.004813638050109148,-0.5668051242828369
1693165919.17018509,69977334,2,0.8238037824630737,-0.009136592037975788,0.00480635603889823,-0.5667810440063477
1693165919.27021408,70077363,2,0.8238300681114197,-0.009066550992429256,0.0048267170786857605,-0.566743791103363
1693165919.37022018,70177369,2,0.8238451480865479,-0.009059648029506207,0.004846726544201374,-0.5667217969894409
1693165919.47024298,70277392,2,0.8238877058029175,-0.009064123034477234,0.004844043403863907,-0.5666598677635193
1693165919.57025814,70377407,2,0.823905348777771,-0.00905565544962883,0.004804368130862713,-0.5666347146034241
1693165919.67020917,70477358,2,0.8239156603813171,-0.00905222911387682,0.0048246728256344795,-0.5666195750236511
1693165919.77017903,70577328,2,0.8239477276802063,-0.009071489796042442,0.00481533445417881,-0.5665727257728577
1693165919.87018609,70677335,2,0.8239555954933167,-0.009105993434786797,0.004744137171655893,-0.5665612816810608
