timestamp,TimeUS,C,Roll,Pitch,Yaw,VN,VE,VD,dPD,PN,PE,PD,GX,GY,GZ,OH
1693165866.27023816,17077387,2,0.0,0.0,0.0,0.0,0.0,0.0,0.0,0.0,0.0,0.0,0.0,0.0,0.0,0.0
1693165866.37026596,17177415,2,0.0,0.0,0.0,0.0,0.0,0.0,0.0,0.0,0.0,0.0,0.0,0.0,0.0,0.0
1693165866.47027302,17277422,2,0.0,0.0,0.0,0.0,0.0,0.0,0.0,0.0,0.0,0.0,0.0,0.0,0.0,0.0
1693165866.57022905,17377378,2,0.0,0.0,0.0,0.0,0.0,0.0,0.0,0.0,0.0,0.0,0.0,0.0,0.0,0.0
1693165866.67020512,17477354,2,0.0,0.0,0.0,0.0,0.0,0.0,0.0,0.0,0.0,0.0,0.0,0.0,0.0,0.0
1693165866.77019501,17577344,2,0.0,0.0,0.0,0.0,0.0,0.0,0.0,0.0,0.0,0.0,0.0,0.0,0.0,0.0
1693165866.87020707,17677356,2,0.0,0.0,0.0,0.0,0.0,0.0,0.0,0.0,0.0,0.0,0.0,0.0,0.0,0.0
1693165866.97020602,17777355,2,0.0,0.0,0.0,0.0,0.0,0.0,0.0,0.0,0.0,0.0,0.0,0.0,0.0,0.0
1693165867.07019496,17877344,2,0.0,0.0,0.0,0.0,0.0,0.0,0.0,0.0,0.0,0.0,0.0,0.0,0.0,0.0
1693165867.17024612,17977395,2,0.0,0.0,0.0,0.0,0.0,0.0,0.0,0.0,0.0,0.0,0.0,0.0,0.0,0.0
1693165867.27026200,18077411,2,-0.81,0.01,0.01,-0.0012840923154726624,0.001827587024308741,0.015463880263268948,0.004106392152607441,0.0,0.0,0.0005744758527725935,0.0,0.0,0.0,0.0
1693165867.37026906,18177418,2,-0.8200000000000001,0.01,359.99,-0.0033793337643146515,0.005848587956279516,0.058802779763936996,0.03313840925693512,0.0,0.0,0.004479405004531145,0.0,0.0,0.0,0.0
1693165867.47022414,18277373,2,-0.8,0.0,359.95,-0.00432191276922822,0.009418702684342861,0.10806082934141159,2.59197735786438,0.0,0.0,0.31161022186279297,0.0,0.0,0.0,0.0
1693165867.57020903,18377358,2,-0.81,0.0,359.96,-0.004997180309146643,0.011915406212210655,0.14518703520298004,4.042665958404541,0.0,0.0,0.6351499557495117,0.0,0.0,0.0,0.0
1693165867.67020512,18477354,2,-0.79,0.0,359.95,-0.006522026378661394,0.016250843182206154,0.17148353159427643,3.4901680946350098,0.0,0.0,0.9032073020935059,0.0,0.0,0.0,0.0
1693165867.77019596,18577345,2,-0.8,0.0,359.91,-0.006970298942178488,0.01894119754433632,0.19240635633468628,2.5089612007141113,0.0,0.0,1.1187533140182495,0.0,0.0,0.0,0.0
1693165867.87020111,18677350,2,-0.79,0.0,359.92,-0.007769808638840914,0.023655258119106293,0.2075621783733368,1.6877107620239258,0.0,0.0,1.2845686674118042,0.0,0.0,0.0,0.0
1693165867.97021198,18777361,2,-0.79,0.0,359.91,-0.008553652092814445,0.025044124573469162,0.21983154118061066,1.1254618167877197,0.0,0.0,1.4138647317886353,0.0,0.0,0.0,0.0
1693165868.07023501,18877384,2,-0.8,-0.01,359.88,-0.008353367447853088,0.029288524761795998,0.2290952205657959,0.8201749920845032,0.0,0.0,1.517364501953125,0.0,0.0,0.0,0.0
1693165868.17026114,18977410,2,-0.8,-0.01,359.89,-0.0061654900200665,0.028958970680832863,0.23616033792495728,0.6339803338050842,0.0,0.0,1.6007134914398193,0.0,0.0,0.0,0.0
1693165868.27026701,19077416,2,-0.81,-0.02,359.88,-0.00549153471365571,0.031401392072439194,0.24075445532798767,0.4842209815979004,0.0,0.0,1.665124535560608,0.0,0.0,0.0,0.0
1693165868.37022114,19177370,2,-0.8200000000000001,-0.03,359.84000000000003,-0.003685814095661044,0.02971665933728218,0.24295206367969513,0.35597002506256104,0.0,0.0,1.7146241664886475,0.0,0.0,0.0,0.0
1693165868.47020411,19277353,2,-0.84,-0.04,359.83,-0.001988840289413929,0.02827896736562252,0.2450752854347229,0.2906070649623871,0.0,0.0,1.7559890747070312,0.0,0.0,0.0,0.0
1693165868.57021117,19377360,2,-0.85,-0.05,359.83,-0.000678925309330225,0.02512305974960327,0.2466438114643097,0.2597714066505432,0.0,0.0,1.7908662557601929,0.0,0.0,0.0,0.0
1693165868.67019105,19477340,2,-0.87,-0.06,359.8,0.00027045191382057965,0.02212815172970295,0.24639879167079926,0.23017463088035583,0.0,0.0,1.8204913139343262,0.0,0.0,0.0,0.0
1693165868.77019405,19577343,2,-0.89,-0.03,297.15000000000003,0.004603102337568998,0.017388194799423218,0.24677510559558868,0.19728443026542664,0.0,0.0,1.8447538614273071,0.0,0.0,0.0,0.0
1693165868.87022114,19677370,2,-0.89,-0.04,297.21,0.0061091165989637375,0.013323969207704067,0.24655437469482422,0.16516141593456268,0.0,0.0,1.865230679512024,0.0,0.0,0.0,0.0
1693165868.97023702,19777386,2,-0.88,-0.05,297.31,0.009517780505120754,0.011421454139053822,0.24775902926921844,0.17806904017925262,0.0,0.0,1.8869067430496216,0.0,0.0,0.0,0.0
1693165869.07025313,19877402,2,-0.88,-0.06,297.44,0.01165615301579237,0.007998820394277573,0.24887342751026154,0.20980478823184967,0.0,0.0,1.9097082614898682,0.0,0.0,0.0,0.0
1693165869.17027807,19977427,2,-0.87,-0.07,297.58,0.014953811652958393,0.007704530376940966,0.24970731139183044,0.1933043897151947,0.0,0.0,1.92879056930542,0.0,0.0,0.0,0.0
1693165869.27022696,20077376,2,-0.86,-0.07,297.66,0.01623794436454773,0.005216286983340979,0.24732038378715515,0.12957334518432617,0.0,0.0,1.9420440196990967,0.0,0.0,0.0,0.0
1693165869.37019205,20177341,2,-0.86,-0.07,297.73,0.01982390508055687,0.004271548241376877,0.24481730163097382,0.09762441366910934,0.0,0.0,1.9544601440429688,0.0,0.0,0.0,0.0
1693165869.47021008,20277359,2,-0.85,-0.07,297.79,0.020962322130799294,0.0025547028053551912,0.242208331823349,0.10546744614839554,0.0,0.0,1.9670190811157227,0.0,0.0,0.0,0.0
1693165869.57020903,20377358,2,-0.85,-0.07,297.81,0.023029256612062454,0.0029759446624666452,0.23901043832302094,0.1040014699101448,0.0,0.0,1.978421926498413,0.0,0.0,0.0,0.0
1693165869.67019200,20477341,2,-0.85,-0.08,297.85,0.024405449628829956,0.0021653182338923216,0.23457808792591095,0.07862935960292816,0.0,0.0,1.986680507659912,0.0,0.0,-0.01,0.0
1693165869.77021217,20577361,2,-0.85,-0.08,297.89,0.02537827380001545,0.0018869783962145448,0.22790274024009705,0.036853447556495667,0.0,0.0,1.9913147687911987,0.0,0.0,0.0,0.0
1693165869.87024498,20677394,2,-0.84,-0.08,297.90000000000003,0.026825154200196266,0.0021024716552346945,0.2212216854095459,0.014933926053345203,0.0,0.0,1.9945882558822632,0.0,0.0,-0.01,0.0
1693165869.97025609,20777405,2,-0.85,-0.08,297.91,0.026611166074872017,0.0005568095948547125,0.21519696712493896,0.014809624291956425,0.0,0.0,1.9976928234100342,0.0,0.0,-0.01,0.0
1693165870.07026911,20877418,2,-0.86,-0.08,297.93,0.027606461197137833,-0.00011304540385026485,0.20926621556282043,0.025099238380789757,0.0,0.0,2.0009453296661377,0.01,0.0,-0.01,0.0
1693165870.17022610,20977375,2,-0.87,-0.08,297.93,0.02639928087592125,-0.0008086111047305167,0.20233801007270813,0.020580323413014412,0.0,0.0,2.0033352375030518,0.01,0.0,-0.01,0.0
1693165870.27020311,21077352,2,-0.88,-0.08,297.93,0.027441158890724182,-0.0012145955115556717,0.1940234899520874,-0.017806844785809517,0.0,0.0,2.001403570175171,0.01,0.0,-0.01,0.0
1693165870.37020111,21177350,2,-0.88,-0.08,297.88,0.027032511308789253,-0.0028255535289645195,0.18569083511829376,-0.06383218616247177,0.0,0.0,1.9964449405670166,0.01,0.0,0.02,0.0
1693165870.47020197,21277351,2,-0.89,-0.09,297.73,0.027822181582450867,-0.0032046600244939327,0.1752946972846985,-0.09140722453594208,0.0,0.0,1.9892191886901855,0.02,0.0,0.05,0.0
1693165870.57019114,21377340,2,-0.89,-0.09,297.48,0.027870776131749153,-0.005133540835231543,0.16360218822956085,-0.11370313912630081,0.0,0.0,1.979688286781311,0.02,-0.01,0.1,0.0
1693165870.67021608,21477365,2,-0.89,-0.08,297.19,0.02773779071867466,-0.006749860476702452,0.15198016166687012,-0.1329406052827835,0.0,0.0,1.9681209325790405,0.02,-0.01,0.13,0.0
1693165870.77023697,21577386,2,-0.9,-0.08,296.86,0.026646163314580917,-0.006567052099853754,0.1404435932636261,-0.13569913804531097,0.0,0.0,1.9564447402954102,0.02,-0.01,0.16,0.0
1693165870.87026095,21677410,2,-0.91,-0.07,296.52,0.025307876989245415,-0.0064041269943118095,0.1311921775341034,-0.10843054950237274,0.0,0.0,1.9473057985305786,0.03,-0.01,0.2,0.0
1693165870.97027898,21777428,2,-0.92,-0.06,296.21,0.022926904261112213,-0.005658773239701986,0.1248319074511528,-0.05280953273177147,0.0,0.0,1.9430081844329834,0.03,-0.02,0.24,0.0
1693165871.07021999,21877369,2,-0.93,-0.05,295.89,0.02043832466006279,-0.005409146659076214,0.11920712143182755,-0.009516214020550251,0.0,0.0,1.9407484531402588,0.03,-0.02,0.28,0.0
1693165871.17021012,21977359,2,-0.9400000000000001,-0.04,295.57,0.018332788720726967,-0.003862726269289851,0.11434858292341232,-0.00585981598123908,0.0,0.0,1.9385457038879395,0.04,-0.03,0.32,0.0
1693165871.27021503,22077364,2,-0.9500000000000001,-0.03,295.3,0.016009187325835228,-0.0034292584750801325,0.10934176295995712,-0.006338794250041246,0.0,0.0,1.9372057914733887,0.04,-0.03,0.35000000000000003,0.0
1693165871.37019897,22177348,2,-0.96,-0.02,295.04,0.013961064629256725,-0.0008289534016512334,0.10363417118787766,-0.010205034166574478,0.0,0.0,1.9354554414749146,0.04,-0.03,0.37,0.0
1693165871.47019506,22277344,2,-0.96,-0.01,294.79,0.011484192684292793,-0.0006946877110749483,0.09578260779380798,-0.05168677121400833,0.0,0.0,1.9292470216751099,0.04,-0.03,0.42,0.0
1693165871.57020998,22377359,2,-0.97,0.0,294.56,0.008965856395661831,0.001252780668437481,0.08848951011896133,-0.07753348350524902,0.0,0.0,1.9230729341506958,0.04,-0.04,0.45,0.0
1693165871.67023301,22477382,2,-0.97,0.0,294.33,0.006718175020068884,0.0026131621561944485,0.07898526638746262,-0.10061416029930115,0.0,0.0,1.912840485572815,0.05,-0.04,0.47000000000000003,0.0
1693165871.77025604,22577405,2,-0.97,0.01,294.1,0.004587846342474222,0.004114880226552486,0.06884326785802841,-0.1440439522266388,0.0,0.0,1.900000810623169,0.05,-0.04,0.51,0.0
1693165871.87028503,22677434,2,-0.98,0.01,293.89,0.0030168911907821894,0.005333334673196077,0.05908031761646271,-0.15056055784225464,0.0,0.0,1.8868415355682373,0.05,-0.04,0.53,0.0
1693165871.97022414,22777373,2,-0.99,0.01,293.69,0.0006369731272570789,0.006986362859606743,0.05201878026127815,-0.10610876977443695,0.0,0.0,1.878976821899414,0.05,-0.04,0.55,0.0
1693165872.07020497,22877354,2,-0.99,0.02,293.51,-0.00023987102031242102,0.008103604428470135,0.048272036015987396,-0.03273940458893776,0.0,0.0,1.8757448196411133,0.05,-0.04,0.56,0.0
1693165872.17020512,22977354,2,-0.99,0.02,293.35,-0.002356934593990445,0.009655546396970749,0.04430718347430229,-0.009622020646929741,0.0,0.0,1.8727705478668213,0.05,-0.04,0.59,0.0
1693165872.27020216,23077351,2,-1.0,0.02,293.19,-0.00356799247674644,0.01089269295334816,0.04028889536857605,-0.007038553711026907,0.0,0.0,1.8710073232650757,0.05,-0.04,0.61,0.0
1693165872.37019014,23177339,2,-1.0,0.03,293.03000000000003,-0.005634862929582596,0.010666919872164726,0.03507823497056961,-0.027772383764386177,0.0,0.0,1.8663939237594604,0.05,-0.04,0.61,0.0
1693165872.47021604,23277365,2,-1.0,0.02,292.89,-0.005968215875327587,0.011080601252615452,0.029231591150164604,-0.05769756808876991,0.0,0.0,1.8609895706176758,0.05,-0.04,0.62,0.0
1693165872.57023597,23377385,2,-1.0,0.02,292.76,-0.006784496363252401,0.011649992316961288,0.0204879529774189,-0.10709488391876221,0.0,0.0,1.849279761314392,0.05,-0.04,0.64,0.0
1693165872.67025709,23477406,2,-1.01,0.02,292.6,-0.0062682004645466805,0.011515463702380657,0.008956373669207096,-0.17271533608436584,0.0,0.0,1.8339728116989136,0.05,-0.04,0.66,0.0
1693165872.77027202,23577421,2,-1.01,0.02,292.45,-0.0072564976289868355,0.010016019456088543,-0.004095648881047964,-0.21194340288639069,0.0,0.0,1.8144776821136475,0.05,-0.04,0.68,0.0
1693165872.87022901,23677378,2,-1.02,0.01,292.3,-0.007828311063349247,0.010248434729874134,-0.01994432881474495,-0.288907915353775,0.0,0.0,1.7869377136230469,0.05,-0.04,0.6900000000000001,0.0
1693165872.97019506,23777344,2,-1.02,0.0,292.15000000000003,-0.00781584158539772,0.010871853679418564,-0.03459564596414566,-0.315227746963501,0.0,0.0,1.7604399919509888,0.05,-0.04,0.7000000000000001,0.0
1693165873.07019114,23877340,2,-1.02,0.0,292.02,-0.008536392822861671,0.010143378749489784,-0.04774411767721176,-0.27135929465293884,0.0,0.0,1.7362695932388306,0.05,-0.03,0.7000000000000001,0.0
1693165873.17019796,23977347,2,-1.02,0.01,291.90000000000003,-0.008689316920936108,0.010421144776046276,-0.06002345681190491,-0.25276339054107666,0.0,0.0,1.7117642164230347,0.05,-0.03,0.71,0.0
1693165873.27019501,24077344,2,-1.03,0.01,291.78000000000003,-0.008924862369894981,0.010785140097141266,-0.07018546760082245,-0.2229837030172348,0.0,0.0,1.6906360387802124,0.05,-0.03,0.72,0.0
1693165873.37022305,24177372,2,-1.03,0.01,291.66,-0.008543195202946663,0.010797005146741867,-0.07791796326637268,-0.17870193719863892,0.0,0.0,1.6723651885986328,0.05,-0.03,0.74,0.0
1693165873.47023702,24277386,2,-1.03,0.0,291.53000000000003,-0.00902736745774746,0.010160962119698524,-0.0834941640496254,-0.1430470496416092,0.0,0.0,1.657378077507019,0.05,-0.03,0.74,0.0
1693165873.57025909,24377408,2,-1.03,0.0,291.40000000000003,-0.008233703672885895,0.010906078852713108,-0.08949753642082214,-0.12492167204618454,0.0,0.0,1.642739176750183,0.05,-0.03,0.74,0.0
1693165873.67026305,24477412,2,-1.03,0.01,291.27,-0.008764277212321758,0.011230072006583214,-0.09385426342487335,-0.1282072514295578,0.0,0.0,1.628799319267273,0.05,-0.03,0.76,0.0
1693165873.77022409,24577373,2,-1.03,0.0,291.15000000000003,-0.008684385567903519,0.0109776072204113,-0.10115182399749756,-0.15240195393562317,0.0,0.0,1.6120084524154663,0.05,-0.03,0.76,0.0
1693165873.87019706,24677346,2,-1.03,0.0,291.02,-0.008117442019283772,0.011347389779984951,-0.11102929711341858,-0.22410671412944794,0.0,0.0,1.5885365009307861,0.05,-0.03,0.76,0.0
1693165873.97019196,24777341,2,-1.04,0.0,290.91,-0.008437521755695343,0.010259526781737804,-0.11868462711572647,-0.228354349732399,0.0,0.0,1.5690950155258179,0.05,-0.03,0.77,0.0
1693165874.07019210,24877341,2,-1.03,0.0,290.81,-0.00862538069486618,0.010612556710839272,-0.1219358816742897,-0.14575845003128052,0.0,0.0,1.5566362142562866,0.05,-0.03,0.76,0.0
1693165874.17020106,24977350,2,-1.04,0.0,290.73,-0.008223965764045715,0.010004016570746899,-0.12423710525035858,-0.09686987847089767,0.0,0.0,1.5452051162719727,0.05,-0.03,0.76,0.0
1693165874.27019811,25077347,2,-1.03,0.0,290.65000000000003,-0.008351712487637997,0.009387382306158543,-0.12731754779815674,-0.09713535010814667,0.0,0.0,1.533634066581726,0.05,-0.02,0.75,0.0
1693165874.37023306,25177382,2,-1.04,0.0,290.59000000000003,-0.007884824648499489,0.009920122101902962,-0.1260118931531906,-0.04317452013492584,0.0,0.0,1.5301457643508911,0.05,-0.02,0.74,0.0
1693165874.47025609,25277405,2,-1.04,0.0,290.53000000000003,-0.007678279187530279,0.00988037046045065,-0.12450718879699707,0.007807505317032337,0.0,0.0,1.5283725261688232,0.05,-0.02,0.75,0.0
1693165874.57027102,25377420,2,-1.04,0.0,290.45,-0.0077859098091721535,0.00913838017731905,-0.12405084818601608,0.0013060161145403981,0.0,0.0,1.5257974863052368,0.05,-0.02,0.75,0.0
1693165874.67022300,25477372,2,-1.05,0.0,290.39,-0.0080213388428092,0.008140803314745426,-0.12439427524805069,-0.02827880159020424,0.0,0.0,1.521147608757019,0.05,-0.02,0.74,0.0
1693165874.77019310,25577342,2,-1.04,0.0,290.31,-0.00819866731762886,0.00780741311609745,-0.12182415276765823,-0.00451106671243906,0.0,0.0,1.521830439567566,0.05,-0.02,0.74,0.0
1693165874.87019396,25677343,2,-1.05,0.0,290.24,-0.00962933897972107,0.008048409596085548,-0.11999227106571198,0.017858130857348442,0.0,0.0,1.5219804048538208,0.05,-0.02,0.74,0.0
1693165874.97019506,25777344,2,-1.05,0.0,290.17,-0.0084620276466012,0.007036905270069838,-0.11910581588745117,-0.010462538339197636,0.0,0.0,1.5193299055099487,0.05,-0.02,0.73,0.0
1693165875.07021904,25877368,2,-1.05,0.0,290.11,-0.009803344495594501,0.007049087435007095,-0.11687887459993362,-0.005376503802835941,0.0,0.0,1.5195796489715576,0.05,-0.02,0.72,0.0
1693165875.17024302,25977392,2,-1.06,-0.01,290.05,-0.009364953264594078,0.006995571777224541,-0.11473306268453598,0.016046656295657158,0.0,0.0,1.5208886861801147,0.05,-0.02,0.71,0.0
1693165875.27024698,26077396,2,-1.06,-0.01,290.03000000000003,-0.01064275112003088,0.006028398871421814,-0.10905714333057404,0.0656798854470253,0.0,0.0,1.5280290842056274,0.05,-0.02,0.6900000000000001,0.0
1693165875.37026095,26177410,2,-1.06,-0.01,290.0,-0.010525711812078953,0.005323906894773245,-0.10475721210241318,0.07750062644481659,0.0,0.0,1.5328618288040161,0.05,-0.02,0.6900000000000001,0.0
1693165875.47027898,26277428,2,-1.06,-0.02,289.96,-0.011239667423069477,0.005100640468299389,-0.10272694379091263,0.04079028218984604,0.0,0.0,1.5355290174484253,0.05,-0.02,0.6900000000000001,0.0
1693165875.57023001,26377379,2,-1.06,-0.02,289.93,-0.010523531585931778,0.004573250189423561,-0.10024721175432205,0.03337181359529495,0.0,0.0,1.5398389101028442,0.05,-0.02,0.67,0.0
1693165875.67020416,26477353,2,-1.07,-0.03,289.90000000000003,-0.01091771386563778,0.004468313418328762,-0.09638775885105133,0.05443631857633591,0.0,0.0,1.5455142259597778,0.05,-0.02,0.66,0.0
1693165875.77020311,26577352,2,-1.07,-0.03,289.88,-0.010674976743757725,0.004018069710582495,-0.09248914569616318,0.06216144561767578,0.0,0.0,1.5510648488998413,0.05,-0.02,0.65,0.0
1693165875.87021708,26677366,2,-1.06,-0.02,289.86,-0.011102547869086266,0.003485789755359292,-0.08745798468589783,0.07556729763746262,0.0,0.0,1.5586903095245361,0.05,-0.01,0.64,0.0
1693165875.97023010,26777379,2,-1.07,-0.02,289.84000000000003,-0.011611085385084152,0.0027952902019023895,-0.08397556841373444,0.08254329115152359,0.0,0.0,1.5659912824630737,0.05,-0.01,0.63,0.0
1693165876.07026505,26877414,2,-1.07,-0.02,289.83,-0.010948550887405872,0.0031838202849030495,-0.07832973450422287,0.09785298258066177,0.0,0.0,1.5758742094039917,0.05,-0.01,0.61,0.0
1693165876.17024517,26977394,2,-1.07,-0.02,289.82,-0.012370654381811619,0.0021906576585024595,-0.07573997229337692,0.0788816288113594,0.0,0.0,1.5814892053604126,0.05,-0.01,0.6,0.0
1693165876.27025914,27077408,2,-1.07,-0.02,289.82,-0.012337363325059414,0.0013627149164676666,-0.07383463531732559,0.047462109476327896,0.0,0.0,1.586674690246582,0.05,-0.01,0.59,0.0
1693165876.37026501,27177414,2,-1.07,-0.01,289.82,-0.013144793920218945,0.0009055437985807657,-0.07288866490125656,0.021710971370339394,0.0,0.0,1.5885215997695923,0.05,-0.01,0.5700000000000001,0.0
1693165876.47022700,27277376,2,-1.07,-0.01,289.83,-0.013760153204202652,3.3733249438228086e-05,-0.07079938054084778,0.009768117219209671,0.0,0.0,1.5909850597381592,0.05,-0.01,0.56,0.0
1693165876.57020617,27377355,2,-1.07,-0.01,289.84000000000003,-0.014907966367900372,-0.0008000074303708971,-0.06873907148838043,0.01602167636156082,0.0,0.0,1.5931665897369385,0.05,-0.01,0.56,0.0
1693165876.67020106,27477350,2,-1.07,-0.01,289.83,-0.015425224788486958,-0.0019918913021683693,-0.06707245856523514,0.012333936057984829,0.0,0.0,1.5945963859558105,0.05,-0.01,0.55,0.0
1693165876.77019906,27577348,2,-1.07,-0.01,289.81,-0.016352111473679543,-0.002402917481958866,-0.06649497896432877,-0.0025863787159323692,0.0,0.0,1.5942723751068115,0.05,-0.01,0.55,0.0
1693165876.87019515,27677344,2,-1.07,-0.01,289.79,-0.016871042549610138,-0.003533899085596204,-0.0684971958398819,-0.05403166636824608,0.0,0.0,1.5881426334381104,0.05,-0.01,0.54,0.0
1693165876.97022009,27777369,2,-1.08,-0.01,289.76,-0.018246162682771683,-0.0038090937305241823,-0.07106021046638489,-0.09909570962190628,0.0,0.0,1.5799568891525269,0.05,-0.01,0.53,0.0
1693165877.07023406,27877383,2,-1.08,-0.01,289.73,-0.01851702854037285,-0.0044209579937160015,-0.07193661481142044,-0.09725500643253326,0.0,0.0,1.5726059675216675,0.05,-0.01,0.53,0.0
1693165877.17025900,27977408,2,-1.08,-0.02,289.7,-0.019452540203928947,-0.00460767699405551,-0.07362186908721924,-0.06800730526447296,0.0,0.0,1.5676010847091675,0.05,-0.01,0.52,0.0
1693165877.27028012,28077429,2,-1.08,-0.02,289.68,-0.0192873477935791,-0.0049590147100389,-0.07187219709157944,-0.006875066086649895,0.0,0.0,1.5681946277618408,0.05,-0.01,0.51,0.0
1693165877.37022114,28177370,2,-1.09,-0.02,289.67,-0.02009688690304756,-0.004902787506580353,-0.06908706575632095,0.04346981272101402,0.0,0.0,1.5710855722427368,0.05,-0.01,0.5,0.0
1693165877.47019815,28277347,2,-1.08,-0.03,289.65000000000003,-0.019883600994944572,-0.004671153612434864,-0.06698901206254959,0.04707106947898865,0.0,0.0,1.5734171867370605,0.05,-0.01,0.49,0.0
1693165877.57020807,28377357,2,-1.08,-0.03,289.63,-0.020641358569264412,-0.004759188741445541,-0.06664092093706131,0.012456911616027355,0.0,0.0,1.5721204280853271,0.05,-0.01,0.49,0.0
1693165877.67019701,28477346,2,-1.08,-0.03,289.61,-0.020203426480293274,-0.006153539754450321,-0.06466145813465118,0.01708970218896866,0.0,0.0,1.574533224105835,0.05,-0.01,0.48,0.0
1693165877.77019811,28577347,2,-1.07,-0.03,289.61,-0.020996693521738052,-0.005021289922297001,-0.060286834836006165,0.08214953541755676,0.0,0.0,1.582937240600586,0.05,-0.01,0.47000000000000003,0.0
1693165877.87024999,28677399,2,-1.07,-0.04,289.61,-0.019631018862128258,-0.0059136999770998955,-0.05471060425043106,0.12191666662693024,0.0,0.0,1.5929964780807495,0.05,-0.01,0.46,0.0
1693165877.97023511,28777384,2,-1.07,-0.05,289.62,-0.020593838766217232,-0.005267856642603874,-0.04969524219632149,0.11132388561964035,0.0,0.0,1.601818561553955,0.05,-0.01,0.44,0.0
1693165878.07025599,28877405,2,-1.07,-0.05,289.65000000000003,-0.019831551238894463,-0.004657188430428505,-0.045816726982593536,0.09408339858055115,0.0,0.0,1.6102346181869507,0.05,-0.01,0.43,0.0
1693165878.17026806,28977417,2,-1.07,-0.05,289.68,-0.019714321941137314,-0.003824594197794795,-0.04266893491148949,0.05552830547094345,0.0,0.0,1.6146870851516724,0.05,-0.01,0.41000000000000003,0.0
1693165878.27023005,29077379,2,-1.07,-0.06,289.71,-0.018378203734755516,-0.004271280486136675,-0.04156528785824776,-0.00625530956313014,0.0,0.0,1.6144235134124756,0.05,-0.01,0.4,0.0
1693165878.37019014,29177339,2,-1.07,-0.06,289.75,-0.018415100872516632,-0.0036532406229525805,-0.04091048240661621,-0.03197282925248146,0.0,0.0,1.613323450088501,0.05,-0.01,0.4,0.0
1693165878.47019410,29277343,2,-1.07,-0.06,289.77,-0.017360955476760864,-0.004750535823404789,-0.039839815348386765,-0.029902715235948563,0.0,0.0,1.6118885278701782,0.05,-0.01,0.39,0.0
1693165878.57019496,29377344,2,-1.07,-0.07,289.78000000000003,-0.016779962927103043,-0.004605244379490614,-0.03973609581589699,-0.033764082938432693,0.0,0.0,1.6094316244125366,0.04,-0.01,0.38,0.0
1693165878.67019105,29477340,2,-1.07,-0.07,289.79,-0.01659715548157692,-0.005629850551486015,-0.03912242129445076,-0.009425298310816288,0.0,0.0,1.6098240613937378,0.04,-0.01,0.37,0.0
1693165878.77021599,29577365,2,-1.07,-0.07,289.79,-0.01660015806555748,-0.0058076754212379456,-0.03870466351509094,0.011369732208549976,0.0,0.0,1.6105319261550903,0.04,-0.01,0.37,0.0
1693165878.87023711,29677386,2,-1.06,-0.07,289.79,-0.01567799597978592,-0.006055209320038557,-0.038648951798677444,-0.0019440221367403865,0.0,0.0,1.609712839126587,0.04,-0.01,0.37,0.0
1693165878.97026801,29777417,2,-1.06,-0.07,289.78000000000003,-0.015973491594195366,-0.006861592642962933,-0.038657642900943756,-0.010394299402832985,0.0,0.0,1.6087671518325806,0.04,-0.01,0.36,0.0
1693165879.07026100,29877410,2,-1.05,-0.07,289.77,-0.015143790282309055,-0.008284129202365875,-0.0382830984890461,-0.0016288785263895988,0.0,0.0,1.6089106798171997,0.04,-0.01,0.35000000000000003,0.0
1693165879.17022395,29977373,2,-1.05,-0.07,289.75,-0.01467332523316145,-0.008497311733663082,-0.03777351602911949,0.023026935756206512,0.0,0.0,1.6113338470458984,0.04,0.0,0.35000000000000003,0.0
1693165879.27018404,30077333,2,-1.05,-0.07,289.75,-0.013841568492352962,-0.008700776845216751,-0.03629182279109955,0.027777502313256264,0.0,0.0,1.6129539012908936,0.04,0.0,0.34,0.0
1693165879.37018108,30177330,2,-1.05,-0.07,289.73,-0.012326705269515514,-0.008900448679924011,-0.03441563621163368,0.003511585760861635,0.0,0.0,1.6125304698944092,0.04,0.0,0.34,0.0
1693165879.47018218,30277331,2,-1.05,-0.07,289.72,-0.012635188177227974,-0.009340404532849789,-0.03403792530298233,-0.020287178456783295,0.0,0.0,1.610703945159912,0.04,0.0,0.34,0.0
1693165879.57019711,30377346,2,-1.05,-0.07,289.71,-0.012585687451064587,-0.009709691628813744,-0.03475343808531761,-0.03483477234840393,0.0,0.0,1.6079274415969849,0.04,0.0,0.33,0.0
1693165879.67019916,30477348,2,-1.05,-0.06,289.71,-0.01193851139396429,-0.010019750334322453,-0.03561955317854881,-0.06110009551048279,0.0,0.0,1.6021320819854736,0.04,0.0,0.33,0.0
1693165879.77022815,30577377,2,-1.05,-0.06,289.7,-0.011221780441701412,-0.009326795116066933,-0.03678368777036667,-0.06207246705889702,0.0,0.0,1.5977365970611572,0.04,0.0,0.32,0.0
1693165879.87024903,30677398,2,-1.05,-0.05,289.7,-0.011158494278788567,-0.010178906843066216,-0.03662888705730438,-0.03743916377425194,0.0,0.0,1.594486951828003,0.04,0.0,0.31,0.0
1693165879.97019196,30777341,2,-1.04,-0.06,289.7,-0.010882416740059853,-0.010459590703248978,-0.036074068397283554,-0.023682905361056328,0.0,0.0,1.592088222503662,0.04,0.0,0.31,0.0
1693165880.07020998,30877359,2,-1.04,-0.06,289.69,-0.010241497308015823,-0.00933701079338789,-0.03511517122387886,-0.002501063048839569,0.0,0.0,1.5916560888290405,0.04,0.0,0.31,0.0
1693165880.17018318,30977332,2,-1.04,-0.06,289.68,-0.009001597762107849,-0.009355397894978523,-0.03511425107717514,0.009701094590127468,0.0,0.0,1.5918115377426147,0.04,0.0,0.3,0.0
1693165880.27018499,31077334,2,-1.04,-0.06,289.67,-0.008393452502787113,-0.008741509169340134,-0.03465833142399788,-0.013635456562042236,0.0,0.0,1.5891693830490112,0.04,0.0,0.3,0.0
1693165880.37019396,31177343,2,-1.03,-0.06,289.66,-0.007353498600423336,-0.008039302192628384,-0.03504921495914459,-0.048577938228845596,0.0,0.0,1.5844125747680664,0.04,0.0,0.3,0.0
1693165880.47018814,31277337,2,-1.04,-0.06,289.66,-0.007187387906014919,-0.005960608832538128,-0.03568672761321068,-0.05114196240901947,0.0,0.0,1.5804659128189087,0.04,0.0,0.29,0.0
1693165880.57023716,31377386,2,-1.04,-0.06,289.65000000000003,-0.006302308291196823,-0.006427510641515255,-0.03489082306623459,-0.017483236268162727,0.0,0.0,1.57962167263031,0.04,0.0,0.29,0.0
1693165880.67022610,31477375,2,-1.05,-0.06,289.64,-0.0071058631874620914,-0.005681152455508709,-0.034795183688402176,-0.0029214348178356886,0.0,0.0,1.5784761905670166,0.04,0.0,0.28,0.0
1693165880.77024603,31577395,2,-1.05,-0.06,289.65000000000003,-0.006603154353797436,-0.005980491638183594,-0.033667322248220444,0.012620164081454277,0.0,0.0,1.5796878337860107,0.04,0.0,0.27,0.0
1693165880.87025499,31677404,2,-1.05,-0.06,289.66,-0.0066271256655454636,-0.005393310450017452,-0.032452553510665894,0.03707702457904816,0.0,0.0,1.5824649333953857,0.04,0.0,0.27,0.0
1693165880.97021198,31777361,2,-1.06,-0.06,289.68,-0.006457716692239046,-0.00563573744148016,-0.02980937995016575,0.044780850410461426,0.0,0.0,1.5858368873596191,0.04,0.0,0.26,0.0
1693165881.07018304,31877332,2,-1.06,-0.06,289.7,-0.007152226287871599,-0.005399550776928663,-0.02721826545894146,0.052974577993154526,0.0,0.0,1.5903416872024536,0.04,0.0,0.25,0.0
1693165881.17018318,31977332,2,-1.06,-0.06,289.71,-0.006169694475829601,-0.005856436677277088,-0.024661177769303322,0.0541241355240345,0.0,0.0,1.5948455333709717,0.04,0.0,0.25,0.0
1693165881.27018309,32077332,2,-1.06,-0.06,289.72,-0.007778874132782221,-0.005327025894075632,-0.02231425978243351,0.04058205336332321,0.0,0.0,1.5982158184051514,0.04,0.0,0.24,0.0
1693165881.37018418,32177333,2,-1.06,-0.06,289.73,-0.007139349821954966,-0.0065973368473351,-0.02071009762585163,0.020602073520421982,0.0,0.0,1.6001381874084473,0.04,0.0,0.24,0.0
1693165881.47020316,32277352,2,-1.07,-0.06,289.75,-0.008199114352464676,-0.006189181003719568,-0.022002359852194786,-0.022892843931913376,0.0,0.0,1.597787618637085,0.04,0.0,0.23,0.0
1693165881.57022715,32377376,2,-1.06,-0.06,289.75,-0.008470481261610985,-0.006935182027518749,-0.022284509614109993,-0.05862782150506973,0.0,0.0,1.5933990478515625,0.04,0.0,0.23,0.0
1693165881.67024112,32477390,2,-1.06,-0.07,289.76,-0.009462974034249783,-0.005993779748678207,-0.02224564366042614,-0.04960480332374573,0.0,0.0,1.5903327465057373,0.04,0.0,0.23,0.0
1693165881.77019215,32577341,2,-1.06,-0.07,289.76,-0.009956088848412037,-0.005940519738942385,-0.021898595616221428,-0.019774436950683594,0.0,0.0,1.5892770290374756,0.04,0.0,0.22,0.0
1693165881.87022018,32677369,2,-1.06,-0.07,289.77,-0.010429545305669308,-0.006813350133597851,-0.02011665515601635,0.015187476761639118,0.0,0.0,1.5907853841781616,0.04,0.0,0.22,0.0
1693165881.97018003,32777329,2,-1.06,-0.08,289.76,-0.008868984878063202,-0.008073074743151665,-0.018833279609680176,0.03351304680109024,0.0,0.0,1.593087911605835,0.04,0.0,0.21,0.0
1693165882.07018113,32877330,2,-1.05,-0.08,289.76,-0.009994828142225742,-0.0073571172542870045,-0.016960810869932175,0.03685053810477257,0.0,0.0,1.5958614349365234,0.04,0.0,0.21,0.0
1693165882.17018414,32977333,2,-1.05,-0.07,289.76,-0.00897850189357996,-0.0065256087109446526,-0.01686873286962509,0.022826943546533585,0.0,0.0,1.5971741676330566,0.04,0.0,0.2,0.0
1693165882.27018118,33077330,2,-1.05,-0.07,289.76,-0.009632590226829052,-0.006115085445344448,-0.016161832958459854,-0.00022080066264607012,0.0,0.0,1.5969963073730469,0.04,0.0,0.2,0.0
1693165882.37019801,33177347,2,-1.05,-0.07,289.76,-0.009606346487998962,-0.007299506105482578,-0.014513961039483547,-0.014083481393754482,0.0,0.0,1.5959155559539795,0.04,0.0,0.2,0.0
1693165882.47023416,33277383,2,-1.05,-0.07,289.77,-0.010644813999533653,-0.007118627894669771,-0.015752341598272324,-0.020191840827465057,0.0,0.0,1.5946435928344727,0.04,0.0,0.19,0.0
1693165882.57024312,33377392,2,-1.05,-0.07,289.78000000000003,-0.01121540367603302,-0.006700831465423107,-0.015403450466692448,-0.01327336672693491,0.0,0.0,1.5938680171966553,0.04,0.0,0.19,0.0
1693165882.67025900,33477408,2,-1.05,-0.07,289.8,-0.010281273163855076,-0.006940464023500681,-0.014059253968298435,0.010202871635556221,0.0,0.0,1.595277190208435,0.04,0.0,0.19,0.0
1693165882.77021003,33577359,2,-1.06,-0.06,289.81,-0.01042672898620367,-0.0059719691053032875,-0.013239637017250061,0.0063644167967140675,0.0,0.0,1.5948379039764404,0.04,0.0,0.18,0.0
1693165882.87018108,33677330,2,-1.05,-0.06,289.81,-0.010312375612556934,-0.0044549619778990746,-0.012531925924122334,-0.018014954403042793,0.0,0.0,1.5929466485977173,0.04,0.0,0.18,0.0
1693165882.97017908,33777328,2,-1.05,-0.07,289.81,-0.010316518135368824,-0.004375467076897621,-0.011867950670421124,-0.028294427320361137,0.0,0.0,1.5904940366744995,0.04,0.0,0.18,0.0
1693165883.07018614,33877335,2,-1.06,-0.06,289.81,-0.009860256686806679,-0.0035247867926955223,-0.011936850845813751,-0.041594043374061584,0.0,0.0,1.586738109588623,0.04,0.0,0.17,0.0
1693165883.17018795,33977337,2,-1.05,-0.07,289.8,-0.008663766086101532,-0.0037722859997302294,-0.012423207052052021,-0.04582763835787773,0.0,0.0,1.582991123199463,0.04,0.0,0.17,0.0
1693165883.27021599,34077365,2,-1.05,-0.06,289.8,-0.008770953863859177,-0.0027990920934826136,-0.011609780602157116,-0.02801908366382122,0.0,0.0,1.5808507204055786,0.04,0.0,0.17,0.0
1693165883.37022209,34177371,2,-1.05,-0.06,289.8,-0.008053505793213844,-0.00220529199577868,-0.011638956144452095,-0.030255388468503952,0.0,0.0,1.5773118734359741,0.04,0.0,0.16,0.0
1693165883.47025108,34277400,2,-1.06,-0.07,289.81,-0.007039371412247419,-0.002510992344468832,-0.011873009614646435,-0.04454465210437775,0.0,0.0,1.5730596780776978,0.04,0.0,0.16,0.0
1693165883.57025814,34377407,2,-1.06,-0.07,289.82,-0.007282494567334652,-0.0021525088232010603,-0.011488762684166431,-0.04329891502857208,0.0,0.0,1.5690706968307495,0.04,0.0,0.16,0.0
1693165883.67021513,34477364,2,-1.06,-0.07,289.84000000000003,-0.006280300207436085,-0.0023946978617459536,-0.012947438284754753,-0.04870174452662468,0.0,0.0,1.564335584640503,0.04,0.0,0.15,0.0
1693165883.77017903,34577328,2,-1.06,-0.07,289.86,-0.00695424061268568,-0.0022567715495824814,-0.013574948534369469,-0.03710394725203514,0.0,0.0,1.5613253116607666,0.04,0.0,0.15,0.0
1693165883.87018609,34677335,2,-1.06,-0.07,289.88,-0.00695621594786644,-0.002684681210666895,-0.012880944646894932,-0.01611935719847679,0.0,0.0,1.5594631433486938,0.04,0.0,0.14,0.0
1693165883.97018504,34777334,2,-1.06,-0.08,289.90000000000003,-0.00849983375519514,-0.002019399544224143,-0.012309967540204525,-0.027185635641217232,0.0,0.0,1.5557843446731567,0.04,0.0,0.14,0.0
1693165884.07018113,34877330,2,-1.06,-0.08,289.91,-0.0075368620455265045,-0.002036623191088438,-0.013269050046801567,-0.04287947714328766,0.0,0.0,1.5516505241394043,0.04,0.0,0.14,0.0
1693165884.17021918,34977368,2,-1.06,-0.08,289.92,-0.008982670493423939,-0.001663313014432788,-0.013602346181869507,-0.04219198599457741,0.0,0.0,1.5477771759033203,0.04,0.0,0.13,0.0
1693165884.27022505,35077374,2,-1.07,-0.07,289.93,-0.008323059417307377,-0.0025191905442625284,-0.014385174959897995,-0.0357084758579731,0.0,0.0,1.544491171836853,0.04,0.0,0.13,0.0
1693165884.37024307,35177392,2,-1.07,-0.07,289.93,-0.009663648903369904,-0.003168466268107295,-0.014122162945568562,-0.007162443827837706,0.0,0.0,1.5442819595336914,0.04,0.0,0.13,0.0
1693165884.47020411,35277353,2,-1.08,-0.07,289.93,-0.0089187016710639,-0.005512263160198927,-0.013009435497224331,0.03325293958187103,0.0,0.0,1.5470722913742065,0.04,0.0,0.13,0.0
1693165884.57021403,35377363,2,-1.08,-0.07,289.93,-0.01083458960056305,-0.004884070251137018,-0.012561445124447346,0.04444342106580734,0.0,0.0,1.5498573780059814,0.04,0.0,0.13,0.0
1693165884.67017913,35477328,2,-1.08,-0.06,289.93,-0.009637397713959217,-0.005296194460242987,-0.012061159126460552,0.005866109859198332,0.0,0.0,1.5485913753509521,0.04,0.0,0.12,0.0
1693165884.77018213,35577331,2,-1.08,-0.06,289.93,-0.011721390299499035,-0.004309417214244604,-0.012076018378138542,-0.04188426584005356,0.0,0.0,1.544597864151001,0.04,0.0,0.12,0.0
1693165884.87018204,35677331,2,-1.08,-0.06,289.92,-0.0115938950330019,-0.004823644645512104,-0.011855230666697025,-0.051822539418935776,0.0,0.0,1.5408350229263306,0.04,0.0,0.12,0.0
1693165884.97018695,35777336,2,-1.09,-0.06,289.93,-0.012849741615355015,-0.006317404098808765,-0.013160583563148975,-0.05155131593346596,0.0,0.0,1.5365333557128906,0.04,0.0,0.12,0.0
1693165885.07020211,35877351,2,-1.09,-0.06,289.93,-0.013532230630517006,-0.007042448502033949,-0.01407421100884676,-0.05905274301767349,0.0,0.0,1.5311524868011475,0.04,0.0,0.11,0.0
1693165885.17022395,35977373,2,-1.09,-0.06,289.95,-0.014848016202449799,-0.006926632486283779,-0.014683119021356106,-0.061628349125385284,0.0,0.0,1.525658369064331,0.04,0.0,0.11,0.0
1693165885.27025414,36077403,2,-1.09,-0.06,289.96,-0.014628359116613865,-0.006959438789635897,-0.015252410434186459,-0.06243771314620972,0.0,0.0,1.5197747945785522,0.04,0.0,0.1,0.0
1693165885.37019205,36177341,2,-1.09,-0.06,289.98,-0.015855787321925163,-0.007417682558298111,-0.015477261506021023,-0.04918619245290756,0.0,0.0,1.5155847072601318,0.04,0.0,0.1,0.0
1693165885.47021103,36277360,2,-1.1,-0.05,289.99,-0.016082661226391792,-0.007732337340712547,-0.0156434066593647,-0.022320566698908806,0.0,0.0,1.513387680053711,0.04,0.0,0.1,0.0
1693165885.57018614,36377335,2,-1.1,-0.05,290.01,-0.017724161967635155,-0.008089314214885235,-0.015877624973654747,-0.020451461896300316,0.0,0.0,1.5103346109390259,0.04,0.0,0.1,0.0
1693165885.67018008,36477329,2,-1.1,-0.05,290.01,-0.018338903784751892,-0.008432854898273945,-0.01675957627594471,-0.04380892962217331,0.0,0.0,1.5053446292877197,0.04,0.0,0.1,0.0
1693165885.77017903,36577328,2,-1.11,-0.05,290.02,-0.01931675337255001,-0.008120287209749222,-0.0179846603423357,-0.07459232211112976,0.0,0.0,1.497914433479309,0.04,0.0,0.09,0.0
1693165885.87019014,36677339,2,-1.11,-0.05,290.02,-0.01967947743833065,-0.00857315119355917,-0.0189666710793972,-0.08031365275382996,0.0,0.0,1.491213083267212,0.04,0.0,0.09,0.0
1693165885.97021413,36777363,2,-1.11,-0.05,290.01,-0.0208902470767498,-0.007599872536957264,-0.01965613104403019,-0.05704366788268089,0.0,0.0,1.4863343238830566,0.04,0.0,0.09,0.0
1693165886.07022214,36877371,2,-1.12,-0.05,290.01,-0.020828042179346085,-0.007665782701224089,-0.019245879724621773,-0.029599526897072792,0.0,0.0,1.483521580696106,0.04,0.0,0.09,0.0
1693165886.17024517,36977394,2,-1.12,-0.05,290.01,-0.021758170798420906,-0.00787337776273489,-0.019097814336419106,-0.023744145408272743,0.0,0.0,1.4800885915756226,0.04,0.0,0.09,0.0
1693165886.27019215,37077341,2,-1.12,-0.05,290.01,-0.022200895473361015,-0.008974378928542137,-0.019072625786066055,-0.0395134761929512,0.0,0.0,1.475554347038269,0.04,0.0,0.09,0.0
1693165886.37020898,37177358,2,-1.12,-0.06,290.01,-0.022897962480783463,-0.007749014534056187,-0.019328290596604347,-0.03918483108282089,0.0,0.0,1.4719802141189575,0.04,0.0,0.08,0.0
1693165886.47019005,37277339,2,-1.12,-0.05,290.01,-0.022927584126591682,-0.007499622646719217,-0.01936674490571022,-0.031972162425518036,0.0,0.0,1.4687062501907349,0.04,0.0,0.08,0.0
1693165886.57018209,37377331,2,-1.12,-0.05,290.02,-0.023941807448863983,-0.0062471008859574795,-0.019095266237854958,-0.04413185641169548,0.0,0.0,1.4638416767120361,0.04,0.0,0.08,0.0
1693165886.67018509,37477334,2,-1.12,-0.05,290.02,-0.024379316717386246,-0.006507318001240492,-0.01898876018822193,-0.056314077228307724,0.0,0.0,1.4585562944412231,0.04,0.0,0.08,0.0
1693165886.77019000,37577339,2,-1.1300000000000001,-0.05,290.04,-0.024984177201986313,-0.00632003927603364,-0.01886123977601528,-0.04901418462395668,0.0,0.0,1.454267144203186,0.04,0.0,0.07,0.0
1693165886.87022400,37677373,2,-1.1300000000000001,-0.04,290.06,-0.02602131851017475,-0.005518849939107895,-0.018967749550938606,-0.03720291331410408,0.0,0.0,1.4506598711013794,0.04,0.0,0.07,0.0
1693165886.97023106,37777380,2,-1.1300000000000001,-0.04,290.08,-0.02611340768635273,-0.00582536868751049,-0.020084938034415245,-0.02775939740240574,0.0,0.0,1.4478707313537598,0.04,0.0,0.07,0.0
1693165887.07024097,37877390,2,-1.1300000000000001,-0.04,290.1,-0.027161527425050735,-0.006127187516540289,-0.019469762220978737,-0.014641615562140942,0.0,0.0,1.4461596012115479,0.04,0.0,0.06,0.0
1693165887.17025399,37977403,2,-1.1300000000000001,-0.04,290.11,-0.027269689366221428,-0.006400998216122389,-0.0181086678057909,0.0021096039563417435,0.0,0.0,1.445968508720398,0.04,0.0,0.06,0.0
1693165887.27022409,38077373,2,-1.1300000000000001,-0.03,290.11,-0.027972394600510597,-0.0051331534050405025,-0.017215073108673096,0.009720632806420326,0.0,0.0,1.4460541009902954,0.03,0.0,0.06,0.0
1693165887.37018204,38177331,2,-1.1300000000000001,-0.03,290.11,-0.028837982565164566,-0.004193176049739122,-0.01720178872346878,-0.007824093103408813,0.0,0.0,1.444332480430603,0.03,0.0,0.06,0.0
1693165887.47018909,38277338,2,-1.1300000000000001,-0.03,290.11,-0.03029528819024563,-0.002697985852137208,-0.016955731436610222,-0.03030955046415329,0.0,0.0,1.441335916519165,0.03,0.0,0.06,0.0
1693165887.57018614,38377335,2,-1.1300000000000001,-0.02,290.11,-0.03147953748703003,-0.00290141929872334,-0.016927240416407585,-0.044212259352207184,0.0,0.0,1.4373258352279663,0.03,0.0,0.06,0.0
1693165887.67018414,38477333,2,-1.1400000000000001,-0.02,290.11,-0.033295050263404846,-0.001482951338402927,-0.015985947102308273,-0.046372346580028534,0.0,0.0,1.433393955230713,0.03,0.0,0.06,0.0
1693165887.77020502,38577354,2,-1.1400000000000001,-0.01,290.11,-0.032927513122558594,-0.0016149659641087055,-0.016523124650120735,-0.04288526251912117,0.0,0.0,1.4296165704727173,0.03,0.0,0.05,0.0
1693165887.87022805,38677377,2,-1.1500000000000001,-0.02,290.12,-0.03453642502427101,-0.0011052670888602734,-0.017691489309072495,-0.04667084664106369,0.0,0.0,1.4251301288604736,0.03,0.0,0.05,0.0
1693165887.97024608,38777395,2,-1.1500000000000001,-0.01,290.12,-0.034686069935560226,-0.0005009087617509067,-0.018680624663829803,-0.05847249552607536,0.0,0.0,1.4193823337554932,0.03,0.0,0.05,0.0
1693165888.07019305,38877342,2,-1.1500000000000001,-0.01,290.13,-0.036554884165525436,-0.0007042683428153396,-0.01904778741300106,-0.06792386621236801,0.0,0.0,1.4130477905273438,0.03,0.0,0.05,0.0
1693165888.17021203,38977361,2,-1.1500000000000001,-0.01,290.13,-0.03817802667617798,-0.0002653186093084514,-0.01919477991759777,-0.06462392210960388,0.0,0.0,1.4072593450546265,0.03,0.0,0.05,0.0
1693165888.27017999,39077329,2,-1.1500000000000001,-0.01,290.13,-0.03988669812679291,-0.0006446546758525074,-0.019016217440366745,-0.0491630919277668,0.0,0.0,1.4027010202407837,0.03,0.0,0.05,0.0
1693165888.37017918,39177328,2,-1.1500000000000001,-0.01,290.14,-0.04063258692622185,-0.00011688347876770422,-0.0180982556194067,-0.0251186341047287,0.0,0.0,1.4002875089645386,0.03,0.0,0.04,0.0
1693165888.47018218,39277331,2,-1.16,-0.01,290.14,-0.041976623237133026,0.0006114101270213723,-0.016309939324855804,0.008722691796720028,0.0,0.0,1.4007973670959473,0.03,0.0,0.04,0.0
1693165888.57018304,39377332,2,-1.16,-0.01,290.16,-0.04318166896700859,0.0015623189974576235,-0.014587374404072762,0.03192412480711937,0.0,0.0,1.402704119682312,0.03,0.0,0.04,0.0
1693165888.67019796,39477347,2,-1.16,-0.01,290.16,-0.043970778584480286,0.0029301156755536795,-0.013619895093142986,0.020854055881500244,0.0,0.0,1.4030698537826538,0.03,0.0,0.04,0.0
1693165888.77022195,39577371,2,-1.16,-0.01,290.16,-0.04495462030172348,0.004723594523966312,-0.011373816058039665,0.005502224434167147,0.0,0.0,1.403265118598938,0.03,0.0,0.04,0.0
1693165888.87024498,39677394,2,-1.16,0.0,290.16,-0.04588915780186653,0.005882225930690765,-0.009405680932104588,0.00044561317190527916,0.0,0.0,1.403077483177185,0.03,0.0,0.04,0.0
1693165888.97020507,39777354,2,-1.16,-0.01,290.16,-0.046662837266922,0.005901994649320841,-0.008400705642998219,0.0018232696456834674,0.0,0.0,1.4037067890167236,0.03,0.0,0.04,0.0
1693165889.07021618,39877365,2,-1.16,0.0,290.16,-0.04808643460273743,0.007055729627609253,-0.00799467321485281,-0.004594100173562765,0.0,0.0,1.4026696681976318,0.03,0.0,0.04,0.0
1693165889.17018318,39977332,2,-1.16,0.0,290.15000000000003,-0.04839479550719261,0.00762544060125947,-0.008034061640501022,-0.030308561399579048,0.0,0.0,1.3997714519500732,0.03,0.0,0.04,0.0
1693165889.27018404,40077333,2,-1.16,0.0,290.16,-0.049215637147426605,0.008573508821427822,-0.006951597053557634,-0.020447416231036186,0.0,0.0,1.3991518020629883,0.03,0.0,0.03,0.0
1693165889.37018013,40177329,2,-1.17,-0.01,290.16,-0.04959942400455475,0.008935414254665375,-0.005369800608605146,0.007306093815714121,0.0,0.0,1.399933099746704,0.03,0.0,0.03,0.0
1693165889.47018504,40277334,2,-1.17,-0.01,290.17,-0.05128571763634682,0.010771325789391994,-0.004146456252783537,0.010542238131165504,0.0,0.0,1.400307297706604,0.03,0.0,0.03,0.0
1693165889.57020497,40377354,2,-1.17,-0.01,290.17,-0.051982056349515915,0.010197252035140991,-0.0034337311517447233,0.002322494750842452,0.0,0.0,0.00011003762483596802,0.03,0.0,0.03,267.61
1693165889.67022204,40477371,2,-1.17,-0.01,290.19,-0.05321098491549492,0.011640194803476334,-0.0016298787668347359,0.002279745414853096,0.0,0.0,0.0004400089383125305,0.03,0.0,0.03,267.61
1693165889.77024102,40577390,2,-1.17,-0.01,290.19,-0.053500134497880936,0.012125298380851746,-0.0006157738971523941,0.009720210917294025,-0.022263769060373306,0.03271164000034332,0.0014352872967720032,0.03,0.0,0.02,267.61
1693165889.87025714,40677406,2,-1.18,-0.01,290.21,-0.05432910472154617,0.011581621132791042,-0.0001602966513019055,-0.003963673487305641,-0.022263769060373306,0.03271164000034332,0.00024081021547317505,0.03,0.0,0.02,267.61
1693165889.97021008,40777359,2,-1.17,-0.01,290.22,-0.05568008869886398,0.012118929997086525,7.732460653642192e-05,-0.03305016830563545,-0.04452753812074661,0.08995701372623444,-0.0029132291674613953,0.03,0.0,0.02,267.61
1693165890.07017803,40877327,2,-1.18,-0.01,290.23,-0.05597933381795883,0.012124888598918915,-0.00034957987372763455,-0.03404223173856735,-0.04452753812074661,0.08995701372623444,-0.004985921084880829,0.03,0.0,0.02,267.61
1693165890.17018795,40977337,2,-1.18,-0.01,290.24,-0.05667079985141754,0.01264598872512579,0.00019246236479375511,-0.024681104347109795,-0.06679131090641022,0.1308465600013733,-0.007225625216960907,0.03,0.0,0.02,267.61
1693165890.27018595,41077335,2,-1.17,-0.01,290.24,-0.05720551311969757,0.012439936399459839,0.0013762626331299543,-0.02648991160094738,-0.06679131090641022,0.1308465600013733,-0.00973164290189743,0.03,0.0,0.02,267.61
1693165890.37018013,41177329,2,-1.17,-0.02,290.25,-0.057939399033784866,0.012552126310765743,0.0018855761736631393,-0.005035528913140297,-0.07792319357395172,0.1635582149028778,-0.009367458522319794,0.03,0.0,0.02,267.61
1693165890.47019815,41277347,2,-1.17,-0.02,290.26,-0.05887392535805702,0.011313918977975845,0.0018148240633308887,0.019439466297626495,-0.07792319357395172,0.1635582149028778,-0.0079951211810112,0.03,0.0,0.01,267.61
1693165890.57022810,41377377,2,-1.17,-0.02,290.27,-0.05915640667080879,0.010809876956045628,0.0023867525160312653,0.015879862010478973,-0.11131884157657623,0.20444776117801666,-0.007423751056194305,0.03,0.0,0.01,267.61
1693165890.67024517,41477394,2,-1.16,-0.02,290.27,-0.058950286358594894,0.01051604375243187,0.0031340578570961952,0.016499249264597893,-0.11131884157657623,0.20444776117801666,-0.005848996341228485,0.03,0.0,0.01,267.61
1693165890.77019310,41577342,2,-1.17,-0.02,290.28000000000003,-0.06020669639110565,0.010114744305610657,0.0037672489415854216,0.016044393181800842,-0.12245073169469833,0.25351521372795105,-0.004878394305706024,0.03,0.0,0.01,267.61
1693165890.87021804,41677367,2,-1.17,-0.03,290.29,-0.059438638389110565,0.009773689322173595,0.005082416348159313,0.004250212572515011,-0.12245073169469833,0.25351521372795105,-0.004687778651714325,0.03,0.0,0.01,267.61
1693165890.97019005,41777339,2,-1.17,-0.03,290.29,-0.060490384697914124,0.009579178877174854,0.005019777454435825,-0.003005147213116288,-0.13358262181282043,0.2698710560798645,-0.004831306636333466,0.03,0.0,0.01,267.61
1693165891.07017899,41877328,2,-1.17,-0.03,290.3,-0.06012037396430969,0.008859949186444283,0.00498813996091485,0.004508171696215868,-0.13358262181282043,0.2698710560798645,-0.003728620707988739,0.03,0.0,0.01,267.61
1693165891.17018104,41977330,2,-1.17,-0.03,290.31,-0.0610952153801918,0.008399628102779388,0.005388138350099325,0.012694434262812138,-0.14471450448036194,0.28622686862945557,-0.0027539655566215515,0.03,0.0,0.0,267.61
1693165891.27020812,42077357,2,-1.16,-0.04,290.32,-0.061348509043455124,0.0072241476736962795,0.006943927612155676,0.020575471222400665,-0.14471450448036194,0.28622686862945557,-0.000529162585735321,0.03,0.0,0.0,267.61
1693165891.37019801,42177347,2,-1.17,-0.05,290.33,-0.0614582896232605,0.006147712469100952,0.007105556782335043,0.031609706580638885,-0.15584638714790344,0.30258268117904663,0.002218373119831085,0.03,0.0,0.0,267.61
1693165891.47022510,42277374,2,-1.16,-0.05,290.34000000000003,-0.060955487191677094,0.005431730300188065,0.008153743110597134,0.03925061970949173,-0.15584638714790344,0.30258268117904663,0.005921013653278351,0.03,0.0,0.0,267.61
1693165891.57025909,42377408,2,-1.16,-0.05,290.35,-0.06167886406183243,0.0055622621439397335,0.009062734432518482,0.03940455615520477,-0.17811015248298645,0.3189384937286377,0.009013064205646515,0.03,0.0,0.0,267.61
1693165891.67025805,42477407,2,-1.16,-0.05,290.34000000000003,-0.060515210032463074,0.003726122435182333,0.009999044239521027,0.02386416122317314,-0.17811015248298645,0.3189384937286377,0.01098383218050003,0.03,0.0,0.0,267.61
1693165891.77020907,42577358,2,-1.17,-0.05,290.34000000000003,-0.06125880405306816,0.0035893430467694998,0.01095847599208355,0.014044640585780144,-0.18924203515052795,0.3189384937286377,0.012569315731525421,0.03,0.0,0.0,267.61
1693165891.87019014,42677339,2,-1.17,-0.05,290.33,-0.05993443354964256,0.002691979520022869,0.011653139255940914,0.005682255607098341,-0.18924203515052795,0.3189384937286377,0.013299711048603058,0.03,0.0,0.0,267.61
1693165891.97018099,42777330,2,-1.17,-0.06,290.33,-0.05985875427722931,0.0016384279588237405,0.012270832434296608,0.008940143510699272,-0.17811015248298645,0.3189384937286377,0.014943130314350128,0.03,0.0,0.0,267.61
1693165892.07018018,42877329,2,-1.17,-0.06,290.33,-0.059429388493299484,-0.00024267807020805776,0.01297268457710743,0.03004094399511814,-0.17811015248298645,0.3189384937286377,0.018316753208637238,0.03,0.0,0.0,267.61
1693165892.17018199,42977331,2,-1.17,-0.06,290.33,-0.059665270149707794,-0.0011319124605506659,0.013572078198194504,0.05165799334645271,-0.16697826981544495,0.31076058745384216,0.02328062802553177,0.03,0.0,0.0,267.61
1693165892.27019906,43077348,2,-1.17,-0.06,290.33,-0.0594293437898159,-0.002864130772650242,0.014780247583985329,0.06390057504177094,-0.16697826981544495,0.31076058745384216,0.028835780918598175,0.03,0.0,0.0,267.61
1693165892.37022209,43177371,2,-1.17,-0.07,290.35,-0.06058168411254883,-0.003992561716586351,0.015388940460979939,0.07126856595277786,-0.15584638714790344,0.28622686862945557,0.035468824207782745,0.03,0.0,0.0,267.61
1693165892.47024608,43277395,2,-1.17,-0.06,290.37,-0.059256043285131454,-0.006207112688571215,0.016816720366477966,0.06492611020803452,-0.15584638714790344,0.28622686862945557,0.04074860364198685,0.03,0.0,0.0,267.61
1693165892.57027602,43377425,2,-1.16,-0.06,290.38,-0.05856820568442345,-0.007032017223536968,0.018289318308234215,0.05887473002076149,-0.14471450448036194,0.2698710560798645,0.04683924466371536,0.03,0.0,0.0,267.61
1693165892.67021203,43477361,2,-1.16,-0.06,290.38,-0.05795943737030029,-0.008291324600577354,0.020293818786740303,0.06919736415147781,-0.14471450448036194,0.2698710560798645,0.05348444730043411,0.03,0.0,0.0,267.61
1693165892.77017903,43577328,2,-1.16,-0.06,290.38,-0.05737852305173874,-0.008761266246438026,0.022142773494124413,0.05558473616838455,-0.13358262181282043,0.24533730745315552,0.058271653950214386,0.03,0.0,0.0,267.61
1693165892.87018704,43677336,2,-1.16,-0.07,290.38,-0.05578005313873291,-0.010263475589454174,0.022662045434117317,0.024917403236031532,-0.13358262181282043,0.24533730745315552,0.060627348721027374,0.03,0.0,0.0,267.61
1693165892.97018313,43777332,2,-1.16,-0.07,290.38,-0.055765364319086075,-0.011112259700894356,0.02295246347784996,0.010740797966718674,-0.12245073169469833,0.23715940117835999,0.06277156621217728,0.03,0.0,0.0,267.61
1693165893.07019615,43877345,2,-1.16,-0.07,290.38,-0.05460977181792259,-0.011760076507925987,0.02305971086025238,0.0035777294542640448,-0.12245073169469833,0.23715940117835999,0.06360030919313431,0.03,0.0,0.0,267.61
1693165893.17020917,43977358,2,-1.16,-0.07,290.38,-0.054256606847047806,-0.012926721945405006,0.022081682458519936,-0.025196099653840065,-0.12245073169469833,0.22898149490356445,0.06133974343538284,0.03,0.0,0.0,267.61
1693165893.27022910,44077378,2,-1.16,-0.07,290.38,-0.053738053888082504,-0.01308482326567173,0.0216069296002388,-0.04173891618847847,-0.12245073169469833,0.22898149490356445,0.05856717377901077,0.03,0.0,0.0,267.61
1693165893.37024117,44177390,2,-1.16,-0.07,290.39,-0.0538354329764843,-0.013646229170262814,0.020437099039554596,-0.0408082939684391,-0.11131884157657623,0.2126256674528122,0.05547858029603958,0.03,0.0,-0.01,267.61
1693165893.47025514,44277404,2,-1.16,-0.06,290.40000000000003,-0.05419516563415527,-0.013700753450393677,0.02156292460858822,-0.011317454278469086,-0.11131884157657623,0.2126256674528122,0.05593479424715042,0.03,0.0,-0.01,267.61
1693165893.57021713,44377366,2,-1.16,-0.06,290.40000000000003,-0.05334194749593735,-0.014663823880255222,0.02159721963107586,0.01396667305380106,-0.10018695890903473,0.20444776117801666,0.056486375629901886,0.03,0.0,-0.01,267.61
1693165893.67018008,44477329,2,-1.17,-0.06,290.40000000000003,-0.0528947077691555,-0.015213871374726295,0.021551722660660744,0.011661507189273834,-0.10018695890903473,0.20444776117801666,0.057321079075336456,0.03,0.0,-0.01,267.61
1693165893.77017999,44577329,2,-1.17,-0.06,290.39,-0.05285290628671646,-0.014952286146581173,0.020811239257454872,0.008473850786685944,-0.08905507624149323,0.19626985490322113,0.057555802166461945,0.03,0.0,-0.01,267.61
1693165893.87018514,44677334,2,-1.17,-0.06,290.39,-0.052775390446186066,-0.015994131565093994,0.02158791944384575,0.006852350197732449,-0.08905507624149323,0.19626985490322113,0.05835319310426712,0.03,0.0,-0.01,267.61
1693165893.97018099,44777330,2,-1.18,-0.05,290.39,-0.05150885507464409,-0.016520997509360313,0.022033847868442535,0.01826702617108822,-0.07792319357395172,0.17991402745246887,0.060111768543720245,0.03,0.0,-0.01,267.61
1693165894.07019615,44877345,2,-1.18,-0.05,290.40000000000003,-0.052181608974933624,-0.0172862745821476,0.023388123139739037,0.03448834642767906,-0.07792319357395172,0.17991402745246887,0.06348646432161331,0.03,0.0,-0.01,267.61
1693165894.17023015,44977379,2,-1.17,-0.04,290.40000000000003,-0.051851414144039154,-0.016294555738568306,0.02462216466665268,0.045396238565444946,-0.06679131090641022,0.15538029372692108,0.06727386265993118,0.03,0.0,-0.01,267.61
1693165894.27024508,45077394,2,-1.17,-0.05,290.40000000000003,-0.05203205347061157,-0.015899082645773888,0.026247253641486168,0.03301693871617317,-0.06679131090641022,0.15538029372692108,0.06959927827119827,0.03,0.0,-0.01,267.61
1693165894.37026000,45177409,2,-1.17,-0.04,290.40000000000003,-0.052447736263275146,-0.015331538394093513,0.027547063305974007,0.03430841863155365,-0.055659420788288116,0.13902448117733002,0.07358146458864212,0.03,0.0,-0.01,267.61
1693165894.47021103,45277360,2,-1.18,-0.05,290.41,-0.05234083905816078,-0.015499194152653217,0.0292418971657753,0.05217152088880539,-0.055659420788288116,0.13902448117733002,0.07852710038423538,0.03,0.0,-0.01,267.61
1693165894.57018209,45377331,2,-1.18,-0.04,290.41,-0.052656691521406174,-0.014709730632603168,0.03052590787410736,0.053799066692590714,-0.055659420788288116,0.11449074745178223,0.08337724953889847,0.03,0.0,-0.01,267.61
1693165894.67018008,45477329,2,-1.18,-0.03,290.42,-0.05286885052919388,-0.013953681103885174,0.03342253342270851,0.056630220264196396,-0.055659420788288116,0.11449074745178223,0.08870471268892288,0.03,0.0,-0.01,267.61
1693165894.77017999,45577329,2,-1.19,-0.03,290.43,-0.05248910188674927,-0.012839709408581257,0.035173412412405014,0.05879875645041466,-0.04452753812074661,0.08995701372623444,0.09428239613771439,0.02,0.0,-0.01,267.61
1693165894.87018895,45677338,2,-1.19,-0.03,290.42,-0.05305652692914009,-0.013682305812835693,0.035992078483104706,0.06614787876605988,-0.04452753812074661,0.08995701372623444,0.10095465928316116,0.02,0.0,-0.02,267.61
1693165894.97019696,45777346,2,-1.2,-0.03,290.42,-0.053485970944166183,-0.012685012072324753,0.03716232255101204,0.06260309368371964,-0.03339565545320511,0.07360119372606277,0.10638738423585892,0.02,0.0,-0.02,267.61
1693165895.07022905,45877378,2,-1.2,-0.03,290.43,-0.05421252176165581,-0.01153245847672224,0.03792707994580269,0.046598881483078,-0.03339565545320511,0.07360119372606277,0.11099351197481155,0.02,0.0,-0.02,267.61
1693165895.17025518,45977404,2,-1.21,-0.03,290.44,-0.054010726511478424,-0.010600237175822258,0.040279243141412735,0.03991543501615524,-0.022263769060373306,0.04906746372580528,0.11507333070039749,0.02,0.0,-0.02,267.61
1693165895.27025914,46077408,2,-1.21,-0.03,290.45,-0.054018571972846985,-0.008957960642874241,0.04208524525165558,0.03133941441774368,-0.022263769060373306,0.04906746372580528,0.11847735196352005,0.02,0.0,-0.02,267.61
1693165895.37021017,46177359,2,-1.2,-0.03,290.47,-0.05382172390818596,-0.008457981050014496,0.04356003180146217,0.03914891928434372,-0.011131884530186653,0.04088955372571945,0.1232084110379219,0.02,0.0,-0.02,267.61
1693165895.47018313,46277332,2,-1.2,-0.04,290.47,-0.05461126193404198,-0.007901842705905437,0.043643608689308167,0.05952296406030655,-0.011131884530186653,0.04088955372571945,0.1293884515762329,0.02,0.0,-0.02,267.61
1693165895.57018614,46377335,2,-1.21,-0.03,290.48,-0.05483611300587654,-0.008110304363071918,0.04463103413581848,0.060941584408283234,0.0,0.03271164000034332,0.1347050666809082,0.02,0.0,-0.02,267.61
1693165895.67018008,46477329,2,-1.2,-0.03,290.48,-0.05540838465094566,-0.007372662890702486,0.045070063322782516,0.03661477565765381,0.0,0.03271164000034332,0.1378016471862793,0.02,0.0,-0.02,267.61
1693165895.77019405,46577343,2,-1.2,-0.03,290.48,-0.05627957731485367,-0.008031150326132774,0.046005211770534515,0.02886020578444004,0.011131884530186653,0.024533730000257492,0.1415245532989502,0.02,0.0,-0.02,267.61
1693165895.87024117,46677390,2,-1.2,-0.03,290.48,-0.056786175817251205,-0.008117718622088432,0.046952418982982635,0.03534693270921707,0.011131884530186653,0.024533730000257492,0.1452021598815918,0.02,0.0,-0.02,267.61
1693165895.97022295,46777372,2,-1.2,-0.03,290.48,-0.05692043527960777,-0.008015628904104233,0.04635569080710411,0.0012357467785477638,0.04452753812074661,0.0,0.14440739154815674,0.02,0.0,-0.02,267.61
1693165896.07024908,46877398,2,-1.2,-0.03,290.48,-0.05882883071899414,-0.008249402046203613,0.04489399120211601,-0.04108932241797447,0.04452753812074661,0.0,0.14148056507110596,0.02,0.0,-0.03,267.61
1693165896.17020416,46977353,2,-1.2,-0.03,290.48,-0.05946838855743408,-0.007174091413617134,0.043030790984630585,-0.05396809056401253,0.055659420788288116,-0.00817791000008583,0.13760685920715332,0.02,0.0,-0.03,267.61
1693165896.27021217,47077361,2,-1.2,-0.03,290.48,-0.060038577765226364,-0.007481758948415518,0.04138733819127083,-0.06566648930311203,0.055659420788288116,-0.00817791000008583,0.1320880651473999,0.02,0.0,-0.03,267.61
1693165896.37017918,47177328,2,-1.19,-0.03,290.49,-0.06051510572433472,-0.006773548200726509,0.04017702490091324,-0.07393120229244232,0.07792319357395172,-0.03271164000034332,0.12586534023284912,0.02,0.0,-0.03,267.61
1693165896.47018695,47277336,2,-1.19,-0.03,290.5,-0.061491820961236954,-0.006240398623049259,0.03781462088227272,-0.07957965135574341,0.07792319357395172,-0.03271164000034332,0.11880887299776077,0.02,0.0,-0.03,267.61
1693165896.57018209,47377331,2,-1.2,-0.03,290.5,-0.062482770532369614,-0.006313193589448929,0.036182112991809845,-0.06825318932533264,0.10018695890903473,-0.049067460000514984,0.11332584172487259,0.02,0.0,-0.03,267.61
1693165896.67018008,47477329,2,-1.2,-0.03,290.5,-0.0629076287150383,-0.006073468364775181,0.035131845623254776,-0.06351260095834732,0.10018695890903473,-0.049067460000514984,0.10660088807344437,0.02,0.0,-0.03,267.61
1693165896.77021503,47577364,2,-1.2,-0.03,290.51,-0.06359530240297318,-0.006478092633187771,0.03426976501941681,-0.06514201313257217,0.12245073169469833,-0.07360118627548218,0.10077560693025589,0.02,0.0,-0.03,267.61
1693165896.87022400,47677373,2,-1.19,-0.03,290.52,-0.0643032118678093,-0.006308270152658224,0.03364638239145279,-0.04760778695344925,0.12245073169469833,-0.07360118627548218,0.09612656384706497,0.02,0.0,-0.03,267.61
1693165896.97025418,47777403,2,-1.2,-0.03,290.53000000000003,-0.06473959237337112,-0.0057373689487576485,0.033158957958221436,-0.04240479692816734,0.13358262181282043,-0.08995700627565384,0.09152723103761673,0.02,0.0,-0.03,267.61
1693165897.07019210,47877341,2,-1.19,-0.03,290.54,-0.0640978142619133,-0.00477149523794651,0.0326271690428257,-0.03953677788376808,0.13358262181282043,-0.08995700627565384,0.08748579770326614,0.02,0.0,-0.03,267.61
1693165897.17021203,47977361,2,-1.19,-0.03,290.55,-0.06468484550714493,-0.005099195521324873,0.03178953379392624,-0.03190452232956886,0.14471450448036194,-0.09813492000102997,0.08425069600343704,0.02,0.0,-0.03,267.61
1693165897.27018404,48077333,2,-1.19,-0.02,290.55,-0.06468918919563293,-0.004708874970674515,0.031477998942136765,-0.027715692296624184,0.14471450448036194,-0.09813492000102997,0.08113039284944534,0.02,0.0,-0.03,267.61
1693165897.37018013,48177329,2,-1.19,-0.02,290.55,-0.06538151949644089,-0.004970865324139595,0.030613621696829796,-0.03174465149641037,0.15584638714790344,-0.11449074000120163,0.07771099358797073,0.02,0.0,-0.03,267.61
1693165897.47018814,48277337,2,-1.19,-0.02,290.55,-0.06540549546480179,-0.004045011941343546,0.03014538064599037,-0.021386804059147835,0.15584638714790344,-0.11449074000120163,0.07602787762880325,0.02,0.0,-0.03,267.61
1693165897.57019305,48377342,2,-1.19,-0.03,290.55,-0.0652763694524765,-0.002946278778836131,0.030352860689163208,-0.02547493763267994,0.16697826981544495,-0.11449074000120163,0.07241559773683548,0.02,0.0,-0.04,267.61
1693165897.67021203,48477361,2,-1.19,-0.03,290.56,-0.06503277271986008,-0.0016988987335935235,0.030548647046089172,-0.046468332409858704,0.16697826981544495,-0.11449074000120163,0.06799031049013138,0.02,0.0,-0.04,267.61
1693165897.77022910,48577378,2,-1.2,-0.03,290.57,-0.06550411134958267,-0.0020835534669458866,0.029551688581705093,-0.05113951116800308,0.17811015248298645,-0.1308465600013733,0.06326807290315628,0.02,0.0,-0.04,267.61
