timestamp,TimeUS,I,Status,GMS,GWk,NSats,HDop,Lat,Lng,Alt,Spd,GCrs,VZ,Yaw,U
1693165865.31028914,16117438,0,1,0,0,0,100.0,0.0,0.0,0.0,0.0,0.0,0.0,0.0,1
1693165865.51027417,16317423,0,1,0,0,0,100.0,0.0,0.0,0.0,0.0,0.0,0.0,0.0,1
1693165865.71029806,16517447,0,1,0,0,0,100.0,0.0,0.0,0.0,0.0,0.0,0.0,0.0,1
1693165865.91034317,16717492,0,1,0,0,0,100.0,0.0,0.0,0.0,0.0,0.0,0.0,0.0,1
1693165866.11035514,16917504,0,1,0,0,0,100.0,0.0,0.0,0.0,0.0,0.0,0.0,0.0,1
1693165866.31040716,17117556,0,1,0,0,0,100.0,0.0,0.0,0.0,0.0,0.0,0.0,0.0,1
1693165866.51037002,17317519,0,1,0,0,0,100.0,0.0,0.0,0.0,0.0,0.0,0.0,0.0,1
1693165866.71045804,17517607,0,1,0,0,0,100.0,0.0,0.0,0.0,0.0,0.0,0.0,0.0,1
1693165866.91056895,17717718,0,1,0,0,0,100.0,0.0,0.0,0.0,0.0,0.0,0.0,0.0,1
1693165867.11050105,17917650,0,1,0,0,0,100.0,0.0,0.0,0.0,0.0,0.0,0.0,0.0,1
1693165867.31093097,18118080,0,1,0,0,0,100.0,0.0,0.0,0.0,0.0,0.0,0.0,0.0,1
1693165867.51143718,18318586,0,1,0,0,0,100.0,0.0,0.0,0.0,0.0,0.0,0.0,0.0,1
1693165867.71097016,18518119,0,1,0,0,0,100.0,0.0,0.0,0.0,0.0,0.0,0.0,0.0,1
1693165867.91101813,18718167,0,1,0,0,0,100.0,0.0,0.0,0.0,0.0,0.0,0.0,0.0,1
1693165868.11108112,18918230,0,1,0,0,0,100.0,0.0,0.0,0.0,0.0,0.0,0.0,0.0,1
1693165868.31100011,19118149,0,1,0,0,0,100.0,0.0,0.0,0.0,0.0,0.0,0.0,0.0,1
1693165868.51103997,19318189,0,1,0,0,0,100.0,0.0,0.0,0.0,0.0,0.0,0.0,0.0,1
1693165868.71135712,19518506,0,1,0,0,0,100.0,0.0,0.0,0.0,0.0,0.0,0.0,0.0,1
1693165868.91114497,19718294,0,1,0,0,0,100.0,0.0,0.0,0.0,0.0,0.0,0.0,0.0,1
1693165869.11114001,19918289,0,1,0,0,0,100.0,0.0,0.0,0.0,0.0,0.0,0.0,0.0,1
1693165869.31108212,20118231,0,1,0,0,0,100.0,0.0,0.0,0.0,0.0,0.0,0.0,0.0,1
1693165869.51103997,20318189,0,1,0,0,0,100.0,0.0,0.0,0.0,0.0,0.0,0.0,0.0,1
1693165869.71111107,20518260,0,1,0,0,0,100.0,0.0,0.0,0.0,0.0,0.0,0.0,0.0,1
1693165869.91115499,20718304,0,1,0,0,0,100.0,0.0,0.0,0.0,0.0,0.0,0.0,0.0,1
1693165870.21099997,21018149,0,3,71488211,2277,4,100.0,42.723328699999996,-84.4672154,278.51,0.031400639563798904,279.162353515625,-0.05700000375509262,0.0,1
1693165870.33059716,21137746,0,3,71488400,2277,4,100.0,42.723327,-84.4672042,277.45,0.09121951460838318,257.3349304199219,-0.03500000014901161,0.0,1
1693165870.51116300,21318312,0,3,71488600,2277,4,100.0,42.7233271,-84.46721029999999,276.79,0.13049520552158356,256.7091979980469,-0.0650000050663948,0.0,1
1693165870.71113110,21518280,0,3,71488800,2277,4,3.49,42.723327,-84.46721529999999,276.44,0.07826238870620728,259.6951599121094,0.03500000014901161,0.0,1
1693165870.91117716,21718326,0,3,71489000,2277,4,3.49,42.7233273,-84.4672179,276.17,0.12887591123580933,276.6838684082031,0.10100000351667404,0.0,1
1693165871.13048100,21937630,0,3,71489200,2277,4,3.49,42.723327499999996,-84.46721939999999,276.05,0.1472209244966507,256.2469482421875,-0.02800000086426735,0.0,1
1693165871.33060813,22137757,0,3,71489400,2277,4,3.49,42.7233276,-84.467221,276.01,0.13823169469833374,273.3177795410156,0.07700000703334808,0.0,1
1693165871.53052807,22337677,0,3,71489600,2277,4,3.49,42.723327499999996,-84.4672222,276.05,0.13629747927188873,273.7861328125,0.0010000000474974513,0.0,1
1693165871.73041701,22537566,0,3,71489800,2277,4,3.49,42.7233273,-84.4672233,276.15000000000003,0.276723712682724,274.1446228027344,0.10900000482797623,0.0,1
1693165871.91114116,22718290,0,3,71490000,2277,4,3.49,42.7233271,-84.4672245,276.27,0.17327724397182465,276.9609680175781,0.046000003814697266,0.0,1
1693165872.13059402,22937743,0,3,71490200,2277,4,3.49,42.723326899999996,-84.4672246,276.39,0.11597414314746857,299.4384765625,0.1730000078678131,0.0,1
1693165872.33064508,23137794,0,3,71490400,2277,4,3.49,42.7233266,-84.4672245,276.5,0.21313846111297607,251.39505004882812,0.07300000637769699,0.0,1
1693165872.53073812,23337887,0,3,71490600,2277,4,3.49,42.7233263,-84.4672241,276.6,0.2357901632785797,262.9352722167969,0.10200000554323196,0.0,1
1693165872.73063016,23537779,0,3,71490800,2277,4,3.49,42.7233261,-84.467224,276.69,0.24900001287460327,270.0,0.05900000408291817,0.0,1
1693165872.93074012,23737889,0,3,71491000,2277,4,3.49,42.7233259,-84.467224,276.75,0.19205208122730255,278.38323974609375,0.07000000029802322,0.0,1
1693165873.13081717,23937966,0,3,71491200,2277,4,3.49,42.7233259,-84.4672239,276.81,0.23872998356819153,278.6731872558594,0.12000000476837158,0.0,1
1693165873.31059313,24117742,0,3,71491400,2277,4,3.49,42.7233258,-84.46722369999999,276.88,0.22968240082263947,278.76513671875,0.04700000211596489,0.0,1
1693165873.53059912,24337748,0,3,71491600,2277,4,3.49,42.7233257,-84.4672236,276.94,0.19262918829917908,262.54296875,0.0860000029206276,0.0,1
1693165873.73063898,24537788,0,3,71491800,2277,4,3.49,42.7233255,-84.4672231,276.99,0.14866070449352264,280.8564147949219,0.20800000429153442,0.0,1
1693165873.93080807,24737957,0,3,71492000,2277,4,3.49,42.7233254,-84.46722249999999,277.02,0.15098676085472107,290.9557800292969,0.2070000171661377,0.0,1
1693165874.13085198,24938001,0,3,71492200,2277,4,3.49,42.7233253,-84.4672219,277.04,0.24589835107326508,265.1009216308594,0.12600000202655792,0.0,1
1693165874.33068514,25137834,0,3,71492400,2277,4,3.49,42.723324999999996,-84.46722129999999,277.06,0.18732325732707977,266.633544921875,0.0820000022649765,0.0,1
1693165874.53060603,25337755,0,3,71492600,2277,4,3.49,42.7233248,-84.4672205,277.09000000000003,0.15700317919254303,279.162353515625,0.12600000202655792,0.0,1
1693165874.71108818,25518237,0,3,71492800,2277,4,3.49,42.7233246,-84.4672203,277.1,0.1411276012659073,272.4366455078125,0.032999999821186066,0.0,1
1693165874.93079615,25737945,0,3,71493000,2277,4,3.49,42.723324399999996,-84.46721939999999,277.14,0.22005683183670044,268.69805908203125,-0.06800000369548798,0.0,1
1693165875.13077807,25937927,0,3,71493200,2277,4,3.49,42.7233243,-84.46721819999999,277.19,0.17528264224529266,286.5740051269531,0.13600000739097595,0.0,1
1693165875.33088803,26138037,0,3,71493400,2277,4,3.49,42.723324,-84.4672176,277.22,0.32222044467926025,249.0901641845703,-0.12400000542402267,0.0,1
1693165875.53047800,26337627,0,3,71493600,2277,4,3.49,42.723323699999995,-84.4672172,277.26,0.13055267930030823,275.2738952636719,0.10500000417232513,0.0,1
1693165875.71053600,26517685,0,3,71493800,2277,4,3.49,42.7233235,-84.46721649999999,277.29,0.23900838196277618,270.4794616699219,0.07200000435113907,0.0,1
1693165875.93061113,26737760,0,3,71494000,2277,4,3.49,42.723323199999996,-84.4672157,277.32,0.20003999769687653,271.145751953125,0.1730000078678131,0.0,1
1693165876.11061001,26917759,0,3,71494200,2277,4,3.49,42.723323,-84.4672149,277.36,0.3160395622253418,269.093505859375,0.09100000560283661,0.0,1
1693165876.33040214,27137551,0,3,71494400,2277,4,3.49,42.7233228,-84.4672142,277.39,0.3421461880207062,271.6748352050781,0.20800000429153442,0.0,1
1693165876.53047299,27337622,0,3,71494600,2277,4,3.49,42.723322599999996,-84.4672135,277.41,0.23264136910438538,280.150634765625,0.19700001180171967,0.0,1
1693165876.73061204,27537761,0,3,71494800,2277,4,3.49,42.7233224,-84.46721269999999,277.45,0.29533204436302185,272.71710205078125,0.03200000151991844,0.0,1
1693165876.97064805,27777797,0,3,71495000,2277,6,3.49,42.723321399999996,-84.46719709999999,276.79,0.10885312408208847,280.58734130859375,0.21900001168251038,0.0,1
1693165877.13040400,27937553,0,3,71495200,2277,6,3.49,42.7233205,-84.4671858,276.40000000000003,0.13324038684368134,273.4422302246094,0.1990000158548355,0.0,1
1693165877.33045697,28137606,0,3,71495400,2277,6,3.49,42.7233197,-84.46717919999999,276.09000000000003,0.03162277862429619,288.4349365234375,0.17100000381469727,0.0,1
1693165877.53059506,28337744,0,3,71495600,2277,6,3.49,42.7233187,-84.46717509999999,275.96,0.07684400677680969,288.19915771484375,0.1300000101327896,0.0,1
1693165877.73061204,28537761,0,3,71495800,2277,6,3.49,42.7233178,-84.46717249999999,275.84000000000003,0.050209563225507736,314.1930847167969,0.1600000113248825,0.0,1
1693165877.93045306,28737602,0,3,71496000,2277,6,3.49,42.7233169,-84.4671706,275.78000000000003,0.08102469146251678,257.1643981933594,0.07600000500679016,0.0,1
1693165878.13041496,28937564,0,3,71496200,2277,9,3.49,42.723317699999996,-84.4671802,274.04,0.0812157690525055,279.9262390136719,0.0690000057220459,0.0,1
1693165878.33071899,29137868,0,3,71496400,2277,9,3.49,42.7233186,-84.46718179999999,272.97,0.03471311181783676,318.5035400390625,0.10100000351667404,0.0,1
1693165878.53080916,29337958,0,3,71496600,2277,9,3.49,42.7233194,-84.4671822,272.21,0.0468188039958477,289.9831237792969,0.05000000074505806,0.0,1
1693165878.73085904,29538008,0,3,71496800,2277,9,3.49,42.723320099999995,-84.46718229999999,271.59000000000003,0.02906888537108898,310.8150939941406,0.05700000375509262,0.0,1
1693165878.95045710,29757606,0,3,71497000,2277,9,3.49,42.7233206,-84.4671821,271.07,0.06720863282680511,316.8087463378906,0.10900000482797623,0.0,1
1693165879.13071609,29937865,0,3,71497200,2277,9,3.49,42.7233211,-84.467182,270.63,0.09002222120761871,268.72698974609375,0.15000000596046448,0.0,1
1693165879.33081508,30137964,0,3,71497400,2277,9,3.49,42.7233215,-84.467182,270.26,0.021840332075953484,285.9454040527344,0.07900000363588333,0.0,1
1693165879.53084517,30337994,0,3,71497600,2277,9,3.49,42.7233218,-84.46718179999999,269.98,0.0979846939444542,284.1780700683594,0.07800000160932541,0.0,1
1693165879.73070598,30537855,0,3,71497800,2277,9,1.45,42.723321999999996,-84.46718179999999,269.7,0.016763055697083473,197.35403442382812,0.04100000113248825,0.0,1
1693165879.93061709,30737766,0,3,71498000,2277,9,1.45,42.7233223,-84.4671815,269.44,0.09860020875930786,306.7536926269531,0.15000000596046448,0.0,1
1693165880.13044810,30937597,0,3,71498200,2277,9,1.45,42.723322599999996,-84.4671815,269.2,0.05614267662167549,274.08563232421875,0.12600000202655792,0.0,1
1693165880.33078599,31137935,0,3,71498400,2277,9,1.45,42.7233227,-84.4671815,269.02,0.06700746715068817,270.8551025390625,0.09200000762939453,0.0,1
1693165880.53079605,31337945,0,3,71498600,2277,9,1.45,42.7233228,-84.4671815,268.85,0.02789265289902687,255.46554565429688,0.10900000482797623,0.0,1
1693165880.73061609,31537765,0,3,71498800,2277,9,1.45,42.7233229,-84.4671814,268.7,0.10127191245555878,279.09027099609375,0.11900000274181366,0.0,1
1693165880.93065596,31737805,0,3,71499000,2277,9,1.45,42.7233229,-84.4671814,268.59000000000003,0.04876474663615227,254.53878784179688,0.03500000014901161,0.0,1
1693165881.13080096,31937950,0,3,71499200,2277,9,1.45,42.723323,-84.4671813,268.47,0.09960924088954926,263.6598205566406,0.11400000751018524,0.0,1
1693165881.33083606,32137985,0,3,71499400,2277,9,1.45,42.723323,-84.4671815,268.35,0.002828427357599139,315.0,0.0430000014603138,0.0,1
1693165881.53070712,32337856,0,3,71499600,2277,9,1.45,42.723323099999995,-84.4671815,268.24,0.1021224856376648,267.1936340332031,0.1380000114440918,0.0,1
1693165881.73062205,32537771,0,3,71499800,2277,9,1.45,42.723323099999995,-84.46718159999999,268.12,0.05295281112194061,280.8855285644531,0.11600000411272049,0.0,1
1693165881.93071008,32737859,0,3,71500000,2277,9,1.45,42.7233233,-84.46718159999999,267.98,0.03764306381344795,286.9908447265625,0.10500000417232513,0.0,1
1693165882.13080096,32937950,0,3,71500200,2277,9,1.45,42.7233235,-84.4671817,267.86,0.05423099175095558,247.21759033203125,0.06700000166893005,0.0,1
1693165882.33079195,33137941,0,3,71500400,2277,9,1.45,42.723323699999995,-84.46718179999999,267.75,0.13230647146701813,302.96942138671875,0.2290000170469284,0.0,1
1693165882.53060317,33337752,0,3,71500600,2277,9,1.45,42.7233239,-84.467182,267.62,0.04019950330257416,264.2894287109375,0.11600000411272049,0.0,1
1693165882.73070908,33537858,0,3,71500800,2277,9,1.45,42.7233241,-84.4671821,267.52,0.038052596151828766,273.0127868652344,0.09400000423192978,0.0,1
1693165882.93079901,33737948,0,3,71501000,2277,9,1.45,42.7233243,-84.46718229999999,267.43,0.14866068959236145,303.4762878417969,0.15300001204013824,0.0,1
1693165883.13085103,33938000,0,3,71501200,2277,9,1.45,42.7233245,-84.4671827,267.32,0.0847230851650238,281.5751953125,0.10100000351667404,0.0,1
1693165883.33069515,34137844,0,3,71501400,2277,9,1.45,42.7233247,-84.46718299999999,267.22,0.0756637305021286,299.2752685546875,0.15400001406669617,0.0,1
1693165883.53061199,34337761,0,3,71501600,2277,9,1.45,42.7233249,-84.4671833,267.11,0.0563027560710907,289.7222900390625,0.06700000166893005,0.0,1
1693165883.73072195,34537871,0,3,71501800,2277,9,1.45,42.7233251,-84.4671836,267.03000000000003,0.10159724950790405,276.21563720703125,0.1080000028014183,0.0,1
1693165883.93081498,34737964,0,3,71502000,2277,9,1.45,42.7233253,-84.4671841,266.95,0.09604686498641968,271.7899169921875,0.08100000023841858,0.0,1
1693165884.13078618,34937935,0,3,71502200,2277,9,1.45,42.7233254,-84.4671843,266.9,0.07669419795274734,309.7099304199219,0.07200000435113907,0.0,1
1693165884.33068705,35137836,0,3,71502400,2277,9,1.45,42.723325599999995,-84.4671846,266.85,0.023345237597823143,279.8658142089844,0.023000001907348633,0.0,1
1693165884.53072000,35337869,0,3,71502600,2277,9,1.45,42.7233257,-84.467185,266.79,0.03138471022248268,329.3493347167969,0.024000000208616257,0.0,1
1693165884.73081112,35537960,0,3,71502800,2277,9,1.45,42.7233258,-84.4671852,266.76,0.015524175018072128,14.931417465209961,0.0010000000474974513,0.0,1
1693165884.93085909,35738008,0,3,71503000,2277,9,1.45,42.723326,-84.46718539999999,266.73,0.016278821974992752,10.619654655456543,-0.0010000000474974513,0.0,1
1693165885.13070607,35937855,0,3,71503200,2277,9,1.45,42.7233261,-84.4671857,266.69,0.03206244111061096,266.4236755371094,0.05100000277161598,0.0,1
1693165885.33063912,36137788,0,3,71503400,2277,9,1.45,42.723326199999995,-84.46718589999999,266.68,0.08077748119831085,301.3287048339844,0.11300000548362732,0.0,1
1693165885.53072810,36337877,0,3,71503600,2277,9,1.45,42.7233263,-84.4671862,266.64,0.0434165894985199,277.9434814453125,0.12800000607967377,0.0,1
1693165885.73080397,36537953,0,3,71503800,2277,9,1.45,42.7233263,-84.4671864,266.62,0.07334849238395691,281.0035400390625,0.10500000417232513,0.0,1
1693165885.93080401,36737953,0,3,71504000,2277,9,1.45,42.7233264,-84.4671867,266.59000000000003,0.14329341053962708,287.0439453125,0.22200001776218414,0.0,1
1693165886.13061500,36937764,0,3,71504200,2277,9,1.45,42.7233265,-84.467187,266.56,0.177792027592659,290.0657043457031,0.24700000882148743,0.0,1
1693165886.33071303,37137862,0,3,71504400,2277,9,1.45,42.7233266,-84.46718729999999,266.52,0.09513149410486221,266.9872131347656,0.19500000774860382,0.0,1
1693165886.53105497,37338204,0,3,71504600,2277,9,1.45,42.7233266,-84.4671875,266.48,0.1086876317858696,295.62200927734375,0.2710000276565552,0.0,1
1693165886.73102307,37538172,0,3,71504800,2277,9,1.45,42.7233267,-84.4671876,266.45,0.12477980554103851,279.68878173828125,0.22500000894069672,0.0,1
1693165886.93070006,37737849,0,3,71505000,2277,9,1.45,42.7233267,-84.46718779999999,266.41,0.10417293757200241,273.3018798828125,0.1770000010728836,0.0,1
1693165887.13063598,37937785,0,3,71505200,2277,9,1.45,42.723326799999995,-84.467188,266.35,0.13723337650299072,292.2666015625,0.27900001406669617,0.0,1
1693165887.33072305,38137872,0,3,71505400,2277,9,1.45,42.723327,-84.4671882,266.31,0.11610771715641022,272.4681396484375,0.08900000154972076,0.0,1
1693165887.53080606,38337955,0,3,71505600,2277,9,1.45,42.723327,-84.4671884,266.29,0.06171710044145584,296.980224609375,0.05300000309944153,0.0,1
1693165887.73080397,38537953,0,3,71505800,2277,9,1.45,42.7233272,-84.4671887,266.23,0.09124144166707993,260.5376892089844,0.1680000126361847,0.0,1
1693165887.93065310,38737802,0,3,71506000,2277,9,1.45,42.7233272,-84.4671888,266.18,0.0361386239528656,255.5792236328125,0.1080000028014183,0.0,1
1693165888.13071418,38937863,0,3,71506200,2277,9,1.45,42.7233272,-84.4671889,266.15,0.10423532128334045,278.8297424316406,0.20900000631809235,0.0,1
1693165888.33080101,39137950,0,3,71506400,2277,9,1.45,42.7233273,-84.46718919999999,266.09000000000003,0.013341664336621761,167.00537109375,0.09100000560283661,0.0,1
1693165888.53084517,39337994,0,3,71506600,2277,9,1.45,42.7233273,-84.4671893,266.04,0.05246903747320175,262.33319091796875,0.15800000727176666,0.0,1
1693165888.73070598,39537855,0,3,71506800,2277,10,0.93,42.7233271,-84.4671888,266.07,0.056044626981019974,285.52410888671875,0.12600000202655792,0.0,1
1693165888.93061709,39737766,0,3,71507000,2277,10,0.93,42.723326899999996,-84.4671884,266.13,0.08260750770568848,263.04705810546875,0.13300000131130219,0.0,1
1693165889.13071108,39937860,0,3,71507200,2277,10,0.93,42.7233266,-84.4671881,266.15,0.028178006410598755,117.47442626953125,0.0650000050663948,0.0,1
1693165889.33081698,40137966,0,3,71507400,2277,10,0.93,42.7233265,-84.4671876,266.18,0.05882176384329796,324.68878173828125,0.07100000232458115,0.0,1
1693165889.53077316,40337922,0,3,71507600,2277,10,0.93,42.7233264,-84.46718729999999,266.21,0.02801785245537758,272.04541015625,0.10100000351667404,0.0,1
1693165889.73066211,40537811,0,3,71507800,2277,10,0.93,42.723326199999995,-84.4671869,266.22,0.049000002443790436,180.0,0.007000000216066837,0.0,1
1693165889.93071198,40737861,0,3,71508000,2277,10,0.93,42.723326,-84.4671862,266.29,0.04527692496776581,313.2100830078125,0.10200000554323196,0.0,1
1693165890.13078403,40937933,0,3,71508200,2277,10,0.93,42.7233258,-84.4671857,266.34000000000003,0.03106445074081421,326.82147216796875,-0.006000000052154064,0.0,1
1693165890.33083510,41137984,0,3,71508400,2277,10,0.93,42.7233257,-84.4671853,266.37,0.048259712755680084,174.05313110351562,0.032999999821186066,0.0,1
1693165890.53072095,41337870,0,3,71508600,2277,10,0.93,42.7233254,-84.4671848,266.41,0.01969771645963192,203.96249389648438,0.07700000703334808,0.0,1
1693165890.73061609,41537765,0,3,71508800,2277,10,0.93,42.7233253,-84.46718419999999,266.45,0.07874643057584763,310.3645324707031,0.09700000286102295,0.0,1
1693165890.93071604,41737865,0,3,71509000,2277,10,0.93,42.7233252,-84.467184,266.49,0.012369317002594471,14.036242485046387,0.029000001028180122,0.0,1
1693165891.13078904,41937938,0,3,71509200,2277,10,0.93,42.7233251,-84.4671838,266.54,0.0766615942120552,300.5792236328125,0.06100000441074371,0.0,1
1693165891.33085012,42137999,0,3,71509400,2277,10,0.93,42.723324999999996,-84.4671836,266.6,0.04940648004412651,305.9421081542969,0.030000001192092896,0.0,1
1693165891.53064609,42337795,0,3,71509600,2277,10,0.93,42.7233248,-84.4671834,266.66,0.07206941395998001,240.94540405273438,0.11400000751018524,0.0,1
1693165891.73066998,42537819,0,3,71509800,2277,10,0.93,42.7233247,-84.4671834,266.69,0.030016662552952766,330.01837158203125,0.06300000101327896,0.0,1
1693165891.93079805,42737947,0,3,71510000,2277,10,0.93,42.7233248,-84.4671834,266.71,0.04119466245174408,354.42779541015625,0.08300000429153442,0.0,1
1693165892.13084507,42937994,0,3,71510200,2277,10,0.93,42.7233249,-84.46718349999999,266.73,0.06407808512449265,292.9637756347656,0.11100000888109207,0.0,1
1693165892.33070397,43137853,0,3,71510400,2277,10,0.93,42.723324999999996,-84.4671838,266.73,0.08508819341659546,293.5522766113281,0.11400000751018524,0.0,1
1693165892.53061604,43337765,0,3,71510600,2277,10,0.93,42.7233251,-84.467184,266.73,0.030083218589425087,291.44775390625,0.07800000160932541,0.0,1
1693165892.73071313,43537862,0,3,71510800,2277,10,0.93,42.7233252,-84.4671843,266.74,0.06551335752010345,328.73626708984375,0.0820000022649765,0.0,1
1693165892.93081999,43737969,0,3,71511000,2277,10,0.93,42.7233253,-84.4671844,266.78000000000003,0.04310452565550804,273.99090576171875,0.07100000232458115,0.0,1
1693165893.13078499,43937934,0,3,71511200,2277,10,0.93,42.7233253,-84.4671845,266.81,0.041677337139844894,300.2564392089844,0.06599999964237213,0.0,1
1693165893.33061910,44137768,0,3,71511400,2277,10,0.93,42.7233254,-84.46718469999999,266.83,0.067119300365448,303.45330810546875,0.06700000166893005,0.0,1
1693165893.53072810,44337877,0,3,71511600,2277,10,0.93,42.7233255,-84.4671848,266.84000000000003,0.010816654190421104,33.6900634765625,0.09300000220537186,0.0,1
1693165893.73080611,44537955,0,3,71511800,2277,10,0.93,42.723325599999995,-84.46718489999999,266.86,0.029068883508443832,333.4349365234375,0.08900000154972076,0.0,1
1693165893.93084717,44737996,0,3,71512000,2277,10,0.93,42.7233257,-84.4671851,266.89,0.0981835126876831,273.5035400390625,0.06300000101327896,0.0,1
1693165894.13070297,44937852,0,3,71512200,2277,10,0.93,42.7233258,-84.46718539999999,266.91,0.025079874321818352,336.5014343261719,0.12000000476837158,0.0,1
1693165894.33061910,45137768,0,3,71512400,2277,10,0.93,42.7233259,-84.4671856,266.94,0.07810249924659729,272.9356689453125,0.11100000888109207,0.0,1
1693165894.53072405,45337873,0,3,71512600,2277,10,0.93,42.7233259,-84.46718589999999,266.95,0.04973932355642319,239.8264923095703,0.009000000543892384,0.0,1
1693165894.73081112,45537960,0,3,71512800,2277,10,0.93,42.723326,-84.4671862,266.98,0.03195309266448021,290.13629150390625,0.05300000309944153,0.0,1
1693165894.93078613,45737935,0,3,71513000,2277,10,0.93,42.7233261,-84.4671864,267.01,0.04204759746789932,272.726318359375,0.032999999821186066,0.0,1
1693165895.13060498,45937754,0,3,71513200,2277,10,0.93,42.723326199999995,-84.4671867,267.03000000000003,0.009219544939696789,347.47119140625,0.0,0.0,1
1693165895.33065701,46137806,0,3,71513400,2277,10,0.93,42.7233263,-84.4671868,267.07,0.014560219831764698,195.94540405273438,0.032999999821186066,0.0,1
1693165895.53081799,46337967,0,3,71513600,2277,10,0.93,42.7233264,-84.4671869,267.09000000000003,0.03100000135600567,180.0,0.05400000140070915,0.0,1
1693165895.73083711,46537986,0,3,71513800,2277,10,0.93,42.7233265,-84.467187,267.12,0.07810249924659729,320.1944274902344,0.039000000804662704,0.0,1
1693165895.93071508,46737864,0,3,71514000,2277,10,0.93,42.723326799999995,-84.46718729999999,267.14,0.056515488773584366,283.298583984375,0.07200000435113907,0.0,1
1693165896.13061595,46937765,0,3,71514200,2277,10,0.93,42.723326899999996,-84.4671874,267.15,0.06140033155679703,286.0735778808594,0.14800000190734863,0.0,1
1693165896.33071613,47137865,0,3,71514400,2277,10,0.93,42.7233271,-84.4671877,267.15,0.07209022343158722,293.72039794921875,0.10700000822544098,0.0,1
1693165896.53080297,47337952,0,3,71514600,2277,10,0.93,42.7233273,-84.4671879,267.15,0.06313478201627731,299.4071960449219,0.09800000488758087,0.0,1
1693165896.73078203,47537931,0,3,71514800,2277,10,0.93,42.723327499999996,-84.4671882,267.14,0.10746628046035767,264.6607666015625,0.1730000078678131,0.0,1
1693165896.93060207,47737751,0,3,71515000,2277,10,0.93,42.7233276,-84.4671884,267.14,0.07915807515382767,266.3785095214844,0.10600000619888306,0.0,1
1693165897.13071609,47937865,0,3,71515200,2277,10,0.93,42.7233277,-84.46718849999999,267.14,0.07900632917881012,270.7252197265625,0.1469999998807907,0.0,1
1693165897.33080506,48137954,0,3,71515400,2277,10,0.93,42.7233278,-84.4671887,267.14,0.04060788452625275,260.0737609863281,0.12700000405311584,0.0,1
1693165897.53083396,48337983,0,3,71515600,2277,10,0.93,42.7233279,-84.4671887,267.15,0.08500000834465027,278.79742431640625,0.11600000411272049,0.0,1
1693165897.73069715,48537846,0,3,71515800,2277,10,0.93,42.723327999999995,-84.4671889,267.16,0.07502666115760803,268.47247314453125,0.06300000101327896,0.0,1
1693165897.93061614,48737765,0,3,71516000,2277,10,0.93,42.723328099999996,-84.4671891,267.17,0.03679674118757248,317.2026062011719,0.02800000086426735,0.0,1
1693165898.15058899,48957738,0,3,71516200,2277,11,0.93,42.723328099999996,-84.4671888,267.22,0.012529964558780193,331.3895568847656,0.10100000351667404,0.0,1
1693165898.33082104,49137970,0,3,71516400,2277,11,0.93,42.7233282,-84.46718849999999,267.23,0.02385372295975685,303.02386474609375,0.08700000494718552,0.0,1
1693165898.53078318,49337932,0,3,71516600,2277,11,0.93,42.7233283,-84.46718829999999,267.24,0.012041594833135605,274.7636413574219,0.05400000140070915,0.0,1
1693165898.73098803,49538137,0,3,71516800,2277,11,0.8300000000000001,42.7233284,-84.4671881,267.27,0.03275667876005173,328.73626708984375,0.07300000637769699,0.0,1
1693165898.93095303,49738102,0,3,71517000,2277,11,0.8300000000000001,42.7233285,-84.4671879,267.3,0.010295630432665348,119.0545883178711,0.003000000026077032,0.0,1
1693165899.13082004,49937969,0,3,71517200,2277,11,0.8300000000000001,42.7233285,-84.4671877,267.32,0.01077033020555973,111.80139923095703,0.05700000375509262,0.0,1
1693165899.33100104,50138150,0,3,71517400,2277,11,0.8300000000000001,42.723328599999995,-84.4671875,267.33,0.03405877575278282,319.7636413574219,0.04500000178813934,0.0,1
1693165899.53094196,50338091,0,3,71517600,2277,11,0.8300000000000001,42.7233288,-84.46718729999999,267.37,0.03231098875403404,338.1986083984375,0.04800000041723251,0.0,1
1693165899.73092008,50538069,0,3,71517800,2277,11,0.8300000000000001,42.7233289,-84.4671872,267.38,0.027202941477298737,162.8972625732422,0.046000003814697266,0.0,1
1693165899.93087602,50738025,0,3,71518000,2277,11,0.8300000000000001,42.7233289,-84.467187,267.4,0.022203605622053146,352.2348327636719,0.039000000804662704,0.0,1
1693165900.13095713,50938106,0,3,71518200,2277,11,0.8300000000000001,42.7233291,-84.4671869,267.42,0.04816637933254242,311.633544921875,0.02200000174343586,0.0,1
1693165900.33099914,51138148,0,3,71518400,2277,11,0.8300000000000001,42.723329199999995,-84.4671869,267.43,0.011401754803955555,254.74488830566406,0.052000001072883606,0.0,1
1693165900.53086305,51338012,0,3,71518600,2277,11,0.8300000000000001,42.723329299999996,-84.4671867,267.45,0.04294182360172272,297.758544921875,0.07300000637769699,0.0,1
1693165900.73070908,51537858,0,3,71518800,2277,11,0.8300000000000001,42.7233294,-84.46718659999999,267.48,0.03982461616396904,241.50436401367188,0.05100000277161598,0.0,1
1693165900.93080711,51737956,0,3,71519000,2277,11,0.8300000000000001,42.7233295,-84.4671865,267.51,0.02640075795352459,294.6235656738281,0.0650000050663948,0.0,1
1693165901.13085914,51938008,0,3,71519200,2277,11,0.8300000000000001,42.7233296,-84.4671864,267.52,0.02751363441348076,340.906494140625,0.0650000050663948,0.0,1
1693165901.33069706,52137846,0,3,71519400,2277,11,0.8300000000000001,42.7233297,-84.4671863,267.54,0.028600702062249184,323.53076171875,0.039000000804662704,0.0,1
1693165901.53061318,52337762,0,3,71519600,2277,11,0.8300000000000001,42.723329799999995,-84.46718609999999,267.56,0.0269258264452219,148.67129516601562,-0.024000000208616257,0.0,1
1693165901.73046517,52537614,0,3,71519800,2277,11,0.8300000000000001,42.723329899999996,-84.46718589999999,267.58,0.02121320366859436,315.0,0.07500000298023224,0.0,1
1693165901.93058801,52737737,0,3,71520000,2277,11,0.8300000000000001,42.72333,-84.4671858,267.59000000000003,0.052000001072883606,292.619873046875,0.11500000208616257,0.0,1
1693165902.13051105,52937660,0,3,71520200,2277,11,0.8300000000000001,42.72333,-84.4671857,267.61,0.02163330838084221,33.6900634765625,0.07500000298023224,0.0,1
1693165902.33038902,53137538,0,3,71520400,2277,11,0.8300000000000001,42.7233302,-84.4671856,267.62,0.02961418591439724,11.68936824798584,0.018000001087784767,0.0,1
1693165902.53044915,53337598,0,3,71520600,2277,11,0.8300000000000001,42.7233303,-84.4671855,267.64,0.0660075768828392,269.1319580078125,0.10200000554323196,0.0,1
1693165902.73058414,53537733,0,3,71520800,2277,11,0.8300000000000001,42.7233303,-84.4671856,267.64,0.02402082458138466,267.61407470703125,0.027000000700354576,0.0,1
1693165902.93060398,53737753,0,3,71521000,2277,11,0.8300000000000001,42.723330399999995,-84.4671855,267.65,0.012041594833135605,311.633544921875,0.09700000286102295,0.0,1
1693165903.13039517,53937544,0,3,71521200,2277,11,0.8300000000000001,42.723330499999996,-84.4671853,267.68,0.036674246191978455,258.9964599609375,0.06599999964237213,0.0,1
1693165903.33039999,54137549,0,3,71521400,2277,11,0.8300000000000001,42.7233306,-84.4671852,267.68,0.026248808950185776,342.2553405761719,0.10200000554323196,0.0,1
1693165903.53045917,54337608,0,3,71521600,2277,11,0.8300000000000001,42.7233307,-84.4671851,267.68,0.00800000037997961,90.0,0.13300000131130219,0.0,1
1693165903.75079608,54557945,0,3,71521800,2277,11,0.8300000000000001,42.7233308,-84.4671851,267.67,0.017464250326156616,283.24053955078125,0.06000000238418579,0.0,1
1693165903.95063806,54757787,0,3,71522000,2277,11,0.8300000000000001,42.7233308,-84.467185,267.68,0.027202943339943886,233.97262573242188,0.04200000315904617,0.0,1
1693165904.15064406,54957793,0,3,71522200,2277,11,0.8300000000000001,42.7233309,-84.46718489999999,267.69,0.015033296309411526,86.18592071533203,0.11100000888109207,0.0,1
1693165904.33046913,55137618,0,3,71522400,2277,11,0.8300000000000001,42.723330999999995,-84.46718489999999,267.68,0.04500000178813934,270.0,0.007000000216066837,0.0,1
1693165904.53056407,55337713,0,3,71522600,2277,11,0.8300000000000001,42.723331099999996,-84.46718489999999,267.7,0.041677337139844894,300.2564392089844,0.10700000822544098,0.0,1
1693165904.73060608,55537755,0,3,71522800,2277,11,0.8300000000000001,42.7233312,-84.46718489999999,267.69,0.029068883508443832,26.56505012512207,0.004000000189989805,0.0,1
1693165904.93041706,55737566,0,3,71523000,2277,11,0.8300000000000001,42.7233313,-84.4671848,267.71,0.02451530285179615,258.2317199707031,0.06400000303983688,0.0,1
1693165905.15063095,55957780,0,3,71523200,2277,11,0.8300000000000001,42.7233314,-84.46718469999999,267.71,0.0022360680159181356,63.4349479675293,0.032999999821186066,0.0,1
1693165905.33071303,56137862,0,3,71523400,2277,11,0.8300000000000001,42.7233315,-84.46718469999999,267.71,0.010000000707805157,0.0,0.013000000268220901,0.0,1
1693165905.55077195,56357921,0,3,71523600,2277,11,0.8300000000000001,42.723331599999995,-84.46718469999999,267.72,0.0430116280913353,252.40757751464844,0.052000001072883606,0.0,1
1693165905.73050404,56537653,0,3,71523800,2277,11,0.8300000000000001,42.723331699999996,-84.46718469999999,267.73,0.03584690019488335,329.8586120605469,0.09100000560283661,0.0,1
1693165905.93038702,56737536,0,3,71524000,2277,11,0.8300000000000001,42.7233318,-84.4671846,267.73,0.023021729663014412,2.4895524978637695,0.03700000047683716,0.0,1
1693165906.13045716,56937606,0,3,71524200,2277,11,0.8300000000000001,42.7233319,-84.4671845,267.73,0.03330165520310402,311.3477783203125,0.12700000405311584,0.0,1
1693165906.33059096,57137740,0,3,71524400,2277,11,0.8300000000000001,42.7233321,-84.4671845,267.74,0.06911584734916687,301.3902587890625,0.08100000023841858,0.0,1
1693165906.53057003,57337719,0,3,71524600,2277,11,0.8300000000000001,42.7233322,-84.4671845,267.73,0.014142136089503765,135.0,0.07700000703334808,0.0,1
1693165906.73041606,57537565,0,3,71524800,2277,11,0.8300000000000001,42.7233322,-84.4671845,267.72,0.014035669155418873,184.08563232421875,0.125,0.0,1
1693165906.93039107,57737540,0,3,71525000,2277,11,0.8300000000000001,42.7233322,-84.4671844,267.73,0.02745906077325344,259.508544921875,0.17400000989437103,0.0,1
1693165907.13043809,57937587,0,3,71525200,2277,11,0.8300000000000001,42.723332299999996,-84.4671844,267.72,0.04310452565550804,273.99090576171875,0.1380000114440918,0.0,1
1693165907.33058095,58137730,0,3,71525400,2277,11,0.8300000000000001,42.723332299999996,-84.4671844,267.71,0.017464250326156616,246.37063598632812,0.14500001072883606,0.0,1
1693165907.53044105,58337590,0,3,71525600,2277,11,0.8300000000000001,42.7233324,-84.4671843,267.71,0.028301944956183434,327.99462890625,0.06800000369548798,0.0,1
1693165907.73039198,58537541,0,3,71525800,2277,11,0.8300000000000001,42.7233324,-84.4671843,267.7,0.06395310908555984,279.9041748046875,0.15200001001358032,0.0,1
1693165907.93043900,58737588,0,3,71526000,2277,11,0.8300000000000001,42.7233325,-84.4671843,267.7,0.0926336869597435,314.5626525878906,0.15800000727176666,0.0,1
1693165908.15059996,58957749,0,3,71526200,2277,11,0.8300000000000001,42.7233326,-84.4671843,267.7,0.042059481143951416,331.60699462890625,0.07800000160932541,0.0,1
1693165908.35041809,59157567,0,3,71526400,2277,11,0.8300000000000001,42.7233327,-84.4671843,267.69,0.03178049996495247,245.85446166992188,0.10700000822544098,0.0,1
1693165908.53069401,59337843,0,3,71526600,2277,11,0.8300000000000001,42.7233327,-84.4671843,267.69,0.042201898992061615,256.29302978515625,0.09200000762939453,0.0,1
1693165908.73039198,59537541,0,3,71526800,2277,11,0.8300000000000001,42.7233327,-84.4671843,267.68,0.019313208758831024,338.74951171875,0.1080000028014183,0.0,1
1693165908.93064809,59737797,0,3,71527000,2277,11,0.8300000000000001,42.7233327,-84.46718419999999,267.67,0.02640075795352459,204.62356567382812,0.09700000286102295,0.0,1
1693165909.13078809,59937937,0,3,71527200,2277,11,0.8300000000000001,42.7233327,-84.4671841,267.67,0.034669872373342514,146.76828002929688,0.09400000423192978,0.0,1
1693165909.33067107,60137820,0,3,71527400,2277,11,0.8300000000000001,42.7233327,-84.467184,267.66,0.002828427357599139,45.0,0.0820000022649765,0.0,1
1693165909.53057218,60337721,0,3,71527600,2277,11,0.8300000000000001,42.7233327,-84.4671839,267.67,0.03080584481358528,283.134033203125,0.15400001406669617,0.0,1
1693165909.73062897,60537778,0,3,71527800,2277,11,0.8300000000000001,42.7233327,-84.4671839,267.67,0.04609772562980652,294.3410949707031,0.14500001072883606,0.0,1
1693165909.93077016,60737919,0,3,71528000,2277,11,0.8300000000000001,42.7233328,-84.4671838,267.67,0.01615549437701702,248.1986083984375,0.01900000125169754,0.0,1
1693165910.13080907,60937958,0,3,71528200,2277,11,0.8300000000000001,42.7233328,-84.4671838,267.68,0.05720140412449837,306.46923828125,0.09600000083446503,0.0,1
1693165910.33066702,61137816,0,3,71528400,2277,11,0.8300000000000001,42.7233328,-84.4671838,267.68,0.028160257264971733,196.50437927246094,0.10100000351667404,0.0,1
1693165910.53058696,61337736,0,3,71528600,2277,11,0.8300000000000001,42.7233328,-84.46718369999999,267.69,0.03036445379257202,342.758544921875,0.06300000101327896,0.0,1
1693165910.73064899,61537798,0,3,71528800,2277,11,0.8300000000000001,42.723332899999996,-84.4671836,267.7,0.03661966696381569,304.9920349121094,0.08400000631809235,0.0,1
1693165910.93077207,61737921,0,3,71529000,2277,11,0.8300000000000001,42.723332899999996,-84.4671836,267.71,0.02280350960791111,254.74488830566406,0.07700000703334808,0.0,1
1693165911.13073897,61937888,0,3,71529200,2277,11,0.8300000000000001,42.723332899999996,-84.46718349999999,267.71,0.00824621133506298,345.9637451171875,0.06800000369548798,0.0,1
1693165911.33085704,62138006,0,3,71529400,2277,11,0.8300000000000001,42.723332899999996,-84.4671834,267.72,0.018601076677441597,216.25384521484375,0.03500000014901161,0.0,1
1693165911.53070903,62337858,0,3,71529600,2277,11,0.8300000000000001,42.723332899999996,-84.4671833,267.73,0.014212671667337418,320.7106018066406,0.04100000113248825,0.0,1
1693165911.73057103,62537720,0,3,71529800,2277,11,0.8300000000000001,42.723333,-84.4671833,267.73,0.0403112918138504,316.0050964355469,0.1120000034570694,0.0,1
1693165911.93057418,62737723,0,3,71530000,2277,11,0.8300000000000001,42.723333,-84.4671832,267.73,0.03901281952857971,271.46881103515625,0.06800000369548798,0.0,1
1693165912.13044000,62937589,0,3,71530200,2277,11,0.8300000000000001,42.723333,-84.4671831,267.74,0.0072111026383936405,213.69007873535156,0.0560000017285347,0.0,1
1693165912.33042908,63137578,0,3,71530400,2277,11,0.8300000000000001,42.723333,-84.4671829,267.77,0.059908267110586166,284.50018310546875,0.1210000067949295,0.0,1
1693165912.53046203,63337611,0,3,71530600,2277,11,0.8300000000000001,42.723333,-84.46718279999999,267.77,0.011401754803955555,232.12501525878906,0.11300000548362732,0.0,1
1693165912.73082113,63537970,0,3,71530800,2277,11,0.8300000000000001,42.723333,-84.4671826,267.78000000000003,0.036769554018974304,225.0,0.03800000250339508,0.0,1
1693165912.95039797,63757547,0,3,71531000,2277,11,0.8300000000000001,42.723333,-84.46718249999999,267.8,0.051613952964544296,305.5376892089844,0.11800000816583633,0.0,1
1693165913.13060308,63937752,0,3,71531200,2277,11,0.8300000000000001,42.723333,-84.4671824,267.8,0.013416407629847527,333.4349365234375,0.08300000429153442,0.0,1
1693165913.33066201,64137811,0,3,71531400,2277,11,0.8300000000000001,42.7233331,-84.46718229999999,267.8,0.03400000184774399,270.0,0.07700000703334808,0.0,1
1693165913.53079295,64337942,0,3,71531600,2277,11,0.8300000000000001,42.7233331,-84.4671822,267.82,0.013152946718037128,188.7461700439453,0.04000000283122063,0.0,1
1693165913.73083615,64537985,0,3,71531800,2277,11,0.8300000000000001,42.7233331,-84.467182,267.83,0.01910497434437275,42.878902435302734,-0.014000000432133675,0.0,1
1693165913.93072510,64737874,0,3,71532000,2277,11,0.8300000000000001,42.7233331,-84.46718179999999,267.85,0.042059481143951416,208.39303588867188,0.058000002056360245,0.0,1
1693165914.13060808,64937757,0,3,71532200,2277,11,0.8300000000000001,42.7233331,-84.4671817,267.85,0.02906888537108898,49.184913635253906,-0.01600000075995922,0.0,1
1693165914.35057807,65157727,0,3,71532400,2277,11,0.8300000000000001,42.7233331,-84.46718159999999,267.86,0.0300665944814682,183.81407165527344,0.049000002443790436,0.0,1
1693165914.53080201,65337951,0,3,71532600,2277,11,0.8300000000000001,42.7233331,-84.46718159999999,267.86,0.017088009044528008,249.4439697265625,0.03700000047683716,0.0,1
1693165914.73102498,65538174,0,3,71532800,2277,11,0.8300000000000001,42.7233332,-84.4671815,267.87,0.060207974165678024,355.2363586425781,0.10900000482797623,0.0,1
1693165914.95044804,65757597,0,3,71533000,2277,11,0.8300000000000001,42.7233332,-84.4671814,267.87,0.0150332972407341,3.814074754714966,0.05100000277161598,0.0,1
1693165915.13072896,65937878,0,3,71533200,2277,11,0.8300000000000001,42.7233333,-84.4671813,267.88,0.0022360680159181356,296.5650634765625,0.023000001907348633,0.0,1
1693165915.33082008,66137969,0,3,71533400,2277,11,0.8300000000000001,42.7233333,-84.4671812,267.89,0.036878179758787155,167.47119140625,-0.05300000309944153,0.0,1
1693165915.53085804,66338007,0,3,71533600,2277,11,0.8300000000000001,42.7233333,-84.46718109999999,267.9,0.04317406937479973,13.392497062683105,0.04800000041723251,0.0,1
1693165915.73039198,66537541,0,3,71533800,2277,11,0.8300000000000001,42.7233334,-84.46718109999999,267.89,0.017888544127345085,153.43495178222656,-0.04100000113248825,0.0,1
1693165915.93040800,66737557,0,3,71534000,2277,11,0.8300000000000001,42.7233334,-84.467181,267.9,0.04114608094096184,244.05770874023438,0.11500000208616257,0.0,1
1693165916.13047099,66937620,0,3,71534200,2277,11,0.8300000000000001,42.7233334,-84.467181,267.9,0.02500000037252903,343.73980712890625,0.06000000238418579,0.0,1
1693165916.33060408,67137753,0,3,71534400,2277,11,0.8300000000000001,42.7233334,-84.4671809,267.9,0.04609772190451622,229.39869689941406,0.1810000091791153,0.0,1
1693165916.53051710,67337666,0,3,71534600,2277,11,0.8300000000000001,42.723333499999995,-84.4671809,267.9,0.10466136038303375,315.77423095703125,0.2200000137090683,0.0,1
1693165916.73040009,67537549,0,3,71534800,2277,11,0.8300000000000001,42.723333499999995,-84.4671809,267.88,0.05578530579805374,194.5344696044922,0.2070000171661377,0.0,1
1693165916.93045115,67737600,0,3,71535000,2277,11,0.8300000000000001,42.723333499999995,-84.4671809,267.88,0.06720863282680511,316.8087463378906,0.1600000113248825,0.0,1
1693165917.15082312,67957972,0,3,71535200,2277,11,0.8300000000000001,42.7233336,-84.4671808,267.89,0.03224903345108032,277.1250305175781,0.0950000062584877,0.0,1
1693165917.33060813,68137757,0,3,71535400,2277,11,0.8300000000000001,42.7233336,-84.4671808,267.9,0.02828427217900753,315.0,0.05900000408291817,0.0,1
1693165917.53039312,68337542,0,3,71535600,2277,11,0.8300000000000001,42.7233336,-84.4671807,267.9,0.017000000923871994,180.0,0.03800000250339508,0.0,1
1693165917.73063016,68537779,0,3,71535800,2277,11,0.8300000000000001,42.7233336,-84.46718059999999,267.91,0.02284732088446617,23.198589324951172,0.10200000554323196,0.0,1
1693165917.93045306,68737602,0,3,71536000,2277,11,0.8300000000000001,42.7233336,-84.4671805,267.91,0.005000000353902578,0.0,0.07900000363588333,0.0,1
1693165918.13057303,68937722,0,3,71536200,2277,11,0.8300000000000001,42.7233336,-84.4671805,267.9,0.02370654046535492,207.64598083496094,0.046000003814697266,0.0,1
1693165918.33042216,69137571,0,3,71536400,2277,11,0.8300000000000001,42.7233336,-84.46718039999999,267.9,0.013416407629847527,26.56505012512207,0.036000002175569534,0.0,1
1693165918.53038907,69337538,0,3,71536600,2277,11,0.8300000000000001,42.7233336,-84.46718039999999,267.89,0.035171013325452805,284.82647705078125,0.08500000089406967,0.0,1
1693165918.73043895,69537588,0,3,71536800,2277,11,0.8300000000000001,42.7233337,-84.46718039999999,267.88,0.030083218589425087,344.5778503417969,0.05000000074505806,0.0,1
1693165918.93057609,69737725,0,3,71537000,2277,11,0.8300000000000001,42.7233336,-84.46718039999999,267.87,0.03176476061344147,208.1785888671875,0.06599999964237213,0.0,1
1693165919.13050318,69937652,0,3,71537200,2277,11,0.8300000000000001,42.7233336,-84.4671803,267.88,0.0298328697681427,13.570433616638184,0.10200000554323196,0.0,1
1693165919.33039999,70137549,0,3,71537400,2277,11,0.8300000000000001,42.7233336,-84.4671802,267.88,0.05661272257566452,234.34466552734375,0.06000000238418579,0.0,1
1693165919.53040218,70337551,0,3,71537600,2277,11,0.8300000000000001,42.723333499999995,-84.4671802,267.88,0.04130375385284424,276.9529724121094,0.10200000554323196,0.0,1
1693165919.75058103,70557730,0,3,71537800,2277,11,0.8300000000000001,42.723333499999995,-84.4671802,267.87,0.011401754803955555,285.255126953125,0.08500000089406967,0.0,1
1693165919.93081117,70737960,0,3,71538000,2277,11,0.8300000000000001,42.7233334,-84.4671801,267.87,0.016278821974992752,259.3803405761719,0.07700000703334808,0.0,1
1693165920.13079214,70937941,0,3,71538200,2277,11,0.8300000000000001,42.7233334,-84.46718,267.87,0.032649654895067215,332.6501159667969,-0.00800000037997961,0.0,1
1693165920.33038998,71137539,0,3,71538400,2277,11,0.8300000000000001,42.7233334,-84.46718,267.87,0.025317978113889694,279.09027099609375,0.05100000277161598,0.0,1
1693165920.53047514,71337624,0,3,71538600,2277,11,0.8300000000000001,42.7233333,-84.46717989999999,267.87,0.03992493078112602,202.06790161132812,0.04100000113248825,0.0,1
1693165920.75060606,71557755,0,3,71538800,2277,11,0.8300000000000001,42.7233332,-84.4671797,267.88,0.03959798067808151,315.0,0.09100000560283661,0.0,1
1693165920.93081999,71737969,0,3,71539000,2277,11,0.8300000000000001,42.7233332,-84.4671797,267.85,0.021023796871304512,244.65383911132812,0.027000000700354576,0.0,1
1693165921.13065195,71937801,0,3,71539200,2277,11,0.8300000000000001,42.7233332,-84.4671797,267.84000000000003,0.028178006410598755,242.52557373046875,0.03400000184774399,0.0,1
1693165921.35073113,72157880,0,3,71539400,2277,11,0.8300000000000001,42.7233331,-84.4671796,267.84000000000003,0.02745906263589859,326.888671875,0.06100000441074371,0.0,1
1693165921.53064609,72337795,0,3,71539600,2277,11,0.8300000000000001,42.7233331,-84.4671795,267.83,0.008944272063672543,26.56505012512207,0.13199999928474426,0.0,1
1693165921.73077917,72537928,0,3,71539800,2277,11,0.8300000000000001,42.7233331,-84.46717939999999,267.81,0.03252691403031349,315.0,0.11500000208616257,0.0,1
1693165921.95040202,72757551,0,3,71540000,2277,11,0.8300000000000001,42.7233331,-84.4671793,267.8,0.012041594833135605,4.763641834259033,0.029000001028180122,0.0,1
1693165922.13057899,72937728,0,3,71540200,2277,11,0.8300000000000001,42.7233331,-84.46717919999999,267.81,0.058008622378110886,270.9877624511719,0.055000003427267075,0.0,1
1693165922.33062506,73137774,0,3,71540400,2277,11,0.8300000000000001,42.7233331,-84.46717919999999,267.79,0.02376973070204258,292.2490234375,0.07600000500679016,0.0,1
1693165922.53076816,73337917,0,3,71540600,2277,11,0.8300000000000001,42.723333,-84.46717919999999,267.78000000000003,0.028425343334674835,230.71058654785156,0.06100000441074371,0.0,1
1693165922.73080397,73537953,0,3,71540800,2277,11,0.8300000000000001,42.723333,-84.4671791,267.76,0.013000000268220901,292.619873046875,0.07100000232458115,0.0,1
1693165922.93065500,73737804,0,3,71541000,2277,11,0.8300000000000001,42.723333,-84.467179,267.75,0.035608988255262375,308.1572265625,0.1420000046491623,0.0,1
1693165923.13058805,73937737,0,3,71541200,2277,11,0.8300000000000001,42.723333,-84.467179,267.73,0.05578530579805374,284.5344543457031,0.058000002056360245,0.0,1
1693165923.33086610,74138015,0,3,71541400,2277,11,0.8300000000000001,42.723333,-84.467179,267.71,0.012083047069609165,294.4439697265625,0.08300000429153442,0.0,1
1693165923.53095198,74338101,0,3,71541600,2277,11,0.8300000000000001,42.723333,-84.4671788,267.71,0.01835756003856659,330.6422424316406,0.1420000046491623,0.0,1
1693165923.73077297,74537922,0,3,71541800,2277,11,0.8300000000000001,42.723333,-84.46717869999999,267.69,0.01702938787639141,310.2363586425781,0.05100000277161598,0.0,1
1693165923.95044899,74757598,0,3,71542000,2277,11,0.8300000000000001,42.723333,-84.4671786,267.68,0.019026298075914383,273.0127868652344,0.03700000047683716,0.0,1
1693165924.13043714,74937586,0,3,71542200,2277,11,0.8300000000000001,42.723333,-84.4671785,267.68,0.03125699982047081,277.3523864746094,0.004000000189989805,0.0,1
1693165924.35051203,75157661,0,3,71542400,2277,11,0.8300000000000001,42.723333,-84.4671784,267.68,0.00984885822981596,293.9624938964844,0.07300000637769699,0.0,1
1693165924.55040312,75357552,0,3,71542600,2277,11,0.8300000000000001,42.723333,-84.4671783,267.66,0.03860051929950714,343.44293212890625,0.06200000271201134,0.0,1
1693165924.75039816,75557547,0,3,71542800,2277,11,0.8300000000000001,42.723333,-84.46717819999999,267.65,0.018384777009487152,202.38014221191406,0.04400000348687172,0.0,1
1693165924.93043709,75737586,0,3,71543000,2277,11,0.8300000000000001,42.723333,-84.4671781,267.65,0.019646884873509407,345.2564392089844,-0.024000000208616257,0.0,1
1693165925.15080905,75957958,0,3,71543200,2277,11,0.8300000000000001,42.723333,-84.46717799999999,267.63,0.03200000151991844,180.0,-0.023000001907348633,0.0,1
1693165925.33059001,76137739,0,3,71543400,2277,11,0.8300000000000001,42.723332899999996,-84.4671779,267.63,0.009219544939696789,347.47119140625,0.020000001415610313,0.0,1
1693165925.53045797,76337607,0,3,71543600,2277,11,0.8300000000000001,42.723332899999996,-84.4671779,267.61,0.027313001453876495,156.25050354003906,0.010000000707805157,0.0,1
1693165925.73038816,76537537,0,3,71543800,2277,11,0.8300000000000001,42.723332899999996,-84.4671777,267.61,0.008602325804531574,144.46231079101562,0.10100000351667404,0.0,1
1693165925.93046498,76737614,0,3,71544000,2277,11,0.8300000000000001,42.7233328,-84.4671776,267.61,0.014866068959236145,109.65381622314453,0.03200000151991844,0.0,1
1693165926.13080215,76937951,0,3,71544200,2277,11,0.8300000000000001,42.7233328,-84.46717749999999,267.61,0.05414794385433197,265.76361083984375,0.18300001323223114,0.0,1
1693165926.33084512,77137994,0,3,71544400,2277,11,0.8300000000000001,42.7233328,-84.46717749999999,267.6,0.020615529268980026,309.0938720703125,0.13100001215934753,0.0,1
1693165926.55062103,77357770,0,3,71544600,2277,11,0.8300000000000001,42.7233328,-84.4671774,267.6,0.03921734541654587,289.3590087890625,0.13199999928474426,0.0,1
1693165926.75090003,77558049,0,3,71544800,2277,11,0.8300000000000001,42.7233328,-84.4671774,267.59000000000003,0.02024845778942108,200.22486877441406,0.16300000250339508,0.0,1
1693165926.95096898,77758118,0,3,71545000,2277,11,0.8300000000000001,42.7233327,-84.4671774,267.58,0.06562012434005737,277.8831481933594,0.18400001525878906,0.0,1
1693165927.15078807,77957937,0,3,71545200,2277,11,0.8300000000000001,42.7233327,-84.46717749999999,267.58,0.042720019817352295,249.4439697265625,0.06599999964237213,0.0,1
1693165927.35060310,78157752,0,3,71545400,2277,11,0.8300000000000001,42.7233327,-84.46717749999999,267.58,0.0374833308160305,279.2110290527344,0.1420000046491623,0.0,1
1693165927.55071807,78357867,0,3,71545600,2277,11,0.8300000000000001,42.7233327,-84.46717749999999,267.57,0.05077400803565979,327.875,0.09100000560283661,0.0,1
1693165927.73045301,78537602,0,3,71545800,2277,11,0.8300000000000001,42.7233327,-84.4671776,267.57,0.04609772190451622,257.47119140625,0.16900001466274261,0.0,1
1693165927.93056917,78737718,0,3,71546000,2277,11,0.8300000000000001,42.7233326,-84.4671776,267.56,0.034828152507543564,230.82635498046875,0.08500000089406967,0.0,1
1693165928.15038800,78957537,0,3,71546200,2277,12,0.8300000000000001,42.7233326,-84.4671777,267.54,0.023194829002022743,277.431396484375,0.08000000566244125,0.0,1
1693165928.35057712,79157726,0,3,71546400,2277,12,0.8300000000000001,42.7233326,-84.4671778,267.53000000000003,0.023430749773979187,230.19442749023438,0.0430000014603138,0.0,1
1693165928.55064011,79357789,0,3,71546600,2277,12,0.8300000000000001,42.7233325,-84.4671779,267.52,0.003162277862429619,71.56504821777344,-0.058000002056360245,0.0,1
1693165928.75076509,79557914,0,3,71546800,2277,12,0.79,42.7233325,-84.4671779,267.52,0.005656854715198278,45.0,0.01100000087171793,0.0,1
1693165928.95075202,79757901,0,3,71547000,2277,12,0.79,42.7233325,-84.4671779,267.52,0.0430464893579483,272.6629943847656,0.07900000363588333,0.0,1
1693165929.15057611,79957725,0,3,71547200,2277,12,0.79,42.7233324,-84.46717799999999,267.51,0.0022360680159181356,63.4349479675293,0.003000000026077032,0.0,1
1693165929.35061216,80157761,0,3,71547400,2277,12,0.79,42.7233324,-84.46717799999999,267.52,0.057723481208086014,284.0362548828125,0.21900001168251038,0.0,1
1693165929.55078197,80357931,0,3,71547600,2277,12,0.79,42.7233324,-84.46717819999999,267.49,0.022561030462384224,257.19573974609375,0.09800000488758087,0.0,1
1693165929.75080895,80557958,0,3,71547800,2277,12,0.79,42.723332299999996,-84.4671781,267.48,0.03361547365784645,337.2490234375,0.10200000554323196,0.0,1
1693165929.95065713,80757806,0,3,71548000,2277,12,0.79,42.723332299999996,-84.46717819999999,267.48,0.06067124754190445,278.53076171875,0.15400001406669617,0.0,1
1693165930.15079618,80957945,0,3,71548200,2277,12,0.79,42.7233322,-84.46717819999999,267.47,0.021840332075953484,254.0546112060547,0.08900000154972076,0.0,1
1693165930.35066009,81157809,0,3,71548400,2277,12,0.79,42.7233322,-84.46717819999999,267.46,0.028160257264971733,16.50436019897461,0.05400000140070915,0.0,1
1693165930.55080605,81357955,0,3,71548600,2277,12,0.79,42.7233322,-84.4671781,267.45,0.016763055697083473,287.3540344238281,0.1420000046491623,0.0,1
1693165930.75080013,81557949,0,3,71548800,2277,12,0.79,42.7233321,-84.4671781,267.44,0.02154066041111946,291.8014221191406,0.13700000941753387,0.0,1
1693165930.95065904,81757808,0,3,71549000,2277,12,0.79,42.7233321,-84.4671781,267.43,0.010440307669341564,286.6992492675781,0.09300000220537186,0.0,1
1693165931.15043211,81957581,0,3,71549200,2277,12,0.79,42.7233321,-84.46717799999999,267.42,0.017888544127345085,333.4349365234375,0.07000000029802322,0.0,1
1693165931.35057616,82157725,0,3,71549400,2277,12,0.79,42.7233321,-84.46717799999999,267.42,0.029017237946391106,1.9749339818954468,0.07300000637769699,0.0,1
1693165931.55060410,82357753,0,3,71549600,2277,12,0.79,42.7233321,-84.46717799999999,267.41,0.0344383530318737,295.82098388671875,0.058000002056360245,0.0,1
1693165931.75039411,82557543,0,3,71549800,2277,12,0.79,42.7233321,-84.4671781,267.39,0.0298328697681427,256.4295654296875,0.12600000202655792,0.0,1
1693165931.95040298,82757552,0,3,71550000,2277,12,0.79,42.7233321,-84.46717799999999,267.39,0.027586231008172035,43.53119659423828,0.06300000101327896,0.0,1
1693165932.15046215,82957611,0,3,71550200,2277,12,0.79,42.7233321,-84.46717799999999,267.38,0.04134005308151245,327.84771728515625,0.10900000482797623,0.0,1
1693165932.35057306,83157722,0,3,71550400,2277,12,0.79,42.7233321,-84.46717799999999,267.37,0.025495098903775215,228.17984008789062,-0.02500000037252903,0.0,1
1693165932.55052018,83357669,0,3,71550600,2277,12,0.79,42.7233321,-84.46717799999999,267.38,0.016278821974992752,280.6196594238281,0.046000003814697266,0.0,1
1693165932.75039601,83557545,0,3,71550800,2277,12,0.79,42.7233321,-84.46717799999999,267.37,0.01910497434437275,312.87890625,0.11700000613927841,0.0,1
1693165932.95047712,83757626,0,3,71551000,2277,12,0.79,42.7233321,-84.46717799999999,267.36,0.02154066041111946,248.1986083984375,0.02500000037252903,0.0,1
1693165933.15059495,83957744,0,3,71551200,2277,12,0.79,42.7233321,-84.46717799999999,267.37,0.0255538672208786,329.4207763671875,0.08300000429153442,0.0,1
1693165933.35059309,84157742,0,3,71551400,2277,12,0.79,42.7233321,-84.46717799999999,267.36,0.0014142136787995696,225.0,0.06400000303983688,0.0,1
1693165933.55040002,84357549,0,3,71551600,2277,12,0.79,42.723332,-84.46717799999999,267.36,0.02451530285179615,258.2317199707031,0.0690000057220459,0.0,1
1693165933.75041795,84557567,0,3,71551800,2277,12,0.79,42.723332,-84.46717799999999,267.36,0.03801315650343895,333.4349365234375,0.10500000417232513,0.0,1
1693165933.95047116,84757620,0,3,71552000,2277,12,0.79,42.723332,-84.4671779,267.36,0.004999999888241291,36.869895935058594,0.04200000315904617,0.0,1
1693165934.15058613,84957735,0,3,71552200,2277,12,0.79,42.723332,-84.4671779,267.35,0.0298328697681427,256.4295654296875,0.07600000500679016,0.0,1
1693165934.35079598,85157945,0,3,71552400,2277,12,0.79,42.723332,-84.4671779,267.34000000000003,0.04001250118017197,1.432096004486084,0.1080000028014183,0.0,1
1693165934.55062604,85357775,0,3,71552600,2277,12,0.79,42.723332,-84.4671779,267.34000000000003,0.019235385581851006,297.89727783203125,0.049000002443790436,0.0,1
1693165934.75064611,85557795,0,3,71552800,2277,12,0.79,42.723332,-84.4671779,267.35,0.03827532008290291,250.14479064941406,0.015000000596046448,0.0,1
1693165934.95059204,85757741,0,3,71553000,2277,12,0.79,42.723332,-84.46717799999999,267.33,0.02280350960791111,105.25511169433594,0.036000002175569534,0.0,1
1693165935.15060496,85957754,0,3,71553200,2277,12,0.79,42.723332,-84.4671779,267.33,0.010440307669341564,253.30076599121094,0.09100000560283661,0.0,1
1693165935.35039496,86157544,0,3,71553400,2277,12,0.79,42.723332,-84.4671779,267.33,0.026248810812830925,72.25532531738281,0.007000000216066837,0.0,1
1693165935.55040407,86357553,0,3,71553600,2277,12,0.79,42.723332,-84.4671779,267.34000000000003,0.01910497434437275,276.0090026855469,0.03500000014901161,0.0,1
1693165935.75046301,86557612,0,3,71553800,2277,12,0.79,42.723332,-84.46717799999999,267.34000000000003,0.02340940199792385,340.01690673828125,0.08400000631809235,0.0,1
1693165935.95059204,86757741,0,3,71554000,2277,12,0.79,42.723332,-84.46717799999999,267.34000000000003,0.02801785245537758,235.17550659179688,-0.0010000000474974513,0.0,1
1693165936.15042615,86957575,0,3,71554200,2277,12,0.79,42.7233319,-84.4671781,267.34000000000003,0.022135945037007332,288.4349365234375,0.021000001579523087,0.0,1
1693165936.35039616,87157545,0,3,71554400,2277,12,0.79,42.7233319,-84.46717819999999,267.33,0.03894868493080139,240.80252075195312,0.11900000274181366,0.0,1
1693165936.55045199,87357601,0,3,71554600,2277,12,0.79,42.7233319,-84.4671783,267.32,0.024738634005188942,255.96377563476562,0.11800000816583633,0.0,1
1693165936.75059104,87557740,0,3,71554800,2277,12,0.79,42.7233319,-84.4671784,267.32,0.025059929117560387,298.6104736328125,0.058000002056360245,0.0,1
1693165936.95051813,87757667,0,3,71555000,2277,12,0.79,42.7233318,-84.4671785,267.33,0.06685058772563934,235.3590545654297,0.08400000631809235,0.0,1
1693165937.15039611,87957545,0,3,71555200,2277,12,0.79,42.7233318,-84.4671786,267.31,0.04248529300093651,243.43496704101562,0.09100000560283661,0.0,1
1693165937.35039806,88157547,0,3,71555400,2277,12,0.79,42.723331699999996,-84.4671786,267.32,0.009055386297404766,83.65980529785156,0.11100000888109207,0.0,1
1693165937.55045414,88357603,0,3,71555600,2277,12,0.79,42.7233318,-84.46717869999999,267.31,0.05866856500506401,299.6237487792969,0.10000000149011612,0.0,1
1693165937.75058699,88557736,0,3,71555800,2277,12,0.79,42.723331699999996,-84.4671788,267.29,0.04313931241631508,225.93919372558594,0.1080000028014183,0.0,1
1693165937.95051908,88757668,0,3,71556000,2277,12,0.79,42.723331699999996,-84.4671789,267.29,0.04295346513390541,204.775146484375,0.11700000613927841,0.0,1
1693165938.15064216,88957791,0,3,71556200,2277,12,0.79,42.723331599999995,-84.4671789,267.27,0.028071338310837746,85.91437530517578,0.03200000151991844,0.0,1
1693165938.35071898,89157868,0,3,71556400,2277,12,0.79,42.723331599999995,-84.4671789,267.26,0.04623851552605629,291.5713195800781,0.014000000432133675,0.0,1
1693165938.55057406,89357723,0,3,71556600,2277,12,0.79,42.723331599999995,-84.467179,267.25,0.02385372295975685,213.02386474609375,-0.017000000923871994,0.0,1
1693165938.75085711,89558006,0,3,71556800,2277,12,0.79,42.7233315,-84.4671791,267.24,0.012727922759950161,45.0,0.04100000113248825,0.0,1
1693165938.95069814,89757847,0,3,71557000,2277,12,0.79,42.7233315,-84.4671791,267.21,0.028792360797524452,249.6768798828125,0.08100000023841858,0.0,1
1693165939.15061212,89957761,0,3,71557200,2277,12,0.79,42.7233314,-84.46717919999999,267.19,0.07510659098625183,266.9471435546875,0.13700000941753387,0.0,1
1693165939.35071301,90157862,0,3,71557400,2277,12,0.79,42.7233313,-84.46717919999999,267.19,0.05325411260128021,235.713134765625,0.14100000262260437,0.0,1
1693165939.55079508,90357944,0,3,71557600,2277,12,0.79,42.7233312,-84.46717919999999,267.17,0.0402616448700428,345.61859130859375,0.08400000631809235,0.0,1
1693165939.75077915,90557928,0,3,71557800,2277,12,0.79,42.723331099999996,-84.46717919999999,267.16,0.03361547365784645,239.62088012695312,0.15300001204013824,0.0,1
1693165939.95064402,90757793,0,3,71558000,2277,12,0.79,42.723330999999995,-84.46717919999999,267.13,0.04753946140408516,292.2490234375,0.1680000126361847,0.0,1
1693165940.15072608,90957875,0,3,71558200,2277,12,0.79,42.723330999999995,-84.4671793,267.09000000000003,0.04729693755507469,283.4486083984375,0.19500000774860382,0.0,1
1693165940.35080695,91157956,0,3,71558400,2277,12,0.79,42.7233309,-84.46717919999999,267.06,0.028635641559958458,294.775146484375,0.18700000643730164,0.0,1
1693165940.55101705,91358166,0,3,71558600,2277,12,0.79,42.7233308,-84.46717919999999,267.04,0.056586217135190964,316.4320983886719,0.13199999928474426,0.0,1
1693165940.75070405,91557853,0,3,71558800,2277,12,0.79,42.7233307,-84.4671791,267.02,0.01835756003856659,299.3577575683594,0.07200000435113907,0.0,1
1693165940.95061302,91757762,0,3,71559000,2277,12,0.79,42.7233306,-84.4671791,267.0,0.02340940199792385,250.01690673828125,0.12700000405311584,0.0,1
1693165941.15071797,91957867,0,3,71559200,2277,12,0.79,42.723330499999996,-84.467179,266.97,0.01984943449497223,130.9143829345703,0.05900000408291817,0.0,1
1693165941.35057306,92157722,0,3,71559400,2277,12,0.79,42.723330399999995,-84.4671789,266.94,0.008544004522264004,290.5560607910156,0.08100000023841858,0.0,1
1693165941.55074811,92357897,0,3,71559600,2277,12,0.79,42.7233302,-84.4671789,266.92,0.05280151590704918,232.69606018066406,0.15200001001358032,0.0,1
1693165941.75057912,92557728,0,3,71559800,2277,12,0.79,42.7233301,-84.4671789,266.89,0.03832753747701645,285.1240234375,0.1510000079870224,0.0,1
1693165941.95062518,92757774,0,3,71560000,2277,12,0.79,42.72333,-84.4671789,266.86,0.035014282912015915,271.6365966796875,0.11300000548362732,0.0,1
1693165942.15077615,92957925,0,3,71560200,2277,12,0.79,42.723329899999996,-84.4671789,266.84000000000003,0.006082762498408556,279.46234130859375,0.046000003814697266,0.0,1
1693165942.35080409,93157953,0,3,71560400,2277,12,0.79,42.723329799999995,-84.4671788,266.82,0.017464250326156616,293.62939453125,0.11600000411272049,0.0,1
1693165942.55065703,93357806,0,3,71560600,2277,12,0.79,42.7233297,-84.4671788,266.82,0.03244996443390846,213.69007873535156,0.07400000095367432,0.0,1
1693165942.75060010,93557749,0,3,71560800,2277,12,0.79,42.7233295,-84.4671788,266.79,0.03354102000594139,243.43496704101562,0.11100000888109207,0.0,1
1693165942.95063901,93757788,0,3,71561000,2277,12,0.79,42.7233295,-84.46717869999999,266.78000000000003,0.02163330838084221,303.6900634765625,0.0860000029206276,0.0,1
1693165943.15077615,93957925,0,3,71561200,2277,12,0.79,42.7233294,-84.4671788,266.75,0.035227831453084946,304.59228515625,0.05400000140070915,0.0,1
