timestamp,TimeUS,Lat,Lng,Alt,RelHomeAlt,RelOriginAlt
1693165870.27100801,21078157,42.723328699999996,-84.4672154,278.5099792480469,-1.6497899293899536,-1.637769103050232
1693165870.37094402,21178093,42.723327,-84.4672042,277.4499816894531,-1.6497899293899536,-1.6248239278793335
1693165870.47085309,21278002,42.723327,-84.4672042,277.4499816894531,-1.6389002799987793,-1.6104477643966675
1693165870.57086015,21378009,42.7233271,-84.46721029999999,276.7900085449219,-1.7151281833648682,-1.5945531129837036
1693165870.67088509,21478034,42.7233271,-84.46721029999999,276.7900085449219,-1.785911202430725,-1.5779255628585815
1693165870.77086902,21578018,42.723327,-84.46721529999999,276.44000244140625,-1.889363408088684,-1.5620625019073486
1693165870.87097406,21678123,42.723327,-84.46721529999999,276.44000244140625,-1.7804663181304932,-1.5497535467147827
1693165870.97094011,21778089,42.7233273,-84.4672179,276.16998291015625,-1.7804663181304932,-1.542959451675415
1693165871.07098699,21878136,42.7233273,-84.4672179,276.16998291015625,-1.8240251541137695,-1.5391584634780884
1693165871.17108917,21978238,42.723327499999996,-84.46721939999999,276.04998779296875,-1.7695766687393188,-1.5363472700119019
1693165871.27094197,22078091,42.723327499999996,-84.46721939999999,276.04998779296875,-1.6280105113983154,-1.53531014919281
1693165871.37085199,22178001,42.7233276,-84.467221,276.0099792480469,-1.8458045721054077,-1.5349328517913818
1693165871.47086000,22278009,42.7233276,-84.467221,276.0099792480469,-1.5681171417236328,-1.531057357788086
1693165871.57087398,22378023,42.723327499999996,-84.4672222,276.04998779296875,-1.7205729484558105,-1.528180718421936
1693165871.67086196,22478011,42.723327499999996,-84.4672222,276.04998779296875,-1.7096832990646362,-1.5221977233886719
1693165871.77099895,22578148,42.7233273,-84.4672233,276.1499938964844,-1.9438118934631348,-1.514794111251831
1693165871.87095118,22678100,42.7233273,-84.4672233,276.1499938964844,-1.856694221496582,-1.5074416399002075
1693165871.97099996,22778149,42.7233271,-84.4672245,276.2699890136719,-1.7750215530395508,-1.5061370134353638
1693165872.07118607,22878335,42.7233271,-84.4672245,276.2699890136719,-1.862139105796814,-1.510153889656067
1693165872.17125511,22978404,42.723326899999996,-84.4672246,276.3899841308594,-1.6715693473815918,-1.5151078701019287
1693165872.27118015,23078329,42.723326899999996,-84.4672246,276.3899841308594,-1.8240251541137695,-1.52197265625
1693165872.37115002,23178299,42.7233266,-84.4672245,276.5,-1.5136686563491821,-1.5266424417495728
1693165872.47088718,23278036,42.7233266,-84.4672245,276.5,-1.7096832990646362,-1.5310415029525757
1693165872.57085013,23377999,42.7233263,-84.4672241,276.6000061035156,-1.5408929586410522,-1.5296376943588257
1693165872.67097306,23478122,42.7233263,-84.4672241,276.6000061035156,-1.4102164506912231,-1.5252280235290527
1693165872.77094913,23578098,42.7233261,-84.467224,276.69000244140625,-1.7369076013565063,-1.5168147087097168
1693165872.87098002,23678129,42.7233261,-84.467224,276.69000244140625,-1.6171208620071411,-1.5005098581314087
1693165872.97099495,23778144,42.7233259,-84.467224,276.75,-1.5790069103240967,-1.4853395223617554
1693165873.07092810,23878077,42.7233259,-84.467224,276.75,-1.7260178327560425,-1.472540020942688
1693165873.17094111,23978090,42.7233259,-84.4672239,276.80999755859375,-1.6497899293899536,-1.459385633468628
1693165873.27093315,24078082,42.7233259,-84.4672239,276.80999755859375,-1.7205729484558105,-1.4496259689331055
1693165873.37089014,24178039,42.7233258,-84.46722369999999,276.8800048828125,-1.595341444015503,-1.442883849143982
1693165873.47084713,24277996,42.7233258,-84.46722369999999,276.8800048828125,-1.660679578781128,-1.4389801025390625
1693165873.57098508,24378134,42.7233257,-84.4672236,276.94000244140625,-1.5027788877487183,-1.4355753660202026
1693165873.67093110,24478080,42.7233257,-84.4672236,276.94000244140625,-1.3721024990081787,-1.4324252605438232
1693165873.77098799,24578137,42.7233255,-84.4672231,276.989990234375,-1.7042384147644043,-1.4267451763153076
1693165873.87099910,24678148,42.7233255,-84.4672231,276.989990234375,-1.7423523664474487,-1.41435968875885
1693165873.97092795,24778077,42.7233254,-84.46722249999999,277.0199890136719,-1.5790069103240967,-1.403960108757019
1693165874.07085896,24878008,42.7233254,-84.46722249999999,277.0199890136719,-1.5790069103240967,-1.400288701057434
1693165874.17090797,24978057,42.7233253,-84.4672219,277.0400085449219,-1.862139105796814,-1.3981744050979614
1693165874.27088499,25078034,42.7233253,-84.4672219,277.0400085449219,-1.6389002799987793,-1.3953818082809448
1693165874.37085199,25178001,42.723324999999996,-84.46722129999999,277.05999755859375,-1.6225656270980835,-1.3990336656570435
1693165874.47098303,25278132,42.723324999999996,-84.46722129999999,277.05999755859375,-1.5681171417236328,-1.4057482481002808
1693165874.57094216,25378091,42.7233248,-84.4672205,277.0899963378906,-1.8294700384140015,-1.4112919569015503
1693165874.67098212,25478131,42.7233248,-84.4672205,277.0899963378906,-1.595341444015503,-1.4144502878189087
1693165874.77101517,25578164,42.7233246,-84.4672203,277.1000061035156,-1.5681171417236328,-1.4214307069778442
1693165874.87120104,25678350,42.7233246,-84.4672203,277.1000061035156,-1.7532421350479126,-1.4287607669830322
1693165874.97117710,25778326,42.723324399999996,-84.46721939999999,277.1399841308594,-1.660679578781128,-1.4329214096069336
1693165875.07116413,25878313,42.723324399999996,-84.46721939999999,277.1399841308594,-1.8839185237884521,-1.438755989074707
1693165875.17130899,25978458,42.7233243,-84.46721819999999,277.19000244140625,-1.5735620260238647,-1.4457969665527344
1693165875.27088404,26078033,42.7233243,-84.46721819999999,277.19000244140625,-1.6443450450897217,-1.4575217962265015
1693165875.37100101,26178150,42.723324,-84.4672176,277.2200012207031,-1.7477972507476807,-1.4682197570800781
1693165875.47095203,26278101,42.723324,-84.4672176,277.2200012207031,-1.7314627170562744,-1.475876808166504
1693165875.57113695,26378286,42.723323699999995,-84.4672172,277.2599792480469,-1.69334876537323,-1.4844284057617188
1693165875.67114210,26478291,42.723323699999995,-84.4672172,277.2599792480469,-1.791356086730957,-1.4943042993545532
1693165875.77114415,26578293,42.7233235,-84.46721649999999,277.2900085449219,-1.6987935304641724,-1.50399911403656
1693165875.87111306,26678262,42.7233235,-84.46721649999999,277.2900085449219,-1.8403596878051758,-1.5151329040527344
1693165875.97112298,26778272,42.723323199999996,-84.4672157,277.32000732421875,-1.5626722574234009,-1.5262869596481323
1693165876.07113218,26878281,42.723323199999996,-84.4672157,277.32000732421875,-1.7532421350479126,-1.5389890670776367
1693165876.17116809,26978317,42.723323,-84.4672149,277.3599853515625,-1.5790069103240967,-1.548548698425293
1693165876.27125812,27078407,42.723323,-84.4672149,277.3599853515625,-1.7477972507476807,-1.5568487644195557
1693165876.37108898,27178238,42.7233228,-84.4672142,277.3899841308594,-1.6715693473815918,-1.562333345413208
1693165876.47114515,27278294,42.7233228,-84.4672142,277.3899841308594,-1.6715693473815918,-1.5674152374267578
1693165876.57115197,27378301,42.723322599999996,-84.4672135,277.4100036621094,-1.6171208620071411,-1.5723713636398315
1693165876.67113614,27478285,42.723322599999996,-84.4672135,277.4100036621094,-1.4374407529830933,-1.576377272605896
1693165876.77114010,27578289,42.7233224,-84.46721269999999,277.4499816894531,-1.5681171417236328,-1.5786188840866089
1693165876.87109017,27678239,42.7233224,-84.46721269999999,277.4499816894531,-1.6225656270980835,-1.5755113363265991
1693165876.97114015,27778289,42.7233224,-84.46721269999999,277.4499816894531,-1.6824589967727661,-1.5694631338119507
1693165877.07104015,27878189,42.723321399999996,-84.46719709999999,276.7900085449219,-1.8349149227142334,-1.5638247728347778
1693165877.17128110,27978430,42.7233205,-84.4671858,276.3999938964844,-1.7151281833648682,-1.5603402853012085
1693165877.27138400,28078533,42.7233205,-84.4671858,276.3999938964844,-1.6552348136901855,-1.5618689060211182
1693165877.37134695,28178496,42.7233197,-84.46717919999999,276.0899963378906,-1.5463377237319946,-1.5662120580673218
1693165877.47140217,28278551,42.7233197,-84.46717919999999,276.0899963378906,-1.8512494564056396,-1.5702345371246338
1693165877.57117414,28378323,42.7233187,-84.46717509999999,275.9599914550781,-1.9165875911712646,-1.5712885856628418
1693165877.67114902,28478298,42.7233187,-84.46717509999999,275.9599914550781,-1.7477972507476807,-1.5749549865722656
1693165877.77115107,28578300,42.7233178,-84.46717249999999,275.8399963378906,-1.7096832990646362,-1.5844316482543945
1693165877.87123299,28678382,42.7233178,-84.46717249999999,275.8399963378906,-1.764131784439087,-1.595456600189209
1693165877.97116518,28778314,42.7233169,-84.4671706,275.7799987792969,-1.5354480743408203,-1.6050524711608887
1693165878.07128215,28878431,42.7233169,-84.4671706,275.7799987792969,-1.5463377237319946,-1.6141619682312012
1693165878.17119408,28978343,42.723317699999996,-84.4671802,274.0400085449219,-1.6770142316818237,-1.6190669536590576
1693165878.27119017,29078339,42.723317699999996,-84.4671802,274.0400085449219,-1.6225656270980835,-1.6191073656082153
1693165878.37100005,29178149,42.7233186,-84.46718179999999,272.9700012207031,-1.6007862091064453,-1.6181602478027344
1693165878.47092605,29278075,42.7233186,-84.46718179999999,272.9700012207031,-1.8185802698135376,-1.6167423725128174
1693165878.57085395,29378003,42.7233194,-84.4671822,272.2099914550781,-1.6062310934066772,-1.6141908168792725
1693165878.67079711,29477946,42.7233194,-84.4671822,272.2099914550781,-1.6171208620071411,-1.6144429445266724
1693165878.77090907,29578058,42.723320099999995,-84.46718229999999,271.5899963378906,-1.6661244630813599,-1.6149157285690308
1693165878.87087202,29678021,42.723320099999995,-84.46718229999999,271.5899963378906,-1.7096832990646362,-1.613904356956482
1693165878.97100115,29778150,42.7233206,-84.4671821,271.07000732421875,-1.7804663181304932,-1.6128710508346558
1693165879.07098007,29878129,42.7233206,-84.4671821,271.07000732421875,-1.6007862091064453,-1.6128778457641602
1693165879.17107105,29978220,42.7233211,-84.467182,270.6300048828125,-1.595341444015503,-1.6152465343475342
1693165879.27101612,30078165,42.7233211,-84.467182,270.6300048828125,-1.595341444015503,-1.6168657541275024
1693165879.37093902,30178088,42.7233215,-84.467182,270.2599792480469,-1.6007862091064453,-1.6163158416748047
1693165879.47083998,30277989,42.7233215,-84.467182,270.2599792480469,-1.4483304023742676,-1.6143039464950562
1693165879.57091713,30378066,42.7233218,-84.46718179999999,269.97998046875,-1.7369076013565063,-1.611397624015808
1693165879.67087913,30478028,42.7233218,-84.46718179999999,269.97998046875,-1.6007862091064453,-1.6054606437683105
1693165879.77085900,30578008,42.723321999999996,-84.46718179999999,269.6999816894531,-1.660679578781128,-1.6008967161178589
1693165879.87098002,30678129,42.723321999999996,-84.46718179999999,269.6999816894531,-1.7151281833648682,-1.597579836845398
1693165879.97093511,30778084,42.7233223,-84.4671815,269.44000244140625,-1.6389002799987793,-1.5950089693069458
1693165880.07098818,30878137,42.7233223,-84.4671815,269.44000244140625,-1.4701098203659058,-1.5944286584854126
1693165880.17103505,30978184,42.723322599999996,-84.4671815,269.1999816894531,-1.5354480743408203,-1.5944164991378784
1693165880.27092814,31078077,42.723322599999996,-84.4671815,269.1999816894531,-1.6497899293899536,-1.5916024446487427
1693165880.37085009,31177999,42.7233227,-84.4671815,269.0199890136719,-1.7532421350479126,-1.586634874343872
1693165880.47086406,31278013,42.7233227,-84.4671815,269.0199890136719,-1.5354480743408203,-1.5823453664779663
1693165880.57089615,31378045,42.7233228,-84.4671815,268.8500061035156,-1.8185802698135376,-1.5811452865600586
1693165880.67085004,31477999,42.7233228,-84.4671815,268.8500061035156,-1.6661244630813599,-1.5794367790222168
1693165880.77098203,31578131,42.7233229,-84.4671814,268.6999816894531,-1.7096832990646362,-1.5808862447738647
1693165880.87092495,31678074,42.7233229,-84.4671814,268.6999816894531,-1.7314627170562744,-1.583174228668213
1693165880.97099209,31778141,42.7233229,-84.4671814,268.5899963378906,-1.6715693473815918,-1.5860203504562378
1693165881.07099319,31878142,42.7233229,-84.4671814,268.5899963378906,-1.6225656270980835,-1.5897961854934692
1693165881.17097616,31978125,42.723323,-84.4671813,268.4700012207031,-1.6062310934066772,-1.5932581424713135
1693165881.27086806,32078017,42.723323,-84.4671813,268.4700012207031,-1.393881916999817,-1.5953879356384277
1693165881.37079597,32177945,42.723323,-84.4671815,268.3500061035156,-1.5626722574234009,-1.5960174798965454
1693165881.47086716,32278016,42.723323,-84.4671815,268.3500061035156,-1.6661244630813599,-1.5919092893600464
1693165881.57086110,32378010,42.723323099999995,-84.4671815,268.239990234375,-1.6824589967727661,-1.5863696336746216
1693165881.67098117,32478130,42.723323099999995,-84.4671815,268.239990234375,-1.7532421350479126,-1.5825239419937134
1693165881.77094603,32578095,42.723323099999995,-84.46718159999999,268.1199951171875,-1.6443450450897217,-1.5805391073226929
1693165881.87100005,32678149,42.723323099999995,-84.46718159999999,268.1199951171875,-1.69334876537323,-1.5811978578567505
1693165881.97099400,32778143,42.7233233,-84.46718159999999,267.97998046875,-1.5463377237319946,-1.5822304487228394
1693165882.07093501,32878084,42.7233233,-84.46718159999999,267.97998046875,-1.584451675415039,-1.5838282108306885
1693165882.17093611,32978085,42.7233235,-84.4671817,267.8599853515625,-1.5681171417236328,-1.583657145500183
1693165882.27078915,33077938,42.7233235,-84.4671817,267.8599853515625,-1.6116759777069092,-1.5822267532348633
1693165882.37086415,33178013,42.723323699999995,-84.46718179999999,267.75,-1.6389002799987793,-1.5797853469848633
1693165882.47084999,33277999,42.723323699999995,-84.46718179999999,267.75,-1.7532421350479126,-1.5772496461868286
1693165882.57096195,33378111,42.7233239,-84.467182,267.6199951171875,-1.4428856372833252,-1.5753313302993774
1693165882.67093015,33478079,42.7233239,-84.467182,267.6199951171875,-1.584451675415039,-1.5757237672805786
1693165882.77096295,33578112,42.7233241,-84.4671821,267.5199890136719,-1.5408929586410522,-1.5734014511108398
1693165882.87097597,33678125,42.7233241,-84.4671821,267.5199890136719,-1.486444354057312,-1.570091962814331
1693165882.97091317,33778062,42.7233243,-84.46718229999999,267.42999267578125,-1.584451675415039,-1.5660252571105957
1693165883.07083511,33877984,42.7233243,-84.46718229999999,267.42999267578125,-1.6497899293899536,-1.5605190992355347
1693165883.17089009,33978039,42.7233245,-84.4671827,267.32000732421875,-1.415661334991455,-1.5553886890411377
1693165883.27088904,34078038,42.7233245,-84.4671827,267.32000732421875,-1.5517826080322266,-1.5520329475402832
1693165883.37084198,34177991,42.7233247,-84.46718299999999,267.2200012207031,-1.5354480743408203,-1.54664146900177
1693165883.47096896,34278118,42.7233247,-84.46718299999999,267.2200012207031,-1.4646649360656738,-1.540998101234436
1693165883.57093215,34378081,42.7233249,-84.4671833,267.1099853515625,-1.6770142316818237,-1.5355229377746582
1693165883.67095995,34478109,42.7233249,-84.4671833,267.1099853515625,-1.5572274923324585,-1.5291497707366943
1693165883.77105713,34578206,42.7233251,-84.4671836,267.0299987792969,-1.4047715663909912,-1.5251307487487793
1693165883.87092018,34678069,42.7233251,-84.4671836,267.0299987792969,-1.5408929586410522,-1.5219271183013916
1693165883.97084403,34777993,42.7233253,-84.4671841,266.9499816894531,-1.5136686563491821,-1.51659095287323
1693165884.07078409,34877933,42.7233253,-84.4671841,266.9499816894531,-1.5572274923324585,-1.5112292766571045
1693165884.17092013,34978069,42.7233254,-84.4671843,266.8999938964844,-1.7477972507476807,-1.506063461303711
1693165884.27085400,35078003,42.7233254,-84.4671843,266.8999938964844,-1.7151281833648682,-1.501678228378296
1693165884.37097311,35178122,42.723325599999995,-84.4671846,266.8500061035156,-1.5681171417236328,-1.5009891986846924
1693165884.47094107,35278090,42.723325599999995,-84.4671846,266.8500061035156,-1.312209129333496,-1.5030452013015747
1693165884.57098007,35378129,42.7233257,-84.467185,266.7900085449219,-1.4483304023742676,-1.5048173666000366
1693165884.67099404,35478143,42.7233257,-84.467185,266.7900085449219,-1.5408929586410522,-1.5020909309387207
1693165884.77092814,35578077,42.7233258,-84.4671852,266.7599792480469,-1.4374407529830933,-1.497194766998291
1693165884.87084007,35677989,42.7233258,-84.4671852,266.7599792480469,-1.4319958686828613,-1.4927339553833008
1693165884.97078800,35777937,42.723326,-84.46718539999999,266.72998046875,-1.4755547046661377,-1.487541675567627
1693165885.07086897,35878018,42.723326,-84.46718539999999,266.72998046875,-1.421106219291687,-1.4814658164978027
1693165885.17089105,35978040,42.7233261,-84.4671857,266.69000244140625,-1.6062310934066772,-1.4754295349121094
1693165885.27097201,36078121,42.7233261,-84.4671857,266.69000244140625,-1.5735620260238647,-1.468970775604248
1693165885.37093401,36178083,42.723326199999995,-84.46718589999999,266.67999267578125,-1.3993268013000488,-1.4646989107131958
1693165885.47097397,36278123,42.723326199999995,-84.46718589999999,266.67999267578125,-1.3721024990081787,-1.4623197317123413
1693165885.57096505,36378114,42.7233263,-84.4671862,266.6399841308594,-1.2849849462509155,-1.458780288696289
1693165885.67092204,36478071,42.7233263,-84.4671862,266.6399841308594,-1.5300031900405884,-1.4534776210784912
1693165885.77083111,36577980,42.7233263,-84.4671864,266.6199951171875,-1.5082237720489502,-1.4456812143325806
1693165885.87124610,36678395,42.7233263,-84.4671864,266.6199951171875,-1.5790069103240967,-1.4393737316131592
1693165885.97121215,36778361,42.7233264,-84.4671867,266.5899963378906,-1.3612128496170044,-1.434827208518982
1693165886.07113409,36878283,42.7233264,-84.4671867,266.5899963378906,-1.4102164506912231,-1.4324123859405518
1693165886.17132306,36978472,42.7233265,-84.467187,266.55999755859375,-1.5245583057403564,-1.4289454221725464
1693165886.27111506,37078264,42.7233265,-84.467187,266.55999755859375,-1.4319958686828613,-1.424504041671753
1693165886.37115502,37178304,42.7233266,-84.46718729999999,266.5199890136719,-1.312209129333496,-1.421213984489441
1693165886.47116804,37278317,42.7233266,-84.46718729999999,266.5199890136719,-1.4265509843826294,-1.4180023670196533
1693165886.57091904,37378068,42.7233266,-84.4671875,266.47998046875,-1.4701098203659058,-1.412896990776062
1693165886.67086601,37478015,42.7233266,-84.4671875,266.47998046875,-1.4483304023742676,-1.4076405763626099
1693165886.77086806,37578017,42.7233267,-84.4671876,266.4499816894531,-1.486444354057312,-1.4033985137939453
1693165886.87088609,37678035,42.7233267,-84.4671876,266.4499816894531,-1.5082237720489502,-1.399811029434204
1693165886.97084618,37777995,42.7233267,-84.46718779999999,266.4100036621094,-1.5572274923324585,-1.3970609903335571
1693165887.07097006,37878119,42.7233267,-84.46718779999999,266.4100036621094,-1.4592201709747314,-1.3955885171890259
1693165887.17098498,37978134,42.723326799999995,-84.467188,266.3500061035156,-1.3285436630249023,-1.3955944776535034
1693165887.27100801,38078157,42.723326799999995,-84.467188,266.3500061035156,-1.388437032699585,-1.3956177234649658
1693165887.37099600,38178145,42.723327,-84.4671882,266.30999755859375,-1.3448781967163086,-1.393626093864441
1693165887.47092700,38278076,42.723327,-84.4671882,266.30999755859375,-1.4265509843826294,-1.390503168106079
1693165887.57086110,38378010,42.723327,-84.4671884,266.2900085449219,-1.3829922676086426,-1.3862695693969727
1693165887.67079806,38477947,42.723327,-84.4671884,266.2900085449219,-1.3394334316253662,-1.3822509050369263
1693165887.77089310,38578042,42.7233272,-84.4671887,266.22998046875,-1.290429711341858,-1.3782334327697754
1693165887.87085414,38678003,42.7233272,-84.4671887,266.22998046875,-1.3285436630249023,-1.373599886894226
1693165887.97098207,38778131,42.7233272,-84.4671888,266.17999267578125,-1.3829922676086426,-1.3677756786346436
1693165888.07093906,38878088,42.7233272,-84.4671888,266.17999267578125,-1.4265509843826294,-1.3614634275436401
1693165888.17101812,38978167,42.7233272,-84.4671889,266.1499938964844,-1.5136686563491821,-1.3557887077331543
1693165888.27098203,39078131,42.7233272,-84.4671889,266.1499938964844,-1.589896559715271,-1.3514214754104614
1693165888.37091613,39178065,42.7233273,-84.46718919999999,266.0899963378906,-1.486444354057312,-1.3493030071258545
1693165888.47084618,39277995,42.7233273,-84.46718919999999,266.0899963378906,-1.3067642450332642,-1.3501783609390259
1693165888.57079005,39377939,42.7233273,-84.4671893,266.0400085449219,-1.4755547046661377,-1.3520010709762573
1693165888.67091298,39478062,42.7233273,-84.4671893,266.0400085449219,-1.3557679653167725,-1.3520121574401855
1693165888.77086616,39578015,42.7233271,-84.4671888,266.07000732421875,-1.519113540649414,-1.352248191833496
1693165888.87098312,39678132,42.7233271,-84.4671888,266.07000732421875,-1.2305363416671753,-1.351773977279663
1693165888.97094703,39778096,42.723326899999996,-84.4671884,266.1300048828125,-1.3067642450332642,-1.3524439334869385
1693165889.07097197,39878121,42.723326899999996,-84.4671884,266.1300048828125,-1.595341444015503,-1.3509050607681274
1693165889.17122412,39978373,42.7233266,-84.4671881,266.1499938964844,-1.4265509843826294,-1.3477814197540283
1693165889.27117205,40078321,42.7233266,-84.4671881,266.1499938964844,-1.3775473833084106,-1.3475215435028076
1693165889.37114501,40178294,42.7233265,-84.4671876,266.17999267578125,-1.3775473833084106,-1.348190426826477
1693165889.47111917,40278268,42.7233265,-84.4671876,266.17999267578125,-1.4537752866744995,-1.3483859300613403
1693165889.57119417,40378343,42.7233264,-84.46718729999999,266.2099914550781,-0.008093062788248062,-0.008093062788248062
1693165889.67114115,40478290,42.7233264,-84.46718729999999,266.2099914550781,-0.008443418890237808,-0.008443418890237808
1693165889.77128315,40578432,42.723326199999995,-84.4671869,266.2200012207031,-0.009387794882059097,-0.009387794882059097
1693165889.87113810,40678287,42.723326199999995,-84.4671869,266.2200012207031,-0.007604781538248062,-0.007604781538248062
1693165889.97119117,40778340,42.723326,-84.4671862,266.2900085449219,-0.004130784422159195,-0.004130784422159195
1693165890.07126808,40878417,42.723326,-84.4671862,266.2900085449219,-0.0021086372435092926,-0.0021086372435092926
1693165890.17123199,40978381,42.7233258,-84.4671857,266.3399963378906,0.0004548393189907074,0.0004548393189907074
1693165890.27086902,41078018,42.7233258,-84.4671857,266.3399963378906,0.003158625215291977,0.003158625215291977
1693165890.37086010,41178009,42.7233257,-84.4671853,266.3699951171875,0.0025132261216640472,0.0025132261216640472
1693165890.47087002,41278019,42.7233257,-84.4671853,266.3699951171875,0.0013859830796718597,0.0013859830796718597
1693165890.57084703,41377996,42.7233254,-84.4671848,266.4100036621094,0.0009583793580532074,0.0009583793580532074
1693165890.67098117,41478130,42.7233254,-84.4671848,266.4100036621094,-0.0008233226835727692,-0.0008233226835727692
1693165890.77095699,41578106,42.7233253,-84.46718419999999,266.4499816894531,-0.0015341676771640778,-0.0015341676771640778
1693165890.87099695,41678146,42.7233253,-84.46718419999999,266.4499816894531,-0.0016983188688755035,-0.0016983188688755035
1693165890.97098899,41778138,42.7233252,-84.467184,266.489990234375,-0.0015235580503940582,-0.0015235580503940582
1693165891.07094407,41878093,42.7233252,-84.467184,266.489990234375,-0.0030519403517246246,-0.0030519403517246246
1693165891.17089200,41978041,42.7233251,-84.4671838,266.5400085449219,-0.004138771444559097,-0.004138771444559097
1693165891.27089596,42078045,42.7233251,-84.4671838,266.5400085449219,-0.006854120641946793,-0.006854120641946793
1693165891.37090302,42178052,42.723324999999996,-84.4671836,266.6000061035156,-0.009810630232095718,-0.009810630232095718
1693165891.47085500,42278004,42.723324999999996,-84.4671836,266.6000061035156,-0.014063064008951187,-0.014063064008951187
1693165891.57096601,42378115,42.7233248,-84.4671834,266.6600036621094,-0.01735479012131691,-0.01735479012131691
1693165891.67110205,42478251,42.7233248,-84.4671834,266.6600036621094,-0.019576851278543472,-0.019576851278543472
1693165891.77116418,42578313,42.7233247,-84.4671834,266.69000244140625,-0.021390382200479507,-0.021390382200479507
1693165891.87117195,42678321,42.7233247,-84.4671834,266.69000244140625,-0.02221936360001564,-0.02221936360001564
1693165891.97116899,42778318,42.7233248,-84.4671834,266.7099914550781,-0.02439064159989357,-0.02439064159989357
1693165892.07114911,42878298,42.7233248,-84.4671834,266.7099914550781,-0.028255168348550797,-0.028255168348550797
1693165892.17128706,42978436,42.7233249,-84.46718349999999,266.72998046875,-0.03381878510117531,-0.03381878510117531
1693165892.27119517,43078344,42.7233249,-84.46718349999999,266.72998046875,-0.03987199440598488,-0.03987199440598488
1693165892.37115598,43178305,42.723324999999996,-84.4671838,266.72998046875,-0.047316137701272964,-0.047316137701272964
1693165892.47127604,43278425,42.723324999999996,-84.4671838,266.72998046875,-0.05290800705552101,-0.05290800705552101
1693165892.57112408,43378273,42.7233251,-84.467184,266.72998046875,-0.06004602089524269,-0.06004602089524269
1693165892.67115998,43478309,42.7233251,-84.467184,266.72998046875,-0.06734877824783325,-0.06734877824783325
1693165892.77116704,43578316,42.7233252,-84.4671843,266.739990234375,-0.0725666880607605,-0.0725666880607605
1693165892.87120914,43678358,42.7233252,-84.4671843,266.739990234375,-0.0754433274269104,-0.0754433274269104
1693165892.97115302,43778302,42.7233253,-84.4671844,266.7799987792969,-0.07845228910446167,-0.07845228910446167
1693165893.07114196,43878291,42.7233253,-84.4671844,266.7799987792969,-0.07980674505233765,-0.07980674505233765
1693165893.17123318,43978382,42.7233253,-84.4671845,266.80999755859375,-0.07812434434890747,-0.07812434434890747
1693165893.27114606,44078295,42.7233253,-84.4671845,266.80999755859375,-0.07646912336349487,-0.07646912336349487
1693165893.37117505,44178324,42.7233254,-84.46718469999999,266.8299865722656,-0.07425493001937866,-0.07425493001937866
1693165893.47111297,44278262,42.7233254,-84.46718469999999,266.8299865722656,-0.07637375593185425,-0.07637375593185425
1693165893.57117105,44378320,42.7233255,-84.4671848,266.8399963378906,-0.07747048139572144,-0.07747048139572144
1693165893.67116499,44478314,42.7233255,-84.4671848,266.8399963378906,-0.07949107885360718,-0.07949107885360718
1693165893.77117515,44578324,42.723325599999995,-84.46718489999999,266.8599853515625,-0.08051377534866333,-0.08051377534866333
1693165893.87115717,44678306,42.723325599999995,-84.46718489999999,266.8599853515625,-0.08259636163711548,-0.08259636163711548
1693165893.97112513,44778274,42.7233257,-84.4671851,266.8899841308594,-0.08551830053329468,-0.08551830053329468
1693165894.07121515,44878364,42.7233257,-84.4671851,266.8899841308594,-0.09014493227005005,-0.09014493227005005
1693165894.17120099,44978350,42.7233258,-84.46718539999999,266.9100036621094,-0.09482401609420776,-0.09482401609420776
1693165894.27133417,45078483,42.7233258,-84.46718539999999,266.9100036621094,-0.09773367643356323,-0.09773367643356323
1693165894.37109900,45178248,42.7233259,-84.4671856,266.94000244140625,-0.10291987657546997,-0.10291987657546997
1693165894.47113419,45278283,42.7233259,-84.4671856,266.94000244140625,-0.10848766565322876,-0.10848766565322876
1693165894.57117105,45378320,42.7233259,-84.46718589999999,266.9499816894531,-0.11400407552719116,-0.11400407552719116
1693165894.67116499,45478314,42.7233259,-84.46718589999999,266.9499816894531,-0.11994689702987671,-0.11994689702987671
1693165894.77115011,45578299,42.723326,-84.4671862,266.97998046875,-0.12596529722213745,-0.12596529722213745
1693165894.87113118,45678280,42.723326,-84.4671862,266.97998046875,-0.1332985758781433,-0.1332985758781433
1693165894.97113800,45778287,42.7233261,-84.4671864,267.0099792480469,-0.13892394304275513,-0.13892394304275513
1693165895.07114315,45878292,42.7233261,-84.4671864,267.0099792480469,-0.1440717577934265,-0.1440717577934265
1693165895.17135000,45978499,42.723326199999995,-84.4671867,267.0299987792969,-0.14840275049209595,-0.14840275049209595
1693165895.27112198,46078271,42.723326199999995,-84.4671867,267.0299987792969,-0.15199607610702515,-0.15199607610702515
1693165895.37115312,46178302,42.7233263,-84.4671868,267.07000732421875,-0.15723901987075806,-0.15723901987075806
1693165895.47116208,46278311,42.7233263,-84.4671868,267.07000732421875,-0.16381198167800903,-0.16381198167800903
1693165895.57116199,46378311,42.7233264,-84.4671869,267.0899963378906,-0.1692480444908142,-0.1692480444908142
1693165895.67115211,46478301,42.7233264,-84.4671869,267.0899963378906,-0.17229944467544556,-0.17229944467544556
1693165895.77116203,46578311,42.7233265,-84.467187,267.1199951171875,-0.17649096250534058,-0.17649096250534058
1693165895.87120605,46678355,42.7233265,-84.467187,267.1199951171875,-0.18016809225082397,-0.18016809225082397
1693165895.97114897,46778298,42.723326799999995,-84.46718729999999,267.1399841308594,-0.17875629663467407,-0.17875629663467407
1693165896.07126117,46878410,42.723326799999995,-84.46718729999999,267.1399841308594,-0.17583614587783813,-0.17583614587783813
1693165896.17120695,46978356,42.723326899999996,-84.4671874,267.1499938964844,-0.1719537377357483,-0.1719537377357483
1693165896.27119708,47078346,42.723326899999996,-84.4671874,267.1499938964844,-0.1664603352546692,-0.1664603352546692
1693165896.37126207,47178411,42.7233271,-84.4671877,267.1499938964844,-0.1603723168373108,-0.1603723168373108
1693165896.47118402,47278333,42.7233271,-84.4671877,267.1499938964844,-0.15331345796585083,-0.15331345796585083
1693165896.57116413,47378313,42.7233273,-84.4671879,267.1499938964844,-0.14833790063858032,-0.14833790063858032
1693165896.67111897,47478268,42.7233273,-84.4671879,267.1499938964844,-0.14130061864852905,-0.14130061864852905
1693165896.77122903,47578378,42.723327499999996,-84.4671882,267.1399841308594,-0.13581448793411255,-0.13581448793411255
1693165896.87115216,47678301,42.723327499999996,-84.4671882,267.1399841308594,-0.13113313913345337,-0.13113313913345337
1693165896.97128296,47778432,42.7233276,-84.4671884,267.1399841308594,-0.1263476014137268,-0.1263476014137268
1693165897.07111812,47878267,42.7233276,-84.4671884,267.1399841308594,-0.12220972776412964,-0.12220972776412964
1693165897.17121410,47978363,42.7233277,-84.46718849999999,267.1399841308594,-0.11885982751846313,-0.11885982751846313
1693165897.27119517,48078344,42.7233277,-84.46718849999999,267.1399841308594,-0.11548870801925659,-0.11548870801925659
1693165897.37118316,48178332,42.7233278,-84.4671887,267.1399841308594,-0.1117749810218811,-0.1117749810218811
1693165897.47116399,48278313,42.7233278,-84.4671887,267.1399841308594,-0.11018770933151245,-0.11018770933151245
1693165897.57116318,48378312,42.7233279,-84.4671887,267.1499938964844,-0.10574096441268921,-0.10574096441268921
1693165897.67119408,48478343,42.7233279,-84.4671887,267.1499938964844,-0.10090523958206177,-0.10090523958206177
1693165897.77113914,48578288,42.723327999999995,-84.4671889,267.1600036621094,-0.09551602602005005,-0.09551602602005005
1693165897.87127614,48678425,42.723327999999995,-84.4671889,267.1600036621094,-0.09251993894577026,-0.09251993894577026
1693165897.97111416,48778263,42.723328099999996,-84.4671891,267.16998291015625,-0.08994632959365845,-0.08994632959365845
1693165898.07117295,48878322,42.723328099999996,-84.4671891,267.16998291015625,-0.08670443296432495,-0.08670443296432495
1693165898.17121696,48978366,42.723328099999996,-84.4671888,267.2200012207031,-0.08432692289352417,-0.08432692289352417
1693165898.27118397,49078333,42.723328099999996,-84.4671888,267.2200012207031,-0.08167165517807007,-0.08167165517807007
1693165898.37115216,49178301,42.7233282,-84.46718849999999,267.22998046875,-0.0784713625907898,-0.0784713625907898
1693165898.47124314,49278392,42.7233282,-84.46718849999999,267.22998046875,-0.07684594392776489,-0.07684594392776489
1693165898.57114196,49378291,42.7233283,-84.46718829999999,267.239990234375,-0.07452303171157837,-0.07452303171157837
1693165898.67086315,49478012,42.7233283,-84.46718829999999,267.239990234375,-0.07424718141555786,-0.07424718141555786
1693165898.77098703,49578136,42.7233284,-84.4671881,267.2699890136719,-0.07417279481887817,-0.07417279481887817
1693165898.87094998,49678099,42.7233284,-84.4671881,267.2699890136719,-0.07412916421890259,-0.07412916421890259
1693165898.97099614,49778145,42.7233285,-84.4671879,267.29998779296875,-0.07588344812393188,-0.07588344812393188
1693165899.07099509,49878144,42.7233285,-84.4671879,267.29998779296875,-0.07609754800796509,-0.07609754800796509
1693165899.17103004,49978179,42.7233285,-84.4671877,267.32000732421875,-0.07449561357498169,-0.07449561357498169
1693165899.27085996,50078009,42.7233285,-84.4671877,267.32000732421875,-0.07190734148025513,-0.07190734148025513
1693165899.37078714,50177936,42.723328599999995,-84.4671875,267.3299865722656,-0.06893903017044067,-0.06893903017044067
1693165899.47088218,50278031,42.723328599999995,-84.4671875,267.3299865722656,-0.06514185667037964,-0.06514185667037964
1693165899.57085514,50378004,42.7233288,-84.46718729999999,267.3699951171875,-0.06003672257065773,-0.06003672257065773
1693165899.67097807,50478127,42.7233288,-84.46718729999999,267.3699951171875,-0.05772978439927101,-0.05772978439927101
1693165899.77094698,50578096,42.7233289,-84.4671872,267.3800048828125,-0.05885416641831398,-0.05885416641831398
1693165899.87098813,50678137,42.7233289,-84.4671872,267.3800048828125,-0.05971771851181984,-0.05971771851181984
1693165899.97099900,50778148,42.7233289,-84.467187,267.3999938964844,-0.060425225645303726,-0.060425225645303726
1693165900.07117009,50878319,42.7233289,-84.467187,267.3999938964844,-0.05913669243454933,-0.05913669243454933
1693165900.17127299,50978422,42.7233291,-84.4671869,267.41998291015625,-0.05600709095597267,-0.05600709095597267
1693165900.27118516,51078334,42.7233291,-84.4671869,267.41998291015625,-0.05403215065598488,-0.05403215065598488
1693165900.37120008,51178349,42.723329199999995,-84.4671869,267.42999267578125,-0.05411321297287941,-0.05411321297287941
1693165900.47113895,51278288,42.723329199999995,-84.4671869,267.42999267578125,-0.052684489637613297,-0.052684489637613297
1693165900.57131004,51378459,42.723329299999996,-84.4671867,267.4499816894531,-0.04736751690506935,-0.04736751690506935
1693165900.67094111,51478090,42.723329299999996,-84.4671867,267.4499816894531,-0.04161137714982033,-0.04161137714982033
1693165900.77132916,51578478,42.7233294,-84.46718659999999,267.47998046875,-0.034924689680337906,-0.034924689680337906
1693165900.87130499,51678454,42.7233294,-84.46718659999999,267.47998046875,-0.029047194868326187,-0.029047194868326187
1693165900.97118402,51778333,42.7233295,-84.4671865,267.5099792480469,-0.02289539948105812,-0.02289539948105812
1693165901.07114005,51878289,42.7233295,-84.4671865,267.5099792480469,-0.016284171491861343,-0.016284171491861343
1693165901.17119217,51978341,42.7233296,-84.4671864,267.5199890136719,-0.01107436791062355,-0.01107436791062355
1693165901.27119112,52078340,42.7233296,-84.4671864,267.5199890136719,-0.007654014974832535,-0.007654014974832535
1693165901.37119198,52178341,42.7233297,-84.4671863,267.5400085449219,-0.0031091608107089996,-0.0031091608107089996
1693165901.47126698,52278416,42.7233297,-84.4671863,267.5400085449219,0.00025623664259910583,0.00025623664259910583
1693165901.57111597,52378265,42.723329799999995,-84.46718609999999,267.55999755859375,0.0023960433900356293,0.0023960433900356293
1693165901.67115712,52478306,42.723329799999995,-84.46718609999999,267.55999755859375,0.004547890275716782,0.004547890275716782
1693165901.77116609,52578315,42.723329899999996,-84.46718589999999,267.5799865722656,0.007431682199239731,0.007431682199239731
1693165901.87116408,52678313,42.723329899999996,-84.46718589999999,267.5799865722656,0.011706288903951645,0.011706288903951645
1693165901.97115207,52778301,42.72333,-84.4671858,267.5899963378906,0.015445049852132797,0.015445049852132797
1693165902.07112908,52878278,42.72333,-84.4671858,267.5899963378906,0.021907027810811996,0.021907027810811996
1693165902.17128205,52978431,42.72333,-84.4671857,267.6099853515625,0.029846247285604477,0.029846247285604477
1693165902.27117801,53078327,42.72333,-84.4671857,267.6099853515625,0.0371507965028286,0.0371507965028286
1693165902.37128115,53178430,42.7233302,-84.4671856,267.6199951171875,0.04287296161055565,0.04287296161055565
1693165902.47112298,53278272,42.7233302,-84.4671856,267.6199951171875,0.04746001586318016,0.04746001586318016
1693165902.57118297,53378332,42.7233303,-84.4671855,267.6399841308594,0.052511271089315414,0.052511271089315414
1693165902.67127109,53478420,42.7233303,-84.4671855,267.6399841308594,0.05816584452986717,0.05816584452986717
1693165902.77119398,53578343,42.7233303,-84.4671856,267.6399841308594,0.06413131952285767,0.06413131952285767
1693165902.87116313,53678312,42.7233303,-84.4671856,267.6399841308594,0.06816095113754272,0.06816095113754272
1693165902.97117400,53778323,42.723330399999995,-84.4671855,267.6499938964844,0.07396584749221802,0.07396584749221802
1693165903.07113409,53878283,42.723330399999995,-84.4671855,267.6499938964844,0.07941728830337524,0.07941728830337524
1693165903.17120600,53978355,42.723330499999996,-84.4671853,267.67999267578125,0.08365672826766968,0.08365672826766968
1693165903.27127218,54078421,42.723330499999996,-84.4671853,267.67999267578125,0.08593791723251343,0.08593791723251343
1693165903.37112117,54178270,42.7233306,-84.4671852,267.67999267578125,0.0870092511177063,0.0870092511177063
1693165903.47117496,54278324,42.7233306,-84.4671852,267.67999267578125,0.08721953630447388,0.08721953630447388
1693165903.57117200,54378321,42.7233307,-84.4671851,267.67999267578125,0.08735066652297974,0.08735066652297974
1693165903.67118597,54478335,42.7233307,-84.4671851,267.67999267578125,0.08672267198562622,0.08672267198562622
1693165903.77117705,54578326,42.7233308,-84.4671851,267.66998291015625,0.08583241701126099,0.08583241701126099
1693165903.87112617,54678275,42.7233308,-84.4671851,267.66998291015625,0.08428460359573364,0.08428460359573364
1693165903.97119308,54778342,42.7233308,-84.467185,267.67999267578125,0.08327215909957886,0.08327215909957886
1693165904.07112408,54878273,42.7233308,-84.467185,267.67999267578125,0.08210164308547974,0.08210164308547974
1693165904.17129898,54978448,42.7233309,-84.46718489999999,267.69000244140625,0.08193224668502808,0.08193224668502808
1693165904.27112913,55078278,42.7233309,-84.46718489999999,267.69000244140625,0.08349186182022095,0.08349186182022095
1693165904.37115216,55178301,42.7233312,-84.4671864,266.2900085449219,0.0852774977684021,0.0852774977684021
1693165904.47135115,55278500,42.7233312,-84.4671864,266.2900085449219,0.08716291189193726,0.08716291189193726
1693165904.57134104,55378490,42.723331099999996,-84.4671865,266.2900085449219,0.08569997549057007,0.08569997549057007
1693165904.67131209,55478461,42.723331099999996,-84.46718659999999,266.2900085449219,0.08058446645736694,0.08058446645736694
1693165904.77125406,55578403,42.7233312,-84.46718659999999,266.2799987792969,0.07674318552017212,0.07674318552017212
1693165904.87115216,55678301,42.7233312,-84.46718659999999,266.2799987792969,0.074321448802948,0.074321448802948
1693165904.97113895,55778288,42.7233313,-84.46718659999999,266.2799987792969,0.07111579179763794,0.07111579179763794
1693165905.07098603,55878135,42.7233313,-84.46718659999999,266.2699890136719,0.06774681806564331,0.06774681806564331
1693165905.17097998,55978129,42.7233314,-84.46718659999999,266.2699890136719,0.06508678197860718,0.06508678197860718
1693165905.27097797,56078127,42.7233315,-84.4671865,266.2699890136719,0.06084388121962547,0.06084388121962547
1693165905.37098598,56178135,42.7233315,-84.4671864,266.2599792480469,0.05689280852675438,0.05689280852675438
1693165905.47092009,56278069,42.7233315,-84.4671864,266.2599792480469,0.053834255784749985,0.053834255784749985
1693165905.57086301,56378012,42.723331599999995,-84.4671864,266.2599792480469,0.05109172686934471,0.05109172686934471
1693165905.67079806,56477947,42.723331599999995,-84.4671864,266.25,0.046540793031454086,0.046540793031454086
1693165905.77088618,56578035,42.723331699999996,-84.4671864,266.25,0.04001396521925926,0.04001396521925926
1693165905.87084603,56677995,42.723331699999996,-84.4671864,266.239990234375,0.030293520539999008,0.030293520539999008
1693165905.97096109,56778110,42.7233318,-84.4671864,266.22998046875,0.023350533097982407,0.023350533097982407
1693165906.07095909,56878108,42.7233319,-84.4671864,266.2200012207031,0.019076641649007797,0.019076641649007797
1693165906.17104197,56978191,42.7233319,-84.4671864,266.2200012207031,0.01512354239821434,0.01512354239821434
1693165906.27100801,57078157,42.723332,-84.4671864,266.2200012207031,0.010637935250997543,0.010637935250997543
1693165906.37093616,57178085,42.7233321,-84.4671864,266.2099914550781,0.007157620042562485,0.007157620042562485
1693165906.47085500,57278004,42.7233321,-84.4671864,266.2099914550781,0.00480860099196434,0.00480860099196434
1693165906.57079411,57377943,42.7233322,-84.4671864,266.2099914550781,0.0029779039323329926,0.0029779039323329926
1693165906.67087412,57478023,42.723332299999996,-84.4671864,266.2099914550781,0.0016040168702602386,0.0016040168702602386
1693165906.77084899,57577998,42.723332299999996,-84.4671864,266.1999816894531,-0.0012332834303379059,-0.0012332834303379059
1693165906.87098813,57678137,42.7233324,-84.4671864,266.1999816894531,-0.006231728941202164,-0.006231728941202164
1693165906.97094011,57778089,42.7233324,-84.4671864,266.19000244140625,-0.012175742536783218,-0.012175742536783218
1693165907.07099414,57878143,42.7233325,-84.4671864,266.19000244140625,-0.019185010343790054,-0.019185010343790054
1693165907.17104006,57978189,42.7233325,-84.4671864,266.17999267578125,-0.0246395505964756,-0.0246395505964756
1693165907.27093196,58078081,42.7233326,-84.4671864,266.16998291015625,-0.032167140394449234,-0.032167140394449234
1693165907.37115002,58178299,42.7233326,-84.4671864,266.1600036621094,-0.04051334038376808,-0.04051334038376808
1693165907.47114205,58278291,42.7233326,-84.4671864,266.1499938964844,-0.05031890049576759,-0.05031890049576759
1693165907.57123399,58378383,42.7233327,-84.4671864,266.1499938964844,-0.058857861906290054,-0.058857861906290054
1693165907.67115116,58478300,42.7233327,-84.4671864,266.1399841308594,-0.06636804342269897,-0.06636804342269897
1693165907.77127314,58578422,42.7233328,-84.4671864,266.1300048828125,-0.07455998659133911,-0.07455998659133911
1693165907.87111497,58678264,42.7233328,-84.4671864,266.1199951171875,-0.08351534605026245,-0.08351534605026245
1693165907.97115207,58778301,42.7233328,-84.4671864,266.1099853515625,-0.09144896268844604,-0.09144896268844604
1693165908.07116699,58878316,42.723332899999996,-84.4671864,266.1099853515625,-0.09821957349777222,-0.09821957349777222
1693165908.17121410,58978363,42.723333,-84.4671864,266.1000061035156,-0.10122770071029663,-0.10122770071029663
1693165908.27118611,59078335,42.723333,-84.4671864,266.1000061035156,-0.10198861360549927,-0.10198861360549927
1693165908.37079906,59177948,42.7233331,-84.4671864,266.1000061035156,-0.1013440489768982,-0.1013440489768982
1693165908.47088504,59278034,42.7233331,-84.4671865,266.1000061035156,-0.10251230001449585,-0.10251230001449585
1693165908.57084799,59377997,42.7233331,-84.4671865,266.1000061035156,-0.10414808988571167,-0.10414808988571167
1693165908.67099905,59478148,42.7233332,-84.4671865,266.1000061035156,-0.10620957612991333,-0.10620957612991333
1693165908.77096605,59578115,42.7233332,-84.4671865,266.1000061035156,-0.10925740003585815,-0.10925740003585815
1693165908.87100315,59678152,42.7233332,-84.4671865,266.0899963378906,-0.11262959241867065,-0.11262959241867065
1693165908.97110415,59778253,42.7233332,-84.4671865,266.0899963378906,-0.11533397436141968,-0.11533397436141968
1693165909.07093716,59878086,42.7233332,-84.4671865,266.0899963378906,-0.11790841817855835,-0.11790841817855835
1693165909.17102313,59978172,42.7233332,-84.4671865,266.0899963378906,-0.11915868520736694,-0.11915868520736694
1693165909.27080011,60077949,42.7233332,-84.4671864,266.0899963378906,-0.11850553750991821,-0.11850553750991821
1693165909.37086415,60178013,42.7233332,-84.4671864,266.0899963378906,-0.11774641275405884,-0.11774641275405884
1693165909.47084904,60277998,42.7233332,-84.4671863,266.0899963378906,-0.11743468046188354,-0.11743468046188354
1693165909.57096815,60378117,42.7233332,-84.4671863,266.0899963378906,-0.11972981691360474,-0.11972981691360474
1693165909.67093515,60478084,42.7233332,-84.4671863,266.0799865722656,-0.12282401323318481,-0.12282401323318481
1693165909.77099705,60578146,42.7233332,-84.4671863,266.0799865722656,-0.12677139043807983,-0.12677139043807983
1693165909.87099695,60678146,42.7233332,-84.4671863,266.07000732421875,-0.13095027208328247,-0.13095027208328247
1693165909.97094417,60778093,42.7233332,-84.4671863,266.07000732421875,-0.13308149576187134,-0.13308149576187134
1693165910.07086015,60878009,42.7233332,-84.4671863,266.07000732421875,-0.13434761762619019,-0.13434761762619019
1693165910.17090416,60978053,42.7233333,-84.4671863,266.07000732421875,-0.1363796591758728,-0.1363796591758728
1693165910.27090597,61078055,42.7233333,-84.4671862,266.07000732421875,-0.13904684782028198,-0.13904684782028198
1693165910.37085104,61178000,42.7233333,-84.4671862,266.05999755859375,-0.14065200090408325,-0.14065200090408325
1693165910.47096801,61278117,42.7233333,-84.4671862,266.05999755859375,-0.1423233151435852,-0.1423233151435852
1693165910.57093215,61378081,42.7233333,-84.4671862,266.05999755859375,-0.143260657787323,-0.143260657787323
1693165910.67113900,61478288,42.7233333,-84.4671862,266.05999755859375,-0.14389044046401978,-0.14389044046401978
1693165910.77116919,61578318,42.7233333,-84.4671862,266.05999755859375,-0.14400345087051392,-0.14400345087051392
1693165910.87116718,61678316,42.7233333,-84.4671862,266.05999755859375,-0.14483433961868286,-0.14483433961868286
1693165910.97114706,61778296,42.7233334,-84.4671862,266.05999755859375,-0.14716356992721558,-0.14716356992721558
1693165911.07125115,61878400,42.7233334,-84.46718609999999,266.05999755859375,-0.1492505669593811,-0.1492505669593811
1693165911.17126608,61978415,42.7233334,-84.46718609999999,266.05999755859375,-0.14991682767868042,-0.14991682767868042
1693165911.27115297,62078302,42.7233334,-84.467186,266.04998779296875,-0.15155786275863647,-0.15155786275863647
1693165911.37115502,62178304,42.7233334,-84.467186,266.04998779296875,-0.1536375880241394,-0.1536375880241394
1693165911.47108006,62278229,42.7233334,-84.467186,266.04998779296875,-0.1550775170326233,-0.1550775170326233
1693165911.57114410,62378293,42.7233334,-84.467186,266.04998779296875,-0.15776389837265015,-0.15776389837265015
1693165911.67113996,62478289,42.7233334,-84.46718589999999,266.04998779296875,-0.15992099046707153,-0.15992099046707153
1693165911.77115512,62578304,42.7233334,-84.46718589999999,266.0400085449219,-0.16262203454971313,-0.16262203454971313
1693165911.87113309,62678282,42.7233334,-84.46718589999999,266.0400085449219,-0.1652279496192932,-0.1652279496192932
1693165911.97099996,62778149,42.7233334,-84.46718589999999,266.0400085449219,-0.16680258512496948,-0.16680258512496948
1693165912.07110500,62878254,42.7233334,-84.4671858,266.0400085449219,-0.16797953844070435,-0.16797953844070435
1693165912.17118597,62978335,42.723333499999995,-84.4671858,266.0400085449219,-0.1682608723640442,-0.1682608723640442
1693165912.27119017,63078339,42.723333499999995,-84.4671857,266.0400085449219,-0.16830164194107056,-0.16830164194107056
1693165912.37108207,63178231,42.723333499999995,-84.4671857,266.0400085449219,-0.16805499792099,-0.16805499792099
1693165912.47113204,63278281,42.723333499999995,-84.4671857,266.0400085449219,-0.16905540227890015,-0.16905540227890015
1693165912.57115006,63378299,42.723333499999995,-84.4671857,266.0299987792969,-0.17166870832443237,-0.17166870832443237
1693165912.67117500,63478324,42.723333499999995,-84.4671857,266.0299987792969,-0.175595223903656,-0.175595223903656
1693165912.77087116,63578020,42.723333499999995,-84.4671857,266.0299987792969,-0.17913061380386353,-0.17913061380386353
1693165912.87079310,63677942,42.723333499999995,-84.4671856,266.0199890136719,-0.18179231882095337,-0.18179231882095337
1693165912.97090101,63778050,42.723333499999995,-84.4671856,266.0199890136719,-0.18386238813400269,-0.18386238813400269
1693165913.07086301,63878012,42.723333499999995,-84.4671856,266.0199890136719,-0.1865951418876648,-0.1865951418876648
1693165913.17109108,63978240,42.723333499999995,-84.4671855,266.0199890136719,-0.18839579820632935,-0.18839579820632935
1693165913.27096510,64078114,42.723333499999995,-84.46718539999999,266.0199890136719,-0.1897844672203064,-0.1897844672203064
1693165913.37101007,64178159,42.723333499999995,-84.46718539999999,266.0099792480469,-0.19084936380386353,-0.19084936380386353
1693165913.47101712,64278166,42.723333499999995,-84.46718539999999,266.0099792480469,-0.19010335206985474,-0.19010335206985474
1693165913.57095313,64378102,42.723333499999995,-84.4671853,266.0199890136719,-0.1885712742805481,-0.1885712742805481
1693165913.67118406,64478333,42.723333499999995,-84.4671853,266.0199890136719,-0.18734627962112427,-0.18734627962112427
1693165913.77118206,64578331,42.723333499999995,-84.4671852,266.0199890136719,-0.18632346391677856,-0.18632346391677856
1693165913.87121415,64678363,42.723333499999995,-84.4671851,266.0199890136719,-0.18335741758346558,-0.18335741758346558
1693165913.97114515,64778294,42.7233336,-84.4671851,266.0299987792969,-0.17961901426315308,-0.17961901426315308
1693165914.07125807,64878407,42.723333499999995,-84.467185,266.0299987792969,-0.17621833086013794,-0.17621833086013794
1693165914.17119598,64978345,42.723333499999995,-84.46718489999999,266.0299987792969,-0.17417758703231812,-0.17417758703231812
1693165914.27115798,65078307,42.723333499999995,-84.4671848,266.0299987792969,-0.17096549272537231,-0.17096549272537231
1693165914.37116718,65178316,42.7233336,-84.46718469999999,266.0400085449219,-0.16874641180038452,-0.16874641180038452
1693165914.47117114,65278320,42.723333499999995,-84.4671846,266.0400085449219,-0.16692513227462769,-0.16692513227462769
1693165914.57115602,65378305,42.723333499999995,-84.4671846,266.0400085449219,-0.16535896062850952,-0.16535896062850952
1693165914.67080712,65477956,42.723333499999995,-84.4671845,266.0400085449219,-0.16447943449020386,-0.16447943449020386
1693165914.77113509,65578284,42.723333499999995,-84.4671844,266.0400085449219,-0.16589230298995972,-0.16589230298995972
1693165914.87114406,65678293,42.7233336,-84.4671843,266.0400085449219,-0.16739708185195923,-0.16739708185195923
1693165914.97126317,65778412,42.7233336,-84.4671843,266.0400085449219,-0.16757303476333618,-0.16757303476333618
1693165915.07110715,65878256,42.7233336,-84.46718419999999,266.0400085449219,-0.16696757078170776,-0.16696757078170776
1693165915.17119718,65978346,42.7233336,-84.4671841,266.0400085449219,-0.16604572534561157,-0.16604572534561157
1693165915.27127409,66078423,42.7233337,-84.4671841,266.0400085449219,-0.16395586729049683,-0.16395586729049683
1693165915.37117004,66178319,42.7233337,-84.467184,266.04998779296875,-0.1587105393409729,-0.1587105393409729
1693165915.47114396,66278293,42.7233337,-84.4671839,266.04998779296875,-0.15305906534194946,-0.15305906534194946
1693165915.57112002,66378269,42.7233337,-84.4671839,266.04998779296875,-0.15052682161331177,-0.15052682161331177
1693165915.67120504,66478354,42.7233337,-84.4671838,266.05999755859375,-0.14907878637313843,-0.14907878637313843
1693165915.77114511,66578294,42.7233337,-84.46718369999999,266.05999755859375,-0.146442711353302,-0.146442711353302
1693165915.87126803,66678417,42.7233337,-84.4671836,266.05999755859375,-0.14209359884262085,-0.14209359884262085
1693165915.97110796,66778257,42.7233337,-84.4671836,266.07000732421875,-0.1396884322166443,-0.1396884322166443
1693165916.07115316,66878302,42.7233338,-84.46718349999999,266.07000732421875,-0.1388593316078186,-0.1388593316078186
1693165916.17120814,66978357,42.7233338,-84.46718349999999,266.07000732421875,-0.13831454515457153,-0.13831454515457153
1693165916.27118015,67078329,42.7233338,-84.4671834,266.07000732421875,-0.13712066411972046,-0.13712066411972046
1693165916.37116218,67178311,42.7233338,-84.4671834,266.07000732421875,-0.13825231790542603,-0.13825231790542603
1693165916.47111201,67278261,42.7233338,-84.4671834,266.05999755859375,-0.14099019765853882,-0.14099019765853882
1693165916.57113409,67378283,42.7233338,-84.4671834,266.05999755859375,-0.14575546979904175,-0.14575546979904175
1693165916.67113614,67478285,42.7233339,-84.4671834,266.04998779296875,-0.1515987515449524,-0.1515987515449524
1693165916.77127695,67578426,42.7233339,-84.4671834,266.04998779296875,-0.15801376104354858,-0.15801376104354858
1693165916.87112999,67678279,42.7233339,-84.4671834,266.0400085449219,-0.1653640866279602,-0.1653640866279602
1693165916.97116995,67778319,42.7233339,-84.4671833,266.0299987792969,-0.17279964685440063,-0.17279964685440063
1693165917.07116318,67878312,42.7233339,-84.4671833,266.0299987792969,-0.17948657274246216,-0.17948657274246216
1693165917.17122412,67978373,42.723334,-84.4671833,266.0199890136719,-0.18486136198043823,-0.18486136198043823
1693165917.27117801,68078327,42.723334,-84.4671833,266.0199890136719,-0.18956917524337769,-0.18956917524337769
1693165917.37126017,68178409,42.723334,-84.4671833,266.0099792480469,-0.19214874505996704,-0.19214874505996704
1693165917.47118902,68278338,42.723334,-84.4671833,266.0099792480469,-0.19421428442001343,-0.19421428442001343
1693165917.57141399,68378563,42.723334,-84.4671833,266.0099792480469,-0.1953626275062561,-0.1953626275062561
1693165917.67127204,68478421,42.723334099999995,-84.4671833,266.0099792480469,-0.19549888372421265,-0.19549888372421265
1693165917.77113008,68578279,42.723334099999995,-84.4671832,266.0099792480469,-0.19601982831954956,-0.19601982831954956
1693165917.87118506,68678334,42.723334099999995,-84.4671832,266.0099792480469,-0.19626063108444214,-0.19626063108444214
1693165917.97118115,68778330,42.723334099999995,-84.4671831,266.0099792480469,-0.1969272494316101,-0.1969272494316101
1693165918.07118201,68878331,42.723334099999995,-84.4671831,266.0099792480469,-0.19809526205062866,-0.19809526205062866
1693165918.17121696,68978366,42.723334099999995,-84.46718299999999,266.0099792480469,-0.19999545812606812,-0.19999545812606812
1693165918.27116513,69078314,42.723334099999995,-84.46718299999999,266.0,-0.2016097903251648,-0.2016097903251648
1693165918.37121606,69178365,42.723334099999995,-84.4671829,266.0,-0.20203858613967896,-0.20203858613967896
1693165918.47113419,69278283,42.723334099999995,-84.4671829,266.0,-0.2013736367225647,-0.2013736367225647
1693165918.57126808,69378417,42.7233342,-84.4671829,266.0,-0.20139366388320923,-0.20139366388320923
1693165918.67111301,69478262,42.7233342,-84.46718279999999,266.0,-0.2027987837791443,-0.2027987837791443
1693165918.77117705,69578326,42.7233342,-84.46718279999999,266.0,-0.20351344347000122,-0.20351344347000122
1693165918.87117195,69678321,42.7233342,-84.46718279999999,266.0,-0.20424240827560425,-0.20424240827560425
1693165918.97134614,69778495,42.7233342,-84.4671827,266.0,-0.20387154817581177,-0.20387154817581177
1693165919.07133102,69878480,42.7233342,-84.4671827,266.0,-0.20267122983932495,-0.20267122983932495
1693165919.17120099,69978350,42.7233342,-84.4671827,266.0,-0.20252114534378052,-0.20252114534378052
1693165919.27119517,70078344,42.7233342,-84.4671826,266.0,-0.20330804586410522,-0.20330804586410522
1693165919.37113595,70178285,42.7233343,-84.4671826,266.0,-0.20366638898849487,-0.20366638898849487
1693165919.47134018,70278489,42.7233342,-84.4671826,266.0,-0.20331889390945435,-0.20331889390945435
1693165919.57093906,70378088,42.7233342,-84.46718249999999,266.0,-0.20361167192459106,-0.20361167192459106
1693165919.67098618,70478135,42.7233342,-84.46718249999999,266.0,-0.20518451929092407,-0.20518451929092407
1693165919.77100205,70578151,42.7233343,-84.46718249999999,266.0,-0.2059277892112732,-0.2059277892112732
1693165919.87093401,70678083,42.7233343,-84.46718249999999,266.0,-0.20711666345596313,-0.20711666345596313
1693165919.97086310,70778012,42.7233343,-84.46718249999999,266.0,-0.2074241042137146,-0.2074241042137146
1693165920.07079697,70877946,42.7233342,-84.46718249999999,266.0,-0.20948082208633423,-0.20948082208633423
1693165920.17092395,70978073,42.7233342,-84.4671824,266.0,-0.20989757776260376,-0.20989757776260376
1693165920.27086401,71078013,42.7233343,-84.4671824,266.0,-0.20769459009170532,-0.20769459009170532
1693165920.37098098,71178130,42.7233343,-84.4671824,266.0,-0.20610064268112183,-0.20610064268112183
1693165920.47093701,71278086,42.7233343,-84.4671824,266.0,-0.2045852541923523,-0.2045852541923523
1693165920.57099509,71378144,42.7233343,-84.46718229999999,266.0,-0.20413058996200562,-0.20413058996200562
1693165920.67099714,71478146,42.7233342,-84.46718229999999,266.0,-0.2061353325843811,-0.2061353325843811
1693165920.77093506,71578084,42.7233342,-84.46718229999999,266.0,-0.2094690203666687,-0.2094690203666687
1693165920.87084818,71677997,42.7233342,-84.4671822,265.989990234375,-0.213520348072052,-0.213520348072052
1693165920.97087502,71778024,42.7233342,-84.4671822,265.989990234375,-0.21663540601730347,-0.21663540601730347
1693165921.07088399,71878033,42.7233342,-84.4671822,265.989990234375,-0.21797031164169312,-0.21797031164169312
1693165921.17089415,71978043,42.7233342,-84.4671821,265.989990234375,-0.2184465527534485,-0.2184465527534485
1693165921.27098703,72078136,42.7233342,-84.4671821,265.989990234375,-0.21682900190353394,-0.21682900190353394
1693165921.37094212,72178091,42.7233342,-84.4671821,265.989990234375,-0.2154521346092224,-0.2154521346092224
1693165921.47100210,72278151,42.7233342,-84.4671821,265.989990234375,-0.21364468336105347,-0.21364468336105347
1693165921.57106209,72378211,42.723334099999995,-84.467182,265.989990234375,-0.2119317650794983,-0.2119317650794983
1693165921.67093301,72478082,42.723334099999995,-84.467182,265.989990234375,-0.21270281076431274,-0.21270281076431274
1693165921.77085114,72578000,42.723334099999995,-84.4671819,265.989990234375,-0.2138654589653015,-0.2138654589653015
1693165921.87114906,72678298,42.723334099999995,-84.4671819,265.989990234375,-0.2154335379600525,-0.2154335379600525
1693165921.97119808,72778347,42.723334099999995,-84.4671819,265.989990234375,-0.21581095457077026,-0.21581095457077026
1693165922.07115006,72878299,42.723334099999995,-84.46718179999999,265.989990234375,-0.2139696478843689,-0.2139696478843689
1693165922.17133117,72978480,42.723334099999995,-84.46718179999999,265.989990234375,-0.2116054892539978,-0.2116054892539978
1693165922.27113605,73078285,42.723334099999995,-84.46718179999999,265.989990234375,-0.21059638261795044,-0.21059638261795044
1693165922.37119007,73178339,42.723334099999995,-84.4671817,266.0,-0.20928829908370972,-0.20928829908370972
1693165922.47119212,73278341,42.723334099999995,-84.4671817,266.0,-0.207444965839386,-0.207444965839386
1693165922.57119012,73378339,42.723334099999995,-84.4671817,266.0,-0.2049228549003601,-0.2049228549003601
1693165922.67118406,73478333,42.723334099999995,-84.4671817,266.0,-0.20272916555404663,-0.20272916555404663
1693165922.77113318,73578282,42.723334099999995,-84.4671817,266.0,-0.20084577798843384,-0.20084577798843384
1693165922.87120104,73678350,42.723334099999995,-84.46718159999999,266.0099792480469,-0.1990082859992981,-0.1990082859992981
