timestamp,TimeUS,DesRoll,Roll,DesPitch,Pitch,DesYaw,Yaw,ErrRP,ErrYaw,AEKF
8.47206100,8472061,0.0,0.05,0.0,-0.35000000000000003,359.99,0.0,1.0,1.0,0
8.57168000,8571680,0.0,0.05,0.0,-0.35000000000000003,337.58,337.59000000000003,1.0,0.8,0
8.67173300,8671733,0.0,0.05,0.0,-0.36,337.56,337.57,0.8,0.64,0
8.77165600,8771656,0.0,0.05,0.0,-0.36,337.55,337.56,0.8,0.51,0
8.87165700,8871657,0.0,0.05,0.0,-0.36,337.56,337.57,0.64,0.41000000000000003,0
8.97171600,8971716,0.0,0.06,0.0,-0.37,337.56,337.57,0.64,0.32,0
9.07170200,9071702,0.0,0.06,0.0,-0.37,337.54,337.55,0.51,0.26,0
9.17177300,9171773,0.0,0.06,0.0,-0.38,337.54,337.55,0.51,0.21,0
9.27182500,9271825,0.0,0.06,0.0,-0.37,337.56,337.57,0.4,0.16,0
9.37182000,9371820,0.0,0.05,0.0,-0.37,337.51,337.52,0.4,0.13,0
9.47180500,9471805,0.0,0.06,0.0,-0.38,337.48,337.49,0.32,0.11,0
9.57177200,9571772,0.0,0.05,0.0,-0.38,337.53000000000003,337.54,0.32,0.09,0
9.67179100,9671791,0.0,0.05,0.0,-0.38,337.58,337.59000000000003,0.26,0.07,0
9.77173000,9771730,0.0,0.05,0.0,-0.37,337.68,337.69,0.26,0.06,0
9.87182000,9871820,0.0,0.05,0.0,-0.37,337.65000000000003,337.66,0.21,0.05,0
9.97178100,9971781,0.0,0.04,0.0,-0.38,337.6,337.61,0.21,0.04,0
10.07190000,10071900,0.0,0.04,0.0,-0.38,337.6,337.61,0.16,0.03,0
10.17189500,10171895,0.0,0.04,0.0,-0.38,337.56,337.57,0.16,0.03,0
10.27190800,10271908,0.0,0.05,0.0,-0.39,337.46,337.47,0.13,0.02,0
10.37198800,10371988,0.0,0.05,0.0,-0.39,337.46,337.47,0.13,0.02,0
10.47227500,10472275,-0.09,-0.12,-0.01,-0.42,359.99,0.0,0.1,0.01,3
10.57226700,10572267,-0.04,-0.12,0.0,-0.42,359.99,0.0,0.1,0.01,3
10.67204200,10672042,-0.02,-0.11,0.0,-0.42,359.98,359.99,0.08,0.01,3
10.77214300,10772143,-0.01,-0.11,0.0,-0.42,359.98,359.99,0.08,0.01,3
10.87205700,10872057,0.0,-0.11,0.0,-0.42,359.98,359.99,0.06,0.01,3
10.97220200,10972202,0.0,-0.1,0.0,-0.42,359.98,359.99,0.06,0.01,3
11.07212100,11072121,0.0,-0.11,0.0,-0.42,359.97,359.98,0.05,0.0,3
11.17233200,11172332,0.0,-0.11,0.0,-0.42,359.97,359.98,0.05,0.0,3
11.27233600,11272336,0.0,-0.11,0.0,-0.42,359.97,359.98,0.04,0.0,3
11.37218900,11372189,0.0,-0.11,0.0,-0.41000000000000003,359.97,359.98,0.04,0.01,3
11.47181200,11471812,0.0,-0.1,0.0,-0.41000000000000003,359.97,359.98,0.03,0.0,3
11.57180500,11571805,0.0,-0.1,0.0,-0.41000000000000003,359.96,359.97,0.03,0.0,3
11.67188300,11671883,0.0,-0.09,0.0,-0.41000000000000003,359.97,359.98,0.02,0.01,3
11.77184400,11771844,0.0,-0.08,0.0,-0.4,359.96,359.97,0.02,0.01,3
11.87204800,11872048,0.0,-0.08,0.0,-0.4,359.96,359.97,0.02,0.0,3
11.97201500,11972015,0.0,-0.07,0.0,-0.39,337.73,337.74,0.02,0.0,3
12.07219500,12072195,0.0,-0.07,0.0,-0.39,337.71,337.72,0.01,0.0,3
12.17192600,12171926,0.0,-0.06,0.0,-0.39,337.68,337.69,0.01,0.0,3
12.27189400,12271894,0.0,-0.06,0.0,-0.39,337.62,337.63,0.01,0.0,3
12.37184200,12371842,0.0,-0.05,0.0,-0.39,337.54,337.55,0.01,0.0,3
12.47187700,12471877,0.0,-0.04,0.0,-0.39,337.47,337.48,0.01,0.0,3
12.57185400,12571854,0.0,-0.04,0.0,-0.39,337.42,337.43,0.01,0.0,3
12.67208700,12672087,0.0,-0.04,0.0,-0.39,337.39,337.40000000000003,0.0,0.0,3
12.77223500,12772235,0.0,-0.04,0.0,-0.38,337.39,337.40000000000003,0.0,0.0,3
12.87199200,12871992,0.0,-0.04,0.0,-0.38,337.42,337.43,0.0,0.0,3
12.97201600,12972016,0.0,-0.03,0.0,-0.38,337.46,337.47,0.0,0.0,3
13.07197300,13071973,0.0,-0.03,0.0,-0.38,337.49,337.5,0.0,0.0,3
13.17182100,13171821,0.0,-0.04,0.0,-0.38,337.5,337.51,0.0,0.0,3
13.27182100,13271821,0.0,-0.03,0.0,-0.38,337.52,337.53000000000003,0.0,0.0,3
13.37212800,13372128,0.0,-0.03,0.0,-0.38,337.54,337.55,0.0,0.0,3
13.47218500,13472185,0.0,-0.03,0.0,-0.38,337.57,337.58,0.0,0.0,3
13.57207600,13572076,0.0,-0.03,0.0,-0.38,337.6,337.61,0.0,0.0,3
13.67223500,13672235,0.0,-0.02,0.0,-0.38,337.61,337.62,0.0,0.01,3
13.77198200,13771982,0.0,-0.04,0.0,-0.39,337.64,337.65000000000003,0.0,0.0,3
13.87200900,13872009,0.0,-0.03,0.0,-0.38,337.63,337.63,0.0,0.0,3
13.97191100,13971911,0.0,-0.03,0.0,-0.37,337.62,337.63,0.0,0.0,3
14.07186300,14071863,0.0,-0.03,0.0,-0.38,337.62,337.63,0.0,0.0,3
14.17181400,14171814,0.0,-0.03,0.0,-0.37,337.62,337.63,0.0,0.0,3
14.27183000,14271830,0.0,-0.03,0.0,-0.37,337.63,337.64,0.0,0.01,3
14.37191600,14371916,0.0,-0.03,0.0,-0.38,337.64,337.65000000000003,0.0,0.01,3
14.47208300,14472083,0.0,-0.03,0.0,-0.38,337.67,337.68,0.0,0.0,3
14.57225000,14572250,0.0,-0.03,0.0,-0.38,337.69,337.7,0.0,0.0,3
14.67199100,14671991,0.0,-0.03,0.0,-0.38,337.72,337.73,0.0,0.0,3
14.77200100,14772001,0.0,-0.04,0.0,-0.38,337.73,337.74,0.0,0.0,3
14.87190500,14871905,0.0,-0.03,0.0,-0.39,337.74,337.75,0.0,0.0,3
14.97182900,14971829,0.0,-0.03,0.0,-0.39,337.75,337.76,0.0,0.0,3
15.07181900,15071819,0.0,-0.04,0.0,-0.39,337.76,337.77,0.0,0.0,3
15.17210200,15172102,0.0,-0.04,0.0,-0.38,337.77,337.78000000000003,0.0,0.0,3
15.27188000,15271880,0.0,-0.04,0.0,-0.38,337.77,337.78000000000003,0.0,0.0,3
15.37185500,15371855,0.0,-0.05,0.0,-0.39,337.76,337.77,0.0,0.0,3
15.47205100,15472051,0.0,-0.05,0.0,-0.39,337.75,337.76,0.0,0.0,3
15.57194200,15571942,0.0,-0.05,0.0,-0.39,337.74,337.75,0.0,0.0,3
15.67201500,15672015,0.0,-0.05,0.0,-0.39,337.72,337.73,0.0,0.0,3
15.77189800,15771898,0.0,-0.05,0.0,-0.39,337.7,337.71,0.0,0.01,3
15.87183900,15871839,0.0,-0.05,0.0,-0.39,337.67,337.68,0.0,0.01,3
15.97181300,15971813,0.0,-0.05,0.0,-0.38,337.63,337.64,0.0,0.01,3
16.07181800,16071818,0.0,-0.05,0.0,-0.39,337.59000000000003,337.6,0.0,0.01,3
16.17185500,16171855,0.0,-0.05,0.0,-0.39,337.54,337.55,0.0,0.01,3
16.27207700,16272077,0.0,-0.05,0.0,-0.39,337.5,337.51,0.0,0.0,3
16.37203600,16372036,0.0,-0.05,0.0,-0.39,337.48,337.49,0.0,0.0,3
16.47198500,16471985,0.0,-0.05,0.0,-0.39,337.46,337.47,0.0,0.0,3
16.57199000,16571990,0.0,-0.05,0.0,-0.39,337.45,337.46,0.0,0.0,3
16.67203100,16672031,0.0,-0.05,0.0,-0.4,337.45,337.46,0.0,0.01,3
16.77183600,16771836,0.0,-0.05,0.0,-0.4,337.44,337.45,0.0,0.01,3
16.87182000,16871820,0.0,-0.05,0.0,-0.4,337.43,337.44,0.0,0.01,3
16.97180600,16971806,0.0,-0.04,0.0,-0.4,337.40000000000003,337.41,0.0,0.01,3
17.07190400,17071904,0.0,-0.04,0.0,-0.41000000000000003,337.39,337.40000000000003,0.0,0.01,3
17.17208000,17172080,0.0,-0.04,0.0,-0.41000000000000003,337.38,337.39,0.0,0.01,3
17.27225800,17272258,0.0,-0.04,0.0,-0.41000000000000003,337.37,337.38,0.0,0.01,3
17.37202000,17372020,0.0,-0.04,0.0,-0.41000000000000003,337.37,337.38,0.0,0.01,3
17.47216500,17472165,0.0,-0.04,0.0,-0.41000000000000003,337.39,337.40000000000003,0.0,0.01,3
17.57213700,17572137,0.0,-0.04,0.0,-0.41000000000000003,337.41,337.42,0.0,0.01,3
17.67210100,17672101,0.0,-0.03,0.0,-0.41000000000000003,337.44,337.45,0.0,0.01,3
17.77203800,17772038,0.0,-0.03,0.0,-0.41000000000000003,337.47,337.48,0.0,0.0,3
17.87226200,17872262,0.0,-0.03,0.0,-0.41000000000000003,337.49,337.5,0.0,0.0,3
17.97186400,17971864,0.0,-0.03,0.0,-0.41000000000000003,337.5,337.51,0.0,0.0,3
18.07188500,18071885,0.0,-0.02,0.0,-0.41000000000000003,337.51,337.52,0.0,0.0,3
18.17203200,18172032,0.0,-0.02,0.0,-0.41000000000000003,337.52,337.53000000000003,0.0,0.0,3
18.27199900,18271999,0.0,-0.01,0.0,-0.41000000000000003,337.52,337.53000000000003,0.0,0.0,3
18.37204000,18372040,0.0,-0.01,0.0,-0.41000000000000003,337.52,337.53000000000003,0.0,0.0,3
18.47189700,18471897,0.0,-0.01,0.0,-0.41000000000000003,337.53000000000003,337.54,0.0,0.0,3
18.57213100,18572131,0.0,0.0,0.0,-0.41000000000000003,337.54,337.55,0.0,0.0,3
18.67182400,18671824,0.0,0.0,0.0,-0.4,337.55,337.56,0.0,0.0,3
18.77188900,18771889,0.0,0.0,0.0,-0.4,337.56,337.57,0.0,0.0,3
18.87190600,18871906,0.0,0.0,0.0,-0.41000000000000003,337.57,337.58,0.0,0.0,3
18.97186800,18971868,0.0,0.0,0.0,-0.4,337.58,337.59000000000003,0.0,0.0,3
19.07203400,19072034,0.0,0.0,0.0,-0.41000000000000003,337.6,337.61,0.0,0.0,3
19.17200000,19172000,0.0,0.0,0.0,-0.41000000000000003,337.62,337.63,0.0,0.0,3
19.27201300,19272013,0.0,0.01,0.0,-0.41000000000000003,337.64,337.65000000000003,0.0,0.0,3
19.37207800,19372078,0.0,0.01,0.0,-0.41000000000000003,337.64,337.65000000000003,0.0,0.0,3
19.47213900,19472139,0.0,0.01,0.0,-0.41000000000000003,337.64,337.65000000000003,0.0,0.0,3
19.57212800,19572128,0.0,0.01,0.0,-0.41000000000000003,337.64,337.65000000000003,0.0,0.0,3
19.67208200,19672082,0.0,0.01,0.0,-0.41000000000000003,337.63,337.64,0.0,0.0,3
19.77184000,19771840,0.0,0.02,0.0,-0.42,337.62,337.63,0.0,0.0,3
19.87182900,19871829,0.0,0.02,0.0,-0.42,337.61,337.62,0.0,0.0,3
19.97207800,19972078,0.0,0.02,0.0,-0.42,337.6,337.61,0.0,0.0,3
20.07200700,20072007,0.0,0.02,0.0,-0.42,337.58,337.59000000000003,0.0,0.0,3
20.17215400,20172154,0.0,0.02,0.0,-0.42,337.56,337.57,0.0,0.0,3
20.27216200,20272162,0.0,0.02,0.0,-0.41000000000000003,337.54,337.55,0.0,0.0,3
20.37213600,20372136,0.0,0.02,0.0,-0.41000000000000003,337.53000000000003,337.54,0.0,0.0,3
20.47206000,20472060,0.0,0.02,0.0,-0.42,337.53000000000003,337.54,0.0,0.0,3
20.57207900,20572079,0.0,0.02,0.0,-0.42,337.53000000000003,337.54,0.0,0.0,3
20.67184700,20671847,0.0,0.03,0.0,-0.42,337.54,337.55,0.0,0.0,3
20.77182200,20771822,0.0,0.03,0.0,-0.41000000000000003,337.55,337.56,0.0,0.0,3
20.87204200,20872042,0.0,0.03,0.0,-0.41000000000000003,337.56,337.57,0.0,0.0,3
20.97192700,20971927,0.0,0.03,0.0,-0.41000000000000003,337.58,337.59000000000003,0.0,0.0,3
21.07201900,21072019,0.0,0.04,0.0,-0.41000000000000003,337.59000000000003,337.6,0.0,0.01,3
21.17191700,21171917,0.0,0.04,0.0,-0.41000000000000003,337.59000000000003,337.6,0.0,0.01,3
21.27189300,21271893,0.0,0.04,0.0,-0.41000000000000003,337.59000000000003,337.6,0.0,0.0,3
21.37183800,21371838,0.0,0.04,0.0,-0.41000000000000003,337.59000000000003,337.6,0.0,0.0,3
21.47182000,21471820,0.0,0.04,0.0,-0.41000000000000003,337.58,337.59000000000003,0.0,0.0,3
21.57185700,21571857,0.0,0.04,0.0,-0.4,337.58,337.59000000000003,0.0,0.0,3
21.67209100,21672091,0.0,0.04,0.0,-0.4,337.58,337.59000000000003,0.0,0.01,3
21.77191700,21771917,0.0,0.04,0.0,-0.4,337.59000000000003,337.6,0.0,0.01,3
21.87198900,21871989,0.0,0.05,0.0,-0.4,337.61,337.62,0.0,0.0,3
21.97216900,21972169,0.0,0.05,0.0,-0.4,337.64,337.65000000000003,0.0,0.0,3
22.07220500,22072205,0.0,0.05,0.0,-0.4,337.66,337.67,0.0,0.0,3
22.17213600,22172136,0.0,0.05,0.0,-0.4,337.68,337.69,0.0,0.0,3
22.27213700,22272137,0.0,0.05,0.0,-0.4,337.69,337.7,0.0,0.0,3
22.37213000,22372130,0.0,0.05,0.0,-0.39,337.7,337.71,0.0,0.0,3
22.47218800,22472188,0.0,0.06,0.0,-0.39,337.72,337.73,0.0,0.0,3
22.57234200,22572342,0.0,0.05,0.0,-0.39,337.73,337.74,0.0,0.0,3
22.67247800,22672478,0.0,0.06,0.0,-0.39,337.74,337.75,0.0,0.0,3
22.77238400,22772384,0.0,0.06,0.0,-0.4,337.75,337.76,0.0,0.0,3
22.87236000,22872360,0.0,0.06,0.0,-0.4,337.76,337.77,0.0,0.0,3
22.97227300,22972273,0.0,0.07,0.0,-0.4,337.76,337.77,0.0,0.0,3
23.07214100,23072141,0.0,0.07,0.0,-0.4,337.78000000000003,337.79,0.0,0.0,3
23.17211600,23172116,0.0,0.07,0.0,-0.4,337.78000000000003,337.79,0.0,0.0,3
23.27209900,23272099,0.0,0.07,0.0,-0.4,337.79,337.8,0.0,0.0,3
23.37222100,23372221,0.0,0.07,0.0,-0.4,337.8,337.81,0.0,0.0,3
23.47209600,23472096,0.0,0.07,0.0,-0.39,337.8,337.81,0.0,0.0,3
23.57225100,23572251,0.0,0.07,0.0,-0.39,337.8,337.81,0.0,0.0,3
23.67237100,23672371,0.0,0.07,0.0,-0.39,337.8,337.81,0.0,0.0,3
23.77234500,23772345,0.0,0.07,0.0,-0.39,337.79,337.8,0.0,0.0,3
23.87219900,23872199,0.0,0.07,0.0,-0.4,337.79,337.8,0.0,0.01,3
23.97213400,23972134,0.0,0.07,0.0,-0.4,337.78000000000003,337.79,0.0,0.01,3
24.07214200,24072142,0.0,0.07,0.0,-0.4,337.77,337.78000000000003,0.0,0.0,3
24.17206600,24172066,0.0,0.07,0.0,-0.4,337.76,337.77,0.0,0.0,3
24.27219400,24272194,0.0,0.07,0.0,-0.4,337.75,337.76,0.0,0.01,3
24.37236900,24372369,0.0,0.07,0.0,-0.4,337.75,337.76,0.0,0.0,3
24.47255100,24472551,0.0,0.07,0.0,-0.4,337.75,337.76,0.0,0.0,3
24.57216500,24572165,0.0,0.07,0.0,-0.4,337.77,337.78000000000003,0.0,0.0,3
24.67219100,24672191,0.0,0.07,0.0,-0.4,337.78000000000003,337.79,0.0,0.0,3
24.77219100,24772191,0.0,0.07,0.0,-0.4,337.79,337.8,0.0,0.0,3
24.87212600,24872126,0.0,0.08,0.0,-0.4,337.81,337.82,0.0,0.0,3
24.97212100,24972121,0.0,0.07,0.0,-0.4,337.82,337.83,0.0,0.0,3
25.07247100,25072471,0.0,0.07,0.0,-0.4,337.84000000000003,337.85,0.0,0.0,3
25.17185600,25171856,0.0,0.07,0.0,-0.4,337.85,337.86,0.0,0.0,3
25.27183900,25271839,0.0,0.08,0.0,-0.4,337.86,337.87,0.0,0.0,3
25.37201800,25372018,0.0,0.08,0.0,-0.4,337.86,337.87,0.0,0.0,3
25.47198700,25471987,0.0,0.08,0.0,-0.4,337.86,337.87,0.0,0.0,3
25.57199400,25571994,0.0,0.08,0.0,-0.4,337.87,337.88,0.0,0.0,3
25.67191400,25671914,0.0,0.08,0.0,-0.4,337.87,337.88,0.0,0.0,3
25.77212200,25772122,0.0,0.08,0.0,-0.4,337.87,337.88,0.0,0.0,3
25.87213100,25872131,0.0,0.08,0.0,-0.4,337.87,337.88,0.0,0.0,3
25.97181100,25971811,0.0,0.08,0.0,-0.4,337.86,337.87,0.0,0.0,3
26.07185400,26071854,0.0,0.08,0.0,-0.4,337.87,337.88,0.0,0.0,3
26.17182100,26171821,0.0,0.08,0.0,-0.4,337.87,337.88,0.0,0.0,3
26.27193000,26271930,0.0,0.09,0.0,-0.4,337.88,337.89,0.0,0.0,3
26.37198400,26371984,0.0,0.09,0.0,-0.4,337.90000000000003,337.91,0.0,0.0,3
26.47220000,26472200,0.0,0.09,0.0,-0.39,337.90000000000003,337.91,0.0,0.0,3
26.57214600,26572146,0.0,0.09,0.0,-0.39,337.90000000000003,337.91,0.0,0.0,3
26.67212000,26672120,0.0,0.09,0.0,-0.39,337.91,337.92,0.0,0.0,3
26.77204500,26772045,0.0,0.09,0.0,-0.39,337.90000000000003,337.91,0.0,0.0,3
26.87206200,26872062,0.0,0.09,0.0,-0.39,337.91,337.92,0.0,0.0,3
26.97215500,26972155,0.0,0.09,0.0,-0.39,337.91,337.92,0.0,0.0,3
27.07233000,27072330,0.0,0.09,0.0,-0.39,337.92,337.93,0.0,0.0,3
27.17252000,27172520,0.0,0.09,0.0,-0.39,337.92,337.93,0.0,0.01,3
27.27213000,27272130,0.0,0.1,0.0,-0.39,337.93,337.94,0.0,0.0,3
27.37216600,27372166,0.0,0.1,0.0,-0.39,337.92,337.93,0.0,0.0,3
27.47216500,27472165,0.0,0.1,0.0,-0.38,337.92,337.93,0.0,0.0,3
27.57209400,27572094,0.0,0.1,0.0,-0.38,337.91,337.92,0.0,0.01,3
27.67206000,27672060,0.0,0.1,0.0,-0.38,337.91,337.92,0.0,0.0,3
27.77206500,27772065,0.0,0.1,0.0,-0.38,337.91,337.92,0.0,0.0,3
27.87191800,27871918,0.0,0.1,0.0,-0.38,337.92,337.93,0.0,0.0,3
27.97183800,27971838,0.0,0.1,0.0,-0.39,337.93,337.94,0.0,0.0,3
28.07204900,28072049,0.0,0.1,0.0,-0.39,337.94,337.95,0.0,0.0,3
28.17197800,28171978,0.0,0.1,0.0,-0.38,337.95,337.96,0.0,0.0,3
28.27199900,28271999,0.0,0.1,0.0,-0.39,337.95,337.96,0.0,0.0,3
28.37221700,28372217,0.0,0.1,0.0,-0.39,337.95,337.96,0.0,0.0,3
28.47214900,28472149,0.0,0.1,0.0,-0.39,337.96,337.97,0.0,0.0,3
28.57180100,28571801,0.0,0.11,0.0,-0.39,337.98,337.99,0.0,0.0,3
28.67181200,28671812,0.0,0.11,0.0,-0.39,337.99,338.0,0.0,0.01,3
28.77184600,28771846,0.0,0.11,0.0,-0.39,338.0,338.01,0.0,0.0,3
28.87184700,28871847,0.0,0.11,0.0,-0.39,337.99,338.0,0.0,0.0,3
28.97203000,28972030,0.0,0.11,0.0,-0.39,337.99,338.0,0.0,0.0,3
29.07192700,29071927,0.0,0.11,0.0,-0.39,337.99,338.0,0.0,0.0,3
29.17221000,29172210,0.0,0.11,0.0,-0.39,337.99,338.0,0.0,0.0,3
29.27203900,29272039,0.0,0.11,0.0,-0.39,338.0,338.01,0.0,0.0,3
29.37212600,29372126,0.0,0.12,0.0,-0.38,338.0,338.01,0.0,0.0,3
29.47204900,29472049,0.0,0.12,0.0,-0.39,338.01,338.02,0.0,0.0,3
29.57204400,29572044,0.0,0.12,0.0,-0.39,338.02,338.03000000000003,0.0,0.01,3
29.67214500,29672145,0.0,0.12,0.0,-0.39,338.03000000000003,338.04,0.0,0.01,3
29.77230500,29772305,0.0,0.12,0.0,-0.4,338.04,338.05,0.0,0.01,3
29.87249700,29872497,0.0,0.12,0.0,-0.4,338.04,338.05,0.0,0.01,3
29.97212200,29972122,0.0,0.12,0.0,-0.39,338.04,338.05,0.0,0.0,3
30.07212400,30072124,0.0,0.12,0.0,-0.4,338.04,338.05,0.0,0.0,3
30.17212200,30172122,0.0,0.12,0.0,-0.39,338.03000000000003,338.04,0.0,0.0,3
30.27206800,30272068,0.0,0.12,0.0,-0.39,338.03000000000003,338.04,0.0,0.0,3
30.37210700,30372107,0.0,0.12,0.0,-0.39,338.03000000000003,338.04,0.0,0.01,3
30.47223900,30472239,0.0,0.13,0.0,-0.39,338.02,338.03000000000003,0.0,0.0,3
30.57215500,30572155,0.0,0.13,0.0,-0.39,338.01,338.02,0.0,0.0,3
30.67182600,30671826,0.0,0.13,0.0,-0.39,338.01,338.02,0.0,0.01,3
30.77193200,30771932,0.0,0.13,0.0,-0.39,338.0,338.01,0.0,0.01,3
30.87198500,30871985,0.0,0.13,0.0,-0.38,338.0,338.01,0.0,0.01,3
30.97198100,30971981,0.0,0.13,0.0,-0.38,337.99,338.0,0.0,0.01,3
31.07187700,31071877,0.0,0.13,0.0,-0.38,337.99,338.0,0.0,0.0,3
31.17210900,31172109,0.0,0.13,0.0,-0.38,337.99,338.0,0.0,0.0,3
31.27179500,31271795,0.0,0.14,0.0,-0.38,337.99,338.0,0.0,0.0,3
31.37187200,31371872,0.0,0.14,0.0,-0.38,337.99,338.0,0.0,0.0,3
31.47185000,31471850,0.0,0.14,0.0,-0.38,338.0,338.01,0.0,0.0,3
31.57182900,31571829,0.0,0.15,0.0,-0.38,338.0,338.01,0.0,0.0,3
31.67201500,31672015,0.0,0.15,0.0,-0.38,338.0,338.01,0.0,0.0,3
31.77197600,31771976,0.0,0.15,0.0,-0.39,338.0,338.01,0.0,0.01,3
31.87218700,31872187,0.0,0.15,0.0,-0.38,338.0,338.01,0.0,0.01,3
31.97189600,31971896,0.0,0.15,0.0,-0.38,337.98,337.99,0.0,0.01,3
32.07208900,32072089,0.0,0.16,0.0,-0.38,337.96,337.97,0.0,0.01,3
32.17202200,32172022,0.0,0.16,0.0,-0.39,337.95,337.96,0.0,0.01,3
32.27201000,32272010,0.0,0.16,0.0,-0.39,337.93,337.94,0.0,0.01,3
32.37216300,32372163,0.0,0.17,0.0,-0.39,337.92,337.93,0.0,0.0,3
32.47204800,32472048,0.0,0.16,0.0,-0.39,337.92,337.93,0.0,0.01,3
32.57243100,32572431,0.0,0.16,0.0,-0.39,337.92,337.93,0.0,0.01,3
32.67214500,32672145,0.0,0.16,0.0,-0.39,337.93,337.94,0.0,0.0,3
32.77214900,32772149,0.0,0.17,0.0,-0.39,337.93,337.94,0.0,0.0,3
32.87216200,32872162,0.0,0.17,0.0,-0.4,337.94,337.95,0.0,0.01,3
32.97211700,32972117,0.0,0.17,0.0,-0.39,337.95,337.96,0.0,0.0,3
33.07203500,33072035,0.0,0.17,0.0,-0.39,337.96,337.97,0.0,0.0,3
33.17205200,33172052,0.0,0.17,0.0,-0.4,337.97,337.98,0.0,0.0,3
33.27185000,33271850,0.0,0.17,0.0,-0.4,337.97,337.98,0.0,0.0,3
33.37185800,33371858,0.0,0.18,0.0,-0.4,337.98,337.99,0.0,0.0,3
33.47192700,33471927,0.0,0.18,0.0,-0.4,337.98,337.99,0.0,0.0,3
33.57197800,33571978,0.0,0.18,0.0,-0.4,337.99,338.0,0.0,0.0,3
33.67199400,33671994,0.0,0.19,0.0,-0.4,337.99,338.0,0.0,0.0,3
33.77187800,33771878,0.0,0.19,0.0,-0.41000000000000003,337.99,338.0,0.0,0.0,3
33.87183800,33871838,0.0,0.19,0.0,-0.4,337.99,338.0,0.0,0.01,3
33.97178600,33971786,0.0,0.19,0.0,-0.4,337.99,338.0,0.0,0.01,3
34.07181200,34071812,0.0,0.2,0.0,-0.41000000000000003,337.98,337.99,0.0,0.01,3
34.17182800,34171828,0.0,0.2,0.0,-0.41000000000000003,337.98,337.99,0.0,0.0,3
34.27205900,34272059,0.0,0.2,0.0,-0.41000000000000003,337.97,337.98,0.0,0.0,3
34.37194500,34371945,0.0,0.2,0.0,-0.4,337.98,337.99,0.0,0.0,3
34.47194300,34471943,0.0,0.2,0.0,-0.41000000000000003,337.98,337.99,0.0,0.0,3
34.57198300,34571983,0.0,0.21,0.0,-0.41000000000000003,337.98,337.99,0.0,0.0,3
34.67190000,34671900,0.0,0.21,0.0,-0.41000000000000003,337.98,337.99,0.0,0.0,3
34.77181100,34771811,0.0,0.21,0.0,-0.41000000000000003,337.99,338.0,0.0,0.0,3
34.87180100,34871801,0.0,0.21,0.0,-0.41000000000000003,337.99,338.0,0.0,0.0,3
34.97179700,34971797,0.0,0.21,0.0,-0.4,337.99,338.0,0.0,0.0,3
35.07184300,35071843,0.0,0.21,0.0,-0.4,337.99,338.0,0.0,0.01,3
35.17206500,35172065,0.0,0.21,0.0,-0.4,337.98,337.99,0.0,0.0,3
35.27251200,35272512,0.0,0.21,0.0,-0.4,337.99,338.0,0.0,0.0,3
35.37217900,35372179,0.0,0.21,0.0,-0.39,337.99,338.0,0.0,0.0,3
35.47217400,35472174,0.0,0.21,0.0,-0.39,338.0,338.01,0.0,0.0,3
35.57197200,35571972,0.0,0.22,0.0,-0.4,338.0,338.01,0.0,0.0,3
35.67181700,35671817,0.0,0.22,0.0,-0.4,338.0,338.01,0.0,0.0,3
35.77179000,35771790,0.0,0.22,0.0,-0.4,338.0,338.01,0.0,0.0,3
35.87181300,35871813,0.0,0.22,0.0,-0.4,338.01,338.02,0.0,0.0,3
35.97185100,35971851,0.0,0.22,0.0,-0.4,338.01,338.02,0.0,0.0,3
36.07184600,36071846,0.0,0.22,0.0,-0.4,338.01,338.02,0.0,0.0,3
36.17192900,36171929,0.0,0.23,0.0,-0.4,338.01,338.02,0.0,0.0,3
36.27249600,36272496,0.0,0.23,0.0,-0.4,338.01,338.02,0.0,0.0,3
36.37220400,36372204,0.0,0.23,0.0,-0.41000000000000003,338.01,338.02,0.0,0.0,3
36.47190600,36471906,0.0,0.23,0.0,-0.41000000000000003,338.01,338.02,0.0,0.0,3
36.57179400,36571794,0.0,0.23,0.0,-0.4,338.01,338.02,0.0,0.0,3
36.67180000,36671800,0.0,0.24,0.0,-0.4,338.01,338.02,0.0,0.0,3
36.77179200,36771792,0.0,0.24,0.0,-0.41000000000000003,338.01,338.02,0.0,0.0,3
36.87185100,36871851,0.0,0.24,0.0,-0.41000000000000003,338.01,338.02,0.0,0.0,3
36.97183300,36971833,0.0,0.23,0.0,-0.4,338.01,338.02,0.0,0.0,3
37.07193000,37071930,0.0,0.24,0.0,-0.41000000000000003,338.01,338.02,0.0,0.0,3
37.17193300,37171933,0.0,0.23,0.0,-0.41000000000000003,338.01,338.02,0.0,0.01,3
37.27222000,37272220,0.0,0.23,0.0,-0.41000000000000003,338.0,338.01,0.0,0.01,3
37.37192300,37371923,0.0,0.24,0.0,-0.41000000000000003,338.01,338.02,0.0,0.01,3
37.47212500,37472125,0.0,0.24,0.0,-0.41000000000000003,338.02,338.03000000000003,0.0,0.01,3
37.57177600,37571776,0.0,0.24,0.0,-0.42,338.03000000000003,338.04,0.0,0.0,3
37.67185600,37671856,0.0,0.24,0.0,-0.42,338.05,338.06,0.0,0.0,3
37.77183300,37771833,0.0,0.24,0.0,-0.42,338.06,338.07,0.0,0.0,3
37.87183700,37871837,0.0,0.24,0.0,-0.41000000000000003,338.06,338.07,0.0,0.0,3
37.97191500,37971915,0.0,0.24,0.0,-0.42,338.07,338.08,0.0,0.0,3
38.07198200,38071982,0.0,0.24,0.0,-0.42,338.07,338.08,0.0,0.0,3
38.17212500,38172125,0.0,0.24,0.0,-0.42,338.08,338.09000000000003,0.0,0.0,3
38.27220900,38272209,0.0,0.24,0.0,-0.42,338.08,338.09000000000003,0.0,0.0,3
38.37214000,38372140,0.0,0.24,0.0,-0.42,338.09000000000003,338.1,0.0,0.0,3
38.47212300,38472123,0.0,0.24,0.0,-0.41000000000000003,338.09000000000003,338.1,0.0,0.01,3
38.57205700,38572057,0.0,0.24,0.0,-0.41000000000000003,338.09000000000003,338.1,0.0,0.0,3
38.67216600,38672166,0.0,0.24,0.0,-0.41000000000000003,338.09000000000003,338.1,0.0,0.0,3
38.77205400,38772054,0.0,0.24,0.0,-0.41000000000000003,338.09000000000003,338.1,0.0,0.0,3
38.87221300,38872213,0.0,0.24,0.0,-0.41000000000000003,338.09000000000003,338.1,0.0,0.0,3
38.97214900,38972149,0.0,0.24,0.0,-0.41000000000000003,338.09000000000003,338.1,0.0,0.0,3
39.07235000,39072350,0.0,0.23,0.0,-0.41000000000000003,338.1,338.11,0.0,0.0,3
39.17216500,39172165,0.0,0.23,0.0,-0.41000000000000003,338.1,338.11,0.0,0.0,3
39.27214500,39272145,0.0,0.23,0.0,-0.41000000000000003,338.09000000000003,338.1,0.0,0.0,3
39.37214300,39372143,0.0,0.23,0.0,-0.41000000000000003,338.09000000000003,338.1,0.0,0.01,3
39.47208600,39472086,0.0,0.23,0.0,-0.41000000000000003,338.09000000000003,338.1,0.0,0.0,3
39.57217500,39572175,0.0,0.23,0.0,-0.41000000000000003,338.08,338.09000000000003,0.0,0.0,3
39.67206400,39672064,0.0,0.22,0.0,-0.41000000000000003,338.07,338.08,0.0,0.01,3
39.77222100,39772221,0.0,0.22,0.0,-0.41000000000000003,338.07,338.08,0.0,0.01,3
39.87216200,39872162,0.0,0.22,0.0,-0.41000000000000003,338.06,338.07,0.0,0.0,3
39.97235000,39972350,0.0,0.22,0.0,-0.41000000000000003,338.06,338.07,0.0,0.0,3
40.07217500,40072175,0.0,0.22,0.0,-0.41000000000000003,338.06,338.07,0.0,0.0,3
40.17212700,40172127,0.0,0.22,0.0,-0.41000000000000003,338.06,338.07,0.0,0.0,3
40.27213200,40272132,0.0,0.22,0.0,-0.41000000000000003,338.06,338.07,0.0,0.0,3
40.37213700,40372137,0.0,0.21,0.0,-0.41000000000000003,338.06,338.07,0.0,0.0,3
40.47218800,40472188,0.0,0.22,0.0,-0.41000000000000003,338.07,338.08,0.0,0.0,3
40.57205200,40572052,0.0,0.22,0.0,-0.42,338.07,338.08,0.0,0.0,3
40.67221500,40672215,0.0,0.21,0.0,-0.42,338.08,338.09000000000003,0.0,0.0,3
40.77214400,40772144,0.0,0.21,0.0,-0.42,338.08,338.09000000000003,0.0,0.0,3
40.87235400,40872354,0.0,0.2,0.0,-0.41000000000000003,338.09000000000003,338.1,0.0,0.0,3
40.97238000,40972380,0.0,0.2,0.0,-0.42,338.1,338.11,0.0,0.0,3
41.07232700,41072327,0.0,0.2,0.0,-0.42,338.1,338.11,0.0,0.0,3
41.17211400,41172114,0.0,0.2,0.0,-0.42,338.11,338.12,0.0,0.0,3
41.27208300,41272083,0.0,0.2,0.0,-0.42,338.12,338.13,0.0,0.0,3
41.37220200,41372202,0.0,0.2,0.0,-0.42,338.12,338.13,0.0,0.0,3
41.47206200,41472062,0.0,0.2,0.0,-0.42,338.13,338.14,0.0,0.0,3
41.57221100,41572211,0.0,0.2,0.0,-0.42,338.14,338.15000000000003,0.0,0.0,3
41.67212400,41672124,0.0,0.2,0.0,-0.42,338.15000000000003,338.16,0.0,0.0,3
41.77215400,41772154,0.0,0.2,0.0,-0.42,338.15000000000003,338.16,0.0,0.0,3
41.87227200,41872272,0.0,0.2,0.0,-0.42,338.15000000000003,338.16,0.0,0.01,3
41.97211400,41972114,0.0,0.2,0.0,-0.42,338.16,338.17,0.0,0.01,3
42.07180500,42071805,0.0,0.2,0.0,-0.43,338.16,338.17,0.0,0.0,3
42.17180900,42171809,0.0,0.2,0.0,-0.43,338.16,338.17,0.0,0.0,3
42.27184500,42271845,0.0,0.2,0.0,-0.43,338.16,338.17,0.0,0.0,3
42.37185000,42371850,0.0,0.2,0.0,-0.43,338.16,338.17,0.0,0.0,3
42.47193800,42471938,0.0,0.2,0.0,-0.43,338.16,338.17,0.0,0.0,3
42.57190100,42571901,0.0,0.19,0.0,-0.43,338.17,338.18,0.0,0.01,3
42.67197500,42671975,0.0,0.19,0.0,-0.44,338.18,338.19,0.0,0.01,3
42.77188500,42771885,0.0,0.19,0.0,-0.43,338.18,338.19,0.0,0.0,3
42.87214100,42872141,0.0,0.19,0.0,-0.44,338.2,338.21,0.0,0.01,3
42.97180600,42971806,0.0,0.19,0.0,-0.44,338.2,338.21,0.0,0.01,3
43.07182800,43071828,0.0,0.19,0.0,-0.44,338.2,338.21,0.0,0.01,3
43.17185000,43171850,0.0,0.18,0.0,-0.44,338.2,338.21,0.0,0.01,3
43.27184000,43271840,0.0,0.17,0.0,-0.43,338.19,338.2,0.0,0.01,3
43.37204400,43372044,0.0,0.17,0.0,-0.43,338.19,338.2,0.0,0.01,3
43.47194100,43471941,0.0,0.17,0.0,-0.44,338.18,338.19,0.0,0.01,3
43.57214300,43572143,0.0,0.17,0.0,-0.44,338.18,338.19,0.0,0.01,3
43.67190100,43671901,0.0,0.17,0.0,-0.43,338.18,338.19,0.0,0.01,3
43.77208800,43772088,0.0,0.17,0.0,-0.43,338.18,338.19,0.0,0.0,3
43.87204300,43872043,0.0,0.17,0.0,-0.43,338.18,338.19,0.0,0.01,3
43.97215400,43972154,0.0,0.16,0.0,-0.43,338.18,338.19,0.0,0.0,3
44.07215300,44072153,0.0,0.16,0.0,-0.43,338.18,338.19,0.0,0.0,3
44.17203000,44172030,0.0,0.17,0.0,-0.43,338.18,338.19,0.0,0.0,3
44.27217700,44272177,0.0,0.16,0.0,-0.43,338.19,338.2,0.0,0.01,3
44.37235100,44372351,0.0,0.17,0.0,-0.43,338.19,338.2,0.0,0.0,3
44.47231300,44472313,0.0,0.16,0.0,-0.42,338.19,338.2,0.0,0.0,3
44.57212500,44572125,0.0,0.16,0.0,-0.42,338.2,338.21,0.0,0.0,3
44.67209300,44672093,0.0,0.16,0.0,-0.42,338.2,338.21,0.0,0.0,3
44.77201600,44772016,0.0,0.16,0.0,-0.42,338.2,338.21,0.0,0.0,3
44.87204800,44872048,0.0,0.16,0.0,-0.41000000000000003,338.2,338.21,0.0,0.0,3
44.97210900,44972109,0.0,0.16,0.0,-0.41000000000000003,338.2,338.21,0.0,0.0,3
45.07203100,45072031,0.0,0.16,0.0,-0.41000000000000003,338.2,338.21,0.0,0.0,3
45.17216300,45172163,0.0,0.16,0.0,-0.4,338.2,338.21,0.0,0.0,3
45.27211400,45272114,0.0,0.16,0.0,-0.4,338.19,338.2,0.0,0.0,3
45.37213800,45372138,0.0,0.16,0.0,-0.4,338.19,338.2,0.0,0.0,3
45.47213400,45472134,0.0,0.16,0.0,-0.39,338.19,338.2,0.0,0.0,3
45.57210400,45572104,0.0,0.16,0.0,-0.39,338.19,338.2,0.0,0.0,3
45.67179800,45671798,0.0,0.16,0.0,-0.39,338.19,338.2,0.0,0.0,3
45.77179600,45771796,0.0,0.16,0.0,-0.38,338.19,338.2,0.0,0.0,3
45.87185600,45871856,0.0,0.16,0.0,-0.38,338.19,338.2,0.0,0.0,3
45.97182300,45971823,0.0,0.16,0.0,-0.37,338.18,338.19,0.0,0.0,3
46.07201500,46072015,0.0,0.16,0.0,-0.37,338.18,338.19,0.0,0.0,3
46.17193100,46171931,0.0,0.15,0.0,-0.37,338.17,338.18,0.0,0.01,3
46.27216700,46272167,0.0,0.15,0.0,-0.36,338.16,338.17,0.0,0.0,3
46.37192600,46371926,0.0,0.16,0.0,-0.36,338.15000000000003,338.16,0.0,0.0,3
46.47181700,46471817,0.0,0.16,0.0,-0.36,338.14,338.15000000000003,0.0,0.0,3
46.57179300,46571793,0.0,0.16,0.0,-0.36,338.14,338.15000000000003,0.0,0.0,3
46.67179900,46671799,0.0,0.16,0.0,-0.35000000000000003,338.14,338.15000000000003,0.0,0.0,3
46.77184700,46771847,0.0,0.16,0.0,-0.35000000000000003,338.14,338.15000000000003,0.0,0.0,3
46.87208300,46872083,0.0,0.16,0.0,-0.35000000000000003,338.14,338.15000000000003,0.0,0.0,3
46.97222600,46972226,0.0,0.16,0.0,-0.34,338.14,338.15000000000003,0.0,0.0,3
47.07193400,47071934,0.0,0.16,0.0,-0.35000000000000003,338.15000000000003,338.16,0.0,0.0,3
47.17213300,47172133,0.0,0.17,0.0,-0.35000000000000003,338.15000000000003,338.16,0.0,0.0,3
47.27215900,47272159,0.0,0.17,0.0,-0.35000000000000003,338.15000000000003,338.16,0.0,0.0,3
47.37213000,47372130,0.0,0.17,0.0,-0.35000000000000003,338.15000000000003,338.16,0.0,0.0,3
47.47203900,47472039,0.0,0.17,0.0,-0.35000000000000003,338.16,338.17,0.0,0.0,3
47.57202300,47572023,0.0,0.18,0.0,-0.35000000000000003,338.16,338.17,0.0,0.0,3
47.67210800,47672108,0.0,0.18,0.0,-0.34,338.17,338.18,0.0,0.0,3
47.77206400,47772064,0.0,0.18,0.0,-0.34,338.17,338.18,0.0,0.0,3
47.87219600,47872196,0.0,0.17,0.0,-0.34,338.17,338.18,0.0,0.0,3
47.97210300,47972103,0.0,0.18,0.0,-0.34,338.17,338.18,0.0,0.0,3
48.07231500,48072315,0.0,0.18,0.0,-0.34,338.17,338.18,0.0,0.0,3
48.17200700,48172007,0.0,0.18,0.0,-0.34,338.17,338.18,0.0,0.0,3
48.27183900,48271839,0.0,0.18,0.0,-0.34,338.17,338.18,0.0,0.0,3
48.37182300,48371823,0.0,0.18,0.0,-0.34,338.18,338.19,0.0,0.0,3
48.47180400,48471804,0.0,0.18,0.0,-0.34,338.17,338.18,0.0,0.0,3
48.57184400,48571844,0.0,0.18,0.0,-0.34,338.17,338.18,0.0,0.0,3
48.67181800,48671818,0.0,0.19,0.0,-0.34,338.17,338.18,0.0,0.0,3
48.77190300,48771903,0.0,0.19,0.0,-0.34,338.16,338.17,0.0,0.0,3
48.87194400,48871944,0.0,0.19,0.0,-0.34,338.16,338.17,0.0,0.0,3
48.97218100,48972181,0.0,0.19,0.0,-0.34,338.16,338.17,0.0,0.0,3
49.07218500,49072185,0.0,0.19,0.0,-0.35000000000000003,338.16,338.17,0.0,0.0,3
49.17212000,49172120,0.0,0.2,0.0,-0.34,338.16,338.17,0.0,0.0,3
49.27212500,49272125,0.0,0.2,0.0,-0.35000000000000003,338.16,338.17,0.0,0.0,3
49.37208900,49372089,0.0,0.2,0.0,-0.35000000000000003,338.15000000000003,338.16,0.0,0.0,3
49.47217200,49472172,0.0,0.2,0.0,-0.35000000000000003,338.15000000000003,338.16,0.0,0.0,3
49.57205600,49572056,0.0,0.2,0.0,-0.35000000000000003,338.14,338.15000000000003,0.0,0.0,3
49.67222600,49672226,0.0,0.21,0.0,-0.36,338.15000000000003,338.16,0.0,0.0,3
49.77213000,49772130,0.0,0.21,0.0,-0.36,338.15000000000003,338.16,0.0,0.0,3
49.87234400,49872344,0.0,0.21,0.0,-0.36,338.15000000000003,338.16,0.0,0.0,3
49.97216300,49972163,0.0,0.21,0.0,-0.36,338.16,338.17,0.0,0.0,3
50.07211800,50072118,0.0,0.21,0.0,-0.36,338.16,338.17,0.0,0.0,3
50.17179800,50171798,0.0,0.21,0.0,-0.36,338.17,338.18,0.0,0.0,3
50.27188900,50271889,0.0,0.21,0.0,-0.37,338.17,338.18,0.0,0.0,3
50.37191000,50371910,0.0,0.21,0.0,-0.37,338.17,338.18,0.0,0.0,3
50.47183100,50471831,0.0,0.21,0.0,-0.36,338.17,338.18,0.0,0.01,3
50.57194500,50571945,0.0,0.21,0.0,-0.37,338.18,338.19,0.0,0.01,3
50.67191500,50671915,0.0,0.21,0.0,-0.37,338.19,338.2,0.0,0.01,3
50.77198000,50771980,0.0,0.21,0.0,-0.37,338.2,338.21,0.0,0.01,3
50.87189800,50871898,0.0,0.21,0.0,-0.37,338.21,338.22,0.0,0.01,3
50.97213700,50972137,0.0,0.21,0.0,-0.37,338.21,338.22,0.0,0.01,3
51.07180600,51071806,0.0,0.21,0.0,-0.36,338.22,338.23,0.0,0.01,3
51.17180700,51171807,0.0,0.21,0.0,-0.36,338.22,338.23,0.0,0.01,3
51.27185300,51271853,0.0,0.22,0.0,-0.37,338.22,338.23,0.0,0.0,3
51.37184500,51371845,0.0,0.22,0.0,-0.36,338.22,338.23,0.0,0.0,3
51.47192700,51471927,0.0,0.22,0.0,-0.36,338.21,338.22,0.0,0.0,3
51.57198500,51571985,0.0,0.23,0.0,-0.36,338.21,338.22,0.0,0.0,3
51.67195800,51671958,0.0,0.23,0.0,-0.36,338.21,338.22,0.0,0.0,3
51.77216700,51772167,0.0,0.23,0.0,-0.36,338.21,338.22,0.0,0.0,3
51.87213100,51872131,0.0,0.24,0.0,-0.36,338.21,338.22,0.0,0.0,3
51.97180900,51971809,0.0,0.24,0.0,-0.36,338.21,338.22,0.0,0.0,3
52.07179800,52071798,0.0,0.23,0.0,-0.37,338.21,338.22,0.0,0.0,3
52.17182800,52171828,0.0,0.23,0.0,-0.37,338.21,338.22,0.0,0.0,3
52.27181800,52271818,0.0,0.23,0.0,-0.37,338.21,338.22,0.0,0.0,3
52.37194000,52371940,0.0,0.23,0.0,-0.37,338.21,338.22,0.0,0.0,3
52.47194100,52471941,0.0,0.24,0.0,-0.37,338.21,338.22,0.0,0.0,3
52.57192800,52571928,0.0,0.24,0.0,-0.37,338.2,338.21,0.0,0.0,3
52.67189000,52671890,0.0,0.24,0.0,-0.37,338.2,338.21,0.0,0.0,3
52.77181200,52771812,0.0,0.24,0.0,-0.37,338.2,338.21,0.0,0.01,3
52.87180600,52871806,0.0,0.24,0.0,-0.37,338.19,338.2,0.0,0.01,3
52.97206200,52972062,0.0,0.24,0.0,-0.38,338.18,338.19,0.0,0.01,3
53.07185300,53071853,0.0,0.24,0.0,-0.38,338.17,338.18,0.0,0.01,3
53.17181900,53171819,0.0,0.25,0.0,-0.38,338.17,338.18,0.0,0.01,3
53.27202300,53272023,0.0,0.25,0.0,-0.37,338.17,338.18,0.0,0.01,3
53.37200700,53372007,0.0,0.25,0.0,-0.38,338.17,338.18,0.0,0.01,3
53.47212900,53472129,0.0,0.25,0.0,-0.38,338.18,338.19,0.0,0.01,3
53.57213900,53572139,0.0,0.26,0.0,-0.38,338.18,338.19,0.0,0.01,3
53.67208900,53672089,0.0,0.26,0.0,-0.38,338.19,338.2,0.0,0.0,3
53.77202800,53772028,0.0,0.25,0.0,-0.38,338.19,338.2,0.0,0.0,3
53.87225800,53872258,0.0,0.25,0.0,-0.38,338.2,338.21,0.0,0.0,3
53.97183100,53971831,0.0,0.25,0.0,-0.38,338.2,338.21,0.0,0.0,3
54.07183500,54071835,0.0,0.25,0.0,-0.38,338.2,338.21,0.0,0.0,3
54.17194400,54171944,0.0,0.25,0.0,-0.38,338.2,338.21,0.0,0.0,3
54.27194700,54271947,0.0,0.25,0.0,-0.38,338.2,338.21,0.0,0.01,3
54.37201100,54372011,0.0,0.25,0.0,-0.38,338.2,338.21,0.0,0.0,3
54.47198000,54471980,0.0,0.25,0.0,-0.38,338.2,338.21,0.0,0.0,3
54.57179700,54571797,0.0,0.25,0.0,-0.38,338.2,338.21,0.0,0.0,3
54.67180600,54671806,0.0,0.25,0.0,-0.38,338.2,338.21,0.0,0.0,3
54.77213300,54772133,0.0,0.25,0.0,-0.38,338.2,338.21,0.0,0.0,3
54.87219100,54872191,0.0,0.26,0.0,-0.38,338.19,338.2,0.0,0.0,3
54.97206200,54972062,0.0,0.26,0.0,-0.38,338.19,338.2,0.0,0.0,3
55.07219200,55072192,0.0,0.26,0.0,-0.39,338.18,338.19,0.0,0.0,3
55.17193800,55171938,0.0,0.26,0.0,-0.39,338.17,338.18,0.0,0.0,3
55.27198700,55271987,0.0,0.26,0.0,-0.39,338.17,338.18,0.0,0.0,3
55.37191700,55371917,0.0,0.26,0.0,-0.39,338.17,338.18,0.0,0.0,3
55.47181600,55471816,0.0,0.25,0.0,-0.39,338.17,338.18,0.0,0.0,3
55.57179300,55571793,0.0,0.25,0.0,-0.39,338.16,338.17,0.0,0.01,3
55.67180400,55671804,0.0,0.25,0.0,-0.39,338.17,338.18,0.0,0.01,3
55.77183600,55771836,0.0,0.25,0.0,-0.39,338.17,338.18,0.0,0.01,3
55.87207500,55872075,0.0,0.25,0.0,-0.39,338.18,338.19,0.0,0.01,3
55.97219300,55972193,0.0,0.25,0.0,-0.39,338.19,338.2,0.0,0.01,3
56.07197800,56071978,0.0,0.25,0.0,-0.39,338.2,338.21,0.0,0.01,3
56.17194100,56171941,0.0,0.25,0.0,-0.39,338.2,338.21,0.0,0.01,3
56.27189400,56271894,0.0,0.25,0.0,-0.39,338.21,338.22,0.0,0.01,3
56.37188000,56371880,0.0,0.25,0.0,-0.39,338.21,338.22,0.0,0.01,3
56.47180700,56471807,0.0,0.25,0.0,-0.39,338.22,338.23,0.0,0.01,3
56.57185100,56571851,0.0,0.24,0.0,-0.39,338.22,338.23,0.0,0.01,3
56.67185700,56671857,0.0,0.24,0.0,-0.39,338.23,338.24,0.0,0.01,3
56.77206300,56772063,0.0,0.24,0.0,-0.39,338.24,338.25,0.0,0.01,3
56.87223300,56872233,0.0,0.24,0.0,-0.39,338.24,338.25,0.0,0.01,3
56.97214600,56972146,0.0,0.24,0.0,-0.39,338.25,338.26,0.0,0.0,3
57.07231600,57072316,0.0,0.24,0.0,-0.39,338.25,338.26,0.0,0.01,3
57.17231900,57172319,0.0,0.24,0.0,-0.39,338.25,338.26,0.0,0.01,3
57.27231300,57272313,0.0,0.24,0.0,-0.39,338.26,338.27,0.0,0.01,3
57.37234300,57372343,0.0,0.24,0.0,-0.39,338.26,338.27,0.0,0.01,3
57.47225600,57472256,0.0,0.23,0.0,-0.39,338.26,338.27,0.0,0.01,3
57.57235700,57572357,0.0,0.23,0.0,-0.39,338.27,338.28000000000003,0.0,0.01,3
57.67229400,57672294,0.0,0.23,0.0,-0.4,338.27,338.28000000000003,0.0,0.01,3
57.77241100,57772411,0.0,0.23,0.0,-0.4,338.27,338.28000000000003,0.0,0.01,3
57.87233900,57872339,0.0,0.23,0.0,-0.4,338.27,338.28000000000003,0.0,0.01,3
57.97234900,57972349,0.0,0.23,0.0,-0.4,338.27,338.28000000000003,0.0,0.01,3
58.07216900,58072169,0.0,0.23,0.0,-0.4,338.27,338.28000000000003,0.0,0.01,3
58.17211400,58172114,0.0,0.23,0.0,-0.4,338.27,338.28000000000003,0.0,0.0,3
58.27212800,58272128,0.0,0.23,0.0,-0.4,338.28000000000003,338.29,0.0,0.0,3
58.37208700,58372087,0.0,0.23,0.0,-0.4,338.28000000000003,338.29,0.0,0.0,3
58.47216400,58472164,0.0,0.23,0.0,-0.4,338.27,338.28000000000003,0.0,0.0,3
58.57204400,58572044,0.0,0.24,0.0,-0.4,338.27,338.28000000000003,0.0,0.0,3
58.67254700,58672547,0.0,0.24,0.0,-0.4,338.27,338.28000000000003,0.0,0.0,3
58.77213200,58772132,0.0,0.24,0.0,-0.41000000000000003,338.27,338.28000000000003,0.0,0.0,3
58.87219600,58872196,0.0,0.24,0.0,-0.41000000000000003,338.27,338.28000000000003,0.0,0.0,3
58.97215700,58972157,0.0,0.24,0.0,-0.41000000000000003,338.28000000000003,338.29,0.0,0.0,3
59.07212800,59072128,0.0,0.24,0.0,-0.41000000000000003,338.28000000000003,338.29,0.0,0.0,3
59.17211300,59172113,0.0,0.24,0.0,-0.4,338.28000000000003,338.29,0.0,0.0,3
59.27207200,59272072,0.0,0.24,0.0,-0.41000000000000003,338.27,338.28000000000003,0.0,0.0,3
59.37219200,59372192,0.0,0.24,0.0,-0.41000000000000003,338.27,338.28000000000003,0.0,0.0,3
59.47207000,59472070,0.0,0.24,0.0,-0.41000000000000003,338.26,338.27,0.0,0.0,3
59.57221100,59572211,0.0,0.24,0.0,-0.41000000000000003,338.26,338.27,0.0,0.0,3
59.67213000,59672130,0.0,0.24,0.0,-0.42,338.26,338.27,0.0,0.0,3
59.77233800,59772338,0.0,0.24,0.0,-0.42,338.26,338.27,0.0,0.0,3
59.87236700,59872367,0.0,0.24,0.0,-0.43,338.26,338.27,0.0,0.0,3
59.97235100,59972351,0.0,0.24,0.0,-0.43,338.25,338.26,0.0,0.01,3
60.07212200,60072122,0.0,0.23,0.0,-0.43,338.26,338.27,0.0,0.01,3
60.17205000,60172050,0.0,0.23,0.0,-0.44,338.26,338.27,0.0,0.01,3
60.27217800,60272178,0.0,0.23,0.0,-0.44,338.27,338.28000000000003,0.0,0.01,3
60.37208400,60372084,0.0,0.23,0.0,-0.44,338.27,338.28000000000003,0.0,0.01,3
60.47219300,60472193,0.0,0.23,0.0,-0.45,338.28000000000003,338.29,0.0,0.01,3
60.57214800,60572148,0.0,0.22,0.0,-0.45,338.28000000000003,338.29,0.0,0.01,3
60.67235700,60672357,0.0,0.22,0.0,-0.45,338.28000000000003,338.29,0.0,0.01,3
60.77245700,60772457,0.0,0.22,0.0,-0.45,338.28000000000003,338.29,0.0,0.01,3
60.87214300,60872143,0.0,0.22,0.0,-0.45,338.29,338.3,0.0,0.0,3
60.97211900,60972119,0.0,0.22,0.0,-0.45,338.29,338.3,0.0,0.0,3
61.07206400,61072064,0.0,0.22,0.0,-0.45,338.28000000000003,338.29,0.0,0.0,3
61.17216300,61172163,0.0,0.22,0.0,-0.45,338.28000000000003,338.29,0.0,0.0,3
61.27207000,61272070,0.0,0.22,0.0,-0.45,338.28000000000003,338.29,0.0,0.0,3
61.37223000,61372230,0.0,0.22,0.0,-0.45,338.28000000000003,338.29,0.0,0.0,3
61.47214600,61472146,0.0,0.21,0.0,-0.45,338.28000000000003,338.29,0.0,0.0,3
61.57216000,61572160,0.0,0.21,0.0,-0.45,338.28000000000003,338.29,0.0,0.0,3
61.67218800,61672188,0.0,0.21,0.0,-0.45,338.28000000000003,338.29,0.0,0.0,3
61.77215400,61772154,0.0,0.21,0.0,-0.45,338.28000000000003,338.29,0.0,0.01,3
61.87181000,61871810,0.0,0.21,0.0,-0.45,338.28000000000003,338.29,0.0,0.01,3
61.97182300,61971823,0.0,0.21,0.0,-0.45,338.29,338.3,0.0,0.01,3
62.07185400,62071854,0.0,0.21,0.0,-0.45,338.29,338.3,0.0,0.01,3
62.17185800,62171858,0.0,0.21,0.0,-0.45,338.29,338.3,0.0,0.0,3
62.27201100,62272011,0.0,0.2,0.0,-0.45,338.29,338.3,0.0,0.0,3
62.37201400,62372014,0.0,0.2,0.0,-0.45,338.29,338.3,0.0,0.0,3
62.47198800,62471988,0.0,0.2,0.0,-0.46,338.28000000000003,338.29,0.0,0.0,3
62.57219700,62572197,0.0,0.21,0.0,-0.46,338.28000000000003,338.29,0.0,0.0,3
62.67213000,62672130,0.0,0.21,0.0,-0.46,338.28000000000003,338.29,0.0,0.0,3
62.77180100,62771801,0.0,0.21,0.0,-0.46,338.28000000000003,338.29,0.0,0.0,3
62.87188100,62871881,0.0,0.2,0.0,-0.46,338.28000000000003,338.29,0.0,0.0,3
62.97184100,62971841,0.0,0.2,0.0,-0.46,338.28000000000003,338.29,0.0,0.0,3
63.07183500,63071835,0.0,0.2,0.0,-0.47000000000000003,338.28000000000003,338.29,0.0,0.01,3
63.17193000,63171930,0.0,0.2,0.0,-0.47000000000000003,338.28000000000003,338.29,0.0,0.01,3
63.27200500,63272005,0.0,0.2,0.0,-0.46,338.29,338.3,0.0,0.0,3
63.37203400,63372034,0.0,0.2,0.0,-0.46,338.29,338.3,0.0,0.0,3
63.47189700,63471897,0.0,0.2,0.0,-0.46,338.29,338.3,0.0,0.0,3
63.57181100,63571811,0.0,0.2,0.0,-0.46,338.29,338.3,0.0,0.0,3
63.67180400,63671804,0.0,0.2,0.0,-0.46,338.28000000000003,338.29,0.0,0.0,3
63.77204900,63772049,0.0,0.2,0.0,-0.46,338.29,338.3,0.0,0.0,3
63.87184100,63871841,0.0,0.2,0.0,-0.45,338.29,338.3,0.0,0.0,3
63.97181800,63971818,0.0,0.2,0.0,-0.46,338.29,338.3,0.0,0.0,3
64.07194100,64071941,0.0,0.2,0.0,-0.46,338.29,338.3,0.0,0.0,3
64.17193900,64171939,0.0,0.2,0.0,-0.46,338.29,338.3,0.0,0.0,3
64.27199500,64271995,0.0,0.2,0.0,-0.45,338.29,338.3,0.0,0.0,3
64.37194500,64371945,0.0,0.2,0.0,-0.46,338.28000000000003,338.29,0.0,0.0,3
64.47181300,64471813,0.0,0.2,0.0,-0.46,338.28000000000003,338.29,0.0,0.01,3
64.57178800,64571788,0.0,0.19,0.0,-0.46,338.29,338.3,0.0,0.0,3
64.67206400,64672064,0.0,0.19,0.0,-0.46,338.29,338.3,0.0,0.01,3
64.77182900,64771829,0.0,0.19,0.0,-0.46,338.29,338.3,0.0,0.0,3
64.87183400,64871834,0.0,0.19,0.0,-0.45,338.29,338.3,0.0,0.01,3
64.97202400,64972024,0.0,0.19,0.0,-0.45,338.29,338.3,0.0,0.01,3
65.07199000,65071990,0.0,0.19,0.0,-0.44,338.3,338.31,0.0,0.0,3
65.17195700,65171957,0.0,0.19,0.0,-0.44,338.3,338.31,0.0,0.0,3
65.27193700,65271937,0.0,0.19,0.0,-0.45,338.3,338.31,0.0,0.01,3
65.37183500,65371835,0.0,0.19,0.0,-0.44,338.3,338.31,0.0,0.01,3
65.47179400,65471794,0.0,0.19,0.0,-0.44,338.3,338.31,0.0,0.01,3
65.57206700,65572067,0.0,0.19,0.0,-0.45,338.3,338.31,0.0,0.01,3
65.67218800,65672188,0.0,0.18,0.0,-0.44,338.3,338.31,0.0,0.01,3
65.77206500,65772065,0.0,0.18,0.0,-0.44,338.3,338.31,0.0,0.01,3
65.87221000,65872210,0.0,0.19,0.0,-0.44,338.3,338.31,0.0,0.01,3
65.97199100,65971991,0.0,0.18,0.0,-0.44,338.3,338.31,0.0,0.01,3
66.07214800,66072148,0.0,0.18,0.0,-0.44,338.3,338.31,0.0,0.01,3
66.17214400,66172144,0.0,0.18,0.0,-0.44,338.29,338.3,0.0,0.01,3
66.27210400,66272104,0.0,0.18,0.0,-0.44,338.29,338.3,0.0,0.0,3
66.37211700,66372117,0.0,0.18,0.0,-0.44,338.28000000000003,338.29,0.0,0.0,3
66.47222900,66472229,0.0,0.18,0.0,-0.44,338.28000000000003,338.29,0.0,0.0,3
66.57215600,66572156,0.0,0.17,0.0,-0.43,338.28000000000003,338.29,0.0,0.0,3
66.67182300,66671823,0.0,0.17,0.0,-0.43,338.28000000000003,338.29,0.0,0.0,3
66.77193400,66771934,0.0,0.17,0.0,-0.43,338.28000000000003,338.29,0.0,0.0,3
66.87193100,66871931,0.0,0.17,0.0,-0.43,338.28000000000003,338.29,0.0,0.0,3
66.97198500,66971985,0.0,0.18,0.0,-0.42,338.28000000000003,338.29,0.0,0.0,3
67.07196000,67071960,0.0,0.17,0.0,-0.42,338.29,338.3,0.0,0.0,3
67.17211000,67172110,0.0,0.17,0.0,-0.42,338.29,338.3,0.0,0.0,3
67.27179600,67271796,0.0,0.18,0.0,-0.42,338.29,338.3,0.0,0.0,3
67.37183200,67371832,0.0,0.18,0.0,-0.42,338.29,338.3,0.0,0.0,3
67.47184300,67471843,0.0,0.17,0.0,-0.42,338.29,338.3,0.0,0.0,3
67.57181500,67571815,0.0,0.18,0.0,-0.42,338.29,338.3,0.0,0.0,3
67.67192300,67671923,0.0,0.18,0.0,-0.42,338.29,338.3,0.0,0.0,3
67.77199500,67771995,0.0,0.17,0.0,-0.41000000000000003,338.29,338.3,0.0,0.0,3
67.87200200,67872002,0.0,0.17,0.0,-0.41000000000000003,338.29,338.3,0.0,0.0,3
67.97191000,67971910,0.0,0.18,0.0,-0.41000000000000003,338.29,338.3,0.0,0.0,3
68.07211700,68072117,0.0,0.17,0.0,-0.41000000000000003,338.29,338.3,0.0,0.0,3
68.17210300,68172103,0.0,0.17,0.0,-0.41000000000000003,338.29,338.3,0.0,0.0,3
68.27206400,68272064,0.0,0.17,0.0,-0.41000000000000003,338.29,338.3,0.0,0.0,3
68.37191200,68371912,0.0,0.17,0.0,-0.4,338.28000000000003,338.29,0.0,0.01,3
68.47184100,68471841,0.0,0.17,0.0,-0.41000000000000003,338.29,338.3,0.0,0.01,3
68.57194500,68571945,0.0,0.17,0.0,-0.41000000000000003,338.29,338.3,0.0,0.01,3
68.67201400,68672014,0.0,0.17,0.0,-0.41000000000000003,338.29,338.3,0.0,0.0,3
68.77203600,68772036,0.0,0.17,0.0,-0.41000000000000003,338.28000000000003,338.29,0.0,0.0,3
68.87190300,68871903,0.0,0.17,0.0,-0.4,338.29,338.3,0.0,0.01,3
68.97213200,68972132,0.0,0.17,0.0,-0.41000000000000003,338.29,338.3,0.0,0.0,3
69.07211800,69072118,0.0,0.17,0.0,-0.41000000000000003,338.29,338.3,0.0,0.0,3
69.17218500,69172185,0.0,0.17,0.0,-0.41000000000000003,338.3,338.31,0.0,0.0,3
69.27184100,69271841,0.0,0.16,0.0,-0.41000000000000003,338.3,338.31,0.0,0.0,3
69.37184900,69371849,0.0,0.16,0.0,-0.41000000000000003,338.31,338.32,0.0,0.0,3
69.47199300,69471993,0.0,0.16,0.0,-0.41000000000000003,338.31,338.32,0.0,0.0,3
69.57220800,69572208,0.0,0.16,0.0,-0.41000000000000003,338.31,338.32,0.0,0.0,3
69.67215000,69672150,0.0,0.17,0.0,-0.41000000000000003,338.31,338.32,0.0,0.0,3
69.77212800,69772128,0.0,0.17,0.0,-0.41000000000000003,338.31,338.32,0.0,0.0,3
69.87211400,69872114,0.0,0.17,0.0,-0.41000000000000003,338.31,338.32,0.0,0.0,3
69.97202700,69972027,0.0,0.17,0.0,-0.41000000000000003,338.31,338.32,0.0,0.0,3
70.07224100,70072241,0.0,0.17,0.0,-0.41000000000000003,338.3,338.31,0.0,0.0,3
70.17183100,70171831,0.0,0.17,0.0,-0.41000000000000003,338.3,338.31,0.0,0.0,3
70.27182900,70271829,0.0,0.17,0.0,-0.41000000000000003,338.29,338.3,0.0,0.0,3
70.37202300,70372023,0.0,0.17,0.0,-0.41000000000000003,338.29,338.3,0.0,0.0,3
70.47198800,70471988,0.0,0.18,0.0,-0.41000000000000003,338.28000000000003,338.29,0.0,0.0,3
70.57221300,70572213,0.0,0.18,0.0,-0.41000000000000003,338.28000000000003,338.29,0.0,0.01,3
70.67192200,70671922,0.0,0.18,0.0,-0.41000000000000003,338.27,338.28000000000003,0.0,0.01,3
70.77211000,70772110,0.0,0.18,0.0,-0.41000000000000003,338.27,338.28000000000003,0.0,0.01,3
70.87212700,70872127,0.0,0.18,0.0,-0.41000000000000003,338.27,338.28000000000003,0.0,0.01,3
70.97206200,70972062,0.0,0.18,0.0,-0.41000000000000003,338.26,338.27,0.0,0.01,3
71.07185500,71071855,0.0,0.18,0.0,-0.41000000000000003,338.25,338.26,0.0,0.0,3
71.17183800,71171838,0.0,0.18,0.0,-0.41000000000000003,338.25,338.26,0.0,0.0,3
71.27205500,71272055,0.0,0.18,0.0,-0.41000000000000003,338.25,338.26,0.0,0.01,3
71.37202700,71372027,0.0,0.18,0.0,-0.4,338.25,338.26,0.0,0.01,3
71.47200800,71472008,0.0,0.18,0.0,-0.4,338.25,338.26,0.0,0.01,3
71.57205700,71572057,0.0,0.19,0.0,-0.4,338.25,338.26,0.0,0.01,3
71.67182300,71671823,0.0,0.19,0.0,-0.4,338.25,338.26,0.0,0.0,3
71.77179000,71771790,0.0,0.19,0.0,-0.4,338.26,338.27,0.0,0.0,3
71.87181900,71871819,0.0,0.19,0.0,-0.4,338.26,338.27,0.0,0.0,3
71.97185000,71971850,0.0,0.19,0.0,-0.4,338.26,338.27,0.0,0.0,3
72.07207100,72072071,0.0,0.19,0.0,-0.4,338.25,338.26,0.0,0.0,3
72.17219600,72172196,0.0,0.19,0.0,-0.41000000000000003,338.25,338.26,0.0,0.0,3
72.27199800,72271998,0.0,0.19,0.0,-0.4,338.25,338.26,0.0,0.0,3
72.37220000,72372200,0.0,0.19,0.0,-0.41000000000000003,338.25,338.26,0.0,0.0,3
72.47216500,72472165,0.0,0.19,0.0,-0.41000000000000003,338.25,338.26,0.0,0.0,3
72.57213200,72572132,0.0,0.18,0.0,-0.41000000000000003,338.25,338.26,0.0,0.0,3
72.67211800,72672118,0.0,0.18,0.0,-0.41000000000000003,338.25,338.26,0.0,0.0,3
72.77204000,72772040,0.0,0.19,0.0,-0.41000000000000003,338.25,338.26,0.0,0.0,3
72.87218100,72872181,0.0,0.19,0.0,-0.41000000000000003,338.25,338.26,0.0,0.0,3
72.97233100,72972331,0.0,0.19,0.0,-0.41000000000000003,338.25,338.26,0.0,0.0,3
73.07223000,73072230,0.0,0.19,0.0,-0.41000000000000003,338.25,338.26,0.0,0.01,3
73.17215100,73172151,0.0,0.19,0.0,-0.4,338.26,338.27,0.0,0.0,3
73.27218000,73272180,0.0,0.19,0.0,-0.4,338.26,338.27,0.0,0.0,3
73.37229800,73372298,0.0,0.19,0.0,-0.4,338.27,338.28000000000003,0.0,0.0,3
73.47213000,73472130,0.0,0.19,0.0,-0.4,338.27,338.28000000000003,0.0,0.0,3
73.57212400,73572124,0.0,0.19,0.0,-0.4,338.27,338.28000000000003,0.0,0.0,3
73.67204900,73672049,0.0,0.18,0.0,-0.4,338.27,338.28000000000003,0.0,0.0,3
73.77216800,73772168,0.0,0.19,0.0,-0.39,338.26,338.27,0.0,0.0,3
73.87235800,73872358,0.0,0.18,0.0,-0.4,338.26,338.27,0.0,0.01,3
73.97223700,73972237,0.0,0.18,0.0,-0.39,338.26,338.27,0.0,0.01,3
74.07217100,74072171,0.0,0.18,0.0,-0.39,338.26,338.27,0.0,0.01,3
74.17216700,74172167,0.0,0.17,0.0,-0.39,338.25,338.26,0.0,0.01,3
74.27219400,74272194,0.0,0.18,0.0,-0.39,338.25,338.26,0.0,0.01,3
74.37219200,74372192,0.0,0.17,0.0,-0.39,338.25,338.26,0.0,0.01,3
74.47211000,74472110,0.0,0.17,0.0,-0.39,338.25,338.26,0.0,0.01,3
74.57227800,74572278,0.0,0.17,0.0,-0.39,338.25,338.26,0.0,0.0,3
74.67184200,74671842,0.0,0.17,0.0,-0.39,338.25,338.26,0.0,0.0,3
74.77182300,74771823,0.0,0.17,0.0,-0.39,338.25,338.26,0.0,0.0,3
74.87201400,74872014,0.0,0.17,0.0,-0.39,338.25,338.26,0.0,0.01,3
74.97194600,74971946,0.0,0.17,0.0,-0.39,338.25,338.26,0.0,0.0,3
75.07198300,75071983,0.0,0.17,0.0,-0.39,338.26,338.27,0.0,0.01,3
75.17188100,75171881,0.0,0.17,0.0,-0.39,338.26,338.27,0.0,0.01,3
75.27183100,75271831,0.0,0.17,0.0,-0.38,338.26,338.27,0.0,0.01,3
75.37182000,75371820,0.0,0.17,0.0,-0.38,338.27,338.28000000000003,0.0,0.01,3
75.47211300,75472113,0.0,0.17,0.0,-0.38,338.28000000000003,338.29,0.0,0.01,3
75.57184000,75571840,0.0,0.17,0.0,-0.38,338.27,338.28000000000003,0.0,0.01,3
75.67182300,75671823,0.0,0.17,0.0,-0.38,338.27,338.28000000000003,0.0,0.01,3
75.77200700,75772007,0.0,0.17,0.0,-0.38,338.27,338.28000000000003,0.0,0.01,3
75.87199000,75871990,0.0,0.17,0.0,-0.38,338.27,338.28000000000003,0.0,0.01,3
75.97197400,75971974,0.0,0.17,0.0,-0.38,338.27,338.28000000000003,0.0,0.01,3
76.07190500,76071905,0.0,0.17,0.0,-0.38,338.27,338.28000000000003,0.0,0.01,3
76.17209900,76172099,0.0,0.17,0.0,-0.38,338.27,338.28000000000003,0.0,0.01,3
76.27180200,76271802,0.0,0.17,0.0,-0.38,338.26,338.27,0.0,0.01,3
76.37182500,76371825,0.0,0.16,0.0,-0.38,338.26,338.27,0.0,0.01,3
76.47186100,76471861,0.0,0.16,0.0,-0.38,338.26,338.27,0.0,0.01,3
76.57183900,76571839,0.0,0.16,0.0,-0.38,338.25,338.26,0.0,0.01,3
76.67199200,76671992,0.0,0.15,0.0,-0.37,338.25,338.26,0.0,0.0,3
76.77197600,76771976,0.0,0.15,0.0,-0.37,338.25,338.26,0.0,0.0,3
76.87215700,76872157,0.0,0.15,0.0,-0.36,338.25,338.26,0.0,0.0,3
76.97214500,76972145,0.0,0.15,0.0,-0.36,338.26,338.27,0.0,0.0,3
77.07209700,77072097,0.0,0.15,0.0,-0.36,338.26,338.27,0.0,0.0,3
77.17203000,77172030,0.0,0.15,0.0,-0.36,338.26,338.27,0.0,0.01,3
77.27222800,77272228,0.0,0.15,0.0,-0.36,338.26,338.27,0.0,0.01,3
77.37219700,77372197,0.0,0.15,0.0,-0.36,338.26,338.27,0.0,0.01,3
77.47206400,77472064,0.0,0.14,0.0,-0.36,338.26,338.27,0.0,0.0,3
77.57223600,77572236,0.0,0.14,0.0,-0.36,338.26,338.27,0.0,0.0,3
77.67197600,77671976,0.0,0.14,0.0,-0.36,338.26,338.27,0.0,0.0,3
77.77197800,77771978,0.0,0.14,0.0,-0.36,338.25,338.26,0.0,0.0,3
77.87191200,77871912,0.0,0.14,0.0,-0.36,338.25,338.26,0.0,0.01,3
77.97180400,77971804,0.0,0.14,0.0,-0.35000000000000003,338.25,338.26,0.0,0.01,3
78.07180100,78071801,0.0,0.14,0.0,-0.36,338.25,338.26,0.0,0.0,3
78.17204300,78172043,0.0,0.14,0.0,-0.36,338.25,338.26,0.0,0.0,3
78.27218900,78272189,0.0,0.14,0.0,-0.36,338.24,338.25,0.0,0.0,3
78.37208900,78372089,0.0,0.14,0.0,-0.36,338.24,338.25,0.0,0.01,3
78.47221900,78472219,0.0,0.14,0.0,-0.36,338.24,338.25,0.0,0.01,3
78.57194600,78571946,0.0,0.14,0.0,-0.36,338.23,338.24,0.0,0.01,3
78.67199300,78671993,0.0,0.15,0.0,-0.36,338.23,338.24,0.0,0.01,3
78.77189300,78771893,0.0,0.14,0.0,-0.36,338.23,338.24,0.0,0.0,3
78.87181200,78871812,0.0,0.14,0.0,-0.36,338.22,338.23,0.0,0.01,3
78.97179700,78971797,0.0,0.14,0.0,-0.36,338.22,338.23,0.0,0.01,3
79.07180200,79071802,0.0,0.14,0.0,-0.36,338.22,338.23,0.0,0.01,3
79.17184800,79171848,0.0,0.14,0.0,-0.36,338.21,338.22,0.0,0.01,3
79.27208500,79272085,0.0,0.14,0.0,-0.36,338.21,338.22,0.0,0.01,3
79.37223100,79372231,0.0,0.14,0.0,-0.37,338.21,338.22,0.0,0.01,3
79.47199600,79471996,0.0,0.14,0.0,-0.36,338.2,338.21,0.0,0.01,3
79.57199100,79571991,0.0,0.14,0.0,-0.36,338.2,338.21,0.0,0.01,3
79.67197100,79671971,0.0,0.13,0.0,-0.36,338.2,338.21,0.0,0.01,3
79.77179600,79771796,0.0,0.13,0.0,-0.37,338.19,338.2,0.0,0.01,3
79.87181500,79871815,0.0,0.14,0.0,-0.37,338.19,338.2,0.0,0.01,3
79.97181000,79971810,0.0,0.14,0.0,-0.37,338.19,338.2,0.0,0.01,3
80.07184400,80071844,0.0,0.14,0.0,-0.37,338.2,338.21,0.0,0.0,3
80.17204500,80172045,0.0,0.14,0.0,-0.37,338.19,338.2,0.0,0.0,3
80.27222900,80272229,0.0,0.14,0.0,-0.37,338.19,338.2,0.0,0.0,3
80.37201000,80372010,0.0,0.14,0.0,-0.37,338.2,338.21,0.0,0.0,3
80.47216900,80472169,0.0,0.14,0.0,-0.37,338.2,338.21,0.0,0.0,3
80.57216700,80572167,0.0,0.14,0.0,-0.37,338.19,338.2,0.0,0.0,3
80.67211600,80672116,0.0,0.14,0.0,-0.37,338.19,338.2,0.0,0.0,3
80.77210600,80772106,0.0,0.14,0.0,-0.37,338.19,338.2,0.0,0.0,3
80.87207200,80872072,0.0,0.14,0.0,-0.37,338.19,338.2,0.0,0.0,3
80.97218200,80972182,0.0,0.14,0.0,-0.37,338.2,338.21,0.0,0.0,3
81.07206600,81072066,0.0,0.15,0.0,-0.37,338.19,338.2,0.0,0.0,3
81.17218600,81172186,0.0,0.15,0.0,-0.37,338.19,338.2,0.0,0.0,3
81.27216800,81272168,0.0,0.15,0.0,-0.37,338.19,338.2,0.0,0.0,3
81.37239400,81372394,0.0,0.15,0.0,-0.37,338.19,338.2,0.0,0.0,3
81.47218500,81472185,0.0,0.15,0.0,-0.37,338.19,338.2,0.0,0.01,3
81.57212200,81572122,0.0,0.15,0.0,-0.38,338.19,338.2,0.0,0.01,3
81.67211900,81672119,0.0,0.14,0.0,-0.38,338.19,338.2,0.0,0.01,3
81.77217900,81772179,0.0,0.15,0.0,-0.37,338.18,338.19,0.0,0.01,3
81.87220300,81872203,0.0,0.14,0.0,-0.38,338.18,338.19,0.0,0.01,3
81.97207900,81972079,0.0,0.14,0.0,-0.38,338.17,338.18,0.0,0.01,3
82.07224100,82072241,0.0,0.14,0.0,-0.38,338.16,338.17,0.0,0.01,3
82.17213900,82172139,0.0,0.14,0.0,-0.38,338.16,338.17,0.0,0.01,3
82.27240400,82272404,0.0,0.15,0.0,-0.38,338.16,338.17,0.0,0.01,3
82.37220300,82372203,0.0,0.14,0.0,-0.38,338.16,338.17,0.0,0.01,3
82.47213300,82472133,0.0,0.14,0.0,-0.38,338.16,338.17,0.0,0.01,3
82.57212200,82572122,0.0,0.14,0.0,-0.39,338.16,338.17,0.0,0.01,3
82.67205300,82672053,0.0,0.14,0.0,-0.39,338.16,338.17,0.0,0.0,3
82.77216600,82772166,0.0,0.14,0.0,-0.39,338.17,338.18,0.0,0.01,3
82.87208700,82872087,0.0,0.14,0.0,-0.39,338.16,338.17,0.0,0.01,3
82.97220100,82972201,0.0,0.14,0.0,-0.39,338.16,338.17,0.0,0.01,3
83.07214200,83072142,0.0,0.14,0.0,-0.39,338.15000000000003,338.16,0.0,0.01,3
83.17233700,83172337,0.0,0.14,0.0,-0.39,338.15000000000003,338.16,0.0,0.01,3
83.27233200,83272332,0.0,0.14,0.0,-0.39,338.14,338.15000000000003,0.0,0.01,3
83.37232300,83372323,0.0,0.14,0.0,-0.39,338.14,338.15000000000003,0.0,0.01,3
83.47227600,83472276,0.0,0.14,0.0,-0.39,338.13,338.14,0.0,0.01,3
83.57223500,83572235,0.0,0.14,0.0,-0.39,338.13,338.14,0.0,0.01,3
83.67219300,83672193,0.0,0.15,0.0,-0.39,338.12,338.13,0.0,0.01,3
83.77204900,83772049,0.0,0.15,0.0,-0.39,338.12,338.13,0.0,0.0,3
83.87223000,83872230,0.0,0.15,0.0,-0.39,338.12,338.13,0.0,0.0,3
83.97215800,83972158,0.0,0.15,0.0,-0.39,338.12,338.13,0.0,0.0,3
84.07233800,84072338,0.0,0.14,0.0,-0.39,338.12,338.13,0.0,0.0,3
84.17231800,84172318,0.0,0.14,0.0,-0.39,338.12,338.13,0.0,0.0,3
84.27232400,84272324,0.0,0.14,0.0,-0.39,338.12,338.13,0.0,0.0,3
84.37214000,84372140,0.0,0.14,0.0,-0.39,338.12,338.13,0.0,0.0,3
84.47207500,84472075,0.0,0.14,0.0,-0.39,338.12,338.13,0.0,0.0,3
84.57219700,84572197,0.0,0.14,0.0,-0.39,338.12,338.13,0.0,0.0,3
84.67207100,84672071,0.0,0.14,0.0,-0.39,338.11,338.12,0.0,0.0,3
84.77220200,84772202,0.0,0.14,0.0,-0.39,338.11,338.12,0.0,0.0,3
84.87216400,84872164,0.0,0.13,0.0,-0.38,338.12,338.13,0.0,0.0,3
84.97236000,84972360,0.0,0.14,0.0,-0.38,338.12,338.13,0.0,0.0,3
85.07234100,85072341,0.0,0.13,0.0,-0.38,338.12,338.13,0.0,0.0,3
85.17211300,85172113,0.0,0.13,0.0,-0.38,338.12,338.13,0.0,0.0,3
85.27212700,85272127,0.0,0.13,0.0,-0.38,338.13,338.14,0.0,0.0,3
85.37213500,85372135,0.0,0.13,0.0,-0.38,338.12,338.13,0.0,0.0,3
85.47219700,85472197,0.0,0.13,0.0,-0.37,338.12,338.13,0.0,0.0,3
85.57233500,85572335,0.0,0.13,0.0,-0.37,338.12,338.13,0.0,0.0,3
85.67221800,85672218,0.0,0.13,0.0,-0.38,338.12,338.13,0.0,0.0,3
85.77213700,85772137,0.0,0.13,0.0,-0.37,338.12,338.13,0.0,0.0,3
85.87216900,85872169,0.0,0.14,0.0,-0.37,338.12,338.13,0.0,0.0,3
85.97225900,85972259,0.0,0.14,0.0,-0.38,338.12,338.13,0.0,0.0,3
86.07211900,86072119,0.0,0.13,0.0,-0.38,338.12,338.13,0.0,0.0,3
86.17209900,86172099,0.0,0.13,0.0,-0.38,338.12,338.13,0.0,0.0,3
86.27206500,86272065,0.0,0.13,0.0,-0.37,338.12,338.13,0.0,0.0,3
86.37221700,86372217,0.0,0.13,0.0,-0.37,338.12,338.13,0.0,0.0,3
86.47233500,86472335,0.0,0.14,0.0,-0.37,338.12,338.13,0.0,0.0,3
86.57220300,86572203,0.0,0.14,0.0,-0.37,338.11,338.12,0.0,0.0,3
86.67216600,86672166,0.0,0.14,0.0,-0.37,338.11,338.12,0.0,0.0,3
86.77230300,86772303,0.0,0.14,0.0,-0.37,338.11,338.12,0.0,0.0,3
86.87234200,86872342,0.0,0.14,0.0,-0.36,338.11,338.12,0.0,0.0,3
86.97231000,86972310,0.0,0.14,0.0,-0.36,338.11,338.12,0.0,0.0,3
87.07230500,87072305,0.0,0.14,0.0,-0.36,338.11,338.12,0.0,0.0,3
87.17223700,87172237,0.0,0.14,0.0,-0.36,338.11,338.12,0.0,0.0,3
87.27244500,87272445,0.0,0.14,0.0,-0.36,338.11,338.12,0.0,0.0,3
87.37265000,87372650,0.0,0.14,0.0,-0.36,338.11,338.12,0.0,0.0,3
87.47246900,87472469,0.0,0.14,0.0,-0.36,338.11,338.12,0.0,0.0,3
87.57236500,87572365,0.0,0.13,0.0,-0.36,338.11,338.12,0.0,0.0,3
87.67234600,87672346,0.0,0.13,0.0,-0.36,338.11,338.12,0.0,0.0,3
87.77214600,87772146,0.0,0.13,0.0,-0.36,338.1,338.11,0.0,0.0,3
87.87214700,87872147,0.0,0.13,0.0,-0.36,338.1,338.11,0.0,0.0,3
87.97212100,87972121,0.0,0.13,0.0,-0.36,338.1,338.11,0.0,0.0,3
88.07218900,88072189,0.0,0.12,0.0,-0.36,338.09000000000003,338.1,0.0,0.01,3
88.17216800,88172168,0.0,0.13,0.0,-0.36,338.09000000000003,338.1,0.0,0.0,3
88.27207200,88272072,0.0,0.12,0.0,-0.35000000000000003,338.09000000000003,338.1,0.0,0.0,3
88.37223900,88372239,0.0,0.12,0.0,-0.35000000000000003,338.1,338.11,0.0,0.0,3
88.47214700,88472147,0.0,0.12,0.0,-0.34,338.1,338.11,0.0,0.0,3
88.57232700,88572327,0.0,0.12,0.0,-0.34,338.1,338.11,0.0,0.0,3
88.67216900,88672169,0.0,0.12,0.0,-0.34,338.09000000000003,338.1,0.0,0.0,3
88.77211300,88772113,0.0,0.12,0.0,-0.33,338.09000000000003,338.1,0.0,0.0,3
88.87212400,88872124,0.0,0.12,0.0,-0.34,338.08,338.09000000000003,0.0,0.0,3
88.97206800,88972068,0.0,0.12,0.0,-0.34,338.08,338.09000000000003,0.0,0.01,3
89.07217400,89072174,0.0,0.11,0.0,-0.33,338.08,338.09000000000003,0.0,0.01,3
89.17205900,89172059,0.0,0.11,0.0,-0.33,338.08,338.09000000000003,0.0,0.01,3
89.27221600,89272216,0.0,0.11,0.0,-0.33,338.09000000000003,338.1,0.0,0.01,3
89.37238700,89372387,0.0,0.11,0.0,-0.33,338.09000000000003,338.1,0.0,0.0,3
89.47234200,89472342,0.0,0.11,0.0,-0.33,338.1,338.11,0.0,0.01,3
89.57219000,89572190,0.0,0.11,0.0,-0.33,338.1,338.11,0.0,0.0,3
89.67211800,89672118,0.0,0.11,0.0,-0.33,338.1,338.11,0.0,0.0,3
89.77216100,89772161,0.0,0.1,0.0,-0.33,338.11,338.12,0.0,0.0,3
89.87207000,89872070,0.0,0.1,0.0,-0.32,338.11,338.12,0.0,0.0,3
89.97217400,89972174,0.0,0.1,0.0,-0.33,338.11,338.12,0.0,0.0,3
90.07205900,90072059,0.0,0.1,0.0,-0.32,338.11,338.12,0.0,0.0,3
90.17222600,90172226,0.0,0.1,0.0,-0.33,338.12,338.13,0.0,0.0,3
90.27235200,90272352,0.0,0.1,0.0,-0.33,338.12,338.13,0.0,0.0,3
90.37235900,90372359,0.0,0.1,0.0,-0.33,338.12,338.13,0.0,0.0,3
90.47217500,90472175,0.0,0.1,0.0,-0.33,338.12,338.13,0.0,0.01,3
90.57212200,90572122,0.0,0.1,0.0,-0.32,338.13,338.14,0.0,0.01,3
90.67212400,90672124,0.0,0.1,0.0,-0.32,338.13,338.14,0.0,0.01,3
90.77206000,90772060,0.0,0.1,0.0,-0.32,338.14,338.15000000000003,0.0,0.01,3
90.87218400,90872184,0.0,0.1,0.0,-0.32,338.14,338.15000000000003,0.0,0.01,3
90.97206800,90972068,0.0,0.09,0.0,-0.32,338.14,338.15000000000003,0.0,0.0,3
91.07218900,91072189,0.0,0.09,0.0,-0.32,338.14,338.15000000000003,0.0,0.0,3
91.17213100,91172131,0.0,0.09,0.0,-0.32,338.14,338.15000000000003,0.0,0.0,3
91.27217900,91272179,0.0,0.09,0.0,-0.32,338.14,338.15000000000003,0.0,0.0,3
91.37219100,91372191,0.0,0.09,0.0,-0.32,338.14,338.15000000000003,0.0,0.0,3
91.47211700,91472117,0.0,0.09,0.0,-0.32,338.14,338.15000000000003,0.0,0.01,3
91.57179700,91571797,0.0,0.09,0.0,-0.32,338.13,338.14,0.0,0.01,3
91.67182100,91671821,0.0,0.09,0.0,-0.33,338.13,338.14,0.0,0.0,3
91.77184600,91771846,0.0,0.09,0.0,-0.32,338.12,338.13,0.0,0.01,3
91.87185200,91871852,0.0,0.09,0.0,-0.33,338.12,338.13,0.0,0.01,3
91.97202400,91972024,0.0,0.09,0.0,-0.33,338.12,338.13,0.0,0.01,3
92.07193900,92071939,0.0,0.08,0.0,-0.33,338.11,338.12,0.0,0.0,3
92.17216200,92172162,0.0,0.08,0.0,-0.32,338.11,338.12,0.0,0.0,3
92.27201000,92272010,0.0,0.09,0.0,-0.33,338.1,338.11,0.0,0.0,3
92.37187400,92371874,0.0,0.08,0.0,-0.32,338.1,338.11,0.0,0.0,3
92.47180200,92471802,0.0,0.08,0.0,-0.33,338.1,338.11,0.0,0.0,3
92.57181800,92571818,0.0,0.08,0.0,-0.33,338.09000000000003,338.1,0.0,0.0,3
92.67184800,92671848,0.0,0.08,0.0,-0.33,338.1,338.11,0.0,0.0,3
92.77205400,92772054,0.0,0.07,0.0,-0.33,338.1,338.11,0.0,0.0,3
92.87220300,92872203,0.0,0.07,0.0,-0.33,338.1,338.11,0.0,0.0,3
92.97199800,92971998,0.0,0.07,0.0,-0.33,338.1,338.11,0.0,0.0,3
93.07199200,93071992,0.0,0.07,0.0,-0.33,338.1,338.11,0.0,0.0,3
93.17189200,93171892,0.0,0.07,0.0,-0.33,338.1,338.11,0.0,0.0,3
93.27182200,93271822,0.0,0.07,0.0,-0.34,338.1,338.11,0.0,0.0,3
93.37196800,93371968,0.0,0.07,0.0,-0.34,338.1,338.11,0.0,0.0,3
93.47180700,93471807,0.0,0.07,0.0,-0.33,338.1,338.11,0.0,0.0,3
93.57183900,93571839,0.0,0.07,0.0,-0.34,338.1,338.11,0.0,0.0,3
93.67206200,93672062,0.0,0.07,0.0,-0.34,338.1,338.11,0.0,0.0,3
93.77219800,93772198,0.0,0.07,0.0,-0.34,338.1,338.11,0.0,0.0,3
93.87193600,93871936,0.0,0.07,0.0,-0.34,338.1,338.11,0.0,0.0,3
93.97199300,93971993,0.0,0.07,0.0,-0.33,338.1,338.11,0.0,0.0,3
94.07192100,94071921,0.0,0.07,0.0,-0.34,338.1,338.11,0.0,0.0,3
94.17180700,94171807,0.0,0.07,0.0,-0.34,338.11,338.12,0.0,0.0,3
94.27180100,94271801,0.0,0.07,0.0,-0.34,338.11,338.12,0.0,0.0,3
94.37190400,94371904,0.0,0.07,0.0,-0.33,338.11,338.12,0.0,0.0,3
94.47185800,94471858,0.0,0.06,0.0,-0.34,338.1,338.11,0.0,0.0,3
94.57184300,94571843,0.0,0.06,0.0,-0.34,338.11,338.12,0.0,0.0,3
94.67193600,94671936,0.0,0.07,0.0,-0.34,338.1,338.11,0.0,0.0,3
94.77199000,94771990,0.0,0.07,0.0,-0.34,338.1,338.11,0.0,0.0,3
94.87220200,94872202,0.0,0.07,0.0,-0.34,338.1,338.11,0.0,0.0,3
