timestamp,TimeUS,C,Q1,Q2,Q3,Q4
9.47130300,9471303,2,1.0,0.0,0.0,0.0
9.57131600,9571316,2,1.0,0.0,0.0,0.0
9.67130300,9671303,2,1.0,0.0,0.0,0.0
9.77130900,9771309,2,1.0,0.0,0.0,0.0
9.87135500,9871355,2,1.0,0.0,0.0,0.0
9.97129400,9971294,2,1.0,0.0,0.0,0.0
10.07138600,10071386,2,1.0,0.0,0.0,0.0
10.17137200,10171372,2,1.0,0.0,0.0,0.0
10.27134200,10271342,2,1.0,0.0,0.0,0.0
10.37129500,10371295,2,1.0,0.0,0.0,0.0
10.47130400,10471304,2,0.9999974370002747,0.0011629554210230708,-0.001930384198203683,-4.080091821379028e-05
10.57130200,10571302,2,0.9999974966049194,0.001132985926233232,-0.00192859279923141,-8.728218381293118e-05
10.67129400,10671294,2,0.9999975562095642,0.0010911464923992753,-0.0019115374889224768,-6.579164619324729e-05
10.77135300,10771353,2,0.9999976754188538,0.0010679507395252585,-0.0018694417085498571,-8.07656324468553e-05
10.87129700,10871297,2,0.9999976754188538,0.0011091330088675022,-0.0018368320306763053,-8.815524779492989e-05
10.97140700,10971407,2,0.9999977350234985,0.0011004357365891337,-0.0018253198359161615,-4.9025402404367924e-05
11.07129200,11071292,2,0.9999979138374329,0.001041699550114572,-0.0017561276908963919,-9.415462409378961e-05
11.17133300,11171333,2,0.9999979138374329,0.0009949787054210901,-0.0017742409836500883,-0.00010597005893941969
11.27129900,11271299,2,0.9999980330467224,0.0009831892093643546,-0.001707540825009346,-0.00012523283658083528
11.37130300,11371303,2,0.9999980926513672,0.000976457551587373,-0.0016980620566755533,-0.00013527167902793735
11.47129500,11471295,2,0.999998152256012,0.001001657103188336,-0.0016513519221916795,-0.00011908998567378148
11.57129900,11571299,2,0.9999982714653015,0.0009641787619329989,-0.001599005190655589,-0.00016302068252116442
11.67134300,11671343,2,0.9999983906745911,0.0009505203925073147,-0.0015177001478150487,-0.00019560851796995848
11.77129500,11771295,2,0.9999984502792358,0.0009327837033197284,-0.0014891843311488628,-0.00019669449829962105
11.87137400,11871374,2,0.9999985694885254,0.0009452944505028427,-0.0013998005306348205,-0.0002529435441829264
11.97136400,11971364,2,0.9818634390830994,0.0006734472117386758,-0.001589301973581314,-0.18958152830600739
12.07134200,12071342,2,0.9818297028541565,0.0006954721757210791,-0.0015634020091965795,-0.18975649774074554
12.17129800,12171298,2,0.9817663431167603,0.000641467806417495,-0.0015461324946954846,-0.19008423388004303
12.27130600,12271306,2,0.9816576838493347,0.0006487419595941901,-0.001474415767006576,-0.19064506888389587
12.37129300,12371293,2,0.9815300703048706,0.0006794404471293092,-0.0014637683052569628,-0.19130122661590576
12.47129500,12471295,2,0.9814063310623169,0.0006868308992125094,-0.0014722362393513322,-0.19193468987941742
12.57134000,12571340,2,0.9813229441642761,0.000684156606439501,-0.0015046626795083284,-0.19236059486865997
12.67129400,12671294,2,0.9812684059143066,0.0007122291135601699,-0.0015041757142171264,-0.19263842701911926
12.77138700,12771387,2,0.9812760353088379,0.0007768701761960983,-0.001513038296252489,-0.19259922206401825
12.87129500,12871295,2,0.9813200235366821,0.0007866257219575346,-0.0014913950581103563,-0.19237519800662994
12.97132500,12971325,2,0.981372594833374,0.0007380488677881658,-0.0014876923523843288,-0.1921069175004959
13.07129300,13071293,2,0.9814255833625793,0.0007232225616462529,-0.0015335241332650185,-0.19183588027954102
13.17130300,13171303,2,0.9814429879188538,0.0007574766059406102,-0.00150857784319669,-0.1917468011379242
13.27130500,13271305,2,0.9814594388008118,0.0007769328658469021,-0.001555402297526598,-0.1916620433330536
13.37129400,13371294,2,0.9814931750297546,0.0007938746130093932,-0.0015618476318195462,-0.19148913025856018
13.47134600,13471346,2,0.981544017791748,0.0007730989018455148,-0.0016174712218344212,-0.191227987408638
13.57130300,13571303,2,0.9816006422042847,0.0007961099036037922,-0.0016424215864390135,-0.1909368634223938
13.67138600,13671386,2,0.981610119342804,0.0009242203086614609,-0.0017431825399398804,-0.19088661670684814
13.77133300,13771333,2,0.9816468358039856,0.0008544120355509222,-0.00177784264087677,-0.19069766998291016
13.87132900,13871329,2,0.9816229343414307,0.0008822231902740896,-0.001735147787258029,-0.19082099199295044
13.97130400,13971304,2,0.981606662273407,0.0008884359267540276,-0.0017791123827919364,-0.19090405106544495
14.07130000,14071300,2,0.9816134572029114,0.0008724999497644603,-0.0017983689904212952,-0.19086910784244537
14.17129900,14171299,2,0.9816207885742188,0.0008560961578041315,-0.0018291659653186798,-0.1908312439918518
14.27131100,14271311,2,0.9816210269927979,0.0008716636220924556,-0.0018138374434784055,-0.1908300668001175
14.37134500,14371345,2,0.9816398024559021,0.0008746340172365308,-0.001827941625379026,-0.19073323905467987
14.47129600,14471296,2,0.9816696047782898,0.0008844903786666691,-0.0018666296964511275,-0.19057931005954742
14.57138100,14571381,2,0.9817087054252625,0.0008808870916254818,-0.0018809062894433737,-0.19037789106369019
14.67134100,14671341,2,0.9817506670951843,0.000932181952521205,-0.0018818487878888845,-0.19016095995903015
14.77133300,14771333,2,0.9817694425582886,0.0009470393997617066,-0.0018618995090946555,-0.19006407260894775
14.87130900,14871309,2,0.9817886352539062,0.0009981103939935565,-0.0018531325040385127,-0.18996474146842957
14.97130400,14971304,2,0.9818035960197449,0.0010279180714860559,-0.0018579070456326008,-0.18988725543022156
15.07129200,15071292,2,0.9818333983421326,0.0010578244691714644,-0.0018532066605985165,-0.18973308801651
15.17130700,15171307,2,0.9818415641784668,0.001045492710545659,-0.0018395904917269945,-0.18969087302684784
15.27134700,15271347,2,0.9818485975265503,0.001046620192937553,-0.0018544257618486881,-0.18965449929237366
15.37129400,15371294,2,0.9818320274353027,0.0010511026484891772,-0.0018360898829996586,-0.18974021077156067
15.47137800,15471378,2,0.9818118214607239,0.0010846949880942702,-0.0019252726342529058,-0.18984393775463104
15.57134200,15571342,2,0.9817938804626465,0.0011359418276697397,-0.0018520281882956624,-0.189937025308609
15.67132300,15671323,2,0.9817771315574646,0.001159618841484189,-0.0018572419648990035,-0.19002319872379303
15.77130800,15771308,2,0.9817454814910889,0.0011493460042402148,-0.0018653825391083956,-0.19018687307834625
15.87130700,15871307,2,0.981699526309967,0.0012238600756973028,-0.0018884525634348392,-0.1904231607913971
15.97129400,15971294,2,0.9816475510597229,0.0012942670146003366,-0.0018794158240780234,-0.1906905323266983
16.07129300,16071293,2,0.981593132019043,0.0013071218272671103,-0.0019176788628101349,-0.19097009301185608
16.17134300,16171343,2,0.9815276265144348,0.001309941872023046,-0.001920602866448462,-0.1913062036037445
16.27129700,16271297,2,0.9814810156822205,0.0014055423671379685,-0.0019482370698824525,-0.19154447317123413
16.37137600,16371376,2,0.9814523458480835,0.001453482429496944,-0.001965094357728958,-0.1916908323764801
16.47129800,16471298,2,0.9814265370368958,0.0014969321200624108,-0.0019827941432595253,-0.19182229042053223
16.57133600,16571336,2,0.9814144968986511,0.0015070990193635225,-0.0019848791416734457,-0.1918838620185852
16.67129300,16671293,2,0.9814270734786987,0.0015545515343546867,-0.002027748851105571,-0.19181865453720093
16.77130300,16771303,2,0.9814326167106628,0.0015722413081675768,-0.002040057210251689,-0.1917899250984192
16.87129600,16871296,2,0.9814125895500183,0.0016042622737586498,-0.0020134691148996353,-0.19189243018627167
16.97129700,16971297,2,0.981381893157959,0.0015572798438370228,-0.0019931758288294077,-0.192050039768219
17.07133700,17071337,2,0.9813691973686218,0.0015829212497919798,-0.001942886388860643,-0.19211523234844208
17.17129800,17171298,2,0.9813643097877502,0.0016110423021018505,-0.001936514163389802,-0.19213998317718506
17.27137700,17271377,2,0.9813492894172668,0.0016511082649230957,-0.0018744196277111769,-0.19221676886081696
17.37133800,17371338,2,0.981351912021637,0.0016522824298590422,-0.0018549001542851329,-0.19220362603664398
17.47132600,17471326,2,0.981380820274353,0.0016088233096525073,-0.0019230109173804522,-0.1920558214187622
17.57131300,17571313,2,0.9814355969429016,0.0016363776521757245,-0.0019612873438745737,-0.19177508354187012
17.67130300,17671303,2,0.9814788103103638,0.0016592536121606827,-0.001964928349480033,-0.19155341386795044
17.77129400,17771294,2,0.9815272092819214,0.001677518943324685,-0.0019384658662602305,-0.19130533933639526
17.87130100,17871301,2,0.9815728068351746,0.0016761540900915861,-0.0019648149609565735,-0.19107094407081604
17.97134300,17971343,2,0.9816052913665771,0.001661905786022544,-0.0019739256240427494,-0.19090422987937927
18.07129400,18071294,2,0.9816233515739441,0.0016652352642267942,-0.0019969467539340258,-0.19081103801727295
18.17138400,18171384,2,0.9816306233406067,0.001669352874159813,-0.0019684662111103535,-0.19077377021312714
18.27136300,18271363,2,0.9816309213638306,0.001666115946136415,-0.0019879250321537256,-0.1907721310853958
18.37132300,18371323,2,0.9816450476646423,0.001645582844503224,-0.001975057879462838,-0.19069987535476685
18.47130800,18471308,2,0.9816611409187317,0.0016282590804621577,-0.0019588423892855644,-0.19061723351478577
18.57130900,18571309,2,0.981674075126648,0.0015685148537158966,-0.0019187546567991376,-0.19055138528347015
18.67129400,18671294,2,0.9816938042640686,0.0015681964578107,-0.0018743034452199936,-0.19045034050941467
18.77131200,18771312,2,0.9817271828651428,0.0015503024915233254,-0.0018061375012621284,-0.19027888774871826
18.87134000,18871340,2,0.9817615151405334,0.0014949764590710402,-0.001786043168976903,-0.1901024729013443
18.97129500,18971295,2,0.9817967414855957,0.0014753504656255245,-0.0017862606327980757,-0.18992063403129578
19.07139600,19071396,2,0.9818295240402222,0.0014671384124085307,-0.0017678147414699197,-0.18975117802619934
19.17134100,19171341,2,0.9818711876869202,0.0014817013870924711,-0.0017809733981266618,-0.18953512609004974
19.27133000,19271330,2,0.9819023013114929,0.0014749406836926937,-0.0017552397912368178,-0.189374178647995
19.37134000,19371340,2,0.9819130897521973,0.001452774042263627,-0.001768113230355084,-0.1893182247877121
19.47129700,19471297,2,0.9819093942642212,0.0014321873895823956,-0.001785870874300599,-0.18933768570423126
19.57130000,19571300,2,0.9818921089172363,0.0014205432962626219,-0.0018086108611896634,-0.18942689895629883
19.67129100,19671291,2,0.9818776845932007,0.0014211568050086498,-0.001784953405149281,-0.18950213491916656
19.77133800,19771338,2,0.9818604588508606,0.0014138760743662715,-0.0017499886453151703,-0.18959173560142517
19.87130300,19871303,2,0.981842577457428,0.0013954519527032971,-0.0016726134344935417,-0.1896849423646927
19.97138400,19971384,2,0.9818257689476013,0.0013504871167242527,-0.0016675684601068497,-0.18977245688438416
20.07129300,20071293,2,0.9817994832992554,0.0013397404691204429,-0.0016638000961393118,-0.18990851938724518
20.17133200,20171332,2,0.9817526936531067,0.0013795801205560565,-0.0016531735891476274,-0.19015003740787506
20.27129200,20271292,2,0.9817171096801758,0.0013975134352222085,-0.001683049718849361,-0.19033312797546387
20.37129400,20371294,2,0.9816998243331909,0.0013854439603164792,-0.0016249195905402303,-0.1904229372739792
20.47129600,20471296,2,0.981691837310791,0.001370079698972404,-0.0015629732515662909,-0.19046470522880554
20.57130600,20571306,2,0.9816911816596985,0.0013540434883907437,-0.001569701824337244,-0.1904681921005249
20.67134000,20671340,2,0.9816977977752686,0.0013312859227880836,-0.0015698159113526344,-0.1904342919588089
20.77129400,20771294,2,0.9817102551460266,0.0013138228096067905,-0.0016015813453122973,-0.19036991894245148
20.87138300,20871383,2,0.9817399382591248,0.0012969854287803173,-0.001574410474859178,-0.19021713733673096
20.97133500,20971335,2,0.9817668199539185,0.0012310523306950927,-0.0015257495688274503,-0.1900789737701416
21.07132700,21071327,2,0.9817866683006287,0.0012174103176221251,-0.0014986778842285275,-0.18997696042060852
21.17129600,21171296,2,0.9817641973495483,0.001197303645312786,-0.001487983507104218,-0.19009307026863098
21.27129500,21271295,2,0.9817534685134888,0.0011745429364964366,-0.001534119015559554,-0.19014833867549896
21.37129200,21371292,2,0.9817346930503845,0.0011816952610388398,-0.0015856828540563583,-0.1902446746826172
21.47129700,21471297,2,0.9817318916320801,0.0011679494054988027,-0.0015743199037387967,-0.1902594119310379
21.57134300,21571343,2,0.9817160367965698,0.0011574390809983015,-0.0015619631158187985,-0.19034138321876526
21.67129400,21671294,2,0.9817070960998535,0.0011917586671188474,-0.0015579699538648129,-0.19038747251033783
21.77137600,21771376,2,0.981722354888916,0.0011708714300766587,-0.0015658008633181453,-0.19030874967575073
21.87136900,21871369,2,0.9817483425140381,0.0011343356454744935,-0.0016047979006543756,-0.19017444550991058
21.97132800,21971328,2,0.9817841053009033,0.0011774740414693952,-0.0016392931574955583,-0.1899891197681427
22.07130600,22071306,2,0.981813907623291,0.0011680589523166418,-0.0016317061381414533,-0.18983514606952667
22.17130800,22171308,2,0.9818310141563416,0.0011443948606029153,-0.0016456682933494449,-0.18974663317203522
22.27130200,22271302,2,0.9818453788757324,0.00119076541159302,-0.001679814886301756,-0.18967179954051971
22.37129200,22371292,2,0.9818605184555054,0.0011996121611446142,-0.0016852575354278088,-0.18959328532218933
22.47134000,22471340,2,0.9818681478500366,0.0011823474196717143,-0.0016913388390094042,-0.18955384194850922
22.57129600,22571296,2,0.9818819761276245,0.0012368692550808191,-0.0016830040840432048,-0.1894819587469101
22.67138800,22671388,2,0.9818856716156006,0.0013125152327120304,-0.0017170100472867489,-0.1894618719816208
22.77129200,22771292,2,0.9818940758705139,0.001317908987402916,-0.0017095464281737804,-0.18941864371299744
22.87134200,22871342,2,0.9819039106369019,0.0013189211022108793,-0.0016660048859193921,-0.18936787545681
22.97129600,22971296,2,0.9819134473800659,0.0013157845241948962,-0.0016291801584884524,-0.18931879103183746
23.07130100,23071301,2,0.9819256067276001,0.001307270722463727,-0.001616259920410812,-0.18925580382347107
23.17130000,23171300,2,0.9819269180297852,0.00132200017105788,-0.0015825113514438272,-0.18924927711486816
23.27129500,23271295,2,0.9819315075874329,0.0013132921885699034,-0.0015820678090676665,-0.18922556936740875
23.37133900,23371339,2,0.9819328784942627,0.001352496212348342,-0.0015594306169077754,-0.18921837210655212
23.47129700,23471297,2,0.9819381833076477,0.0013376411516219378,-0.0015486613847315311,-0.1891910284757614
23.57139300,23571393,2,0.9819316864013672,0.0013156284112483263,-0.0015080786542966962,-0.1892252266407013
23.67136200,23671362,2,0.9819281697273254,0.0012799277901649475,-0.0014970391057431698,-0.1892438679933548
23.77133100,23771331,2,0.9819173812866211,0.0012679288629442453,-0.001452847383916378,-0.18930020928382874
23.87130300,23871303,2,0.9819018840789795,0.0012717526406049728,-0.0014234301634132862,-0.18938077986240387
23.97129200,23971292,2,0.981889009475708,0.0012433967785909772,-0.001390041783452034,-0.18944771587848663
24.07129400,24071294,2,0.9818668365478516,0.001209364621900022,-0.0013810484670102596,-0.18956291675567627
24.17129400,24171294,2,0.9818565845489502,0.0011865239357575774,-0.0013743796152994037,-0.1896163523197174
24.27135300,24271353,2,0.9818360209465027,0.001202630577608943,-0.0013493073638528585,-0.18972277641296387
24.37129100,24371291,2,0.9818339943885803,0.001170495292171836,-0.0013296836987137794,-0.1897338181734085
24.47138800,24471388,2,0.9818398356437683,0.00123212905600667,-0.0013334070099517703,-0.18970295786857605
24.57133900,24571339,2,0.9818504452705383,0.0012702893000096083,-0.0013224240392446518,-0.18964806199073792
24.67133900,24671339,2,0.9818714261054993,0.001291557215154171,-0.0012846575118601322,-0.1895393282175064
24.77130200,24771302,2,0.9818957448005676,0.0012641645735129714,-0.0013778317952528596,-0.1894129514694214
24.87130500,24871305,2,0.9819197058677673,0.0012192633002996445,-0.0013922883663326502,-0.189288929104805
24.97130700,24971307,2,0.981939435005188,0.0012458175187930465,-0.0014167517656460404,-0.18918627500534058
25.07129200,25071292,2,0.9819604754447937,0.0012440283317118883,-0.001457056263461709,-0.18907658755779266
25.17134500,25171345,2,0.981977641582489,0.001208108034916222,-0.0014572202926501632,-0.18898771703243256
25.27129800,25271298,2,0.9819844961166382,0.001125789131037891,-0.001441473956219852,-0.1889527142047882
25.37137400,25371374,2,0.9819822311401367,0.0010671588825061917,-0.0014220941811800003,-0.18896499276161194
25.47136400,25471364,2,0.9819860458374023,0.0010765907354652882,-0.0014186017215251923,-0.18894502520561218
25.57133700,25571337,2,0.9819887280464172,0.0010367388604208827,-0.001427337876521051,-0.1889311522245407
25.67130300,25671303,2,0.981994092464447,0.0010010378900915384,-0.0014325689990073442,-0.18890340626239777
25.77130300,25771303,2,0.9819967150688171,0.0009730294113978744,-0.0014566461322829127,-0.18888981640338898
25.87130700,25871307,2,0.9819959402084351,0.0009479039581492543,-0.001464465050958097,-0.18889383971691132
25.97129300,25971293,2,0.9819909334182739,0.0009805801091715693,-0.0014498549280688167,-0.18891987204551697
26.07133800,26071338,2,0.981991708278656,0.001004000543616712,-0.0014000015798956156,-0.18891631066799164
26.17129500,26171295,2,0.9820038676261902,0.0009817929239943624,-0.00146485713776201,-0.1888524293899536
26.27137700,26271377,2,0.9820101261138916,0.000981602119281888,-0.0014516933588311076,-0.18882016837596893
26.37129200,26371292,2,0.9820328950881958,0.00093956378987059,-0.0014680761378258467,-0.18870161473751068
26.47133600,26471336,2,0.982026219367981,0.0009313936461694539,-0.001445247558876872,-0.18873685598373413
26.57129600,26571296,2,0.9820348024368286,0.000945885491091758,-0.001447357120923698,-0.1886918991804123
26.67129300,26671293,2,0.9820306301116943,0.0009186812676489353,-0.0014272467233240604,-0.18871401250362396
26.77129500,26771295,2,0.9820268154144287,0.0009046242339536548,-0.0014247946674004197,-0.18873383104801178
26.87131500,26871315,2,0.98201984167099,0.00092337466776371,-0.0014558056136593223,-0.18876999616622925
26.97134300,26971343,2,0.9820181131362915,0.0009517131256870925,-0.0014998087426647544,-0.18877838551998138
27.07129300,27071293,2,0.9820168018341064,0.0009618531912565231,-0.0015402203425765038,-0.18878495693206787
27.17138800,27171388,2,0.982014000415802,0.0009491064120084047,-0.0015633978182449937,-0.18879926204681396
27.27134300,27271343,2,0.9820107221603394,0.0009590039844624698,-0.0015686191618442535,-0.18881608545780182
27.37133000,27371330,2,0.9819966554641724,0.000957585172727704,-0.0016105163376778364,-0.18888914585113525
27.47130800,27471308,2,0.9819667339324951,0.0009754428756423295,-0.0016810590168461204,-0.18904390931129456
27.57130800,27571308,2,0.9819449782371521,0.0009829020127654076,-0.0016823798650875688,-0.1891566514968872
27.67130200,27671302,2,0.9819374680519104,0.0009265194530598819,-0.0016708869952708483,-0.18919609487056732
27.77132700,27771327,2,0.9819416403770447,0.000957774929702282,-0.0016486267559230328,-0.1891745924949646
27.87134500,27871345,2,0.9819504618644714,0.0009895134717226028,-0.0016267976025119424,-0.18912866711616516
27.97129300,27971293,2,0.9819692373275757,0.0010011022677645087,-0.0016053677536547184,-0.18903136253356934
28.07136900,28071369,2,0.9819889068603516,0.0009945302736014128,-0.001593609806150198,-0.18892933428287506
28.17135800,28171358,2,0.9820017218589783,0.00102929025888443,-0.001556235016323626,-0.18886272609233856
28.27133100,28271331,2,0.9820054769515991,0.0010146029526367784,-0.0015300574013963342,-0.18884354829788208
28.37130400,28371304,2,0.9820163249969482,0.000999521347694099,-0.0015253443270921707,-0.18878720700740814
28.47130500,28471305,2,0.982030987739563,0.0009780850959941745,-0.0014971767086535692,-0.18871136009693146
28.57129500,28571295,2,0.9820533990859985,0.0009745251154527068,-0.0014826568076387048,-0.18859460949897766
28.67129500,28671295,2,0.9820728898048401,0.0009724105475470424,-0.001481268904171884,-0.1884932816028595
28.77134600,28771346,2,0.9820711016654968,0.0009600494522601366,-0.0014682586770504713,-0.18850281834602356
28.87129700,28871297,2,0.982069194316864,0.0009310176246799529,-0.001463449327275157,-0.18851281702518463
28.97138600,28971386,2,0.9820713996887207,0.0009033154929056764,-0.0014726866502314806,-0.18850140273571014
29.07129400,29071294,2,0.9820713400840759,0.0008636055863462389,-0.001403691479936242,-0.18850241601467133
29.17133300,29171333,2,0.9820601940155029,0.0008147102780640125,-0.001377431908622384,-0.18856079876422882
29.27129500,29271295,2,0.9820570945739746,0.0008380602230317891,-0.0013332319213077426,-0.18857736885547638
29.37130100,29371301,2,0.982060968875885,0.000819467706605792,-0.0013069119304418564,-0.18855728209018707
29.47129500,29471295,2,0.9820688366889954,0.0008850918966345489,-0.0013040528865531087,-0.18851597607135773
29.57129900,29571299,2,0.9820800423622131,0.00088983413297683,-0.0012455383548513055,-0.18845821917057037
29.67134600,29671346,2,0.982093870639801,0.0008496062364429235,-0.0012896269327029586,-0.18838579952716827
29.77130800,29771308,2,0.9821021556854248,0.0008711165864951909,-0.0012541308533400297,-0.18834269046783447
29.87140200,29871402,2,0.9821078777313232,0.0008865058771334589,-0.0012277787318453193,-0.18831318616867065
29.97129200,29971292,2,0.9821093082427979,0.0008999780402518809,-0.0012138390447944403,-0.18830563127994537
30.07131000,30071310,2,0.9821088910102844,0.0009079265873879194,-0.001197590958327055,-0.18830792605876923
30.17128900,30171289,2,0.982094943523407,0.0009338634554296732,-0.0012141967890784144,-0.1883804351091385
30.27129000,30271290,2,0.9821043610572815,0.0009140188922174275,-0.0012359656393527985,-0.18833118677139282
30.37128600,30371286,2,0.9820988774299622,0.0009228208800777793,-0.0012616136809810996,-0.1883596032857895
30.47129800,30471298,2,0.982093870639801,0.0009195404127240181,-0.0012375215301290154,-0.188386008143425
30.57132600,30571326,2,0.9820895195007324,0.0008597159176133573,-0.0011974830413237214,-0.18840928375720978
30.67129200,30671292,2,0.9820780158042908,0.0008644582703709602,-0.0011814271565526724,-0.18846914172172546
30.77137800,30771378,2,0.9820563793182373,0.0008501257980242372,-0.0012190070701763034,-0.18858157098293304
30.87128500,30871285,2,0.9820395112037659,0.000807902601081878,-0.0012300662929192185,-0.18866972625255585
30.97132200,30971322,2,0.9820254445075989,0.0008421329548582435,-0.0012477390700951219,-0.1887424886226654
31.07128300,31071283,2,0.9820244908332825,0.0008564494783058763,-0.0012078528525307775,-0.1887478083372116
31.17129400,31171294,2,0.9820165634155273,0.0008553663501515985,-0.0011792618315666914,-0.18878930807113647
31.27128300,31271283,2,0.9820116758346558,0.0008199537405744195,-0.0011836554622277617,-0.18881458044052124
31.37128300,31371283,2,0.9820124506950378,0.0008155615068972111,-0.0011610551737248898,-0.18881098926067352
31.47133600,31471336,2,0.9820045828819275,0.0007900356431491673,-0.0010785829508677125,-0.18885229527950287
31.57129800,31571298,2,0.9820166230201721,0.0007923279190436006,-0.001041377428919077,-0.18878981471061707
31.67137400,31671374,2,0.9820307493209839,0.0007981729577295482,-0.0010192625923082232,-0.18871641159057617
31.77128400,31771284,2,0.9820279479026794,0.0007686363533139229,-0.0010113248135894537,-0.18873140215873718
31.87131800,31871318,2,0.9820140600204468,0.0007680676062591374,-0.0009688987629488111,-0.1888037621974945
31.97128200,31971282,2,0.9819902777671814,0.0007283074664883316,-0.0009613011498004198,-0.18892760574817657
32.07128900,32071289,2,0.9819556474685669,0.0007298109121620655,-0.0010033813305199146,-0.18910732865333557
32.17128900,32171289,2,0.9819208979606628,0.0007245129672810435,-0.0009541725157760084,-0.18928782641887665
32.27128000,32271280,2,0.9819060564041138,0.0007543793180957437,-0.0009035837138071656,-0.18936513364315033
32.37133800,32371338,2,0.9818959832191467,0.0007046147948130965,-0.0009404275915585458,-0.18941715359687805
32.47128700,32471287,2,0.9818985462188721,0.0007220740662887692,-0.0008865935378707945,-0.18940408527851105
32.57138400,32571384,2,0.9819117784500122,0.0007455588201992214,-0.0008868396398611367,-0.18933548033237457
32.67128000,32671280,2,0.9819217324256897,0.0007246208260767162,-0.0009027424384839833,-0.18928371369838715
32.77131200,32771312,2,0.9819254279136658,0.0006576515734195709,-0.0008546439930796623,-0.18926504254341125
32.87128600,32871286,2,0.9819334149360657,0.0006197334732860327,-0.000820227840449661,-0.18922384083271027
32.97129400,32971294,2,0.981935977935791,0.0006079085869714618,-0.000827970914542675,-0.18921057879924774
33.07128000,33071280,2,0.9819490909576416,0.0006286767893470824,-0.0008354106685146689,-0.18914255499839783
33.17129800,33171298,2,0.9819625616073608,0.0006502342293970287,-0.0009144055657088757,-0.18907210230827332
33.27133600,33271336,2,0.981974720954895,0.0006530113168992102,-0.0009672167943790555,-0.18900874257087708
33.37128300,33371283,2,0.981995701789856,0.0006294202175922692,-0.0010105514666065574,-0.18889962136745453
33.47136700,33471367,2,0.9820094108581543,0.0005980307469144464,-0.0010299291461706161,-0.18882809579372406
33.57128600,33571286,2,0.98200523853302,0.0006077032303437591,-0.0010061799548566341,-0.18885011970996857
33.67130900,33671309,2,0.9820013642311096,0.0005351626314222813,-0.0009674826869741082,-0.18887050449848175
33.77128600,33771286,2,0.9820053577423096,0.0005081297131255269,-0.0009219421190209687,-0.18885020911693573
33.87129600,33871296,2,0.9820080399513245,0.0005333333974704146,-0.0009360499097965658,-0.18883612751960754
33.97128000,33971280,2,0.9819983839988708,0.0004848020907957107,-0.0009724111878313124,-0.1888861507177353
34.07129800,34071298,2,0.9819847941398621,0.00045470724580809474,-0.0010182620026171207,-0.1889565885066986
34.17132600,34171326,2,0.981970489025116,0.00046965322690084577,-0.0010392973199486732,-0.1890306919813156
34.27128200,34271282,2,0.9819574952125549,0.0004492930311243981,-0.0010266007157042623,-0.1890985518693924
34.37137900,34371379,2,0.9819496870040894,0.0004227213212288916,-0.0010052442084997892,-0.18913903832435608
34.47128300,34471283,2,0.9819425940513611,0.00033093109959736466,-0.0010377914877608418,-0.18917584419250488
34.57131100,34571311,2,0.9819309711456299,0.00029885504045523703,-0.0010041025234386325,-0.18923641741275787
34.67127900,34671279,2,0.9819392561912537,0.0002830886223819107,-0.001036697649396956,-0.1891934722661972
34.77128800,34771288,2,0.9819431900978088,0.0002313062286702916,-0.0010060496861115098,-0.18917326629161835
34.87128300,34871283,2,0.9819379448890686,0.00023464216792490333,-0.0010405785869807005,-0.18920013308525085
34.97128700,34971287,2,0.9819314479827881,0.00019457779126241803,-0.0010112619493156672,-0.18923427164554596
35.07133100,35071331,2,0.9819343090057373,0.00014379166532307863,-0.000938275596126914,-0.18921981751918793
35.17128300,35171283,2,0.9819374084472656,0.00012496700219344348,-0.0008803986711427569,-0.18920394778251648
35.27136600,35271366,2,0.9819390177726746,0.00014581620052922517,-0.0008566702017560601,-0.18919576704502106
35.37128500,35371285,2,0.9819424748420715,0.0001197906385641545,-0.0008805327233858407,-0.18917764723300934
35.47131100,35471311,2,0.9819456934928894,7.600100070703775e-05,-0.0008929806062951684,-0.18916086852550507
35.57128600,35571286,2,0.9819512963294983,3.0358431104104966e-05,-0.0009141855989582837,-0.18913160264492035
35.67128000,35671280,2,0.981942892074585,2.490878068783786e-05,-0.0009347693412564695,-0.18917539715766907
35.77128400,35771284,2,0.981934666633606,7.698302397329826e-06,-0.0009330108878202736,-0.18921808898448944
35.87129400,35871294,2,0.981941282749176,-5.1059163524769247e-05,-0.0009317477233707905,-0.1891835778951645
35.97133400,35971334,2,0.9819353222846985,-8.447312575299293e-05,-0.0009662477532401681,-0.18921451270580292
36.07128000,36071280,2,0.981925904750824,-8.081657870206982e-05,-0.0009509219671599567,-0.18926331400871277
36.17136300,36171363,2,0.9819257855415344,-0.0001232872746186331,-0.0009758710511960089,-0.1892637312412262
36.27128100,36271281,2,0.981916069984436,-0.00013941169891040772,-0.0009379388066008687,-0.18931429088115692
36.37131500,36371315,2,0.9819104671478271,-0.00017632752133067697,-0.0009412012877874076,-0.18934328854084015
36.47128400,36471284,2,0.9819089770317078,-0.0001825889921747148,-0.0009945962810888886,-0.18935097754001617
36.57128500,36571285,2,0.981907069683075,-0.00020841124933212996,-0.0010325949406251311,-0.18936039507389069
36.67128300,36671283,2,0.9818952679634094,-0.0002185080957133323,-0.0010298037668690085,-0.18942157924175262
36.77128900,36771289,2,0.9818986654281616,-0.00017407404084224254,-0.000978847499936819,-0.18940448760986328
36.87132800,36871328,2,0.981901228427887,-0.00017221197776962072,-0.0009465309558436275,-0.1893913447856903
36.97129300,36971293,2,0.9818817973136902,-0.00018966180505231023,-0.0009629885898903012,-0.18949180841445923
37.07136500,37071365,2,0.9818708896636963,-0.00024237223260570318,-0.0009224786190316081,-0.189548522233963
37.17128500,37171285,2,0.9818558096885681,-0.00024215306621044874,-0.0009800954721868038,-0.1896262764930725
37.27131500,37271315,2,0.9818576574325562,-0.0002273786230944097,-0.0010023735230788589,-0.1896166354417801
37.37128100,37371281,2,0.9818601012229919,-0.00023258615692611784,-0.0009471747907809913,-0.18960444629192352
37.47128300,37471283,2,0.9818739891052246,-0.00029467290733009577,-0.0009810863994061947,-0.18953216075897217
37.57128600,37571286,2,0.98189377784729,-0.0003343498974572867,-0.000916006974875927,-0.18942970037460327
37.67128400,37671284,2,0.9819149374961853,-0.00030008467729203403,-0.0008855993510223925,-0.1893203854560852
37.77132500,37771325,2,0.9819299578666687,-0.0003281600074842572,-0.0009339126409031451,-0.18924210965633392
37.87128900,37871289,2,0.9819494485855103,-0.00028866773936897516,-0.0008917415398173034,-0.189141184091568
37.97135600,37971356,2,0.9819594621658325,-0.00030469702323898673,-0.0008579902350902557,-0.18908920884132385
38.07128200,38071282,2,0.9819652438163757,-0.0002869677555281669,-0.0008865167619660497,-0.18905912339687347
38.17131300,38171313,2,0.9819690585136414,-0.00023079058155417442,-0.0008792121079750359,-0.189039409160614
38.27128200,38271282,2,0.9819727540016174,-0.00019137510389555246,-0.0008620152366347611,-0.18902051448822021
38.37128100,38371281,2,0.9819730520248413,-0.0001548317086417228,-0.000865702226292342,-0.18901881575584412
38.47128300,38471283,2,0.9819759130477905,-0.00019785194308497012,-0.0008639682200737298,-0.1890040636062622
38.57129600,38571296,2,0.9819720387458801,-0.0001795887656044215,-0.0008485591970384121,-0.18902437388896942
38.67134000,38671340,2,0.9819645285606384,-0.00014914301573298872,-0.0008111929055303335,-0.18906348943710327
38.77128000,38771280,2,0.9819579720497131,-0.0001687787880655378,-0.0008360280771739781,-0.18909749388694763
38.87138500,38871385,2,0.9819546937942505,-0.00017581343126948923,-0.0007652157219126821,-0.1891147643327713
38.97128400,38971284,2,0.9819536805152893,-0.00020510362810455263,-0.0007456759340129793,-0.18911993503570557
39.07131700,39071317,2,0.9819362163543701,-0.00019574920588638633,-0.0007735905237495899,-0.1892104297876358
39.17128200,39171282,2,0.9819279909133911,-0.00017421079974155873,-0.0007729955250397325,-0.18925325572490692
39.27128500,39271285,2,0.9819145798683167,-0.00015923268801998347,-0.0007908786064945161,-0.18932275474071503
39.37128600,39371286,2,0.9819135665893555,-0.00014963858120609075,-0.000790839025285095,-0.18932797014713287
39.47130900,39471309,2,0.981905996799469,-8.409495785599574e-05,-0.0007945176330395043,-0.1893673986196518
39.57133200,39571332,2,0.9818928837776184,-7.296619151020423e-05,-0.0007605159189552069,-0.18943549692630768
39.67127900,39671279,2,0.9818850755691528,-6.544730422319844e-05,-0.0007389325764961541,-0.1894758939743042
39.77136900,39771369,2,0.9818721413612366,-4.78998881590087e-05,-0.0006930584786459804,-0.18954327702522278
39.87134500,39871345,2,0.9818682670593262,-3.8890953874215484e-05,-0.0006739722448401153,-0.18956336379051208
39.97132900,39971329,2,0.9818481802940369,-2.749335180851631e-05,-0.0006380092818289995,-0.18966734409332275
40.07128000,40071280,2,0.9818365573883057,-7.775359335937537e-06,-0.0006487746722996235,-0.18972748517990112
40.17129200,40171292,2,0.9818239808082581,-1.2599967703863513e-05,-0.0006935644778423011,-0.18979255855083466
40.27129500,40271295,2,0.9818217158317566,-2.3682499886490405e-05,-0.0006952281109988689,-0.18980412185192108
40.37131000,40371310,2,0.9818315505981445,3.3687854738673195e-05,-0.0006961702601984143,-0.18975327908992767
40.47132700,40471327,2,0.9818456172943115,-1.4576026842405554e-05,-0.0007060838979668915,-0.1896805316209793
40.57128300,40571283,2,0.9818455576896667,1.0911619938269723e-05,-0.0007088693673722446,-0.1896807849407196
40.67136600,40671366,2,0.9818544387817383,-1.0521719559619669e-05,-0.0006730393506586552,-0.18963490426540375
40.77128100,40771281,2,0.9818487167358398,-3.272041340096621e-06,-0.0006499525625258684,-0.18966452777385712
40.87131900,40871319,2,0.9818556904792786,4.5302407670533285e-05,-0.0006740270764566958,-0.18962830305099487
40.97129600,40971296,2,0.9818618893623352,8.627383795101196e-05,-0.0006425976171158254,-0.18959634006023407
41.07128000,41071280,2,0.98187655210495,0.00011317052121739835,-0.0006350420298986137,-0.18952038884162903
41.17128200,41171282,2,0.9818925261497498,8.665264613227919e-05,-0.0006376609089784324,-0.1894376575946808
41.27130000,41271300,2,0.9819003939628601,7.445237861247733e-05,-0.000587092072237283,-0.1893971711397171
41.37132600,41371326,2,0.9819127321243286,4.212666317471303e-05,-0.0005789927672594786,-0.1893332302570343
41.47128200,41471282,2,0.9819250702857971,5.218080332269892e-05,-0.000558568921405822,-0.18926933407783508
41.57136800,41571368,2,0.9819314479827881,8.398615318583325e-05,-0.0005785839166492224,-0.18923604488372803
41.67127900,41671279,2,0.9819355607032776,8.308624819619581e-05,-0.0005892881308682263,-0.1892145574092865
41.77131000,41771310,2,0.9819455742835999,7.14833804522641e-05,-0.0005785985267721117,-0.18916268646717072
41.87129100,41871291,2,0.9819599986076355,0.00013335632684174925,-0.0005478322273120284,-0.18908804655075073
41.97128100,41971281,2,0.9819679260253906,7.918279152363539e-05,-0.000518817687407136,-0.18904678523540497
42.07128300,42071283,2,0.9819678664207458,9.104180935537443e-05,-0.000552190700545907,-0.18904702365398407
42.17129500,42171295,2,0.9819628596305847,0.00013280179700814188,-0.000588921073358506,-0.18907278776168823
42.27133100,42271331,2,0.9819633960723877,0.00018398214888293296,-0.0006041732267476618,-0.18906991183757782
42.37128100,42371281,2,0.9819545149803162,0.00020862634119112045,-0.0006031692610122263,-0.18911601603031158
42.47136100,42471361,2,0.9819470643997192,0.00019360193982720375,-0.0006416273536160588,-0.18915459513664246
42.57128200,42571282,2,0.9819525480270386,0.00018082829774357378,-0.0006921995664015412,-0.18912598490715027
42.67131400,42671314,2,0.9819605350494385,0.00016181706450879574,-0.0007150768069550395,-0.1890845149755478
42.77128100,42771281,2,0.9819785952568054,0.0001652771607041359,-0.0007332989480346441,-0.18899068236351013
42.87128400,42871284,2,0.9819915294647217,0.000180175673449412,-0.0007525730761699378,-0.18892334401607513
42.97128500,42971285,2,0.9820009469985962,0.00017707970982883126,-0.0006696766358800232,-0.18887466192245483
43.07130400,43071304,2,0.9819897413253784,0.00020223726460244507,-0.0006866488256491721,-0.188932865858078
43.17133000,43171330,2,0.981978714466095,0.00023193213564809412,-0.0006325898575596511,-0.1889902502298355
43.27128300,43271283,2,0.9819772839546204,0.00026728588272817433,-0.0006592716090381145,-0.18899750709533691
43.37135400,43371354,2,0.9819638729095459,0.00031857614521868527,-0.0006815952365286648,-0.1890672743320465
43.47128600,43471286,2,0.9819571375846863,0.00029219299904070795,-0.0006832852959632874,-0.18910226225852966
43.57131600,43571316,2,0.9819567799568176,0.00029957466176711023,-0.0007115912740118802,-0.18910399079322815
43.67128100,43671281,2,0.9819663166999817,0.00029772394918836653,-0.000727616308722645,-0.1890542060136795
43.77128900,43771289,2,0.9819591641426086,0.0002671186812222004,-0.0007106818957254291,-0.18909157812595367
43.87129700,43871297,2,0.9819630980491638,0.0003035403206013143,-0.0007003875216469169,-0.18907102942466736
43.97130300,43971303,2,0.9819597005844116,0.0003235457406844944,-0.0007193718920461833,-0.18908853828907013
44.07133400,44071334,2,0.9819594025611877,0.00031364415190182626,-0.0007306910119950771,-0.1890902817249298
44.17128700,44171287,2,0.9819588661193848,0.0003049705410376191,-0.0007798204314894974,-0.1890926957130432
44.27137200,44271372,2,0.9819667339324951,0.0002830158919095993,-0.0008408569847233593,-0.18905183672904968
44.37128100,44371281,2,0.9819692969322205,0.00026684580370783806,-0.0008855060441419482,-0.18903835117816925
44.47132000,44471320,2,0.9819772839546204,0.00023532475461252034,-0.0009238646016456187,-0.18899643421173096
44.57129000,44571290,2,0.9819850921630859,0.00028149012359790504,-0.0009332359186373651,-0.18895593285560608
44.67128000,44671280,2,0.9819925427436829,0.00026063091354444623,-0.0009033441892825067,-0.18891721963882446
44.77127900,44771279,2,0.9819868206977844,0.0002924787695519626,-0.0009364531142637134,-0.18894700706005096
44.87129600,44871296,2,0.981985330581665,0.0002575489052105695,-0.000917673809453845,-0.1889548897743225
44.97133200,44971332,2,0.9819892644882202,0.00020566143211908638,-0.0009264599066227674,-0.1889343410730362
45.07128000,45071280,2,0.9819963574409485,0.00021838242537342012,-0.000979800010100007,-0.188897043466568
45.17137500,45171375,2,0.9820013046264648,0.00018968079530168325,-0.0010589002631604671,-0.18887095153331757
45.27128300,45271283,2,0.9819967746734619,0.0001611782208783552,-0.0010434889700263739,-0.18889476358890533
45.37131900,45371319,2,0.9819871187210083,0.00016741435683798045,-0.0010719601996243,-0.18894483149051666
45.47129700,45471297,2,0.9819902777671814,0.000172179497894831,-0.00106180424336344,-0.1889282763004303
45.57129600,45571296,2,0.9819831252098083,0.00014717786689288914,-0.0010244181612506509,-0.18896591663360596
45.67128000,45671280,2,0.9819874167442322,0.00010415186261525378,-0.0010257845278829336,-0.18894363939762115
45.77128700,45771287,2,0.9819869995117188,9.888115164358169e-05,-0.0010785595513880253,-0.18894532322883606
45.87133100,45871331,2,0.9819812774658203,0.00010292817751178518,-0.0010905840899795294,-0.18897514045238495
45.97128200,45971282,2,0.9819743633270264,0.0001104163529817015,-0.0010698289843276143,-0.1890111118555069
46.07136700,46071367,2,0.9819573163986206,0.00012793713540304452,-0.0010809332598000765,-0.18909944593906403
46.17128300,46171283,2,0.9819474220275879,0.00015586426889058203,-0.0010876948945224285,-0.18915079534053802
46.27132100,46271321,2,0.9819331765174866,0.00015883671585470438,-0.0010851691477000713,-0.1892249435186386
46.37128000,46371280,2,0.9819203019142151,0.00013138793292455375,-0.0010640850523486733,-0.18929161131381989
46.47128700,46471287,2,0.9819114208221436,0.00010732204100349918,-0.0010892413556575775,-0.18933779001235962
46.57128300,46571283,2,0.9819095134735107,7.309614738915116e-05,-0.0011001547100022435,-0.18934747576713562
46.67128300,46671283,2,0.9819010496139526,6.106887303758413e-05,-0.0010707902256399393,-0.18939165771007538
46.77133400,46771334,2,0.981901228427887,7.209661271190271e-05,-0.0011540978448465466,-0.18939025700092316
46.87128500,46871285,2,0.9818967580795288,2.4987035430967808e-05,-0.0011475019855424762,-0.18941333889961243
46.97136800,46971368,2,0.981902003288269,-4.213775810057996e-06,-0.0011583762243390083,-0.18938606977462769
47.07128200,47071282,2,0.9819020628929138,2.2358797195920488e-06,-0.0011356445029377937,-0.1893860101699829
47.17131200,47171312,2,0.9819132685661316,-3.3419437386328354e-05,-0.0011661124881356955,-0.1893276423215866
47.27129500,47271295,2,0.9819167256355286,-7.717204425716773e-05,-0.0011428691213950515,-0.18930982053279877
47.37128800,47371288,2,0.9819256663322449,-9.909881191560999e-05,-0.0011325936065986753,-0.18926353752613068
47.47128600,47471286,2,0.981928288936615,-7.85134470788762e-05,-0.0011310577392578125,-0.18924999237060547
47.57128700,47571287,2,0.9819386601448059,-7.948791608214378e-05,-0.0011583099840208888,-0.1891959011554718
47.67132800,47671328,2,0.9819527268409729,-6.282337562879547e-05,-0.0011001704260706902,-0.189123272895813
47.77128500,47771285,2,0.9819464087486267,-6.081035826355219e-05,-0.0011098424438387156,-0.1891561895608902
47.87136900,47871369,2,0.9819480180740356,-3.6959048884455115e-05,-0.001122480956837535,-0.1891477406024933
47.97128100,47971281,2,0.981940507888794,-2.0730052710860036e-05,-0.0011666533537209034,-0.18918639421463013
48.07131000,48071310,2,0.9819352626800537,-4.852992424275726e-05,-0.001228643348440528,-0.18921330571174622
48.17129000,48171290,2,0.9819350242614746,-2.0553290596581064e-05,-0.0012559692841023207,-0.18921414017677307
48.27128900,48271289,2,0.9819366335868835,-8.924750000005588e-05,-0.0012954702833667397,-0.18920570611953735
48.37128100,48371281,2,0.9819390177726746,-0.0001213815194205381,-0.0012884435709565878,-0.1891932338476181
48.47128100,48471281,2,0.9819334149360657,-0.00013482077338267118,-0.0012719371588900685,-0.1892223209142685
48.57132700,48571327,2,0.981928825378418,-0.00014701567124575377,-0.0012787607265636325,-0.1892463117837906
48.67128100,48671281,2,0.9819151759147644,-0.00018175799050368369,-0.001279705436900258,-0.18931691348552704
48.77136400,48771364,2,0.9818977117538452,-0.000264708767645061,-0.001335976063273847,-0.1894070953130722
48.87128500,48871285,2,0.9819038510322571,-0.00032429469865746796,-0.0013490252895280719,-0.18937505781650543
48.97131700,48971317,2,0.981890857219696,-0.0003012742381542921,-0.0012641861103475094,-0.18944299221038818
49.07129100,49071291,2,0.9818885326385498,-0.00035480805672705173,-0.0013276292011141777,-0.18945454061031342
49.17129100,49171291,2,0.9818820357322693,-0.0003500862803775817,-0.0013507825788110495,-0.18948806822299957
49.27129400,49271294,2,0.9818681478500366,-0.0003627594851423055,-0.0013146449346095324,-0.18956027925014496
49.37128300,49371283,2,0.9818568229675293,-0.0003304713172838092,-0.001283608959056437,-0.1896192729473114
49.47132500,49471325,2,0.9818460941314697,-0.0003782606218010187,-0.0012763323029503226,-0.18967466056346893
49.57128600,49571286,2,0.9818402528762817,-0.00036681367782875896,-0.0012851750943809748,-0.18970495462417603
49.67138100,49671381,2,0.9818414449691772,-0.00030745318508706987,-0.001273900386877358,-0.18969875574111938
49.77128000,49771280,2,0.9818426370620728,-0.00034196546766906977,-0.0013243479188531637,-0.18969221413135529
49.87132300,49871323,2,0.9818440675735474,-0.0003092984843533486,-0.001353173516690731,-0.18968480825424194
49.97129400,49971294,2,0.9818471670150757,-0.0003495526034384966,-0.0014206666965037584,-0.1896681934595108
50.07129300,50071293,2,0.9818536043167114,-0.00037747249007225037,-0.0014687746297568083,-0.1896342784166336
50.17128300,50171283,2,0.9818532466888428,-0.0003747164155356586,-0.0015059367287904024,-0.18963581323623657
50.27130500,50271305,2,0.9818530082702637,-0.0004182272241450846,-0.001545882667414844,-0.189636692404747
50.37133000,50371330,2,0.98185133934021,-0.0003991913399659097,-0.0015785977011546493,-0.1896452158689499
50.47128100,50471281,2,0.9818577766418457,-0.000387725536711514,-0.0016138145001605153,-0.18961158394813538
50.57138500,50571385,2,0.9818570613861084,-0.00036409604945220053,-0.0016020346665754914,-0.18961532413959503
50.67128000,50671280,2,0.9818618297576904,-0.0003661347145680338,-0.0015943920006975532,-0.18959088623523712
50.77132200,50771322,2,0.9818757176399231,-0.000432756933150813,-0.0016267230967059731,-0.18951836228370667
50.87130200,50871302,2,0.9818821549415588,-0.00041717325802892447,-0.001644549542106688,-0.18948496878147125
50.97129600,50971296,2,0.9818854331970215,-0.0003714876074809581,-0.0016545332036912441,-0.189468115568161
51.07128500,51071285,2,0.9818863868713379,-0.00035290943924337626,-0.0016129374271258712,-0.1894633024930954
51.17129200,51171292,2,0.9818890690803528,-0.0003410734352655709,-0.0016111219301819801,-0.18944944441318512
51.27133100,51271331,2,0.9818870425224304,-0.0003429281641729176,-0.0016031163977459073,-0.18946020305156708
51.37128600,51371286,2,0.9818641543388367,-0.00033088435884565115,-0.0016920623602345586,-0.18957792222499847
51.47136100,51471361,2,0.9818528890609741,-0.00033879163675010204,-0.0016970185097306967,-0.18963611125946045
51.57128700,51571287,2,0.9818444848060608,-0.00033555104164406657,-0.0017059068195521832,-0.1896795928478241
51.67131000,51671310,2,0.9818376302719116,-0.00036539434222504497,-0.0017261594766750932,-0.18971504271030426
51.77128000,51771280,2,0.9818325638771057,-0.0003801159327849746,-0.0017438464565202594,-0.189740851521492
51.87128300,51871283,2,0.981819212436676,-0.0004121226374991238,-0.0017682723701000214,-0.18980972468852997
51.97129900,51971299,2,0.9818161725997925,-0.0004567145078908652,-0.00179416430182755,-0.18982499837875366
52.07128500,52071285,2,0.9818163514137268,-0.000455393543234095,-0.001784957479685545,-0.18982423841953278
52.17132600,52171326,2,0.9818163514137268,-0.000493403640575707,-0.0017734142020344734,-0.18982423841953278
52.27128400,52271284,2,0.9818181991577148,-0.0004413928836584091,-0.0017534417565912008,-0.1898151934146881
52.37136800,52371368,2,0.9818178415298462,-0.00046568107791244984,-0.0017770032864063978,-0.18981657922267914
52.47129200,52471292,2,0.9818041324615479,-0.0004661105922423303,-0.0017330109840258956,-0.18988797068595886
52.57131900,52571319,2,0.9818018078804016,-0.0004315003752708435,-0.0017387444386258721,-0.18989989161491394
52.67129000,52671290,2,0.9817884564399719,-0.00038275914266705513,-0.001668328419327736,-0.1899697333574295
52.77128000,52771280,2,0.9817814230918884,-0.00035352405393496156,-0.001605018973350525,-0.19000661373138428
52.87128400,52871284,2,0.9817706346511841,-0.00036110985092818737,-0.0016063543735072017,-0.1900624781847
52.97128600,52971286,2,0.9817479848861694,-0.0003281446697656065,-0.0016333541134372354,-0.19017916917800903
53.07132400,53071324,2,0.9817264080047607,-0.0003556425217539072,-0.001664313254877925,-0.19029024243354797
53.17128300,53171283,2,0.9817155003547668,-0.0003844589809887111,-0.0016844908241182566,-0.19034628570079803
53.27135900,53271359,2,0.9817162156105042,-0.0004076025215908885,-0.001659204252064228,-0.19034260511398315
53.37128600,53371286,2,0.9817160367965698,-0.00038644750020466745,-0.0016574339242652059,-0.1903437227010727
53.47131000,53471310,2,0.9817246198654175,-0.00038111110916361213,-0.0016269830521196127,-0.19029979407787323
53.57128600,53571286,2,0.9817362427711487,-0.00037467171205207705,-0.0016174259362742305,-0.19023996591567993
53.67128300,53671283,2,0.9817401170730591,-0.0003569709660951048,-0.0015882068546488881,-0.19022010266780853
53.77128100,53771281,2,0.9817356467247009,-0.0003623836673796177,-0.0015667398693040013,-0.19024349749088287
53.87128500,53871285,2,0.9817409515380859,-0.0003845635219477117,-0.0015779950190335512,-0.19021598994731903
53.97132700,53971327,2,0.9817420840263367,-0.000391359266359359,-0.001577401882968843,-0.19021011888980865
54.07128000,54071280,2,0.9817327260971069,-0.00038111285539343953,-0.001586661208420992,-0.19025824964046478
54.17136200,54171362,2,0.9817219376564026,-0.0003604776575230062,-0.0015678784111514688,-0.19031421840190887
54.27128400,54271284,2,0.9817165732383728,-0.0003459618310444057,-0.0015693381428718567,-0.1903417408466339
54.37131800,54371318,2,0.981705904006958,-0.00029335456201806664,-0.0015534157864749432,-0.19039715826511383
54.47128000,54471280,2,0.9817010760307312,-0.00027850328478962183,-0.0015745263081043959,-0.19042186439037323
54.57128200,54571282,2,0.9816927313804626,-0.00027716244221664965,-0.0014980359701439738,-0.19046534597873688
54.67128700,54671287,2,0.9816792607307434,-0.00026487422292120755,-0.0014341042842715979,-0.19053544104099274
54.77129200,54771292,2,0.9816673398017883,-0.00028117161127738655,-0.001403863774612546,-0.19059696793556213
54.87132700,54871327,2,0.9816514849662781,-0.00026489910669624805,-0.0014173667877912521,-0.1906784176826477
54.97128400,54971284,2,0.9816465973854065,-0.00028041916084475815,-0.001478901831433177,-0.19070316851139069
55.07136100,55071361,2,0.9816347360610962,-0.00028130513965152204,-0.0014860449591651559,-0.19076424837112427
55.17128700,55171287,2,0.9816228747367859,-0.00022623340191785246,-0.0014892297331243753,-0.19082507491111755
55.27132000,55271320,2,0.9816128611564636,-0.00023550100740976632,-0.0015110912499949336,-0.19087646901607513
55.37128400,55371284,2,0.9816004037857056,-0.00022117816843092442,-0.0014969849726185203,-0.19094064831733704
55.47128100,55471281,2,0.9815950989723206,-0.00021752963948529214,-0.0015078566502779722,-0.1909678727388382
55.57128700,55571287,2,0.9815863370895386,-0.00023407743719872087,-0.0015604245709255338,-0.19101238250732422
55.67128500,55671285,2,0.9815919995307922,-0.0002590165822766721,-0.0015712471213191748,-0.19098317623138428
55.77132300,55771323,2,0.9815990924835205,-0.00024330402084160596,-0.001599566312506795,-0.1909465491771698
55.87128400,55871284,2,0.9816026091575623,-0.000261642097029835,-0.0016380398301407695,-0.19092805683612823
55.97136800,55971368,2,0.9816212058067322,-0.0002203065960202366,-0.0016559616196900606,-0.19083237648010254
56.07127900,56071279,2,0.981625497341156,-0.00015840824926272035,-0.0016837127041071653,-0.19081032276153564
56.17131200,56171312,2,0.9816399216651917,-0.00010850371472770348,-0.0017130784690380096,-0.19073572754859924
56.27128400,56271284,2,0.9816460013389587,-8.487835293635726e-05,-0.001716899685561657,-0.19070446491241455
56.37128200,56371282,2,0.9816513061523438,-4.6442164602922276e-05,-0.0017017615027725697,-0.19067738950252533
56.47128000,56471280,2,0.9816679954528809,-8.586484909756109e-05,-0.0017536056693643332,-0.19059090316295624
56.57128200,56571282,2,0.9816696643829346,-0.00010469653352629393,-0.0017773977015167475,-0.19058185815811157
56.67133000,56671330,2,0.9816789627075195,-3.189018025295809e-05,-0.001784995198249817,-0.19053395092487335
56.77128000,56771280,2,0.9816802740097046,-8.295406587421894e-06,-0.0017093720380216837,-0.19052797555923462
56.87136700,56871367,2,0.9816903471946716,-3.190903225913644e-05,-0.0016959179192781448,-0.19047613441944122
56.97128900,56971289,2,0.9817017912864685,-9.356957161799073e-05,-0.0017104079015552998,-0.19041694700717926
57.07130900,57071309,2,0.981708288192749,-0.00010626982839312404,-0.00175008038058877,-0.19038312137126923
57.17128300,57171283,2,0.9817100763320923,-8.004725532373413e-05,-0.0017857637722045183,-0.1903737187385559
57.27129700,57271297,2,0.981713056564331,-5.816310294903815e-05,-0.001824910519644618,-0.19035778939723969
57.37129100,57371291,2,0.9817175269126892,-5.809444701299071e-05,-0.0017702453769743443,-0.19033552706241608
57.47130000,57471300,2,0.9817272424697876,-4.675205855164677e-05,-0.0017640616279095411,-0.19028528034687042
57.57133400,57571334,2,0.9817308783531189,-1.8426803762849886e-06,-0.0017513887723907828,-0.1902666985988617
57.67128100,57671281,2,0.981743574142456,2.5528392143314704e-05,-0.0017201898153871298,-0.19020132720470428
57.77137600,57771376,2,0.9817454814910889,-1.282488665310666e-05,-0.0016880194889381528,-0.19019202888011932
57.87128400,57871284,2,0.9817577600479126,-1.8004257071879692e-05,-0.0016633996274322271,-0.19012868404388428
57.97132600,57971326,2,0.9817610383033752,-4.4434233132051304e-05,-0.0015905513428151608,-0.19011251628398895
58.07128000,58071280,2,0.9817630052566528,-6.866806506877765e-05,-0.0015898952260613441,-0.19010229408740997
58.17129200,58171292,2,0.9817619323730469,-5.681296897819266e-05,-0.0016499629709869623,-0.19010739028453827
58.27128500,58271285,2,0.981764018535614,-5.078109552414389e-06,-0.0017095543444156647,-0.19009612500667572
58.37128400,58371284,2,0.981757402420044,-1.0019380169978831e-05,-0.0016998869832605124,-0.1901303082704544
58.47132500,58471325,2,0.9817584156990051,-1.5559788153041154e-05,-0.001724274829030037,-0.19012492895126343
58.57128300,58571283,2,0.981753945350647,-3.0174265702953562e-05,-0.001725686015561223,-0.19014771282672882
58.67137600,58671376,2,0.981753945350647,-4.1072122257901356e-05,-0.0017264358466491103,-0.1901477873325348
58.77128000,58771280,2,0.9817472696304321,-5.138240521773696e-05,-0.0017755184089764953,-0.19018183648586273
58.87131300,58871313,2,0.9817482829093933,-7.702911534579471e-05,-0.0017727803206071258,-0.19017669558525085
58.97128800,58971288,2,0.9817491769790649,-0.0001368052326142788,-0.0017370966961607337,-0.19017238914966583
59.07128800,59071288,2,0.9817447662353516,-0.0001359828165732324,-0.00176048104185611,-0.19019493460655212
59.17129000,59171290,2,0.9817507266998291,-0.00014380823995452374,-0.0017859329236671329,-0.1901639997959137
59.27129100,59271291,2,0.9817376136779785,-0.00012498002615757287,-0.0017668930813670158,-0.1902318149805069
59.37132500,59371325,2,0.9817290902137756,-0.00016596347268205136,-0.0017463742988184094,-0.19027592241764069
59.47128100,59471281,2,0.9817314147949219,-0.0001505795808043331,-0.001775554963387549,-0.19026365876197815
59.57137700,59571377,2,0.9817208647727966,-0.00017014553304761648,-0.0017277098959311843,-0.19031864404678345
59.67127900,59671279,2,0.9817178845405579,-0.0002108329499606043,-0.0017299290047958493,-0.19033385813236237
59.77131700,59771317,2,0.9817247986793518,-0.0002489057369530201,-0.0016722684958949685,-0.19029852747917175
59.87129200,59871292,2,0.9817278981208801,-0.0003099353925790638,-0.0017048497684299946,-0.19028232991695404
59.97129400,59971294,2,0.9817250967025757,-0.0002920181432273239,-0.0017044385895133018,-0.19029678404331207
60.07128000,60071280,2,0.981725811958313,-0.00028246117290109396,-0.001710070064291358,-0.19029295444488525
60.17128300,60171283,2,0.9817313551902771,-0.0002320019411854446,-0.0016783135943114758,-0.19026483595371246
60.27133000,60271330,2,0.9817363619804382,-0.00027626188239082694,-0.0016699229599907994,-0.19023901224136353
60.37128200,60371282,2,0.9817301034927368,-0.0003348791797179729,-0.0016831657849252224,-0.19027100503444672
60.47136700,60471367,2,0.981738805770874,-0.0003454989637248218,-0.0016944862436503172,-0.1902259737253189
60.57128200,60571282,2,0.9817414879798889,-0.0003883366589434445,-0.0016579045914113522,-0.19021251797676086
60.67132500,60671325,2,0.9817440509796143,-0.00040613190503790975,-0.0016267617465928197,-0.19019939005374908
60.77128500,60771285,2,0.9817483425140381,-0.00041765463538467884,-0.001590450876392424,-0.19017741084098816
60.87130200,60871302,2,0.9817548990249634,-0.0004451037384569645,-0.0016474887961521745,-0.19014298915863037
60.97129000,60971290,2,0.9817568063735962,-0.0004301897424738854,-0.0016686894232407212,-0.19013310968875885
61.07129200,61071292,2,0.9817624688148499,-0.0004372738185338676,-0.0016678401734679937,-0.19010400772094727
61.17133300,61171333,2,0.9817743897438049,-0.00046035199193283916,-0.001659404137171805,-0.1900424063205719
61.27128700,61271287,2,0.9817699193954468,-0.00047045265091583133,-0.0016608601436018944,-0.19006527960300446
61.37136300,61371363,2,0.9817692041397095,-0.00044750713277608156,-0.0016757773701101542,-0.19006910920143127
61.47128000,61471280,2,0.981768786907196,-0.0004849983670283109,-0.001691656420007348,-0.1900710016489029
61.57131600,61571316,2,0.9817616939544678,-0.00047963307588361204,-0.0017028710572049022,-0.19010750949382782
61.67128400,61671284,2,0.9817562699317932,-0.0004734029935207218,-0.00171761866658926,-0.19013549387454987
61.77128100,61771281,2,0.9817531108856201,-0.0004762898897752166,-0.0017155269160866737,-0.19015154242515564
61.87129300,61871293,2,0.9817625880241394,-0.0004712649970315397,-0.0017516639782115817,-0.19010241329669952
61.97131300,61971313,2,0.9817850589752197,-0.0004468833503779024,-0.0017959297401830554,-0.18998585641384125
62.07132400,62071324,2,0.9817965626716614,-0.00043253632611595094,-0.0017522689886391163,-0.18992683291435242
62.17128400,62171284,2,0.981795608997345,-0.0004213782667648047,-0.001786247012205422,-0.18993166089057922
62.27136400,62271364,2,0.9817968606948853,-0.000472577492473647,-0.001792717957869172,-0.18992480635643005
62.37128000,62371280,2,0.9817973971366882,-0.00047285237815231085,-0.0018123947083950043,-0.18992199003696442
62.47130900,62471309,2,0.9817898869514465,-0.00043437365093268454,-0.001842151628807187,-0.18996049463748932
62.57128200,62571282,2,0.9817834496498108,-0.00042462351848371327,-0.001840197597630322,-0.18999382853507996
62.67128200,62671282,2,0.981766939163208,-0.00047490972792729735,-0.0018421675777062774,-0.19007903337478638
62.77129100,62771291,2,0.9817728996276855,-0.000503700168337673,-0.0018422818975523114,-0.19004808366298676
62.87130200,62871302,2,0.9817814230918884,-0.00048195579438470304,-0.0018696436891332269,-0.19000408053398132
62.97133500,62971335,2,0.981783390045166,-0.000545939605217427,-0.0018553428817540407,-0.18999366462230682
63.07128800,63071288,2,0.9817907810211182,-0.0005120151909068227,-0.001819017925299704,-0.18995587527751923
63.17136200,63171362,2,0.981803834438324,-0.0005252776900306344,-0.0018097826978191733,-0.18988855183124542
63.27128800,63271288,2,0.9817975163459778,-0.0005817906348966062,-0.0018287679413333535,-0.18992100656032562
63.37131100,63371311,2,0.9818081259727478,-0.0005842420505359769,-0.0018361161928623915,-0.189865842461586
63.47127900,63471279,2,0.9818115234375,-0.0005983028095215559,-0.0018906963523477316,-0.18984782695770264
63.57128800,63571288,2,0.9818171262741089,-0.0005741814384236932,-0.0019308485789224505,-0.18981848657131195
63.67128100,63671281,2,0.9818130135536194,-0.0005542876315303147,-0.0019521095091477036,-0.18983964622020721
63.77129000,63771290,2,0.9818155765533447,-0.0006336701335385442,-0.001951348502188921,-0.18982627987861633
63.87133500,63871335,2,0.9818158149719238,-0.000667539075948298,-0.0019722378347069025,-0.18982447683811188
63.97128600,63971286,2,0.9818081259727478,-0.000683648104313761,-0.0019454914145171642,-0.1898646354675293
64.07136300,64071363,2,0.9818038940429688,-0.0007019147742539644,-0.0019645774737000465,-0.1898861676454544
64.17128300,64171283,2,0.9818100929260254,-0.0007124030380509794,-0.0019989414140582085,-0.18985386192798615
64.27131300,64271313,2,0.9818132519721985,-0.0007207000744529068,-0.002044681226834655,-0.18983691930770874
64.37128000,64371280,2,0.9818122386932373,-0.000713659857865423,-0.0021008122712373734,-0.18984150886535645
64.47128000,64471280,2,0.9818114638328552,-0.0006825849413871765,-0.0020811029244214296,-0.18984577059745789
64.57128300,64571283,2,0.981818675994873,-0.0006834000814706087,-0.002100677229464054,-0.1898082047700882
64.67128400,64671284,2,0.9818142652511597,-0.0006573506980203092,-0.0021132314577698708,-0.1898309588432312
64.77132200,64771322,2,0.9818128347396851,-0.0006480137235485017,-0.0021356618963181973,-0.18983832001686096
64.87128500,64871285,2,0.9818198084831238,-0.0006238654023036361,-0.0021568690426647663,-0.18980199098587036
64.97137200,64971372,2,0.9818255305290222,-0.0005858620279468596,-0.0021785134449601173,-0.1897723525762558
65.07128000,65071280,2,0.9818323850631714,-0.0005884157726541162,-0.0021618306636810303,-0.1897369921207428
65.17131100,65171311,2,0.9818323254585266,-0.0005710748373530805,-0.002129154046997428,-0.1897377222776413
65.27128900,65271289,2,0.9818498492240906,-0.0005554381059482694,-0.002122864592820406,-0.1896471381187439
65.37128100,65371281,2,0.9818491339683533,-0.0005827092682011425,-0.0021551393438130617,-0.18965032696723938
65.47128000,65471280,2,0.9818413853645325,-0.0006184098892845213,-0.0021298618521541357,-0.1896907538175583
