timestamp,TimeUS,C,Roll,Pitch,Yaw,VN,VE,VD,dPD,PN,PE,PD,GX,GY,GZ,OH
9.47130300,9471303,2,0.0,0.0,0.0,0.0,0.0,0.0,0.0,0.0,0.0,0.0,0.0,0.0,0.0,0.0
9.57131600,9571316,2,0.0,0.0,0.0,0.0,0.0,0.0,0.0,0.0,0.0,0.0,0.0,0.0,0.0,0.0
9.67130300,9671303,2,0.0,0.0,0.0,0.0,0.0,0.0,0.0,0.0,0.0,0.0,0.0,0.0,0.0,0.0
9.77130900,9771309,2,0.0,0.0,0.0,0.0,0.0,0.0,0.0,0.0,0.0,0.0,0.0,0.0,0.0,0.0
9.87135500,9871355,2,0.0,0.0,0.0,0.0,0.0,0.0,0.0,0.0,0.0,0.0,0.0,0.0,0.0,0.0
9.97129400,9971294,2,0.0,0.0,0.0,0.0,0.0,0.0,0.0,0.0,0.0,0.0,0.0,0.0,0.0,0.0
10.07138600,10071386,2,0.0,0.0,0.0,0.0,0.0,0.0,0.0,0.0,0.0,0.0,0.0,0.0,0.0,0.0
10.17137200,10171372,2,0.0,0.0,0.0,0.0,0.0,0.0,0.0,0.0,0.0,0.0,0.0,0.0,0.0,0.0
10.27134200,10271342,2,0.0,0.0,0.0,0.0,0.0,0.0,0.0,0.0,0.0,0.0,0.0,0.0,0.0,0.0
10.37129500,10371295,2,0.0,0.0,0.0,0.0,0.0,0.0,0.0,0.0,0.0,0.0,0.0,0.0,0.0,0.0
10.47130400,10471304,2,0.13,-0.22,359.99,0.0010884279618039727,-0.0002789436839520931,0.016068343073129654,0.0015144017525017262,0.0,0.0,0.000498113629873842,0.0,0.0,0.0,0.0
10.57130200,10571302,2,0.12,-0.22,359.98,0.0017431065207347274,-0.001295697409659624,0.058361928910017014,0.02896500751376152,0.0,0.0,0.004213275853544474,0.0,0.0,0.0,0.0
10.67129400,10671294,2,0.12,-0.21,359.99,0.0014149866765365005,-0.0015431428328156471,0.10141529887914658,2.392329454421997,0.0,0.0,0.3079562485218048,0.0,0.0,0.0,0.0
10.77135300,10771353,2,0.12,-0.21,359.99,0.002453362103551626,-0.0029861722141504288,0.13134843111038208,3.4115374088287354,0.0,0.0,0.5776322484016418,0.0,0.0,0.0,0.0
10.87129700,10871297,2,0.12,-0.21,359.98,0.003925511613488197,-0.0042142062447965145,0.15357188880443573,2.8652853965759277,0.0,0.0,0.7976905703544617,0.0,0.0,0.0,0.0
10.97140700,10971407,2,0.12,-0.2,359.99,0.0038122546393424273,-0.005460834130644798,0.1693798303604126,2.069068193435669,0.0,0.0,0.9783521890640259,0.0,0.0,0.0,0.0
11.07129200,11071292,2,0.11,-0.2,359.98,0.0045578922145068645,-0.006182908546179533,0.18020442128181458,1.4961365461349487,0.0,0.0,1.1288809776306152,0.0,0.0,0.0,0.0
11.17133300,11171333,2,0.11,-0.2,359.98,0.005100538954138756,-0.00591260613873601,0.18882545828819275,1.0870636701583862,0.0,0.0,1.2471908330917358,0.0,0.0,0.0,0.0
11.27129900,11271299,2,0.11,-0.19,359.98,0.005924982950091362,-0.006152582820504904,0.19294524192810059,0.7873851656913757,0.0,0.0,1.3414372205734253,0.0,0.0,0.0,0.0
11.37130300,11371303,2,0.11,-0.19,359.98,0.00606513349339366,-0.0060755047015845776,0.19795702397823334,0.6366389393806458,0.0,0.0,1.4168366193771362,0.0,0.0,0.0,0.0
11.47129500,11471295,2,0.11,-0.18,359.98,0.005671900697052479,-0.006452984642237425,0.2021465301513672,0.5757057070732117,0.0,0.0,1.48849618434906,0.0,0.0,0.0,0.0
11.57129900,11571299,2,0.11,-0.18,359.98,0.005230155773460865,-0.006496902089565992,0.2059185653924942,0.49721264839172363,0.0,0.0,1.5495338439941406,0.0,0.0,0.0,0.0
11.67134300,11671343,2,0.1,-0.17,359.97,0.0039484803564846516,-0.006537098437547684,0.20753213763237,0.4162462055683136,0.0,0.0,1.598414421081543,0.0,0.0,0.0,0.0
11.77129500,11771295,2,0.1,-0.17,359.97,0.002568721305578947,-0.006702440325170755,0.2101120948791504,0.37112727761268616,0.0,0.0,1.6438897848129272,0.0,0.0,0.0,0.0
11.87137400,11871374,2,0.1,-0.16,359.97,0.0017236188286915421,-0.007178992964327335,0.21453619003295898,0.385537326335907,0.0,0.0,1.6881054639816284,0.0,0.0,0.0,0.0
11.97136400,11971364,2,0.11,-0.16,338.14,0.000746567384339869,-0.006187538616359234,0.21630817651748657,0.3548440635204315,0.0,0.0,1.7264533042907715,0.0,0.0,0.0,0.0
12.07134200,12071342,2,0.11,-0.16,338.12,-0.0007175931823439896,-0.005383002571761608,0.21706010401248932,0.31374451518058777,0.0,0.0,1.760905146598816,0.0,0.0,0.0,0.0
12.17129800,12171298,2,0.1,-0.15,338.08,-0.0025588844437152147,-0.004809448029845953,0.22036154568195343,0.3230210244655609,0.0,0.0,1.7966582775115967,0.0,0.0,0.0,0.0
12.27130600,12271306,2,0.1,-0.15,338.01,-0.003457059385254979,-0.004633381497114897,0.22443242371082306,0.3579607903957367,0.0,0.0,1.8342221975326538,0.0,0.0,0.0,0.0
12.37129300,12371293,2,0.1,-0.14,337.94,-0.004475030582398176,-0.004485331010073423,0.22792764008045197,0.3702842891216278,0.0,0.0,1.8713229894638062,0.0,0.0,0.0,0.0
12.47129500,12471295,2,0.1,-0.15,337.86,-0.005706108640879393,-0.004769026301801205,0.2292965203523636,0.3332538306713104,0.0,0.0,1.903725266456604,0.0,0.0,0.0,0.0
12.57134000,12571340,2,0.11,-0.15,337.81,-0.006742438301444054,-0.004684042651206255,0.2289067804813385,0.2653634548187256,0.0,0.0,1.9303869009017944,0.0,0.0,0.0,0.0
12.67129400,12671294,2,0.11,-0.15,337.78000000000003,-0.005983024835586548,-0.005314695183187723,0.22633613646030426,0.21460260450839996,0.0,0.0,1.9539521932601929,0.0,0.0,0.0,0.0
12.77138700,12771387,2,0.12,-0.15,337.79,-0.005804719403386116,-0.005249224603176117,0.22366595268249512,0.18573778867721558,0.0,0.0,1.9747074842453003,0.0,0.0,0.0,0.0
12.87129500,12871295,2,0.12,-0.15,337.81,-0.007114783860743046,-0.005059066228568554,0.21953049302101135,0.1508842408657074,0.0,0.0,1.9915083646774292,0.0,0.0,0.0,0.0
12.97132500,12971325,2,0.11,-0.15,337.84000000000003,-0.005873586982488632,-0.005063963588327169,0.21611835062503815,0.13804350793361664,0.0,0.0,2.008099317550659,0.0,0.0,0.0,0.0
13.07129300,13071293,2,0.11,-0.15,337.87,-0.006364356726408005,-0.004395086783915758,0.2119782716035843,0.1524372696876526,0.0,0.0,2.0251548290252686,0.0,0.0,0.0,0.0
13.17130300,13171303,2,0.11,-0.15,337.89,-0.005899385549128056,-0.004485876765102148,0.20801737904548645,0.15912754833698273,0.0,0.0,2.041942834854126,0.0,0.0,0.0,0.0
13.27130500,13271305,2,0.12,-0.15,337.90000000000003,-0.004303981550037861,-0.004486816469579935,0.203989177942276,0.15211358666419983,0.0,0.0,2.05732798576355,0.0,0.0,0.0,0.0
13.37129400,13371294,2,0.12,-0.15,337.92,-0.00463548069819808,-0.003633886342868209,0.1994030773639679,0.13078726828098297,0.0,0.0,2.0706565380096436,0.0,0.0,-0.01,0.0
13.47134600,13471346,2,0.12,-0.16,337.95,-0.005739122163504362,-0.003256725613027811,0.19430354237556458,0.12074068933725357,0.0,0.0,2.083695888519287,0.0,0.0,-0.01,0.0
13.57130300,13571303,2,0.12,-0.16,337.98,-0.004489694256335497,-0.004220189061015844,0.19109418988227844,0.13570161163806915,0.0,0.0,2.0983352661132812,0.0,0.0,-0.01,0.0
13.67138600,13671386,2,0.14,-0.17,337.99,-0.012286181561648846,-0.007150327321141958,0.18677476048469543,0.14684432744979858,0.0,0.0,2.113116979598999,0.0,0.0,-0.01,0.0
13.77133300,13771333,2,0.13,-0.18,338.01,-0.004865211434662342,-0.006254768464714289,0.18256263434886932,0.14176996052265167,0.0,0.0,2.1271114349365234,0.0,0.0,0.0,0.0
13.87132900,13871329,2,0.13,-0.17,337.99,0.001060357317328453,-0.0062075648456811905,0.17900405824184418,0.136993870139122,0.0,0.0,2.1409614086151123,-0.01,0.0,0.0,0.0
13.97130400,13971304,2,0.13,-0.18,337.98,-0.007098003290593624,-0.004069307819008827,0.17484454810619354,0.13749241828918457,0.0,0.0,2.155022382736206,-0.01,0.0,-0.01,0.0
14.07130000,14071300,2,0.13,-0.18,337.99,-0.003741658292710781,-0.0043201451189816,0.1692475527524948,0.11207562685012817,0.0,0.0,2.165586233139038,-0.01,0.0,-0.01,0.0
14.17129900,14171299,2,0.13,-0.18,337.99,0.0027109745424240828,-0.006124384235590696,0.16384781897068024,0.08350564539432526,0.0,0.0,2.1749908924102783,-0.01,0.0,-0.01,0.0
14.27131100,14271311,2,0.13,-0.18,337.99,-0.000914677104447037,-0.005019588395953178,0.15673165023326874,0.06359316408634186,0.0,0.0,2.1819005012512207,-0.01,0.0,-0.01,0.0
14.37134500,14371345,2,0.13,-0.18,338.0,-0.0016098461346700788,-0.004825998097658157,0.14914248883724213,0.04105395823717117,0.0,0.0,2.1872034072875977,-0.01,0.0,-0.02,0.0
14.47129600,14471296,2,0.14,-0.19,338.02,0.002141438890248537,-0.005806973669677973,0.14285123348236084,0.047200627624988556,0.0,0.0,2.1934847831726074,-0.01,0.0,-0.02,0.0
14.57138100,14571381,2,0.14,-0.19,338.05,0.0008699148311279714,-0.005956368986517191,0.13776227831840515,0.06603629142045975,0.0,0.0,2.200899362564087,-0.01,0.0,-0.02,0.0
14.67134100,14671341,2,0.14,-0.19,338.07,-0.0013096374459564686,-0.004641863517463207,0.13217762112617493,0.06828854978084564,0.0,0.0,2.207390546798706,-0.01,0.0,-0.03,0.0
14.77133300,14771333,2,0.14,-0.18,338.08,0.000986288650892675,-0.005211406387388706,0.12754280865192413,0.05697757750749588,0.0,0.0,2.213179588317871,-0.01,0.0,-0.02,0.0
14.87130900,14871309,2,0.15,-0.18,338.09000000000003,0.0021185853984206915,-0.005893982946872711,0.12204327434301376,0.05830821767449379,0.0,0.0,2.2195653915405273,-0.01,0.0,-0.03,0.0
14.97130400,14971304,2,0.15,-0.18,338.1,-0.000251622695941478,-0.005181037355214357,0.11674537509679794,0.06608837097883224,0.0,0.0,2.226449728012085,-0.02,0.0,-0.03,0.0
15.07129200,15071292,2,0.15,-0.18,338.12,0.0006806649616919458,-0.005009623244404793,0.11021843552589417,0.05586739256978035,0.0,0.0,2.2316060066223145,-0.02,0.0,-0.04,0.0
15.17130700,15171307,2,0.15,-0.18,338.13,0.0008228466613218188,-0.005276256240904331,0.10626658797264099,0.0483650341629982,0.0,0.0,2.2369632720947266,-0.02,0.0,-0.03,0.0
15.27134700,15271347,2,0.15,-0.18,338.13,-0.0002469087776262313,-0.004529098514467478,0.10083937644958496,0.05588189885020256,0.0,0.0,2.2428460121154785,-0.02,0.0,-0.02,0.0
15.37129400,15371294,2,0.15,-0.18,338.12,-0.00034386987681500614,-0.004528617020696402,0.09446713328361511,0.038646113127470016,0.0,0.0,2.2460806369781494,-0.02,0.0,-0.02,0.0
15.47137800,15471378,2,0.16,-0.19,338.11,-0.00033416299265809357,-0.004766869358718395,0.08969131857156754,0.036578208208084106,0.0,0.0,2.251147985458374,-0.02,0.0,-0.02,0.0
15.57134200,15571342,2,0.16,-0.18,338.1,-0.0007505359826609492,-0.004301913548260927,0.08293040841817856,0.02738827094435692,0.0,0.0,2.2529447078704834,-0.02,0.0,-0.03,0.0
15.67132300,15671323,2,0.17,-0.18,338.09000000000003,-0.0009397289250046015,-0.0035199292469769716,0.0753241553902626,-0.00950866099447012,0.0,0.0,2.252891778945923,-0.02,0.0,-0.02,0.0
15.77130800,15771308,2,0.16,-0.18,338.07,-9.871660586213693e-05,-0.0022294563241302967,0.0677294209599495,-0.018864678218960762,0.0,0.0,2.2520222663879395,-0.02,0.0,-0.01,0.0
15.87130700,15871307,2,0.17,-0.18,338.04,0.0006490197847597301,-0.001931835082359612,0.06176875904202461,-0.00964144803583622,0.0,0.0,2.252528190612793,-0.02,0.0,0.0,0.0
15.97129400,15971294,2,0.18,-0.18,338.01,0.0005426037823781371,-0.0014703171327710152,0.05604257807135582,-0.005914882756769657,0.0,0.0,2.251671552658081,-0.02,0.0,0.0,0.0
16.07129300,16071293,2,0.18,-0.18,337.98,0.0007925512618385255,-0.0007686266908422112,0.047669678926467896,-0.03266130015254021,0.0,0.0,2.2486069202423096,-0.02,0.0,0.01,0.0
16.17134300,16171343,2,0.18,-0.18,337.94,0.0019221374532207847,-6.817070971010253e-05,0.04051506891846657,-0.04600714147090912,0.0,0.0,2.2448112964630127,-0.02,0.0,0.01,0.0
16.27129700,16271297,2,0.2,-0.18,337.91,0.0027072441298514605,0.0005177042912691832,0.033627692610025406,-0.042870622128248215,0.0,0.0,2.2415249347686768,-0.02,0.0,0.0,0.0
16.37137600,16371376,2,0.2,-0.18,337.89,0.003043645527213812,0.0014777707401663065,0.024815740063786507,-0.05793004482984543,0.0,0.0,2.2354581356048584,-0.02,0.0,0.01,0.0
16.47129800,16471298,2,0.21,-0.19,337.88,0.004235012922435999,0.002665398409590125,0.015036002732813358,-0.09256309270858765,0.0,0.0,2.2268428802490234,-0.02,0.0,0.01,0.0
16.57133600,16571336,2,0.21,-0.19,337.87,0.00544337835162878,0.0035399470943957567,0.009895683266222477,-0.042263858020305634,0.0,0.0,2.225904941558838,-0.02,0.0,0.0,0.0
16.67129300,16671293,2,0.21,-0.19,337.88,0.005377034191042185,0.004942506551742554,0.007959563285112381,0.04096553847193718,0.0,0.0,2.229065179824829,-0.02,0.0,0.0,0.0
16.77130300,16771303,2,0.22,-0.19,337.88,0.006101192906498909,0.005709606222808361,0.0074646854773163795,0.07162083685398102,0.0,0.0,2.234328508377075,-0.02,0.0,0.01,0.0
16.87129600,16871296,2,0.22,-0.19,337.87,0.0062695774249732494,0.006682576611638069,0.007436636369675398,0.09538214653730392,0.0,0.0,2.2422385215759277,-0.02,0.0,0.02,0.0
16.97129700,16971297,2,0.21,-0.18,337.85,0.006486294791102409,0.006751051638275385,0.009514126926660538,0.12925180792808533,0.0,0.0,2.253920316696167,-0.02,0.0,0.01,0.0
17.07133700,17071337,2,0.22,-0.18,337.84000000000003,0.006659894250333309,0.00705119501799345,0.009708999656140804,0.12843748927116394,0.0,0.0,2.263550043106079,-0.02,0.0,0.01,0.0
17.17129800,17171298,2,0.22,-0.18,337.84000000000003,0.006669738795608282,0.0069230892695486546,0.006822168827056885,0.06803307682275772,0.0,0.0,2.2685205936431885,-0.02,0.0,0.01,0.0
17.27137700,17271377,2,0.22,-0.17,337.83,0.007192906457930803,0.007760682143270969,0.002792575629428029,0.012919618748128414,0.0,0.0,2.2699902057647705,-0.02,0.0,0.01,0.0
17.37133800,17371338,2,0.22,-0.17,337.83,0.007085435092449188,0.007898940704762936,-0.0019152333261445165,-0.02702324092388153,0.0,0.0,2.268486261367798,-0.02,0.0,0.0,0.0
17.47132600,17471326,2,0.22,-0.18,337.85,0.007208371069282293,0.007714131847023964,-0.005596366710960865,-0.01131927128881216,0.0,0.0,2.270533800125122,-0.02,0.0,-0.01,0.0
17.57131300,17571313,2,0.22,-0.18,337.88,0.006648327689617872,0.007336155511438847,-0.005299215670675039,0.05275895819067955,0.0,0.0,2.277301788330078,-0.02,0.0,-0.01,0.0
17.67130300,17671303,2,0.22,-0.18,337.91,0.007337327580899,0.007025198545306921,-0.004853545688092709,0.084792360663414,0.0,0.0,2.284339427947998,-0.02,0.0,-0.01,0.0
17.77129400,17771294,2,0.23,-0.18,337.94,0.0070629785768687725,0.007176438812166452,-0.007038974668830633,0.06161647289991379,0.0,0.0,2.2885701656341553,-0.02,0.0,-0.02,0.0
17.87130100,17871301,2,0.23,-0.18,337.96,0.006499405484646559,0.007551220711320639,-0.010565454140305519,0.02035382017493248,0.0,0.0,2.289975166320801,-0.02,0.0,-0.02,0.0
17.97134300,17971343,2,0.23,-0.18,337.98,0.0064034112729132175,0.008114470168948174,-0.014054671861231327,-0.01236679870635271,0.0,0.0,2.2891366481781006,-0.02,0.0,-0.02,0.0
18.07129400,18071294,2,0.23,-0.18,337.99,0.006520016584545374,0.007574568502604961,-0.016940895467996597,-0.004423138685524464,0.0,0.0,2.290442943572998,-0.02,0.0,-0.02,0.0
18.17138400,18171384,2,0.23,-0.18,338.0,0.0068225315771996975,0.007619401905685663,-0.015961570665240288,0.04978492110967636,0.0,0.0,2.29620623588562,-0.02,0.0,-0.02,0.0
18.27136300,18271363,2,0.23,-0.18,338.0,0.006547687109559774,0.0069053578190505505,-0.013815118931233883,0.11846793442964554,0.0,0.0,2.3075408935546875,-0.02,0.0,-0.02,0.0
18.37132300,18371323,2,0.22,-0.18,338.01,0.006765385158360004,0.006700051948428154,-0.008264055475592613,0.1865382343530655,0.0,0.0,2.324205160140991,-0.02,0.0,-0.03,0.0
18.47130800,18471308,2,0.22,-0.18,338.02,0.007125495467334986,0.007260913494974375,-0.0020833800081163645,0.21755146980285645,0.0,0.0,2.3431694507598877,-0.02,0.0,-0.03,0.0
18.57130900,18571309,2,0.21,-0.18,338.02,0.006868097465485334,0.007039748597890139,0.002491662045940757,0.19564692676067352,0.0,0.0,2.359362840652466,-0.02,0.0,-0.03,0.0
18.67129400,18671294,2,0.21,-0.17,338.04,0.006271347403526306,0.007654326967895031,0.0064256684854626656,0.17712025344371796,0.0,0.0,2.3765361309051514,-0.02,0.0,-0.03,0.0
18.77131200,18771312,2,0.21,-0.16,338.06,0.005929070990532637,0.0073820375837385654,0.0101704653352499,0.173892542719841,0.0,0.0,2.392969846725464,-0.02,0.0,-0.04,0.0
18.87134000,18871340,2,0.2,-0.16,338.08,0.006165002007037401,0.006602363660931587,0.01373168546706438,0.15690924227237701,0.0,0.0,2.4083759784698486,-0.01,0.0,-0.04,0.0
18.97129500,18971295,2,0.2,-0.16,338.1,0.005312694702297449,0.007463693153113127,0.0171807911247015,0.14940039813518524,0.0,0.0,2.4233453273773193,-0.01,0.0,-0.04,0.0
19.07139600,19071396,2,0.2,-0.16,338.12,0.005101875867694616,0.007746447809040546,0.02168254181742668,0.15412136912345886,0.0,0.0,2.4390792846679688,-0.01,0.0,-0.04,0.0
19.17134100,19171341,2,0.2,-0.16,338.14,0.004734504502266645,0.007318180054426193,0.025095820426940918,0.1527063250541687,0.0,0.0,2.4538891315460205,-0.01,0.0,-0.05,0.0
19.27133000,19271330,2,0.2,-0.16,338.16,0.004314853344112635,0.006990014109760523,0.027605900540947914,0.12470563501119614,0.0,0.0,2.466212034225464,-0.01,0.0,-0.05,0.0
19.37134000,19371340,2,0.2,-0.16,338.17,0.0034734124783426523,0.008120439946651459,0.028765901923179626,0.0896584689617157,0.0,0.0,2.4752917289733887,-0.01,0.0,-0.04,0.0
19.47129700,19471297,2,0.19,-0.16,338.17,0.003335390007123351,0.008241154253482819,0.02810213901102543,0.0572146512567997,0.0,0.0,2.482130289077759,-0.01,0.0,-0.04,0.0
19.57130000,19571300,2,0.19,-0.17,338.16,0.0029668763745576143,0.008172380737960339,0.02663428895175457,0.020552724599838257,0.0,0.0,2.484903573989868,-0.01,0.0,-0.04,0.0
19.67129100,19671291,2,0.19,-0.16,338.15000000000003,0.002254743129014969,0.007892447523772717,0.023421337828040123,-0.022048747166991234,0.0,0.0,2.4843673706054688,-0.01,0.0,-0.04,0.0
19.77133800,19771338,2,0.19,-0.16,338.14,0.0018112498801201582,0.008311664685606956,0.021673621609807014,-0.025296006351709366,0.0,0.0,2.484354019165039,-0.01,0.0,-0.04,0.0
19.87130300,19871303,2,0.19,-0.15,338.13,0.0015448261983692646,0.008431068621575832,0.0196585301309824,0.0011128714540973306,0.0,0.0,2.486114263534546,-0.01,0.0,-0.03,0.0
19.97138400,19971384,2,0.18,-0.15,338.12,0.000977108022198081,0.00689039146527648,0.019153093919157982,0.03866631165146828,0.0,0.0,2.490896463394165,-0.01,0.0,-0.03,0.0
20.07129300,20071293,2,0.18,-0.15,338.1,-0.000162814962095581,0.005830347537994385,0.015758579596877098,0.02822190895676613,0.0,0.0,2.491428852081299,-0.01,0.0,-0.02,0.0
20.17133200,20171332,2,0.19,-0.15,338.07,-9.990115358959883e-06,0.004725074395537376,0.011413948610424995,-0.026672719046473503,0.0,0.0,2.4887263774871826,-0.01,0.0,-0.02,0.0
20.27129200,20271292,2,0.19,-0.15,338.05,-0.0006415818934328854,0.00398322194814682,0.008632400073111057,-0.02011777088046074,0.0,0.0,2.488839626312256,-0.01,0.0,-0.02,0.0
20.37129400,20371294,2,0.19,-0.15,338.04,-0.0023165885359048843,0.0038794158026576042,0.007983033545315266,0.01735645905137062,0.0,0.0,2.491370439529419,-0.01,0.0,-0.02,0.0
20.47129600,20471296,2,0.18,-0.14,338.03000000000003,-0.0025943925138562918,0.00330326403491199,0.007886064238846302,0.04979414865374565,0.0,0.0,2.496168375015259,-0.01,0.0,-0.02,0.0
20.57130600,20571306,2,0.18,-0.14,338.03000000000003,-0.003909211605787277,0.0033721879590302706,0.007724251132458448,0.061388835310935974,0.0,0.0,2.5006468296051025,-0.01,0.0,-0.02,0.0
20.67134000,20671340,2,0.18,-0.14,338.04,-0.004242794122546911,0.0032362663187086582,0.00728102819994092,0.0507226400077343,0.0,0.0,2.5046188831329346,-0.01,0.0,-0.02,0.0
20.77129400,20771294,2,0.18,-0.15,338.05,-0.005023735575377941,0.00248502055183053,0.006682727951556444,0.05593512952327728,0.0,0.0,2.510300636291504,-0.01,0.0,-0.03,0.0
20.87138300,20871383,2,0.18,-0.14,338.06,-0.00503943907096982,0.00236814608797431,0.006480578798800707,0.04162333160638809,0.0,0.0,2.5133042335510254,-0.01,0.0,-0.03,0.0
20.97133500,20971335,2,0.17,-0.14,338.08,-0.004883875139057636,0.001524862484075129,0.0046015637926757336,-0.0026002847589552402,0.0,0.0,2.5130550861358643,-0.01,0.0,-0.03,0.0
21.07132700,21071327,2,0.16,-0.14,338.09000000000003,-0.004652994219213724,0.001341504161246121,0.0016498949844390154,-0.023752864450216293,0.0,0.0,2.5118567943573,-0.01,0.0,-0.02,0.0
21.17129600,21171296,2,0.16,-0.14,338.08,-0.005189497955143452,0.001173697761259973,-0.0006788187893107533,-0.02171267569065094,0.0,0.0,2.51092267036438,-0.01,0.0,-0.02,0.0
21.27129500,21271295,2,0.16,-0.14,338.07,-0.005271030589938164,0.0001941472291946411,-0.005208727438002825,-0.048525191843509674,0.0,0.0,2.5060648918151855,-0.01,0.0,-0.02,0.0
21.37129200,21371292,2,0.16,-0.15,338.06,-0.0049965353682637215,-0.000431313383160159,-0.006925529334694147,-0.0404767207801342,0.0,0.0,2.5040316581726074,-0.01,0.0,-0.02,0.0
21.47129700,21471297,2,0.16,-0.15,338.06,-0.0046475292183458805,0.00044773714034818113,-0.007469146512448788,0.011100761592388153,0.0,0.0,2.505563974380493,-0.01,0.0,-0.02,0.0
21.57134300,21571343,2,0.16,-0.15,338.05,-0.004575274419039488,0.00037774909287691116,-0.006993285845965147,0.044060055166482925,0.0,0.0,2.5092051029205322,-0.01,0.0,-0.02,0.0
21.67129400,21671294,2,0.16,-0.14,338.04,-0.005046304780989885,-0.00017505492724012583,-0.007811148185282946,0.045536793768405914,0.0,0.0,2.512012004852295,-0.01,0.0,-0.02,0.0
21.77137600,21771376,2,0.16,-0.15,338.05,-0.005377335008233786,-3.515204298309982e-05,-0.00885855220258236,0.02388414554297924,0.0,0.0,2.513547658920288,-0.01,0.0,-0.03,0.0
21.87136900,21871369,2,0.16,-0.15,338.07,-0.005666835233569145,0.0004903640947304666,-0.00967867486178875,0.013610186986625195,0.0,0.0,2.5149054527282715,-0.01,0.0,-0.03,0.0
21.97132800,21971328,2,0.16,-0.15,338.09000000000003,-0.005578193347901106,0.000315137323923409,-0.010363273322582245,0.005392717197537422,0.0,0.0,2.515439748764038,-0.01,0.0,-0.03,0.0
22.07130600,22071306,2,0.16,-0.15,338.11,-0.005873894318938255,0.0005780251231044531,-0.011668414808809757,-0.00023141203564591706,0.0,0.0,2.51578426361084,-0.01,0.0,-0.03,0.0
22.17130800,22171308,2,0.16,-0.16,338.12,-0.006105145905166864,8.228824299294502e-06,-0.013992244377732277,-0.03619883209466934,0.0,0.0,2.511561393737793,-0.01,0.0,-0.03,0.0
22.27130200,22271302,2,0.17,-0.16,338.13,-0.006429550237953663,0.0006842566654086113,-0.017911938950419426,-0.1010194644331932,0.0,0.0,2.5022265911102295,-0.01,0.0,-0.03,0.0
22.37129200,22371292,2,0.17,-0.16,338.14,-0.007428829558193684,0.0006721552344970405,-0.023185202851891518,-0.13388361036777496,0.0,0.0,2.4912328720092773,-0.01,0.0,-0.03,0.0
22.47134000,22471340,2,0.16,-0.16,338.14,-0.006642993539571762,0.0013278599362820387,-0.027342302724719048,-0.12794096767902374,0.0,0.0,2.4808061122894287,-0.01,0.0,-0.04,0.0
22.57129600,22571296,2,0.17,-0.16,338.15000000000003,-0.00639676908031106,0.001934980507940054,-0.029870914295315742,-0.09161671251058578,0.0,0.0,2.4733474254608154,-0.01,0.0,-0.04,0.0
22.67138800,22671388,2,0.18,-0.16,338.15000000000003,-0.006389697082340717,0.002080965554341674,-0.033391907811164856,-0.07847444713115692,0.0,0.0,2.464789628982544,-0.01,0.0,-0.04,0.0
22.77129200,22771292,2,0.18,-0.16,338.16,-0.0055276257917284966,0.0019889920949935913,-0.03654778003692627,-0.0889931172132492,0.0,0.0,2.4559435844421387,-0.01,0.0,-0.04,0.0
22.87134200,22871342,2,0.18,-0.15,338.16,-0.004569209646433592,0.002554849022999406,-0.0385180301964283,-0.05208970606327057,0.0,0.0,2.4516522884368896,-0.01,0.0,-0.04,0.0
22.97129600,22971296,2,0.18,-0.15,338.17,-0.0051480988040566444,0.002267958130687475,-0.03827669098973274,0.006457163952291012,0.0,0.0,2.451585292816162,-0.01,0.0,-0.04,0.0
23.07130100,23071301,2,0.18,-0.15,338.18,-0.005442993249744177,0.002278759842738509,-0.03809291124343872,0.022487260401248932,0.0,0.0,2.4514482021331787,-0.01,0.0,-0.04,0.0
23.17130000,23171300,2,0.18,-0.14,338.18,-0.005389472935348749,0.0022529319394379854,-0.037334904074668884,0.00771903432905674,0.0,0.0,2.4506125450134277,-0.01,0.0,-0.04,0.0
23.27129500,23271295,2,0.18,-0.14,338.18,-0.005913146305829287,0.0029213617090135813,-0.0376134067773819,0.0015330200549215078,0.0,0.0,2.4502885341644287,-0.01,0.0,-0.04,0.0
23.37133900,23371339,2,0.18,-0.14,338.18,-0.005690811201930046,0.004011199809610844,-0.039907943457365036,-0.03418181836605072,0.0,0.0,2.445514440536499,-0.01,0.0,-0.04,0.0
23.47129700,23471297,2,0.18,-0.14,338.18,-0.005948587786406279,0.004615564364939928,-0.04148373380303383,-0.06634141504764557,0.0,0.0,2.4402353763580322,-0.01,0.0,-0.04,0.0
23.57139300,23571393,2,0.18,-0.14,338.18,-0.0071151540614664555,0.005565743427723646,-0.04245652258396149,-0.058143872767686844,0.0,0.0,2.4353272914886475,-0.01,0.0,-0.04,0.0
23.67136200,23671362,2,0.17,-0.14,338.18,-0.006555942352861166,0.006285379640758038,-0.04462647810578346,-0.05229789763689041,0.0,0.0,2.4307878017425537,-0.01,0.0,-0.04,0.0
23.77133100,23771331,2,0.17,-0.13,338.17,-0.005760691128671169,0.007695452775806189,-0.046117864549160004,-0.048946745693683624,0.0,0.0,2.4258556365966797,-0.01,0.0,-0.03,0.0
23.87130300,23871303,2,0.17,-0.13,338.16,-0.005827384535223246,0.008241363801062107,-0.04744528979063034,-0.05275074765086174,0.0,0.0,2.4206595420837402,-0.01,0.0,-0.03,0.0
23.97129200,23971292,2,0.17,-0.12,338.15000000000003,-0.006268788129091263,0.008502199314534664,-0.047563586384058,-0.04451039806008339,0.0,0.0,2.416485548019409,-0.01,0.0,-0.03,0.0
24.07129400,24071294,2,0.16,-0.12,338.14,-0.007282959762960672,0.009111390449106693,-0.047818247228860855,-0.01949450932443142,0.0,0.0,2.4147942066192627,-0.01,0.0,-0.03,0.0
24.17129400,24171294,2,0.16,-0.12,338.13,-0.008427799679338932,0.00996561162173748,-0.04721655324101448,0.018293309956789017,0.0,0.0,2.416316509246826,-0.01,0.0,-0.03,0.0
24.27135300,24271353,2,0.16,-0.12,338.12,-0.009480917826294899,0.010292859748005867,-0.0448407419025898,0.05245286971330643,0.0,0.0,2.42042875289917,-0.01,0.0,-0.03,0.0
24.37129100,24371291,2,0.16,-0.12,338.12,-0.010262781754136086,0.011265644803643227,-0.04322844743728638,0.05351956933736801,0.0,0.0,2.4235992431640625,-0.01,0.0,-0.03,0.0
24.47138800,24471388,2,0.16,-0.12,338.12,-0.01217553298920393,0.01170196570456028,-0.04215908795595169,0.005525017622858286,0.0,0.0,2.422168254852295,-0.01,0.0,-0.03,0.0
24.57133900,24571339,2,0.17,-0.12,338.13,-0.0131643982604146,0.012790054082870483,-0.04331747442483902,-0.05570385977625847,0.0,0.0,2.4168028831481934,-0.01,0.0,-0.03,0.0
24.67133900,24671339,2,0.17,-0.11,338.14,-0.013600320555269718,0.013991921208798885,-0.04532674700021744,-0.08164787292480469,0.0,0.0,2.4105896949768066,-0.01,0.0,-0.03,0.0
24.77130200,24771302,2,0.17,-0.12,338.16,-0.01360592246055603,0.01388473343104124,-0.04522483050823212,-0.05650298669934273,0.0,0.0,2.4071099758148193,-0.01,0.0,-0.04,0.0
24.87130500,24871305,2,0.16,-0.13,338.17,-0.013802525587379932,0.014557217247784138,-0.04497554153203964,-0.019819775596261024,0.0,0.0,2.4054627418518066,-0.01,0.0,-0.04,0.0
24.97130700,24971307,2,0.17,-0.13,338.18,-0.014272557571530342,0.014634552411735058,-0.043552204966545105,0.02581140398979187,0.0,0.0,2.408341646194458,-0.01,0.0,-0.04,0.0
25.07129200,25071292,2,0.17,-0.13,338.2,-0.015073416754603386,0.014849239960312843,-0.04264331981539726,0.06241515278816223,0.0,0.0,2.412796974182129,-0.01,0.0,-0.04,0.0
25.17134500,25171345,2,0.16,-0.13,338.21,-0.015221422538161278,0.013892887160182,-0.041612740606069565,0.05101422592997551,0.0,0.0,2.4158430099487305,-0.01,0.0,-0.04,0.0
25.27129800,25271298,2,0.15,-0.13,338.21,-0.016277071088552475,0.013858138583600521,-0.04109107702970505,0.04550517722964287,0.0,0.0,2.4201130867004395,-0.01,0.0,-0.04,0.0
25.37137400,25371374,2,0.15,-0.13,338.21,-0.01656988263130188,0.014207960106432438,-0.04038383439183235,0.042076434940099716,0.0,0.0,2.4232680797576904,-0.01,0.0,-0.04,0.0
25.47136400,25471364,2,0.15,-0.13,338.21,-0.016699982807040215,0.012537151575088501,-0.03872295841574669,0.016304219141602516,0.0,0.0,2.424335241317749,-0.01,0.0,-0.04,0.0
25.57133700,25571337,2,0.14,-0.13,338.21,-0.016844822093844414,0.011685898527503014,-0.03882310166954994,-0.004236511420458555,0.0,0.0,2.4243004322052,-0.01,0.0,-0.04,0.0
25.67130300,25671303,2,0.14,-0.13,338.22,-0.016835009679198265,0.010944213718175888,-0.03892975300550461,-0.016126947477459908,0.0,0.0,2.4232256412506104,-0.01,0.0,-0.04,0.0
25.77130300,25771303,2,0.14,-0.14,338.22,-0.017751328647136688,0.009910528548061848,-0.0378296785056591,-0.011119576171040535,0.0,0.0,2.4230690002441406,-0.01,0.0,-0.04,0.0
25.87130700,25871307,2,0.13,-0.14,338.22,-0.01716187782585621,0.008857278153300285,-0.038815177977085114,-0.011478940024971962,0.0,0.0,2.4218153953552246,-0.01,0.0,-0.04,0.0
25.97129300,25971293,2,0.14,-0.14,338.22,-0.017154565081000328,0.008348755538463593,-0.038812775164842606,-0.02355634979903698,0.0,0.0,2.419691801071167,-0.01,0.0,-0.04,0.0
26.07133800,26071338,2,0.14,-0.13,338.22,-0.01699986308813095,0.007984079420566559,-0.038346294313669205,-0.02017696015536785,0.0,0.0,2.4182822704315186,-0.01,0.0,-0.04,0.0
26.17129500,26171295,2,0.14,-0.14,338.22,-0.017778541892766953,0.009060081094503403,-0.03759098798036575,-0.01029223296791315,0.0,0.0,2.4173998832702637,-0.01,0.0,-0.04,0.0
26.27137700,26271377,2,0.14,-0.14,338.23,-0.01790199801325798,0.008987322449684143,-0.03797077387571335,-0.0013220800319686532,0.0,0.0,2.4174861907958984,-0.01,0.0,-0.04,0.0
26.37129200,26371292,2,0.13,-0.14,338.24,-0.01720997877418995,0.008429661393165588,-0.03835727274417877,-0.004667522851377726,0.0,0.0,2.4162373542785645,-0.01,0.0,-0.04,0.0
26.47133600,26471336,2,0.13,-0.14,338.24,-0.017498712986707687,0.007534346077591181,-0.038600120693445206,-1.6738384147174656e-05,0.0,0.0,2.4170401096343994,-0.01,0.0,-0.04,0.0
26.57129600,26571296,2,0.13,-0.14,338.24,-0.016325674951076508,0.006453211884945631,-0.038406286388635635,0.023208463564515114,0.0,0.0,2.419107437133789,-0.01,0.0,-0.04,0.0
26.67129300,26671293,2,0.13,-0.14,338.24,-0.015752293169498444,0.005774347111582756,-0.03734472766518593,0.030574413016438484,0.0,0.0,2.4215478897094727,-0.01,0.0,-0.04,0.0
26.77129500,26771295,2,0.13,-0.14,338.24,-0.0160882119089365,0.00433244789019227,-0.03651845082640648,0.018785975873470306,0.0,0.0,2.4222679138183594,-0.01,0.0,-0.04,0.0
26.87131500,26871315,2,0.13,-0.14,338.23,-0.015834864228963852,0.00296355364844203,-0.03505868464708328,0.017145922407507896,0.0,0.0,2.4243781566619873,-0.01,0.0,-0.04,0.0
26.97134300,26971343,2,0.13,-0.14,338.23,-0.016078483313322067,0.002492669504135847,-0.033605244010686874,0.023562230169773102,0.0,0.0,2.4263837337493896,-0.01,0.0,-0.04,0.0
27.07129300,27071293,2,0.14,-0.15,338.23,-0.01555393822491169,0.0024005358573049307,-0.03207996487617493,0.04333880916237831,0.0,0.0,2.431396007537842,-0.01,0.0,-0.04,0.0
27.17138800,27171388,2,0.14,-0.15,338.23,-0.015416376292705536,0.0011154584353789687,-0.030354127287864685,0.05348172411322594,0.0,0.0,2.4354324340820312,-0.01,0.0,-0.04,0.0
27.27134300,27271343,2,0.14,-0.15,338.23,-0.015071106143295765,-0.00022259907564148307,-0.029891395941376686,0.053175441920757294,0.0,0.0,2.4407012462615967,-0.01,0.0,-0.03,0.0
27.37133000,27371330,2,0.14,-0.16,338.22,-0.014620226807892323,-0.0010098026832565665,-0.028215650469064713,0.06867682188749313,0.0,0.0,2.447326183319092,-0.01,0.0,-0.03,0.0
27.47130800,27471308,2,0.14,-0.16,338.2,-0.014268009923398495,-0.0019633083138614893,-0.02696302719414234,0.08187267929315567,0.0,0.0,2.4550626277923584,-0.01,0.0,-0.03,0.0
27.57130800,27571308,2,0.14,-0.16,338.19,-0.01359302643686533,-0.0030653567519038916,-0.025896834209561348,0.08200988173484802,0.0,0.0,2.462315559387207,-0.01,0.0,-0.03,0.0
27.67130200,27671302,2,0.14,-0.16,338.18,-0.01319428626447916,-0.004545227624475956,-0.02432483807206154,0.08240662515163422,0.0,0.0,2.4703502655029297,-0.01,0.0,-0.03,0.0
27.77132700,27771327,2,0.14,-0.16,338.19,-0.012488417327404022,-0.004387408960610628,-0.02288125827908516,0.07048144936561584,0.0,0.0,2.4763481616973877,-0.01,0.0,-0.04,0.0
27.87134500,27871345,2,0.14,-0.16,338.19,-0.011481367982923985,-0.004542396869510412,-0.023105526342988014,0.038555894047021866,0.0,0.0,2.479393720626831,-0.01,0.0,-0.04,0.0
27.97129300,27971293,2,0.14,-0.15,338.2,-0.011647693812847137,-0.003538271877914667,-0.02203633263707161,0.03476163372397423,0.0,0.0,2.4838335514068604,-0.01,0.0,-0.04,0.0
28.07136900,28071369,2,0.14,-0.15,338.21,-0.011930709704756737,-0.003480941755697131,-0.021608790382742882,0.012102694250643253,0.0,0.0,2.4846980571746826,-0.01,0.0,-0.04,0.0
28.17135800,28171358,2,0.14,-0.15,338.22,-0.010752248577773571,-0.0038163301069289446,-0.02198370173573494,-0.019572479650378227,0.0,0.0,2.4838743209838867,-0.01,0.0,-0.04,0.0
28.27133100,28271331,2,0.14,-0.15,338.22,-0.010465225204825401,-0.004600579850375652,-0.02235865592956543,-0.015559358522295952,0.0,0.0,2.4837136268615723,-0.01,0.0,-0.04,0.0
28.37130400,28371304,2,0.14,-0.15,338.23,-0.010550794191658497,-0.005445216782391071,-0.02333855628967285,-0.007984449155628681,0.0,0.0,2.4836230278015137,-0.01,0.0,-0.04,0.0
28.47130500,28471305,2,0.14,-0.14,338.24,-0.010373566299676895,-0.005408282391726971,-0.022106986492872238,0.004038908053189516,0.0,0.0,2.48435640335083,-0.01,0.0,-0.04,0.0
28.57129500,28571295,2,0.14,-0.14,338.25,-0.010527587495744228,-0.005153449717909098,-0.021962083876132965,0.010105692781507969,0.0,0.0,2.485100507736206,-0.01,0.0,-0.04,0.0
28.67129500,28671295,2,0.14,-0.14,338.27,-0.010847431607544422,-0.0048833671025931835,-0.02096688188612461,0.017963504418730736,0.0,0.0,2.486891031265259,-0.01,0.0,-0.04,0.0
28.77134600,28771346,2,0.13,-0.14,338.26,-0.010301366448402405,-0.004869230091571808,-0.020117245614528656,0.033104296773672104,0.0,0.0,2.489954710006714,-0.01,0.0,-0.04,0.0
28.87129700,28871297,2,0.13,-0.14,338.26,-0.010497941635549068,-0.0037161139771342278,-0.01813121885061264,0.04696967452764511,0.0,0.0,2.4941227436065674,-0.01,0.0,-0.04,0.0
28.97138600,28971386,2,0.13,-0.14,338.26,-0.011105867102742195,-0.0038785384967923164,-0.016546230763196945,0.04800044372677803,0.0,0.0,2.4983088970184326,-0.01,0.0,-0.04,0.0
29.07129400,29071294,2,0.12,-0.13,338.26,-0.010799114592373371,-0.0037357667461037636,-0.01599392481148243,0.03766309469938278,0.0,0.0,2.5013961791992188,-0.01,0.0,-0.04,0.0
29.17133300,29171333,2,0.12,-0.13,338.26,-0.011680387891829014,-0.00406603654846549,-0.014766428619623184,0.05063086748123169,0.0,0.0,2.507408857345581,-0.01,0.0,-0.04,0.0
29.27129500,29271295,2,0.12,-0.13,338.26,-0.012938123196363449,-0.0038369849789887667,-0.013760737143456936,0.05973275005817413,0.0,0.0,2.51200795173645,-0.01,0.0,-0.04,0.0
29.37130100,29371301,2,0.12,-0.12,338.26,-0.012609914876520634,-0.0036522303707897663,-0.013554469682276249,0.021103549748659134,0.0,0.0,2.5132784843444824,-0.01,0.0,-0.04,0.0
29.47129500,29471295,2,0.12,-0.12,338.26,-0.013109425082802773,-0.0033810476306825876,-0.013243129476904869,0.00422795582562685,0.0,0.0,2.514671564102173,-0.01,0.0,-0.04,0.0
29.57129900,29571299,2,0.12,-0.12,338.27,-0.013532519340515137,-0.0022460338659584522,-0.011646073311567307,0.006373404525220394,0.0,0.0,2.515800714492798,-0.01,0.0,-0.04,0.0
29.67134600,29671346,2,0.12,-0.12,338.28000000000003,-0.014779768884181976,-0.0008984131272882223,-0.009548296220600605,0.006096923723816872,0.0,0.0,2.516676902770996,-0.01,0.0,-0.04,0.0
29.77130800,29771308,2,0.12,-0.12,338.28000000000003,-0.015735356137156487,-0.0005213284748606384,-0.008704908192157745,0.02295057475566864,0.0,0.0,2.519946336746216,-0.01,0.0,-0.04,0.0
29.87140200,29871402,2,0.12,-0.11,338.29,-0.01636188104748726,1.3447094033836038e-06,-0.007290219888091087,0.023211337625980377,0.0,0.0,2.521152973175049,-0.01,0.0,-0.04,0.0
29.97129200,29971292,2,0.12,-0.11,338.29,-0.017122972756624222,2.0740522813866846e-05,-0.007077893707901239,-0.0005873296177014709,0.0,0.0,2.5208852291107178,-0.01,0.0,-0.04,0.0
30.07131000,30071310,2,0.12,-0.11,338.29,-0.01816953718662262,0.0003767075832001865,-0.007446806877851486,-0.018466683104634285,0.0,0.0,2.5193636417388916,-0.01,0.0,-0.04,0.0
30.17128900,30171289,2,0.13,-0.11,338.28000000000003,-0.018074553459882736,0.0007455262239091098,-0.007614736910909414,-0.017396049574017525,0.0,0.0,2.518749475479126,-0.01,0.0,-0.04,0.0
30.27129000,30271290,2,0.12,-0.11,338.28000000000003,-0.01903574727475643,0.0007296503172256052,-0.0062268381007015705,-0.010369395837187767,0.0,0.0,2.5178146362304688,-0.01,0.0,-0.04,0.0
30.37128600,30371286,2,0.13,-0.12,338.28000000000003,-0.020057877525687218,0.0010386017384007573,-0.007160827983170748,-0.017980696633458138,0.0,0.0,2.516017436981201,-0.01,0.0,-0.04,0.0
30.47129800,30471298,2,0.13,-0.11,338.28000000000003,-0.020725848153233528,0.0014359214110299945,-0.006191851571202278,-0.008314439095556736,0.0,0.0,2.5159289836883545,-0.01,0.0,-0.04,0.0
30.57132600,30571326,2,0.12,-0.11,338.27,-0.02135545201599598,0.0015343694249168038,-0.0048672049306333065,0.03324240818619728,0.0,0.0,2.5195424556732178,-0.01,0.0,-0.04,0.0
30.67129200,30671292,2,0.12,-0.11,338.27,-0.021606508642435074,0.0018615141743794084,-0.0031309102196246386,0.07043573260307312,0.0,0.0,2.5253822803497314,-0.01,0.0,-0.04,0.0
30.77137800,30771378,2,0.12,-0.11,338.25,-0.022033873945474625,0.002405899576842785,-0.0006639161147177219,0.08679799735546112,0.0,0.0,2.532595157623291,-0.01,0.0,-0.03,0.0
30.87128500,30871285,2,0.11,-0.12,338.24,-0.02241387590765953,0.0025737297255545855,0.0008035952341742814,0.08289476484060287,0.0,0.0,2.5393002033233643,-0.01,0.0,-0.03,0.0
30.97132200,30971322,2,0.12,-0.12,338.24,-0.02348325029015541,0.0021412852220237255,0.0019500127527862787,0.06915126740932465,0.0,0.0,2.5455102920532227,-0.01,0.0,-0.03,0.0
31.07128300,31071283,2,0.12,-0.11,338.24,-0.024176083505153656,0.002402390819042921,0.004071415401995182,0.07254784554243088,0.0,0.0,2.5528740882873535,-0.01,0.0,-0.03,0.0
31.17129400,31171294,2,0.12,-0.11,338.23,-0.02434558980166912,0.0023373605217784643,0.004803840070962906,0.06580253690481186,0.0,0.0,2.558774948120117,-0.01,0.0,-0.03,0.0
31.27128300,31271283,2,0.11,-0.11,338.23,-0.0256090946495533,0.0018626844976097345,0.006510041654109955,0.037617623805999756,0.0,0.0,2.562265634536743,-0.01,0.0,-0.03,0.0
31.37128300,31371283,2,0.11,-0.11,338.23,-0.025421755388379097,0.0026321248151361942,0.00667212437838316,0.025932583957910538,0.0,0.0,2.565765380859375,-0.01,0.0,-0.03,0.0
31.47133600,31471336,2,0.11,-0.1,338.22,-0.025604460388422012,0.0029326691292226315,0.009072397835552692,0.0422414131462574,0.0,0.0,2.570744037628174,-0.01,0.0,-0.03,0.0
31.57129800,31571298,2,0.11,-0.1,338.23,-0.026451097801327705,0.003019542433321476,0.010093474760651588,0.04157286137342453,0.0,0.0,2.574432134628296,-0.01,0.0,-0.03,0.0
31.67137400,31671374,2,0.11,-0.09,338.24,-0.027756931260228157,0.0033808171283453703,0.011651329696178436,0.028450340032577515,0.0,0.0,2.5775043964385986,-0.01,0.0,-0.03,0.0
31.77128400,31771284,2,0.1,-0.09,338.24,-0.02821376360952854,0.004044156521558762,0.014457964338362217,0.044731758534908295,0.0,0.0,2.5829453468322754,-0.01,0.0,-0.03,0.0
31.87131800,31871318,2,0.1,-0.09,338.23,-0.028974387794733047,0.004137121606618166,0.01783381961286068,0.06772206723690033,0.0,0.0,2.5892670154571533,-0.01,0.0,-0.03,0.0
31.97128200,31971282,2,0.1,-0.09,338.21,-0.030174480751156807,0.003993736580014229,0.020189452916383743,0.06755884736776352,0.0,0.0,2.5952579975128174,-0.01,0.0,-0.03,0.0
32.07128900,32071289,2,0.1,-0.09,338.19,-0.030650991946458817,0.004320534411817789,0.022168437018990517,0.07171270251274109,0.0,0.0,2.6025354862213135,-0.01,0.0,-0.03,0.0
32.17128900,32171289,2,0.1,-0.09,338.17,-0.03175460547208786,0.004665473010390997,0.024740487337112427,0.06266487389802933,0.0,0.0,2.607687473297119,-0.01,0.0,-0.02,0.0
32.27128000,32271280,2,0.1,-0.08,338.16,-0.03241192176938057,0.004817140754312277,0.027001861482858658,0.04901127144694328,0.0,0.0,2.6128134727478027,-0.01,0.0,-0.03,0.0
32.37133800,32371338,2,0.09,-0.09,338.16,-0.03280634805560112,0.004747101571410894,0.027487821877002716,0.04069088026881218,0.0,0.0,2.6169052124023438,-0.01,0.0,-0.03,0.0
32.47128700,32471287,2,0.1,-0.08,338.16,-0.03315288573503494,0.0030823713168501854,0.027834203094244003,0.020893821492791176,0.0,0.0,2.6190009117126465,-0.01,0.0,-0.03,0.0
32.57138400,32571384,2,0.1,-0.08,338.17,-0.03391470015048981,0.00266215018928051,0.02733616717159748,0.0096592353656888,0.0,0.0,2.6209068298339844,-0.01,0.0,-0.03,0.0
32.67128000,32671280,2,0.1,-0.08,338.17,-0.03412536159157753,0.0026369497645646334,0.028135821223258972,0.02261851727962494,0.0,0.0,2.624215841293335,-0.01,0.0,-0.03,0.0
32.77131200,32771312,2,0.09,-0.08,338.18,-0.03492911905050278,0.0017751336563378572,0.028834480792284012,0.03926762193441391,0.0,0.0,2.628303289413452,-0.01,0.0,-0.03,0.0
32.87128600,32871286,2,0.08,-0.07,338.18,-0.03529147058725357,0.001192340161651373,0.029479119926691055,0.048665851354599,0.0,0.0,2.632997512817383,-0.01,0.0,-0.03,0.0
32.97129400,32971294,2,0.08,-0.07,338.18,-0.03635703772306442,0.0007989218574948609,0.030189482495188713,0.051594994962215424,0.0,0.0,2.6377243995666504,-0.01,0.0,-0.03,0.0
33.07128000,33071280,2,0.08,-0.08,338.19,-0.037914879620075226,0.000286768248770386,0.030922017991542816,0.05413242056965828,0.0,0.0,2.6429686546325684,-0.01,0.0,-0.03,0.0
33.17129800,33171298,2,0.09,-0.08,338.2,-0.03844423592090607,-0.0010575263295322657,0.03289277106523514,0.07775837928056717,0.0,0.0,2.6506292819976807,-0.01,0.0,-0.03,0.0
33.27133600,33271336,2,0.09,-0.09,338.21,-0.039139557629823685,-0.0014100831467658281,0.03423671796917915,0.09302359074354172,0.0,0.0,2.6588501930236816,-0.01,0.0,-0.03,0.0
33.37128300,33371283,2,0.09,-0.1,338.22,-0.03913399577140808,-0.0021201781928539276,0.03486206755042076,0.09197025746107101,0.0,0.0,2.6673812866210938,-0.01,0.0,-0.03,0.0
33.47136700,33471367,2,0.08,-0.1,338.23,-0.0402175597846508,-0.002281775465235114,0.03593502566218376,0.0934237688779831,0.0,0.0,2.6761553287506104,-0.01,0.0,-0.03,0.0
33.57128600,33571286,2,0.09,-0.1,338.22,-0.04014074057340622,-0.0033599778544157743,0.03751397505402565,0.09660429507493973,0.0,0.0,2.685500383377075,-0.01,0.0,-0.03,0.0
33.67130900,33671309,2,0.08,-0.09,338.22,-0.040298428386449814,-0.003431432880461216,0.039531074464321136,0.08750895410776138,0.0,0.0,2.6935408115386963,-0.01,0.0,-0.03,0.0
33.77128600,33771286,2,0.07,-0.09,338.22,-0.04086421802639961,-0.0035002350341528654,0.0405358262360096,0.061113689094781876,0.0,0.0,2.699493646621704,-0.01,0.0,-0.03,0.0
33.87129600,33871296,2,0.08,-0.09,338.23,-0.041787102818489075,-0.004169592633843422,0.04125320538878441,0.041624780744314194,0.0,0.0,2.704263210296631,-0.01,0.0,-0.03,0.0
33.97128000,33971280,2,0.07,-0.09,338.22,-0.04165909066796303,-0.004341967403888702,0.041956476867198944,0.02574850805103779,0.0,0.0,2.7074384689331055,-0.01,0.0,-0.03,0.0
34.07129800,34071298,2,0.07,-0.1,338.21,-0.04215897247195244,-0.004755531437695026,0.04221124202013016,0.010339788161218166,0.0,0.0,2.709315061569214,-0.01,0.0,-0.03,0.0
34.17132600,34171326,2,0.07,-0.1,338.2,-0.04215291142463684,-0.0056753805838525295,0.0421096608042717,0.005895999725908041,0.0,0.0,2.7108826637268066,-0.01,0.0,-0.03,0.0
34.27128200,34271282,2,0.07,-0.1,338.19,-0.04137333109974861,-0.0064332373440265656,0.041890695691108704,0.0053763920441269875,0.0,0.0,2.7120554447174072,-0.01,0.0,-0.03,0.0
34.37137900,34371379,2,0.06,-0.1,338.19,-0.041534144431352615,-0.006767872720956802,0.04094408452510834,0.01544369850307703,0.0,0.0,2.714462995529175,-0.01,0.0,-0.03,0.0
34.47128300,34471283,2,0.05,-0.1,338.19,-0.04149410128593445,-0.006835251580923796,0.04133859649300575,0.023779425770044327,0.0,0.0,2.7166104316711426,-0.01,0.0,-0.03,0.0
34.57131100,34571311,2,0.05,-0.1,338.18,-0.041144467890262604,-0.007337251212447882,0.041907764971256256,0.0375259704887867,0.0,0.0,2.72072696685791,-0.01,0.0,-0.03,0.0
34.67127900,34671279,2,0.05,-0.11,338.18,-0.04101115092635155,-0.00771412905305624,0.04269035905599594,0.04924701899290085,0.0,0.0,2.7248916625976562,-0.01,0.0,-0.03,0.0
34.77128800,34771288,2,0.04,-0.1,338.19,-0.04138345271348953,-0.008341691456735134,0.042537473142147064,0.0296962670981884,0.0,0.0,2.7271809577941895,-0.01,0.0,-0.03,0.0
34.87128300,34871283,2,0.04,-0.11,338.18,-0.04049746319651604,-0.009987241588532925,0.04233646020293236,0.014950101263821125,0.0,0.0,2.7289676666259766,-0.01,0.0,-0.02,0.0
34.97128700,34971287,2,0.04,-0.1,338.18,-0.04010845720767975,-0.01239056047052145,0.04173896461725235,0.026248667389154434,0.0,0.0,2.7323896884918213,-0.01,0.0,-0.02,0.0
35.07133100,35071331,2,0.03,-0.1,338.18,-0.04049167409539223,-0.013739300891757011,0.04136519134044647,0.056554943323135376,0.0,0.0,2.7383511066436768,-0.01,0.0,-0.03,0.0
35.17128300,35171283,2,0.03,-0.09,338.18,-0.0396244153380394,-0.015296231023967266,0.04129064828157425,0.04950643703341484,0.0,0.0,2.7417004108428955,-0.01,0.0,-0.02,0.0
35.27136600,35271366,2,0.03,-0.09,338.18,-0.03983370214700699,-0.017727507278323174,0.04109698161482811,0.040836889296770096,0.0,0.0,2.746309280395508,-0.01,0.0,-0.02,0.0
35.37128500,35371285,2,0.03,-0.09,338.19,-0.039227619767189026,-0.0198870487511158,0.0410558357834816,0.03368071839213371,0.0,0.0,2.748863935470581,-0.01,0.0,-0.02,0.0
35.47131100,35471311,2,0.02,-0.09,338.19,-0.03908195346593857,-0.021427450701594353,0.040406204760074615,0.012462235987186432,0.0,0.0,2.7506561279296875,-0.01,0.0,-0.02,0.0
35.57128600,35571286,2,0.02,-0.1,338.19,-0.039288684725761414,-0.022967612370848656,0.0392463356256485,0.014175308868288994,0.0,0.0,2.7527034282684326,-0.01,0.0,-0.02,0.0
35.67128000,35671280,2,0.02,-0.1,338.19,-0.038980767130851746,-0.02401772513985634,0.038726869970560074,0.01780213974416256,0.0,0.0,2.754870653152466,-0.01,0.0,-0.02,0.0
35.77128400,35771284,2,0.02,-0.1,338.18,-0.03923344984650612,-0.025702204555273056,0.037821438163518906,0.015110621228814125,0.0,0.0,2.756357192993164,-0.01,0.0,-0.02,0.0
35.87129400,35871294,2,0.01,-0.1,338.18,-0.039397940039634705,-0.027986016124486923,0.03681518882513046,0.011915641836822033,0.0,0.0,2.757878541946411,-0.01,0.0,-0.02,0.0
35.97133400,35971334,2,0.01,-0.11,338.18,-0.03825587406754494,-0.030733248218894005,0.035595960915088654,0.013993076048791409,0.0,0.0,2.7593231201171875,-0.01,0.0,-0.02,0.0
36.07128000,36071280,2,0.01,-0.1,338.18,-0.03875907510519028,-0.03237660229206085,0.035960182547569275,0.023212045431137085,0.0,0.0,2.7619383335113525,-0.01,0.0,-0.02,0.0
36.17136300,36171363,2,0.0,-0.11,338.18,-0.03900237753987312,-0.032885387539863586,0.03719773143529892,0.02550768293440342,0.0,0.0,2.7637927532196045,-0.01,0.0,-0.02,0.0
36.27128100,36271281,2,0.0,-0.1,338.17,-0.03889816254377365,-0.03385204076766968,0.03783002123236656,0.02222115360200405,0.0,0.0,2.76621675491333,-0.01,0.0,-0.02,0.0
36.37131500,36371315,2,0.0,-0.1,338.17,-0.039193395525217056,-0.03413959965109825,0.03751243278384209,0.03041948564350605,0.0,0.0,2.769280195236206,-0.01,0.0,-0.02,0.0
36.47128400,36471284,2,0.0,-0.11,338.17,-0.0395369678735733,-0.03459423780441284,0.039362832903862,0.03548964485526085,0.0,0.0,2.77258563041687,-0.01,0.0,-0.02,0.0
36.57128500,36571285,2,0.0,-0.12,338.16,-0.039550796151161194,-0.03486926481127739,0.0412798635661602,0.0443672277033329,0.0,0.0,2.7769365310668945,-0.01,0.0,-0.02,0.0
36.67128300,36671283,2,0.0,-0.12,338.16,-0.039987534284591675,-0.03535944223403931,0.04132867977023125,0.036928851157426834,0.0,0.0,2.7798335552215576,-0.01,0.0,-0.02,0.0
36.77128900,36771289,2,0.0,-0.11,338.16,-0.04041816294193268,-0.03597439453005791,0.04218503087759018,0.03282085061073303,0.0,0.0,2.7835819721221924,-0.01,0.01,-0.02,0.0
36.87132800,36871328,2,0.0,-0.11,338.16,-0.039995450526475906,-0.03587087243795395,0.04343621805310249,0.041009996086359024,0.0,0.0,2.787440776824951,-0.01,0.01,-0.02,0.0
36.97129300,36971293,2,0.0,-0.11,338.15000000000003,-0.04004858061671257,-0.03700858727097511,0.043743010610342026,0.031255267560482025,0.0,0.0,2.790294647216797,-0.01,0.01,-0.02,0.0
37.07136500,37071365,2,0.0,-0.1,338.14,-0.039496008306741714,-0.03652063012123108,0.04281626641750336,0.010873434133827686,0.0,0.0,2.7912421226501465,-0.01,0.01,-0.02,0.0
37.17128500,37171285,2,0.0,-0.11,338.13,-0.040158893913030624,-0.03691837564110756,0.04298137500882149,0.0034548831172287464,0.0,0.0,2.7925376892089844,-0.01,0.01,-0.02,0.0
37.27131500,37271315,2,0.0,-0.11,338.13,-0.040117762982845306,-0.036780066788196564,0.04348286986351013,0.006263543851673603,0.0,0.0,2.7934255599975586,-0.01,0.01,-0.02,0.0
37.37128100,37371281,2,0.0,-0.11,338.14,-0.04073754698038101,-0.036009084433317184,0.04370901733636856,-0.006180431228131056,0.0,0.0,2.7929270267486572,-0.01,0.01,-0.02,0.0
37.47128300,37471283,2,-0.01,-0.11,338.14,-0.04053621366620064,-0.0355013832449913,0.04419618472456932,-0.0011554252123460174,0.0,0.0,2.793811559677124,-0.01,0.01,-0.02,0.0
37.57128600,37571286,2,-0.01,-0.11,338.16,-0.042154062539339066,-0.03578340634703636,0.045246634632349014,0.025980431586503983,0.0,0.0,2.796825885772705,-0.01,0.01,-0.02,0.0
37.67128400,37671284,2,-0.01,-0.1,338.17,-0.04314956068992615,-0.03583921864628792,0.04723862558603287,0.039697352796792984,0.0,0.0,2.8000564575195312,-0.02,0.01,-0.02,0.0
37.77132500,37771325,2,-0.01,-0.11,338.18,-0.043622929602861404,-0.03541446849703789,0.04776514321565628,0.028065843507647514,0.0,0.0,2.80197811126709,-0.02,0.01,-0.02,0.0
37.87128900,37871289,2,-0.01,-0.1,338.19,-0.04372601956129074,-0.035309236496686935,0.04827585443854332,0.023061003535985947,0.0,0.0,2.804612636566162,-0.02,0.01,-0.02,0.0
37.97135600,37971356,2,-0.01,-0.1,338.2,-0.04388684034347534,-0.034264594316482544,0.05045674368739128,0.04609973356127739,0.0,0.0,2.8096089363098145,-0.02,0.01,-0.02,0.0
38.07128200,38071282,2,-0.01,-0.1,338.2,-0.04452357441186905,-0.03449668735265732,0.052075084298849106,0.06859968602657318,0.0,0.0,2.8160059452056885,-0.02,0.01,-0.02,0.0
38.17131300,38171313,2,0.0,-0.1,338.2,-0.04481665790081024,-0.035113971680402756,0.05420868098735809,0.09228446334600449,0.0,0.0,2.825249195098877,-0.02,0.01,-0.02,0.0
38.27128200,38271282,2,0.0,-0.1,338.2,-0.04396451264619827,-0.03416980430483818,0.05661551281809807,0.10872253775596619,0.0,0.0,2.8344805240631104,-0.02,0.01,-0.02,0.0
38.37128100,38371281,2,0.0,-0.1,338.2,-0.04421118646860123,-0.03365738317370415,0.05744116008281708,0.09138710796833038,0.0,0.0,2.8422632217407227,-0.02,0.01,-0.02,0.0
38.47128300,38471283,2,0.0,-0.1,338.21,-0.04489077627658844,-0.033116333186626434,0.058503299951553345,0.07215912640094757,0.0,0.0,2.8491170406341553,-0.02,0.01,-0.02,0.0
38.57129600,38571296,2,0.0,-0.09,338.2,-0.045032016932964325,-0.032751284539699554,0.06034186854958534,0.0537264384329319,0.0,0.0,2.8546371459960938,-0.02,0.01,-0.02,0.0
38.67134000,38671340,2,0.0,-0.09,338.2,-0.04575914889574051,-0.032342132180929184,0.0617547444999218,0.04042420536279678,0.0,0.0,2.8591723442077637,-0.02,0.01,-0.02,0.0
38.77128000,38771280,2,0.0,-0.09,338.19,-0.045586660504341125,-0.031332116574048996,0.06248268857598305,0.03397912532091141,0.0,0.0,2.86330509185791,-0.02,0.01,-0.02,0.0
38.87138500,38871385,2,0.0,-0.08,338.19,-0.045981019735336304,-0.030737724155187607,0.06269610673189163,0.026792291551828384,0.0,0.0,2.866490602493286,-0.02,0.01,-0.02,0.0
38.97128400,38971284,2,0.0,-0.08,338.19,-0.04680069163441658,-0.03082830086350441,0.06234331056475639,0.011224288493394852,0.0,0.0,2.8679254055023193,-0.02,0.01,-0.02,0.0
39.07131700,39071317,2,0.0,-0.09,338.18,-0.04708200320601463,-0.030517686158418655,0.0620659776031971,0.0012257948983460665,0.0,0.0,2.868983268737793,-0.02,0.01,-0.02,0.0
39.17128200,39171282,2,0.0,-0.09,338.18,-0.047521669417619705,-0.030313853174448013,0.06170325726270676,0.006758559495210648,0.0,0.0,2.8705172538757324,-0.02,0.01,-0.02,0.0
39.27128500,39271285,2,0.0,-0.09,338.17,-0.0487072579562664,-0.029598837718367577,0.06160532683134079,0.01238092128187418,0.0,0.0,2.8720831871032715,-0.02,0.01,-0.02,0.0
39.37128600,39371286,2,0.0,-0.09,338.17,-0.04975951090455055,-0.029921332374215126,0.0599735751748085,-0.005106818862259388,0.0,0.0,2.8713440895080566,-0.02,0.01,-0.02,0.0
39.47130900,39471309,2,0.0,-0.09,338.16,-0.05034666135907173,-0.02899124100804329,0.058675915002822876,-0.019535856321454048,0.0,0.0,2.8701512813568115,-0.02,0.01,-0.02,0.0
39.57133200,39571332,2,0.0,-0.08,338.16,-0.05046699568629265,-0.02952958457171917,0.05584312602877617,-0.027570895850658417,0.0,0.0,2.867536783218384,-0.02,0.01,-0.02,0.0
39.67127900,39671279,2,0.0,-0.08,338.15000000000003,-0.05097651854157448,-0.028867490589618683,0.055442724376916885,-0.03187158703804016,0.0,0.0,2.8653178215026855,-0.02,0.01,-0.02,0.0
39.77136900,39771369,2,0.0,-0.07,338.14,-0.052024222910404205,-0.02819368615746498,0.05456128343939781,-0.028851164504885674,0.0,0.0,2.862651824951172,-0.02,0.01,-0.02,0.0
39.87134500,39871345,2,0.01,-0.07,338.14,-0.051888152956962585,-0.027200298383831978,0.0521758496761322,-0.04032478854060173,0.0,0.0,2.8589041233062744,-0.02,0.01,-0.02,0.0
39.97132900,39971329,2,0.01,-0.07,338.13,-0.052798330783843994,-0.027498658746480942,0.05050705373287201,-0.04266899824142456,0.0,0.0,2.855301856994629,-0.02,0.01,-0.02,0.0
40.07128000,40071280,2,0.01,-0.07,338.12,-0.05286886543035507,-0.02772982232272625,0.049567077308893204,-0.0409344844520092,0.0,0.0,2.85153865814209,-0.02,0.01,-0.02,0.0
40.17129200,40171292,2,0.01,-0.07,338.11,-0.053237393498420715,-0.02696932479739189,0.048700135201215744,-0.03716712445020676,0.0,0.0,2.8482677936553955,-0.02,0.01,-0.02,0.0
40.27129500,40271295,2,0.01,-0.07,338.11,-0.05376119166612625,-0.02622891776263714,0.04831039533019066,-0.017990684136748314,0.0,0.0,2.8468968868255615,-0.02,0.01,-0.02,0.0
40.37131000,40371310,2,0.01,-0.07,338.12,-0.05347004160284996,-0.026125170290470123,0.04844438284635544,0.0048074726946651936,0.0,0.0,2.8470957279205322,-0.02,0.01,-0.02,0.0
40.47132700,40471327,2,0.01,-0.07,338.13,-0.05299713462591171,-0.024700066074728966,0.04920641705393791,0.022927002981305122,0.0,0.0,2.848721742630005,-0.02,0.01,-0.02,0.0
40.57128300,40571283,2,0.01,-0.07,338.13,-0.05268343165516853,-0.02426822856068611,0.05083799362182617,0.03532852232456207,0.0,0.0,2.8514044284820557,-0.02,0.01,-0.02,0.0
40.67136600,40671366,2,0.01,-0.07,338.13,-0.052785951644182205,-0.023078549653291702,0.050949353724718094,0.030320312827825546,0.0,0.0,2.853315830230713,-0.02,0.01,-0.02,0.0
40.77128100,40771281,2,0.01,-0.07,338.13,-0.052420150488615036,-0.022208744660019875,0.051508400589227676,0.026001060381531715,0.0,0.0,2.855879068374634,-0.02,0.01,-0.02,0.0
40.87131900,40871319,2,0.01,-0.07,338.13,-0.052390310913324356,-0.021519560366868973,0.051354628056287766,0.022851815447211266,0.0,0.0,2.8577563762664795,-0.02,0.01,-0.02,0.0
40.97129600,40971296,2,0.02,-0.07,338.14,-0.05257916823029518,-0.020502744242548943,0.051478344947099686,0.029147017747163773,0.0,0.0,2.861151933670044,-0.02,0.01,-0.02,0.0
41.07128000,41071280,2,0.02,-0.06,338.15000000000003,-0.052919838577508926,-0.019676966592669487,0.05300028622150421,0.05374927446246147,0.0,0.0,2.8665812015533447,-0.02,0.01,-0.02,0.0
41.17128200,41171282,2,0.02,-0.06,338.16,-0.05314343795180321,-0.01841718703508377,0.054312724620103836,0.0669553354382515,0.0,0.0,2.872464179992676,-0.02,0.01,-0.02,0.0
41.27130000,41271300,2,0.02,-0.06,338.16,-0.053637322038412094,-0.016899751499295235,0.054716359823942184,0.05070112645626068,0.0,0.0,2.8763885498046875,-0.02,0.01,-0.02,0.0
41.37132600,41371326,2,0.01,-0.06,338.17,-0.05370011925697327,-0.015731392428278923,0.055068522691726685,0.01987774670124054,0.0,0.0,2.8779611587524414,-0.02,0.01,-0.02,0.0
41.47128200,41471282,2,0.01,-0.06,338.17,-0.05402282997965813,-0.013928010128438473,0.05557640641927719,0.0005185187910683453,0.0,0.0,2.8787291049957275,-0.02,0.01,-0.02,0.0
41.57136800,41571368,2,0.02,-0.06,338.18,-0.054922543466091156,-0.013467666693031788,0.056664880365133286,0.007762093562632799,0.0,0.0,2.8807029724121094,-0.02,0.01,-0.02,0.0
41.67127900,41671279,2,0.02,-0.06,338.18,-0.05613243207335472,-0.012740114703774452,0.056241534650325775,0.0008353757439181209,0.0,0.0,2.8805785179138184,-0.02,0.01,-0.02,0.0
41.77131000,41771310,2,0.02,-0.06,338.19,-0.05577040836215019,-0.012995852157473564,0.054674193263053894,-0.0019149044528603554,0.0,0.0,2.881462335586548,-0.02,0.01,-0.02,0.0
41.87129100,41871291,2,0.02,-0.05,338.2,-0.05603298917412758,-0.013175134547054768,0.054927729070186615,0.01794305630028248,0.0,0.0,2.88380765914917,-0.02,0.01,-0.02,0.0
41.97128100,41971281,2,0.02,-0.05,338.2,-0.05578004941344261,-0.01272627990692854,0.05461466684937477,0.03885148838162422,0.0,0.0,2.887730836868286,-0.02,0.01,-0.02,0.0
42.07128300,42071283,2,0.02,-0.06,338.2,-0.05541691184043884,-0.013006663881242275,0.05499860271811485,0.04561654105782509,0.0,0.0,2.8914804458618164,-0.02,0.01,-0.02,0.0
42.17129500,42171295,2,0.02,-0.06,338.2,-0.0557752326130867,-0.013219127431511879,0.054850876331329346,0.023627329617738724,0.0,0.0,2.892849922180176,-0.02,0.01,-0.02,0.0
42.27133100,42271331,2,0.03,-0.06,338.2,-0.05525782331824303,-0.012821804732084274,0.05492844060063362,-0.0009195807506330311,0.0,0.0,2.8928582668304443,-0.02,0.01,-0.02,0.0
42.37128100,42371281,2,0.03,-0.06,338.19,-0.05507900193333626,-0.012346997857093811,0.054439377039670944,-0.005332079250365496,0.0,0.0,2.8932368755340576,-0.02,0.01,-0.02,0.0
42.47136100,42471361,2,0.03,-0.06,338.19,-0.05508855730295181,-0.011960997246205807,0.052997708320617676,-0.01604512147605419,0.0,0.0,2.891756534576416,-0.02,0.01,-0.02,0.0
42.57128200,42571282,2,0.03,-0.07,338.19,-0.05488612502813339,-0.012299113906919956,0.05225672945380211,-0.027962960302829742,0.0,0.0,2.8896596431732178,-0.02,0.01,-0.02,0.0
42.67131400,42671314,2,0.03,-0.07,338.2,-0.05413883179426193,-0.01154869794845581,0.05127909034490585,-0.03880058974027634,0.0,0.0,2.8861968517303467,-0.02,0.01,-0.02,0.0
42.77128100,42771281,2,0.03,-0.07,338.21,-0.05329596996307373,-0.01047544740140438,0.05069538950920105,-0.033988554030656815,0.0,0.0,2.8839707374572754,-0.02,0.01,-0.02,0.0
42.87128400,42871284,2,0.03,-0.08,338.22,-0.053035881370306015,-0.009244839660823345,0.04967184737324715,-0.018625257536768913,0.0,0.0,2.882535219192505,-0.02,0.01,-0.02,0.0
42.97128500,42971285,2,0.03,-0.07,338.22,-0.052212513983249664,-0.009543081745505333,0.04822875186800957,-0.01910836063325405,0.0,0.0,2.8803701400756836,-0.02,0.01,-0.02,0.0
43.07130400,43071304,2,0.03,-0.07,338.21,-0.05207904428243637,-0.009468828327953815,0.04727628827095032,-0.018430164083838463,0.0,0.0,2.8787424564361572,-0.02,0.01,-0.02,0.0
43.17133000,43171330,2,0.03,-0.06,338.21,-0.05120145156979561,-0.009308201260864735,0.04592568427324295,-0.01225956715643406,0.0,0.0,2.8776071071624756,-0.02,0.01,-0.02,0.0
43.27128300,43271283,2,0.04,-0.06,338.21,-0.05012037977576256,-0.010565776377916336,0.04509352892637253,0.0027053789235651493,0.0,0.0,2.8781321048736572,-0.02,0.01,-0.02,0.0
43.37135400,43371354,2,0.05,-0.06,338.2,-0.049776747822761536,-0.01161705981940031,0.04509050026535988,0.012320569716393948,0.0,0.0,2.8787593841552734,-0.02,0.01,-0.02,0.0
43.47128600,43471286,2,0.04,-0.07,338.19,-0.04893464595079422,-0.012471930123865604,0.04467896744608879,0.016295071691274643,0.0,0.0,2.880159616470337,-0.02,0.01,-0.02,0.0
43.57131600,43571316,2,0.04,-0.07,338.19,-0.04839834198355675,-0.012347104959189892,0.04486369341611862,0.017031071707606316,0.0,0.0,2.8813016414642334,-0.02,0.01,-0.02,0.0
43.67128100,43671281,2,0.04,-0.07,338.2,-0.048785775899887085,-0.011354180052876472,0.04479896277189255,-0.004263660404831171,0.0,0.0,2.8800899982452393,-0.02,0.01,-0.02,0.0
43.77128900,43771289,2,0.04,-0.07,338.2,-0.04839174821972847,-0.010658894665539265,0.04454205930233002,0.003091090591624379,0.0,0.0,2.881660223007202,-0.02,0.01,-0.02,0.0
43.87129700,43871297,2,0.04,-0.07,338.2,-0.048578012734651566,-0.009169220924377441,0.045090820640325546,0.010429035872220993,0.0,0.0,2.881990432739258,-0.02,0.01,-0.02,0.0
43.97130300,43971303,2,0.05,-0.07,338.2,-0.04905826970934868,-0.008258679881691933,0.04518835246562958,0.007650080602616072,0.0,0.0,2.8830487728118896,-0.02,0.01,-0.02,0.0
44.07133400,44071334,2,0.05,-0.07,338.2,-0.05004614219069481,-0.007597069256007671,0.045897629112005234,0.023477017879486084,0.0,0.0,2.8856592178344727,-0.02,0.01,-0.02,0.0
44.17128700,44171287,2,0.05,-0.08,338.2,-0.04933662340044975,-0.006485222838819027,0.04570065066218376,0.004872857127338648,0.0,0.0,2.884608507156372,-0.03,0.01,-0.02,0.0
44.27137200,44271372,2,0.05,-0.08,338.2,-0.04952884465456009,-0.006478127557784319,0.045079294592142105,-0.025424543768167496,0.0,0.0,2.882519245147705,-0.03,0.02,-0.02,0.0
44.37128100,44371281,2,0.04,-0.09,338.2,-0.048888418823480606,-0.006259456742554903,0.04486187547445297,-0.022482015192508698,0.0,0.0,2.8814537525177,-0.03,0.02,-0.02,0.0
44.47132000,44471320,2,0.04,-0.09,338.21,-0.04853487014770508,-0.006190843880176544,0.04528507962822914,0.0050810943357646465,0.0,0.0,2.882988691329956,-0.03,0.02,-0.02,0.0
44.57129000,44571290,2,0.05,-0.09,338.21,-0.04886609688401222,-0.006720445584505796,0.04518286511301994,0.018467633053660393,0.0,0.0,2.884108781814575,-0.03,0.02,-0.02,0.0
44.67128000,44671280,2,0.04,-0.09,338.22,-0.04823946952819824,-0.006388532463461161,0.04533851146697998,0.019849687814712524,0.0,0.0,2.8859012126922607,-0.03,0.02,-0.02,0.0
