timestamp,TimeUS,DesRoll,Roll,DesPitch,Pitch,DesYaw,Yaw,ErrRP,ErrYaw,AEKF
1666651573.77820086,21743093,0.0,0.1,0.0,0.17,347.0,347.01,0.0,0.03,3
1666651573.78005075,21744943,0.0,0.1,0.0,0.17,347.0,347.01,0.0,0.03,3
1666651573.78254676,21747439,0.0,0.1,0.0,0.17,346.99,347.0,0.0,0.03,3
1666651573.78498673,21749879,0.0,0.1,0.0,0.17,346.99,347.0,0.0,0.03,3
1666651573.78747988,21752372,0.0,0.1,0.0,0.17,346.99,347.0,0.0,0.03,3
1666651573.79051590,21755408,0.0,0.1,0.0,0.17,346.99,347.0,0.0,0.03,3
1666651573.79246974,21757362,0.0,0.1,0.0,0.17,346.99,347.0,0.0,0.03,3
1666651573.79504895,21759941,0.0,0.1,0.0,0.17,346.99,347.0,0.0,0.03,3
1666651573.79748774,21762380,0.0,0.1,0.0,0.17,346.99,347.0,0.0,0.03,3
1666651573.80002284,21764915,0.0,0.1,0.0,0.17,346.99,347.0,0.0,0.03,3
1666651573.80313087,21768023,0.0,0.1,0.0,0.17,346.99,347.0,0.02,0.03,3
1666651573.80499291,21769885,0.0,0.1,0.0,0.17,346.99,347.0,0.02,0.03,3
1666651573.80748796,21772380,0.0,0.1,0.0,0.17,346.99,347.0,0.02,0.03,3
1666651573.80997396,21774866,0.0,0.1,0.0,0.17,346.99,347.0,0.02,0.03,3
1666651573.81251383,21777406,0.0,0.1,0.0,0.17,346.99,347.0,0.02,0.03,3
1666651573.81553483,21780427,0.0,0.1,0.0,0.17,346.99,347.0,0.02,0.03,3
1666651573.81749988,21782392,0.0,0.1,0.0,0.17,346.99,347.0,0.02,0.03,3
1666651573.82024074,21785133,0.0,0.1,0.0,0.17,346.99,347.0,0.02,0.03,3
1666651573.82251596,21787408,0.0,0.1,0.0,0.17,346.99,347.0,0.02,0.04,3
1666651573.82496095,21789853,0.0,0.1,0.0,0.17,346.99,347.0,0.02,0.04,3
1666651573.82819390,21793086,0.0,0.1,0.0,0.17,346.99,347.0,0.02,0.04,3
1666651573.83004880,21794941,0.0,0.1,0.0,0.17,346.99,347.0,0.02,0.04,3
1666651573.83253884,21797431,0.0,0.1,0.0,0.17,346.98,346.99,0.02,0.04,3
1666651573.83497381,21799866,0.0,0.1,0.0,0.17,346.98,346.99,0.02,0.04,3
1666651573.83745980,21802352,0.0,0.1,0.0,0.17,346.98,346.99,0.02,0.04,3
1666651573.84062791,21805520,0.0,0.1,0.0,0.17,346.98,346.99,0.02,0.04,3
1666651573.84318590,21808078,0.0,0.1,0.0,0.17,346.98,346.99,0.02,0.04,3
1666651573.84497595,21809868,0.0,0.1,0.0,0.17,346.98,346.99,0.02,0.04,3
1666651573.84742475,21812317,0.0,0.1,0.0,0.17,346.98,346.99,0.02,0.04,3
1666651573.85006475,21814957,0.0,0.1,0.0,0.17,346.98,346.99,0.02,0.04,3
1666651573.85295677,21817849,0.0,0.1,0.0,0.17,346.98,346.99,0.02,0.04,3
1666651573.85525393,21820146,0.0,0.1,0.0,0.17,346.98,346.99,0.02,0.04,3
1666651573.85747290,21822365,0.0,0.1,0.0,0.17,346.98,346.99,0.02,0.04,3
1666651573.85998893,21824881,0.0,0.1,0.0,0.17,346.98,346.99,0.02,0.04,3
1666651573.86250377,21827396,0.0,0.1,0.0,0.17,346.98,346.99,0.02,0.04,3
1666651573.86526680,21830159,0.0,0.1,0.0,0.17,346.98,346.99,0.02,0.04,3
1666651573.86789584,21832788,0.0,0.1,0.0,0.17,346.98,346.99,0.02,0.04,3
1666651573.87003279,21834925,0.0,0.1,0.0,0.17,346.98,346.99,0.02,0.04,3
1666651573.87246990,21837362,0.0,0.1,0.0,0.17,346.98,346.99,0.02,0.04,3
1666651573.87500691,21839899,0.0,0.1,0.0,0.17,346.98,346.99,0.02,0.04,3
1666651573.87790084,21842793,0.0,0.1,0.0,0.17,346.98,346.99,0.02,0.04,3
1666651573.88050389,21845396,0.0,0.1,0.0,0.17,346.98,346.99,0.02,0.04,3
1666651573.88254189,21847434,0.0,0.1,0.0,0.17,346.98,346.99,0.02,0.04,3
1666651573.88498282,21849875,0.0,0.1,0.0,0.17,346.98,346.99,0.02,0.04,3
1666651573.88745785,21852350,0.0,0.1,0.0,0.17,346.98,346.99,0.02,0.04,3
1666651573.89036989,21855262,0.0,0.1,0.0,0.17,346.98,346.99,0.02,0.04,3
1666651573.89275575,21857648,0.0,0.1,0.0,0.17,346.98,346.99,0.02,0.04,3
1666651573.89496994,21859862,0.0,0.1,0.0,0.17,346.98,346.99,0.02,0.04,3
1666651573.89744496,21862337,0.0,0.1,0.0,0.17,346.98,346.99,0.02,0.04,3
1666651573.90009880,21864991,0.0,0.1,0.0,0.17,346.98,346.99,0.02,0.04,3
1666651573.90284896,21867741,0.0,0.1,0.0,0.17,346.98,346.99,0.02,0.04,3
1666651573.90520477,21870097,0.0,0.1,0.0,0.17,346.98,346.99,0.02,0.04,3
1666651573.90751481,21872407,0.0,0.1,0.0,0.17,346.98,346.99,0.02,0.04,3
1666651573.90996289,21874855,0.0,0.1,0.0,0.17,346.98,346.99,0.02,0.04,3
1666651573.91256595,21877458,0.0,0.1,0.0,0.17,346.98,346.99,0.02,0.04,3
1666651573.91526294,21880155,0.0,0.1,0.0,0.17,346.98,346.99,0.02,0.04,3
1666651573.91773486,21882627,0.0,0.1,0.0,0.17,346.98,346.99,0.02,0.04,3
1666651573.92022991,21885122,0.0,0.1,0.0,0.17,346.98,346.99,0.02,0.04,3
1666651573.92250180,21887394,0.0,0.1,0.0,0.17,346.98,346.99,0.02,0.04,3
1666651573.92500591,21889898,0.0,0.1,0.0,0.17,346.98,346.99,0.02,0.04,3
1666651573.92776275,21892655,0.0,0.1,0.0,0.17,346.98,346.99,0.02,0.04,3
1666651573.93033791,21895230,0.0,0.1,0.0,0.17,346.98,346.99,0.02,0.04,3
1666651573.93250489,21897397,0.0,0.1,0.0,0.17,346.98,346.99,0.02,0.04,3
1666651573.93500185,21899894,0.0,0.1,0.0,0.17,346.98,346.99,0.02,0.04,3
1666651573.93746090,21902353,0.0,0.1,0.0,0.17,346.98,346.99,0.02,0.04,3
1666651573.94038391,21905276,0.0,0.1,0.0,0.17,346.99,347.0,0.02,0.04,3
1666651573.94276381,21907656,0.0,0.1,0.0,0.17,346.99,347.0,0.02,0.04,3
1666651573.94500279,21909895,0.0,0.1,0.0,0.17,346.99,347.0,0.02,0.04,3
1666651573.94743896,21912331,0.0,0.1,0.0,0.17,346.99,347.0,0.02,0.04,3
1666651573.94993091,21914823,0.0,0.1,0.0,0.17,346.99,347.0,0.02,0.04,3
1666651573.95281696,21917709,0.0,0.1,0.0,0.17,346.99,347.0,0.02,0.04,3
1666651573.95523596,21920128,0.0,0.1,0.0,0.17,346.99,347.0,0.02,0.04,3
1666651573.95752692,21922419,0.0,0.1,0.0,0.17,346.99,347.0,0.02,0.04,3
1666651573.96011996,21925012,0.0,0.1,0.0,0.17,346.99,347.0,0.02,0.04,3
1666651573.96249580,21927388,0.0,0.1,0.0,0.17,346.99,347.0,0.02,0.04,3
1666651573.96526194,21930154,0.0,0.1,0.0,0.17,346.99,347.0,0.02,0.04,3
1666651573.96775079,21932643,0.0,0.1,0.0,0.17,346.99,347.0,0.02,0.04,3
1666651573.97000480,21934897,0.0,0.1,0.0,0.17,346.99,347.0,0.02,0.04,3
1666651573.97251582,21937408,0.0,0.1,0.0,0.17,346.99,347.0,0.02,0.04,3
1666651573.97497487,21939867,0.0,0.1,0.0,0.17,346.99,347.0,0.02,0.04,3
1666651573.97819781,21943090,0.0,0.1,0.0,0.17,346.99,347.0,0.02,0.04,3
1666651573.98078680,21945679,0.0,0.1,0.0,0.17,346.99,347.0,0.02,0.04,3
1666651573.98249793,21947390,0.0,0.1,0.0,0.17,346.99,347.0,0.02,0.04,3
1666651573.98504376,21949936,0.0,0.1,0.0,0.17,346.99,347.0,0.02,0.04,3
1666651573.98750687,21952399,0.0,0.1,0.0,0.17,346.99,347.0,0.02,0.04,3
1666651573.99036789,21955260,0.0,0.1,0.0,0.17,346.98,346.99,0.02,0.04,3
1666651573.99279475,21957687,0.0,0.1,0.0,0.17,346.98,346.99,0.02,0.04,3
1666651573.99500084,21959893,0.0,0.1,0.0,0.17,346.98,346.99,0.02,0.04,3
1666651573.99750495,21962397,0.0,0.1,0.0,0.17,346.98,346.99,0.02,0.04,3
1666651574.00008082,21964973,0.0,0.1,0.0,0.17,346.98,346.99,0.02,0.04,3
1666651574.00288486,21967777,0.0,0.1,0.0,0.17,346.98,346.99,0.02,0.04,3
1666651574.00524092,21970133,0.0,0.1,0.0,0.17,346.98,346.99,0.02,0.04,3
1666651574.00745678,21972349,0.0,0.1,0.0,0.17,346.98,346.99,0.02,0.04,3
1666651574.01003075,21974923,0.0,0.1,0.0,0.17,346.98,346.99,0.02,0.04,3
1666651574.01256490,21977457,0.0,0.1,0.0,0.17,346.98,346.99,0.02,0.04,3
1666651574.01526690,21980159,0.0,0.1,0.0,0.17,346.98,346.99,0.02,0.04,3
1666651574.01772285,21982615,0.0,0.1,0.0,0.17,346.97,346.98,0.02,0.04,3
1666651574.02026582,21985158,0.0,0.1,0.0,0.17,346.97,346.98,0.02,0.04,3
1666651574.02254391,21987436,0.0,0.1,0.0,0.17,346.97,346.98,0.01,0.03,3
1666651574.02502990,21989922,0.0,0.1,0.0,0.17,346.97,346.98,0.01,0.03,3
1666651574.02776480,21992657,0.0,0.1,0.0,0.17,346.97,346.98,0.01,0.03,3
1666651574.03038573,21995278,0.0,0.1,0.0,0.17,346.97,346.98,0.01,0.03,3
1666651574.03246593,21997358,0.0,0.1,0.0,0.17,346.97,346.98,0.01,0.03,3
1666651574.03503394,21999926,0.0,0.1,0.0,0.17,346.97,346.98,0.01,0.03,3
1666651574.03755283,22002445,0.0,0.1,0.0,0.17,346.97,346.98,0.01,0.03,3
1666651574.04032683,22005219,0.0,0.1,0.0,0.17,346.97,346.98,0.01,0.03,3
1666651574.04276395,22007656,0.0,0.1,0.0,0.17,346.97,346.98,0.01,0.03,3
1666651574.04498076,22009873,0.0,0.1,0.0,0.17,346.97,346.98,0.01,0.03,3
1666651574.04750276,22012395,0.0,0.1,0.0,0.17,346.97,346.98,0.01,0.03,3
1666651574.04997182,22014864,0.0,0.1,0.0,0.17,346.96,346.97,0.01,0.03,3
1666651574.05274391,22017636,0.0,0.1,0.0,0.17,346.96,346.97,0.01,0.03,3
1666651574.05547190,22020364,0.0,0.1,0.0,0.17,346.96,346.97,0.01,0.03,3
1666651574.05748177,22022374,0.0,0.1,0.0,0.17,346.96,346.97,0.01,0.03,3
1666651574.06001496,22024907,0.0,0.1,0.0,0.17,346.96,346.97,0.01,0.03,3
1666651574.06248784,22027380,0.0,0.1,0.0,0.17,346.96,346.97,0.01,0.03,3
1666651574.06572080,22030613,0.0,0.1,0.0,0.17,346.96,346.97,0.01,0.03,3
1666651574.06792879,22032821,0.0,0.1,0.0,0.17,346.96,346.97,0.01,0.03,3
1666651574.07009196,22034984,0.0,0.1,0.0,0.17,346.96,346.97,0.01,0.03,3
1666651574.07254386,22037436,0.0,0.1,0.0,0.17,346.95,346.96,0.01,0.03,3
1666651574.07498693,22039879,0.0,0.1,0.0,0.17,346.95,346.96,0.01,0.03,3
1666651574.07778478,22042677,0.0,0.1,0.0,0.17,346.95,346.96,0.01,0.03,3
1666651574.08044481,22045337,0.0,0.1,0.0,0.17,346.95,346.96,0.01,0.03,3
1666651574.08244777,22047340,0.0,0.1,0.0,0.17,346.95,346.96,0.01,0.03,3
1666651574.08496475,22049857,0.0,0.1,0.0,0.17,346.95,346.96,0.01,0.03,3
1666651574.08745074,22052343,0.0,0.1,0.0,0.17,346.94,346.95,0.01,0.03,3
1666651574.09033394,22055226,0.0,0.1,0.0,0.17,346.94,346.95,0.01,0.03,3
1666651574.09286380,22057756,0.0,0.1,0.0,0.17,346.94,346.95,0.01,0.03,3
1666651574.09499979,22059892,0.0,0.1,0.0,0.17,346.94,346.95,0.01,0.03,3
1666651574.09755087,22062443,0.0,0.1,0.0,0.17,346.94,346.95,0.01,0.03,3
1666651574.10005975,22064952,0.0,0.1,0.0,0.17,346.94,346.95,0.01,0.03,3
1666651574.10275793,22067650,0.0,0.1,0.0,0.17,346.93,346.94,0.01,0.03,3
1666651574.10525179,22070144,0.0,0.1,0.0,0.17,346.93,346.94,0.01,0.03,3
1666651574.10752177,22072414,0.0,0.1,0.0,0.17,346.93,346.94,0.01,0.03,3
1666651574.10997987,22074872,0.0,0.1,0.0,0.17,346.93,346.94,0.01,0.03,3
1666651574.11249280,22077385,0.0,0.1,0.0,0.17,346.93,346.94,0.01,0.03,3
1666651574.11532283,22080215,0.0,0.1,0.0,0.17,346.92,346.93,0.01,0.03,3
1666651574.11775494,22082647,0.0,0.1,0.0,0.17,346.92,346.93,0.01,0.03,3
1666651574.12024474,22085137,0.0,0.1,0.0,0.17,346.92,346.93,0.01,0.03,3
1666651574.12253475,22087427,0.0,0.1,0.0,0.17,346.92,346.93,0.01,0.03,3
1666651574.12498689,22089879,0.0,0.1,0.0,0.17,346.92,346.93,0.01,0.03,3
1666651574.12777877,22092671,0.0,0.1,0.0,0.17,346.92,346.93,0.01,0.03,3
1666651574.13032675,22095219,0.0,0.1,0.0,0.17,346.91,346.92,0.01,0.03,3
1666651574.13245487,22097347,0.0,0.1,0.0,0.17,346.91,346.92,0.01,0.03,3
1666651574.13504982,22099942,0.0,0.1,0.0,0.17,346.91,346.92,0.01,0.03,3
1666651574.13751793,22102410,0.0,0.1,0.0,0.17,346.91,346.92,0.01,0.03,3
1666651574.14034581,22105238,0.0,0.1,0.0,0.17,346.91,346.92,0.01,0.03,3
1666651574.14286375,22107756,0.0,0.1,0.0,0.17,346.90000000000003,346.91,0.01,0.03,3
1666651574.14500380,22109896,0.0,0.1,0.0,0.17,346.90000000000003,346.91,0.01,0.03,3
1666651574.14749479,22112387,0.0,0.1,0.0,0.17,346.90000000000003,346.91,0.01,0.03,3
1666651574.14996481,22114857,0.0,0.1,0.0,0.17,346.90000000000003,346.91,0.01,0.03,3
1666651574.15272975,22117622,0.0,0.1,0.0,0.17,346.90000000000003,346.91,0.01,0.03,3
1666651574.15552974,22120422,0.0,0.1,0.0,0.17,346.90000000000003,346.91,0.01,0.03,3
1666651574.15754390,22122436,0.0,0.1,0.0,0.17,346.89,346.90000000000003,0.01,0.03,3
1666651574.16006088,22124953,0.0,0.1,0.0,0.17,346.89,346.90000000000003,0.01,0.03,3
1666651574.16249180,22127384,0.0,0.1,0.0,0.17,346.89,346.90000000000003,0.01,0.03,3
1666651574.16570091,22130593,0.0,0.1,0.0,0.17,346.89,346.90000000000003,0.01,0.03,3
1666651574.16797090,22132863,0.0,0.1,0.0,0.17,346.89,346.90000000000003,0.01,0.03,3
1666651574.17005277,22134945,0.0,0.1,0.0,0.17,346.88,346.89,0.01,0.03,3
1666651574.17258191,22137474,0.0,0.1,0.0,0.17,346.88,346.89,0.01,0.03,3
1666651574.17497396,22139866,0.0,0.1,0.0,0.17,346.88,346.89,0.01,0.03,3
1666651574.17788696,22142779,0.0,0.1,0.0,0.17,346.88,346.89,0.01,0.03,3
1666651574.18041682,22145309,0.0,0.1,0.0,0.17,346.88,346.89,0.01,0.03,3
1666651574.18251777,22147410,0.0,0.09,0.0,0.17,346.88,346.89,0.01,0.03,3
1666651574.18498588,22149878,0.0,0.1,0.0,0.17,346.87,346.88,0.01,0.03,3
1666651574.18747377,22152366,0.0,0.1,0.0,0.17,346.87,346.88,0.01,0.03,3
1666651574.19030881,22155201,0.0,0.1,0.0,0.17,346.87,346.88,0.01,0.03,3
1666651574.19285583,22157748,0.0,0.1,0.0,0.17,346.87,346.88,0.01,0.03,3
1666651574.19495773,22159850,0.0,0.1,0.0,0.17,346.87,346.88,0.01,0.03,3
1666651574.19747591,22162368,0.0,0.1,0.0,0.17,346.87,346.88,0.01,0.03,3
1666651574.20005679,22164949,0.0,0.1,0.0,0.17,346.87,346.88,0.01,0.03,3
1666651574.20279479,22167687,0.0,0.1,0.0,0.17,346.86,346.87,0.04,0.03,3
1666651574.20529485,22170187,0.0,0.1,0.0,0.17,346.86,346.87,0.04,0.03,3
1666651574.20754576,22172438,0.0,0.09,0.0,0.17,346.86,346.87,0.04,0.03,3
1666651574.21003175,22174924,0.0,0.1,0.0,0.17,346.86,346.87,0.04,0.03,3
1666651574.21248984,22177382,0.0,0.1,0.0,0.17,346.86,346.87,0.04,0.03,3
1666651574.21532178,22180214,0.0,0.1,0.0,0.17,346.86,346.87,0.04,0.03,3
1666651574.21780992,22182702,0.0,0.1,0.0,0.17,346.85,346.86,0.04,0.03,3
1666651574.22020578,22185098,0.0,0.09,0.0,0.17,346.85,346.86,0.04,0.03,3
1666651574.22248578,22187378,0.0,0.1,0.0,0.17,346.85,346.86,0.04,0.03,3
1666651574.22501087,22189903,0.0,0.1,0.0,0.17,346.85,346.86,0.04,0.03,3
1666651574.22782683,22192719,0.0,0.1,0.0,0.17,346.85,346.86,0.04,0.03,3
1666651574.23031878,22195211,0.0,0.09,0.0,0.17,346.85,346.86,0.04,0.03,3
1666651574.23244691,22197339,0.0,0.09,0.0,0.17,346.85,346.86,0.04,0.03,3
1666651574.23507690,22199969,0.0,0.09,0.0,0.17,346.84000000000003,346.85,0.04,0.03,3
1666651574.23747277,22202365,0.0,0.09,0.0,0.17,346.84000000000003,346.85,0.04,0.03,3
1666651574.24034190,22205234,0.0,0.1,0.0,0.17,346.84000000000003,346.85,0.04,0.03,3
1666651574.24286389,22207756,0.0,0.09,0.0,0.17,346.84000000000003,346.85,0.04,0.03,3
1666651574.24495578,22209848,0.0,0.09,0.0,0.17,346.84000000000003,346.85,0.04,0.03,3
1666651574.24754477,22212437,0.0,0.1,0.0,0.17,346.84000000000003,346.85,0.04,0.03,3
1666651574.24997592,22214868,0.0,0.1,0.0,0.17,346.84000000000003,346.85,0.04,0.03,3
1666651574.25273895,22217631,0.0,0.1,0.0,0.17,346.83,346.84000000000003,0.04,0.03,3
1666651574.25548482,22220377,0.0,0.1,0.0,0.17,346.83,346.84000000000003,0.04,0.03,3
1666651574.25748587,22222378,0.0,0.1,0.0,0.17,346.83,346.84000000000003,0.04,0.03,3
1666651574.26010585,22224998,0.0,0.1,0.0,0.17,346.83,346.84000000000003,0.04,0.03,3
1666651574.26250792,22227400,0.0,0.1,0.0,0.17,346.83,346.84000000000003,0.04,0.03,3
1666651574.26571488,22230607,0.0,0.1,0.0,0.17,346.83,346.84000000000003,0.04,0.03,3
1666651574.26797986,22232872,0.0,0.1,0.0,0.17,346.83,346.84000000000003,0.04,0.03,3
1666651574.26999593,22234888,0.0,0.1,0.0,0.17,346.82,346.83,0.04,0.03,3
1666651574.27249789,22237390,0.0,0.1,0.0,0.17,346.82,346.83,0.04,0.03,3
1666651574.27506876,22239961,0.0,0.1,0.0,0.17,346.82,346.83,0.04,0.03,3
1666651574.27783775,22242730,0.0,0.1,0.0,0.17,346.82,346.83,0.04,0.03,3
1666651574.28034496,22245237,0.0,0.1,0.0,0.17,346.82,346.83,0.04,0.03,3
1666651574.28246188,22247354,0.0,0.1,0.0,0.17,346.81,346.82,0.04,0.03,3
1666651574.28499675,22249889,0.0,0.1,0.0,0.17,346.81,346.82,0.04,0.03,3
1666651574.28749990,22252392,0.0,0.1,0.0,0.17,346.81,346.82,0.04,0.03,3
1666651574.29027581,22255168,0.0,0.1,0.0,0.17,346.81,346.82,0.04,0.03,3
1666651574.29285693,22257749,0.0,0.1,0.0,0.17,346.81,346.82,0.04,0.03,3
1666651574.29497290,22259865,0.0,0.1,0.0,0.17,346.81,346.82,0.04,0.03,3
1666651574.29746675,22262359,0.0,0.1,0.0,0.17,346.8,346.81,0.04,0.03,3
1666651574.30013180,22265024,0.0,0.1,0.0,0.17,346.8,346.81,0.04,0.03,3
1666651574.30281591,22267708,0.0,0.1,0.0,0.17,346.8,346.81,0.04,0.03,3
1666651574.30529594,22270188,0.0,0.1,0.0,0.17,346.8,346.81,0.04,0.03,3
1666651574.30747294,22272365,0.0,0.1,0.0,0.17,346.8,346.81,0.04,0.03,3
1666651574.30999088,22274883,0.0,0.1,0.0,0.17,346.79,346.8,0.04,0.03,3
1666651574.31254888,22277441,0.0,0.1,0.0,0.17,346.79,346.8,0.04,0.03,3
1666651574.31532192,22280214,0.0,0.1,0.0,0.17,346.79,346.8,0.04,0.03,3
1666651574.31783676,22282729,0.0,0.1,0.0,0.17,346.79,346.8,0.04,0.03,3
1666651574.32032490,22285217,0.0,0.1,0.0,0.17,346.79,346.8,0.04,0.03,3
1666651574.32249188,22287384,0.0,0.1,0.0,0.17,346.79,346.8,0.04,0.04,3
1666651574.32498884,22289881,0.0,0.1,0.0,0.17,346.79,346.8,0.04,0.04,3
1666651574.32783580,22292728,0.0,0.1,0.0,0.17,346.78000000000003,346.79,0.04,0.04,3
1666651574.33023977,22295132,0.0,0.1,0.0,0.17,346.78000000000003,346.79,0.04,0.04,3
1666651574.33248091,22297373,0.0,0.1,0.0,0.17,346.78000000000003,346.79,0.04,0.04,3
1666651574.33501887,22299911,0.0,0.1,0.0,0.17,346.78000000000003,346.79,0.04,0.04,3
1666651574.33749080,22302383,0.0,0.1,0.0,0.17,346.78000000000003,346.79,0.04,0.04,3
1666651574.34037876,22305271,0.0,0.1,0.0,0.17,346.78000000000003,346.79,0.04,0.04,3
1666651574.34273696,22307629,0.0,0.1,0.0,0.17,346.77,346.78000000000003,0.04,0.04,3
1666651574.34498286,22309875,0.0,0.1,0.0,0.17,346.77,346.78000000000003,0.04,0.04,3
1666651574.34754276,22312435,0.0,0.1,0.0,0.17,346.77,346.78000000000003,0.04,0.04,3
1666651574.35005593,22314948,0.0,0.1,0.0,0.17,346.77,346.78000000000003,0.04,0.04,3
1666651574.35292482,22317817,0.0,0.1,0.0,0.17,346.77,346.78000000000003,0.04,0.04,3
1666651574.35548377,22320376,0.0,0.1,0.0,0.17,346.77,346.78000000000003,0.04,0.04,3
1666651574.35750484,22322397,0.0,0.1,0.0,0.17,346.77,346.78000000000003,0.04,0.04,3
1666651574.36009479,22324987,0.0,0.1,0.0,0.17,346.76,346.77,0.04,0.04,3
1666651574.36255074,22327443,0.0,0.1,0.0,0.17,346.76,346.77,0.04,0.04,3
1666651574.36570787,22330600,0.0,0.1,0.0,0.17,346.76,346.77,0.04,0.04,3
1666651574.36783385,22332726,0.0,0.1,0.0,0.17,346.76,346.77,0.04,0.04,3
1666651574.37002778,22334920,0.0,0.1,0.0,0.17,346.76,346.77,0.04,0.04,3
1666651574.37250590,22337398,0.0,0.1,0.0,0.17,346.76,346.77,0.04,0.04,3
1666651574.37502193,22339914,0.0,0.1,0.0,0.17,346.76,346.77,0.04,0.04,3
1666651574.37784481,22342737,0.0,0.1,0.0,0.17,346.76,346.77,0.04,0.04,3
1666651574.38032579,22345218,0.0,0.1,0.0,0.17,346.76,346.77,0.04,0.04,3
1666651574.38250494,22347397,0.0,0.1,0.0,0.17,346.75,346.76,0.04,0.04,3
1666651574.38502073,22349913,0.0,0.1,0.0,0.17,346.75,346.76,0.04,0.04,3
1666651574.38750482,22352397,0.0,0.1,0.0,0.17,346.75,346.76,0.04,0.04,3
1666651574.39025187,22355144,0.0,0.1,0.0,0.17,346.75,346.76,0.04,0.04,3
1666651574.39283681,22357729,0.0,0.1,0.0,0.17,346.75,346.76,0.04,0.04,3
1666651574.39498782,22359880,0.0,0.1,0.0,0.17,346.75,346.76,0.04,0.04,3
1666651574.39751887,22362411,0.0,0.1,0.0,0.17,346.75,346.76,0.04,0.04,3
1666651574.40004992,22364942,0.0,0.1,0.0,0.17,346.75,346.76,0.04,0.04,3
1666651574.40279889,22367691,0.0,0.1,0.0,0.17,346.75,346.76,0.06,0.04,3
1666651574.40533090,22370223,0.0,0.1,0.0,0.17,346.75,346.76,0.06,0.04,3
1666651574.40751076,22372403,0.0,0.1,0.0,0.17,346.75,346.76,0.06,0.04,3
1666651574.41004586,22374938,0.0,0.1,0.0,0.17,346.74,346.75,0.06,0.04,3
1666651574.41253376,22377426,0.0,0.1,0.0,0.18,346.74,346.75,0.06,0.04,3
1666651574.41523576,22380128,0.0,0.1,0.0,0.18,346.74,346.75,0.06,0.04,3
1666651574.41780090,22382693,0.0,0.09,0.0,0.17,346.74,346.75,0.06,0.04,3
1666651574.42020583,22385098,0.0,0.09,0.0,0.17,346.74,346.75,0.06,0.04,3
1666651574.42245293,22387345,0.0,0.09,0.0,0.17,346.74,346.75,0.06,0.03,3
1666651574.42497873,22389871,0.0,0.09,0.0,0.18,346.74,346.75,0.06,0.03,3
1666651574.42774081,22392633,0.0,0.09,0.0,0.18,346.74,346.75,0.06,0.03,3
1666651574.43028474,22395177,0.0,0.09,0.0,0.17,346.74,346.75,0.06,0.03,3
1666651574.43249273,22397385,0.0,0.09,0.0,0.17,346.74,346.75,0.06,0.03,3
1666651574.43501782,22399910,0.0,0.09,0.0,0.17,346.74,346.75,0.06,0.03,3
1666651574.43747497,22402367,0.0,0.09,0.0,0.17,346.74,346.75,0.06,0.03,3
1666651574.44029975,22405192,0.0,0.09,0.0,0.17,346.74,346.75,0.06,0.03,3
1666651574.44272995,22407622,0.0,0.09,0.0,0.17,346.73,346.74,0.06,0.03,3
1666651574.44499087,22409883,0.0,0.09,0.0,0.17,346.73,346.74,0.06,0.03,3
1666651574.44758487,22412477,0.0,0.09,0.0,0.17,346.73,346.74,0.06,0.03,3
1666651574.44994879,22414841,0.0,0.09,0.0,0.17,346.73,346.74,0.06,0.03,3
1666651574.45279074,22417683,0.0,0.09,0.0,0.17,346.73,346.74,0.06,0.03,3
1666651574.45553684,22420429,0.0,0.09,0.0,0.17,346.73,346.74,0.06,0.03,3
1666651574.45752287,22422415,0.0,0.09,0.0,0.17,346.73,346.74,0.06,0.03,3
1666651574.46012783,22425020,0.0,0.09,0.0,0.17,346.73,346.74,0.06,0.03,3
1666651574.46261382,22427506,0.0,0.09,0.0,0.17,346.73,346.74,0.06,0.03,3
1666651574.46566081,22430553,0.0,0.09,0.0,0.17,346.73,346.74,0.06,0.03,3
1666651574.46790075,22432793,0.0,0.09,0.0,0.17,346.73,346.74,0.06,0.03,3
1666651574.47006774,22434960,0.0,0.09,0.0,0.17,346.73,346.74,0.06,0.03,3
1666651574.47250795,22437400,0.0,0.09,0.0,0.17,346.73,346.74,0.06,0.03,3
1666651574.47506595,22439958,0.0,0.09,0.0,0.17,346.73,346.74,0.06,0.03,3
1666651574.47784996,22442742,0.0,0.09,0.0,0.17,346.73,346.74,0.06,0.03,3
1666651574.48036885,22445261,0.0,0.09,0.0,0.17,346.73,346.74,0.06,0.03,3
1666651574.48251581,22447408,0.0,0.09,0.0,0.17,346.73,346.74,0.06,0.03,3
1666651574.48507190,22449964,0.0,0.09,0.0,0.17,346.73,346.74,0.06,0.03,3
1666651574.48747182,22452364,0.0,0.1,0.0,0.17,346.73,346.74,0.06,0.03,3
1666651574.49024081,22455133,0.0,0.1,0.0,0.17,346.73,346.74,0.06,0.03,3
1666651574.49287891,22457771,0.0,0.1,0.0,0.17,346.73,346.74,0.06,0.03,3
1666651574.49492884,22459821,0.0,0.1,0.0,0.17,346.73,346.74,0.06,0.03,3
1666651574.49757481,22462467,0.0,0.1,0.0,0.17,346.73,346.74,0.06,0.03,3
1666651574.50007391,22464966,0.0,0.1,0.0,0.17,346.73,346.74,0.06,0.03,3
1666651574.50275373,22467646,0.0,0.1,0.0,0.17,346.73,346.74,0.06,0.03,3
1666651574.50528383,22470176,0.0,0.1,0.0,0.17,346.73,346.74,0.06,0.03,3
1666651574.50750589,22472398,0.0,0.1,0.0,0.17,346.73,346.74,0.06,0.03,3
1666651574.50998187,22474874,0.0,0.1,0.0,0.17,346.73,346.74,0.06,0.03,3
1666651574.51252890,22477421,0.0,0.1,0.0,0.17,346.74,346.75,0.06,0.03,3
1666651574.51530695,22480199,0.0,0.1,0.0,0.17,346.74,346.75,0.06,0.03,3
1666651574.51779580,22482688,0.0,0.1,0.0,0.17,346.74,346.75,0.06,0.03,3
1666651574.52017975,22485072,0.0,0.1,0.0,0.17,346.74,346.75,0.06,0.03,3
1666651574.52244496,22487337,0.0,0.1,0.0,0.17,346.74,346.75,0.06,0.02,3
1666651574.52498078,22489873,0.0,0.1,0.0,0.17,346.74,346.75,0.06,0.02,3
1666651574.52776480,22492657,0.0,0.1,0.0,0.17,346.74,346.75,0.06,0.02,3
1666651574.53031874,22495211,0.0,0.1,0.0,0.17,346.74,346.75,0.06,0.02,3
1666651574.53251886,22497411,0.0,0.1,0.0,0.17,346.74,346.75,0.06,0.02,3
1666651574.53493595,22499828,0.0,0.1,0.0,0.17,346.74,346.75,0.06,0.02,3
1666651574.53748894,22502381,0.0,0.1,0.0,0.17,346.74,346.75,0.06,0.02,3
1666651574.54026890,22505161,0.0,0.1,0.0,0.17,346.74,346.75,0.06,0.02,3
1666651574.54288483,22507777,0.0,0.1,0.0,0.17,346.74,346.75,0.06,0.02,3
1666651574.54497576,22509868,0.0,0.1,0.0,0.17,346.74,346.75,0.06,0.02,3
1666651574.54746795,22512360,0.0,0.1,0.0,0.17,346.74,346.75,0.06,0.02,3
1666651574.55002785,22514920,0.0,0.1,0.0,0.17,346.74,346.75,0.06,0.02,3
1666651574.55284691,22517739,0.0,0.1,0.0,0.17,346.74,346.75,0.06,0.02,3
1666651574.55552888,22520421,0.0,0.1,0.0,0.17,346.75,346.76,0.06,0.02,3
1666651574.55754685,22522439,0.0,0.1,0.0,0.17,346.75,346.76,0.06,0.02,3
1666651574.56000590,22524898,0.0,0.1,0.0,0.17,346.75,346.76,0.06,0.02,3
1666651574.56249976,22527392,0.0,0.1,0.0,0.17,346.75,346.76,0.06,0.02,3
1666651574.56572485,22530617,0.0,0.1,0.0,0.17,346.75,346.76,0.06,0.02,3
1666651574.56786776,22532760,0.0,0.1,0.0,0.17,346.75,346.76,0.06,0.02,3
1666651574.57005477,22534947,0.0,0.1,0.0,0.17,346.75,346.76,0.06,0.02,3
1666651574.57245684,22537349,0.0,0.1,0.0,0.17,346.75,346.76,0.06,0.02,3
1666651574.57502079,22539913,0.0,0.1,0.0,0.17,346.75,346.76,0.06,0.02,3
1666651574.57780790,22542700,0.0,0.1,0.0,0.17,346.75,346.76,0.06,0.02,3
1666651574.58032393,22545216,0.0,0.1,0.0,0.17,346.75,346.76,0.06,0.02,3
1666651574.58250284,22547395,0.0,0.1,0.0,0.17,346.75,346.76,0.06,0.02,3
1666651574.58496976,22549862,0.0,0.1,0.0,0.17,346.75,346.76,0.06,0.02,3
1666651574.58749080,22552383,0.0,0.1,0.0,0.17,346.76,346.77,0.06,0.02,3
1666651574.59029984,22555192,0.0,0.1,0.0,0.17,346.76,346.77,0.06,0.02,3
1666651574.59286690,22557759,0.0,0.1,0.0,0.17,346.76,346.77,0.06,0.02,3
1666651574.59494376,22559836,0.0,0.1,0.0,0.17,346.76,346.77,0.06,0.02,3
1666651574.59748673,22562379,0.0,0.1,0.0,0.17,346.76,346.77,0.06,0.02,3
1666651574.60005188,22564944,0.0,0.1,0.0,0.17,346.76,346.77,0.06,0.02,3
1666651574.60277891,22567671,0.0,0.1,0.0,0.17,346.76,346.77,0.06,0.02,3
1666651574.60529995,22570192,0.0,0.1,0.0,0.17,346.76,346.77,0.06,0.02,3
1666651574.60741186,22572304,0.0,0.1,0.0,0.17,346.76,346.77,0.06,0.02,3
1666651574.61008191,22574974,0.0,0.1,0.0,0.17,346.76,346.77,0.06,0.02,3
1666651574.61247087,22577363,0.0,0.1,0.0,0.17,346.76,346.77,0.06,0.02,3
1666651574.61534190,22580234,0.0,0.1,0.0,0.17,346.77,346.78000000000003,0.06,0.02,3
1666651574.61779594,22582688,0.0,0.1,0.0,0.17,346.77,346.78000000000003,0.06,0.02,3
1666651574.62021375,22585106,0.0,0.1,0.0,0.17,346.77,346.78000000000003,0.06,0.02,3
1666651574.62244797,22587340,0.0,0.1,0.0,0.17,346.77,346.78000000000003,0.06,0.02,3
1666651574.62502980,22589922,0.0,0.1,0.0,0.17,346.77,346.78000000000003,0.06,0.02,3
1666651574.62785077,22592743,0.0,0.1,0.0,0.17,346.77,346.78000000000003,0.06,0.02,3
1666651574.63029289,22595185,0.0,0.1,0.0,0.17,346.77,346.78000000000003,0.06,0.02,3
1666651574.63247895,22597371,0.0,0.1,0.0,0.17,346.77,346.78000000000003,0.06,0.02,3
1666651574.63497376,22599866,0.0,0.1,0.0,0.17,346.77,346.78000000000003,0.06,0.02,3
1666651574.63750076,22602393,0.0,0.1,0.0,0.17,346.77,346.78000000000003,0.06,0.02,3
1666651574.64032578,22605218,0.0,0.1,0.0,0.17,346.77,346.78000000000003,0.06,0.02,3
1666651574.64281297,22607705,0.0,0.1,0.0,0.17,346.78000000000003,346.79,0.06,0.02,3
1666651574.64494181,22609834,0.0,0.1,0.0,0.17,346.78000000000003,346.79,0.06,0.02,3
1666651574.64748573,22612378,0.0,0.1,0.0,0.17,346.78000000000003,346.79,0.06,0.02,3
1666651574.65000892,22614901,0.0,0.1,0.0,0.17,346.78000000000003,346.79,0.06,0.02,3
1666651574.65280485,22617697,0.0,0.1,0.0,0.17,346.78000000000003,346.79,0.06,0.02,3
1666651574.65561390,22620506,0.0,0.1,0.0,0.17,346.78000000000003,346.79,0.06,0.02,3
1666651574.65741992,22622312,0.0,0.1,0.0,0.17,346.78000000000003,346.79,0.06,0.02,3
1666651574.66003180,22624924,0.0,0.1,0.0,0.17,346.78000000000003,346.79,0.06,0.02,3
1666651574.66248274,22627375,0.0,0.1,0.0,0.17,346.78000000000003,346.79,0.06,0.02,3
1666651574.66572094,22630613,0.0,0.1,0.0,0.17,346.79,346.8,0.06,0.02,3
1666651574.66806889,22632961,0.0,0.1,0.0,0.17,346.79,346.8,0.06,0.02,3
1666651574.67000175,22634894,0.0,0.1,0.0,0.17,346.79,346.8,0.06,0.02,3
1666651574.67249084,22637383,0.0,0.1,0.0,0.17,346.79,346.8,0.06,0.02,3
1666651574.67500591,22639898,0.0,0.1,0.0,0.17,346.79,346.8,0.06,0.02,3
1666651574.67792988,22642822,0.0,0.1,0.0,0.17,346.79,346.8,0.06,0.02,3
1666651574.68023777,22645130,0.0,0.1,0.0,0.17,346.79,346.8,0.06,0.02,3
1666651574.68250394,22647396,0.0,0.1,0.0,0.17,346.79,346.8,0.06,0.02,3
1666651574.68495584,22649848,0.0,0.1,0.0,0.17,346.79,346.8,0.06,0.02,3
1666651574.68747878,22652371,0.0,0.1,0.0,0.17,346.79,346.8,0.06,0.02,3
1666651574.69027877,22655171,0.0,0.1,0.0,0.17,346.8,346.81,0.06,0.02,3
1666651574.69273496,22657627,0.0,0.1,0.0,0.17,346.8,346.81,0.06,0.02,3
1666651574.69497275,22659865,0.0,0.1,0.0,0.17,346.8,346.81,0.06,0.02,3
1666651574.69750977,22662402,0.0,0.1,0.0,0.17,346.8,346.81,0.06,0.02,3
1666651574.70010781,22665000,0.0,0.1,0.0,0.17,346.8,346.81,0.06,0.02,3
1666651574.70281386,22667706,0.0,0.1,0.0,0.17,346.8,346.81,0.06,0.02,3
1666651574.70529389,22670186,0.0,0.1,0.0,0.17,346.8,346.81,0.06,0.02,3
1666651574.70746684,22672359,0.0,0.1,0.0,0.17,346.8,346.81,0.06,0.02,3
1666651574.71005297,22674945,0.0,0.1,0.0,0.17,346.8,346.81,0.06,0.02,3
1666651574.71248889,22677381,0.0,0.1,0.0,0.17,346.8,346.81,0.06,0.02,3
1666651574.71525383,22680146,0.0,0.1,0.0,0.17,346.81,346.82,0.06,0.02,3
1666651574.71783090,22682723,0.0,0.1,0.0,0.17,346.81,346.82,0.06,0.02,3
1666651574.72034383,22685236,0.0,0.1,0.0,0.17,346.81,346.82,0.06,0.02,3
1666651574.72250676,22687399,0.0,0.1,0.0,0.17,346.81,346.82,0.06,0.03,3
1666651574.72499895,22689891,0.0,0.1,0.0,0.17,346.81,346.82,0.06,0.03,3
1666651574.72785687,22692749,0.0,0.1,0.0,0.17,346.81,346.82,0.06,0.03,3
1666651574.73028684,22695179,0.0,0.1,0.0,0.17,346.81,346.82,0.06,0.03,3
1666651574.73247480,22697367,0.0,0.1,0.0,0.17,346.81,346.82,0.06,0.03,3
1666651574.73494196,22699834,0.0,0.1,0.0,0.17,346.81,346.82,0.06,0.03,3
1666651574.73754096,22702433,0.0,0.1,0.0,0.17,346.81,346.82,0.06,0.03,3
1666651574.74030876,22705201,0.0,0.1,0.0,0.17,346.81,346.82,0.06,0.03,3
1666651574.74281788,22707710,0.0,0.1,0.0,0.17,346.82,346.83,0.06,0.03,3
1666651574.74498677,22709879,0.0,0.1,0.0,0.17,346.82,346.83,0.06,0.03,3
1666651574.74751091,22712403,0.0,0.1,0.0,0.17,346.82,346.83,0.06,0.03,3
1666651574.75005674,22714949,0.0,0.1,0.0,0.17,346.82,346.83,0.06,0.03,3
1666651574.75281596,22717708,0.0,0.1,0.0,0.17,346.82,346.83,0.06,0.03,3
1666651574.75552678,22720419,0.0,0.1,0.0,0.17,346.82,346.83,0.06,0.03,3
1666651574.75745487,22722347,0.0,0.1,0.0,0.17,346.82,346.83,0.06,0.03,3
1666651574.76008081,22724973,0.0,0.1,0.0,0.17,346.82,346.83,0.06,0.03,3
1666651574.76246881,22727361,0.0,0.1,0.0,0.17,346.82,346.83,0.06,0.03,3
1666651574.76567388,22730566,0.0,0.1,0.0,0.17,346.82,346.83,0.06,0.03,3
1666651574.76801777,22732910,0.0,0.1,0.0,0.17,346.83,346.84000000000003,0.06,0.03,3
1666651574.77010179,22734994,0.0,0.1,0.0,0.17,346.83,346.84000000000003,0.06,0.03,3
1666651574.77248883,22737381,0.0,0.1,0.0,0.17,346.83,346.84000000000003,0.06,0.03,3
1666651574.77501488,22739907,0.0,0.1,0.0,0.17,346.83,346.84000000000003,0.06,0.03,3
1666651574.77789474,22742787,0.0,0.1,0.0,0.17,346.83,346.84000000000003,0.06,0.03,3
1666651574.78030586,22745198,0.0,0.1,0.0,0.17,346.83,346.84000000000003,0.06,0.03,3
1666651574.78247881,22747371,0.0,0.1,0.0,0.17,346.83,346.84000000000003,0.06,0.03,3
1666651574.78500175,22749894,0.0,0.1,0.0,0.17,346.83,346.84000000000003,0.06,0.03,3
1666651574.78752780,22752420,0.0,0.1,0.0,0.17,346.84000000000003,346.85,0.06,0.03,3
1666651574.79032683,22755219,0.0,0.1,0.0,0.17,346.84000000000003,346.85,0.06,0.03,3
1666651574.79283094,22757723,0.0,0.1,0.0,0.17,346.84000000000003,346.85,0.06,0.03,3
1666651574.79497194,22759864,0.0,0.1,0.0,0.17,346.84000000000003,346.85,0.06,0.03,3
1666651574.79751587,22762408,0.0,0.1,0.0,0.17,346.84000000000003,346.85,0.06,0.03,3
1666651574.80007386,22764966,0.0,0.1,0.0,0.17,346.84000000000003,346.85,0.06,0.03,3
1666651574.80278087,22767673,0.0,0.1,0.0,0.17,346.84000000000003,346.85,0.05,0.03,3
1666651574.80536079,22770253,0.0,0.1,0.0,0.17,346.84000000000003,346.85,0.05,0.03,3
1666651574.80744982,22772342,0.0,0.1,0.0,0.17,346.85,346.86,0.05,0.03,3
1666651574.81001782,22774910,0.0,0.1,0.0,0.17,346.85,346.86,0.05,0.03,3
1666651574.81250787,22777400,0.0,0.1,0.0,0.17,346.85,346.86,0.05,0.03,3
1666651574.81522775,22780120,0.0,0.1,0.0,0.17,346.85,346.86,0.05,0.03,3
1666651574.81777596,22782668,0.0,0.1,0.0,0.17,346.85,346.86,0.05,0.03,3
1666651574.82021976,22785112,0.0,0.1,0.0,0.17,346.85,346.86,0.05,0.03,3
1666651574.82252479,22787417,0.0,0.1,0.0,0.17,346.85,346.86,0.05,0.03,3
1666651574.82498074,22789873,0.0,0.1,0.0,0.17,346.85,346.86,0.05,0.03,3
1666651574.82784986,22792742,0.0,0.1,0.0,0.17,346.86,346.87,0.05,0.03,3
1666651574.83025885,22795151,0.0,0.1,0.0,0.17,346.86,346.87,0.05,0.03,3
1666651574.83249879,22797391,0.0,0.1,0.0,0.17,346.86,346.87,0.05,0.03,3
1666651574.83503985,22799932,0.0,0.1,0.0,0.17,346.86,346.87,0.05,0.03,3
1666651574.83747697,22802369,0.0,0.1,0.0,0.17,346.86,346.87,0.05,0.03,3
1666651574.84034085,22805233,0.0,0.1,0.0,0.17,346.86,346.87,0.05,0.03,3
1666651574.84274888,22807641,0.0,0.1,0.0,0.17,346.86,346.87,0.05,0.03,3
1666651574.84498787,22809880,0.0,0.1,0.0,0.17,346.86,346.87,0.05,0.03,3
1666651574.84755397,22812446,0.0,0.1,0.0,0.17,346.86,346.87,0.05,0.03,3
1666651574.84998083,22814873,0.0,0.1,0.0,0.17,346.87,346.88,0.05,0.03,3
1666651574.85281777,22817710,0.0,0.1,0.0,0.17,346.87,346.88,0.05,0.03,3
1666651574.85553193,22820424,0.0,0.1,0.0,0.17,346.87,346.88,0.05,0.03,3
1666651574.85748386,22822376,0.0,0.1,0.0,0.17,346.87,346.88,0.05,0.03,3
1666651574.86005592,22824948,0.0,0.1,0.0,0.17,346.87,346.88,0.05,0.03,3
1666651574.86245584,22827348,0.0,0.1,0.0,0.17,346.87,346.88,0.05,0.03,3
1666651574.86565280,22830545,0.0,0.1,0.0,0.17,346.87,346.88,0.05,0.03,3
1666651574.86791897,22832811,0.0,0.1,0.0,0.17,346.87,346.88,0.05,0.03,3
1666651574.87006688,22834959,0.0,0.1,0.0,0.17,346.88,346.89,0.05,0.03,3
1666651574.87255192,22837444,0.0,0.1,0.0,0.17,346.88,346.89,0.05,0.03,3
1666651574.87493682,22839829,0.0,0.1,0.0,0.17,346.88,346.89,0.05,0.03,3
1666651574.87797880,22842871,0.0,0.1,0.0,0.17,346.88,346.89,0.05,0.03,3
1666651574.88032794,22845220,0.0,0.1,0.0,0.17,346.88,346.89,0.05,0.03,3
1666651574.88250875,22847401,0.0,0.1,0.0,0.17,346.89,346.90000000000003,0.05,0.03,3
1666651574.88492680,22849819,0.0,0.1,0.0,0.17,346.89,346.90000000000003,0.05,0.03,3
1666651574.88747287,22852365,0.0,0.1,0.0,0.17,346.89,346.90000000000003,0.05,0.03,3
1666651574.89030886,22855201,0.0,0.1,0.0,0.18,346.89,346.90000000000003,0.05,0.03,3
1666651574.89278889,22857681,0.0,0.1,0.0,0.18,346.89,346.90000000000003,0.05,0.03,3
1666651574.89498997,22859882,0.0,0.1,0.0,0.17,346.90000000000003,346.91,0.05,0.03,3
1666651574.89744782,22862340,0.0,0.1,0.0,0.17,346.90000000000003,346.91,0.05,0.03,3
1666651574.90007186,22864964,0.0,0.1,0.0,0.18,346.90000000000003,346.91,0.05,0.03,3
1666651574.90275979,22867652,0.0,0.1,0.0,0.18,346.90000000000003,346.91,0.05,0.03,3
1666651574.90528679,22870179,0.0,0.1,0.0,0.18,346.90000000000003,346.91,0.05,0.03,3
1666651574.90748286,22872375,0.0,0.1,0.0,0.18,346.90000000000003,346.91,0.05,0.03,3
1666651574.91006780,22874960,0.0,0.1,0.0,0.18,346.91,346.92,0.05,0.03,3
1666651574.91244078,22877333,0.0,0.1,0.0,0.18,346.91,346.92,0.05,0.03,3
1666651574.91526985,22880162,0.0,0.1,0.0,0.18,346.91,346.92,0.05,0.03,3
1666651574.91779375,22882686,0.0,0.1,0.0,0.18,346.91,346.92,0.05,0.03,3
1666651574.92019677,22885089,0.0,0.1,0.0,0.18,346.91,346.92,0.05,0.03,3
1666651574.92246985,22887362,0.0,0.1,0.0,0.18,346.91,346.92,0.05,0.03,3
1666651574.92495084,22889843,0.0,0.1,0.0,0.18,346.92,346.93,0.05,0.03,3
1666651574.92783594,22892728,0.0,0.1,0.0,0.18,346.92,346.93,0.05,0.03,3
1666651574.93035889,22895251,0.0,0.1,0.0,0.18,346.92,346.93,0.05,0.03,3
1666651574.93251181,22897404,0.0,0.1,0.0,0.18,346.92,346.93,0.05,0.03,3
1666651574.93496180,22899854,0.0,0.1,0.0,0.18,346.92,346.93,0.05,0.03,3
1666651574.93746996,22902362,0.0,0.1,0.0,0.18,346.92,346.93,0.05,0.03,3
1666651574.94033480,22905227,0.0,0.1,0.0,0.18,346.93,346.94,0.05,0.03,3
1666651574.94279885,22907691,0.0,0.1,0.0,0.18,346.93,346.94,0.05,0.03,3
1666651574.94499779,22909890,0.0,0.1,0.0,0.18,346.93,346.94,0.05,0.03,3
1666651574.94741988,22912312,0.0,0.1,0.0,0.18,346.93,346.94,0.05,0.03,3
1666651574.95004296,22914935,0.0,0.1,0.0,0.18,346.93,346.94,0.05,0.03,3
1666651574.95275784,22917650,0.0,0.1,0.0,0.18,346.93,346.94,0.05,0.03,3
1666651574.95553684,22920429,0.0,0.1,0.0,0.18,346.94,346.95,0.05,0.03,3
1666651574.95750380,22922396,0.0,0.1,0.0,0.18,346.94,346.95,0.05,0.03,3
1666651574.96008277,22924975,0.0,0.1,0.0,0.18,346.94,346.95,0.05,0.03,3
1666651574.96243095,22927323,0.0,0.1,0.0,0.18,346.94,346.95,0.05,0.03,3
1666651574.96569991,22930592,0.0,0.1,0.0,0.18,346.94,346.95,0.05,0.03,3
1666651574.96806693,22932959,0.0,0.1,0.0,0.18,346.94,346.95,0.05,0.03,3
1666651574.97010589,22934998,0.0,0.1,0.0,0.18,346.95,346.96,0.05,0.03,3
1666651574.97247982,22937372,0.0,0.1,0.0,0.18,346.95,346.96,0.05,0.03,3
1666651574.97497296,22939865,0.0,0.1,0.0,0.18,346.95,346.96,0.05,0.03,3
1666651574.97784090,22942733,0.0,0.1,0.0,0.18,346.95,346.96,0.05,0.03,3
1666651574.98032093,22945213,0.0,0.1,0.0,0.18,346.95,346.96,0.05,0.03,3
1666651574.98252296,22947415,0.0,0.1,0.0,0.18,346.95,346.96,0.05,0.03,3
1666651574.98497677,22949869,0.0,0.1,0.0,0.18,346.95,346.96,0.05,0.03,3
1666651574.98751473,22952407,0.0,0.1,0.0,0.18,346.95,346.96,0.05,0.03,3
1666651574.99039292,22955285,0.0,0.1,0.0,0.18,346.95,346.96,0.05,0.03,3
1666651574.99280787,22957700,0.0,0.1,0.0,0.18,346.95,346.96,0.05,0.03,3
1666651574.99497485,22959867,0.0,0.1,0.0,0.18,346.95,346.96,0.05,0.03,3
1666651574.99748087,22962373,0.0,0.1,0.0,0.18,346.95,346.96,0.05,0.03,3
1666651575.00008988,22964982,0.0,0.1,0.0,0.18,346.96,346.97,0.05,0.03,3
1666651575.00277877,22967671,0.0,0.1,0.0,0.18,346.96,346.97,0.04,0.03,3
1666651575.00526094,22970153,0.0,0.1,0.0,0.18,346.96,346.97,0.04,0.03,3
1666651575.00749874,22972391,0.0,0.1,0.0,0.18,346.96,346.97,0.04,0.03,3
1666651575.00999594,22974888,0.0,0.1,0.0,0.18,346.96,346.97,0.04,0.03,3
1666651575.01248384,22977376,0.0,0.1,0.0,0.18,346.96,346.97,0.04,0.03,3
1666651575.01525688,22980149,0.0,0.1,0.0,0.18,346.96,346.97,0.04,0.03,3
1666651575.01783586,22982728,0.0,0.1,0.0,0.18,346.96,346.97,0.04,0.03,3
1666651575.02020478,22985097,0.0,0.1,0.0,0.18,346.96,346.97,0.04,0.03,3
1666651575.02246189,22987354,0.0,0.1,0.0,0.18,346.96,346.97,0.04,0.02,3
1666651575.02497792,22989870,0.0,0.1,0.0,0.18,346.96,346.97,0.04,0.02,3
1666651575.02778578,22992678,0.0,0.1,0.0,0.18,346.96,346.97,0.04,0.02,3
1666651575.03027177,22995164,0.0,0.1,0.0,0.18,346.96,346.97,0.04,0.02,3
1666651575.03250384,22997396,0.0,0.1,0.0,0.18,346.96,346.97,0.04,0.02,3
1666651575.03498983,22999882,0.0,0.1,0.0,0.18,346.97,346.98,0.04,0.02,3
1666651575.03751183,23002404,0.0,0.1,0.0,0.18,346.97,346.98,0.04,0.02,3
1666651575.04037690,23005269,0.0,0.1,0.0,0.18,346.97,346.98,0.04,0.02,3
1666651575.04279995,23007692,0.0,0.1,0.0,0.18,346.97,346.98,0.04,0.02,3
1666651575.04496789,23009860,0.0,0.1,0.0,0.18,346.97,346.98,0.04,0.02,3
1666651575.04746294,23012355,0.0,0.1,0.0,0.18,346.97,346.98,0.04,0.02,3
1666651575.05001688,23014909,0.0,0.1,0.0,0.18,346.97,346.98,0.04,0.02,3
1666651575.05275273,23017645,0.0,0.1,0.0,0.18,346.97,346.98,0.04,0.02,3
1666651575.05550075,23020393,0.0,0.1,0.0,0.18,346.97,346.98,0.04,0.02,3
1666651575.05742788,23022320,0.0,0.1,0.0,0.18,346.97,346.98,0.04,0.02,3
1666651575.06006980,23024962,0.0,0.1,0.0,0.18,346.97,346.98,0.04,0.02,3
1666651575.06252074,23027413,0.0,0.1,0.0,0.18,346.97,346.98,0.04,0.02,3
1666651575.06568384,23030576,0.0,0.1,0.0,0.18,346.97,346.98,0.04,0.02,3
1666651575.06797194,23032864,0.0,0.1,0.0,0.18,346.97,346.98,0.04,0.02,3
1666651575.06997490,23034867,0.0,0.1,0.0,0.18,346.97,346.98,0.04,0.02,3
1666651575.07246089,23037353,0.0,0.1,0.0,0.18,346.97,346.98,0.04,0.02,3
1666651575.07498479,23039877,0.0,0.1,0.0,0.18,346.97,346.98,0.04,0.02,3
1666651575.07788777,23042780,0.0,0.1,0.0,0.18,346.97,346.98,0.04,0.02,3
1666651575.08038092,23045273,0.0,0.1,0.0,0.18,346.98,346.99,0.04,0.02,3
1666651575.08254075,23047433,0.0,0.1,0.0,0.18,346.98,346.99,0.04,0.02,3
1666651575.08494496,23049837,0.0,0.1,0.0,0.18,346.98,346.99,0.04,0.02,3
1666651575.08753395,23052426,0.0,0.1,0.0,0.18,346.98,346.99,0.04,0.02,3
1666651575.09039283,23055285,0.0,0.1,0.0,0.18,346.98,346.99,0.04,0.02,3
1666651575.09281397,23057706,0.0,0.1,0.0,0.18,346.98,346.99,0.04,0.02,3
1666651575.09496188,23059854,0.0,0.1,0.0,0.18,346.98,346.99,0.04,0.02,3
1666651575.09746480,23062357,0.0,0.1,0.0,0.18,346.98,346.99,0.04,0.02,3
1666651575.10006094,23064953,0.0,0.1,0.0,0.18,346.98,346.99,0.04,0.02,3
1666651575.10290790,23067800,0.0,0.1,0.0,0.18,346.98,346.99,0.04,0.02,3
1666651575.10523081,23070123,0.0,0.1,0.0,0.18,346.98,346.99,0.04,0.02,3
1666651575.10741687,23072309,0.0,0.1,0.0,0.18,346.98,346.99,0.04,0.02,3
1666651575.11000991,23074902,0.0,0.1,0.0,0.18,346.98,346.99,0.04,0.02,3
1666651575.11249375,23077386,0.0,0.1,0.0,0.18,346.98,346.99,0.04,0.02,3
1666651575.11525083,23080143,0.0,0.1,0.0,0.18,346.98,346.99,0.04,0.02,3
1666651575.11779881,23082691,0.0,0.1,0.0,0.18,346.98,346.99,0.04,0.02,3
1666651575.12015676,23085049,0.0,0.1,0.0,0.18,346.98,346.99,0.04,0.02,3
1666651575.12251592,23087408,0.0,0.1,0.0,0.18,346.98,346.99,0.04,0.03,3
1666651575.12499881,23089891,0.0,0.1,0.0,0.18,346.98,346.99,0.04,0.03,3
1666651575.12779284,23092685,0.0,0.1,0.0,0.18,346.98,346.99,0.04,0.03,3
1666651575.13031483,23095207,0.0,0.1,0.0,0.18,346.98,346.99,0.04,0.03,3
1666651575.13248396,23097376,0.0,0.1,0.0,0.18,346.98,346.99,0.04,0.03,3
1666651575.13499475,23099887,0.0,0.1,0.0,0.18,346.98,346.99,0.04,0.03,3
1666651575.13751483,23102407,0.0,0.1,0.0,0.18,346.98,346.99,0.04,0.03,3
1666651575.14039779,23105290,0.0,0.1,0.0,0.18,346.98,346.99,0.04,0.03,3
1666651575.14277196,23107664,0.0,0.1,0.0,0.18,346.98,346.99,0.04,0.03,3
1666651575.14500284,23109895,0.0,0.1,0.0,0.18,346.98,346.99,0.04,0.03,3
1666651575.14749789,23112390,0.0,0.1,0.0,0.18,346.98,346.99,0.04,0.03,3
1666651575.15003276,23114925,0.0,0.1,0.0,0.18,346.98,346.99,0.04,0.03,3
1666651575.15278578,23117678,0.0,0.1,0.0,0.18,346.98,346.99,0.04,0.03,3
1666651575.15554881,23120441,0.0,0.1,0.0,0.18,346.98,346.99,0.04,0.03,3
1666651575.15741587,23122308,0.0,0.1,0.0,0.18,346.98,346.99,0.04,0.03,3
1666651575.16007781,23124970,0.0,0.1,0.0,0.18,346.98,346.99,0.04,0.03,3
1666651575.16246676,23127359,0.0,0.1,0.0,0.18,346.98,346.99,0.04,0.03,3
1666651575.16565776,23130550,0.0,0.1,0.0,0.18,346.98,346.99,0.04,0.03,3
1666651575.16796684,23132859,0.0,0.1,0.0,0.18,346.98,346.99,0.04,0.03,3
1666651575.17002296,23134915,0.0,0.1,0.0,0.18,346.98,346.99,0.04,0.03,3
1666651575.17250586,23137398,0.0,0.1,0.0,0.18,346.98,346.99,0.04,0.03,3
1666651575.17495084,23139843,0.0,0.1,0.0,0.18,346.98,346.99,0.04,0.03,3
1666651575.17791295,23142805,0.0,0.1,0.0,0.18,346.98,346.99,0.04,0.03,3
1666651575.18031383,23145206,0.0,0.1,0.0,0.18,346.98,346.99,0.04,0.03,3
1666651575.18249178,23147384,0.0,0.1,0.0,0.18,346.98,346.99,0.04,0.03,3
1666651575.18500996,23149902,0.0,0.1,0.0,0.18,346.98,346.99,0.04,0.03,3
1666651575.18755674,23152449,0.0,0.1,0.0,0.18,346.98,346.99,0.04,0.03,3
1666651575.19038677,23155279,0.0,0.1,0.0,0.18,346.98,346.99,0.04,0.03,3
1666651575.19279885,23157691,0.0,0.1,0.0,0.18,346.98,346.99,0.04,0.03,3
1666651575.19498491,23159877,0.0,0.1,0.0,0.18,346.98,346.99,0.04,0.03,3
1666651575.19750595,23162398,0.0,0.1,0.0,0.18,346.98,346.99,0.04,0.03,3
1666651575.20010996,23165002,0.0,0.1,0.0,0.18,346.98,346.99,0.04,0.03,3
1666651575.20281291,23167705,0.0,0.1,0.0,0.18,346.98,346.99,0.04,0.03,3
1666651575.20524383,23170136,0.0,0.1,0.0,0.18,346.98,346.99,0.04,0.03,3
1666651575.20749688,23172389,0.0,0.1,0.0,0.18,346.98,346.99,0.04,0.03,3
1666651575.21006083,23174953,0.0,0.1,0.0,0.18,346.98,346.99,0.04,0.03,3
1666651575.21247792,23177370,0.0,0.1,0.0,0.18,346.98,346.99,0.04,0.03,3
1666651575.21530676,23180199,0.0,0.1,0.0,0.18,346.98,346.99,0.04,0.03,3
1666651575.21775675,23182649,0.0,0.1,0.0,0.18,346.98,346.99,0.04,0.03,3
1666651575.22022581,23185118,0.0,0.1,0.0,0.18,346.98,346.99,0.04,0.03,3
1666651575.22255588,23187448,0.0,0.1,0.0,0.18,346.98,346.99,0.04,0.02,3
1666651575.22499394,23189886,0.0,0.1,0.0,0.18,346.98,346.99,0.04,0.02,3
1666651575.22774577,23192638,0.0,0.1,0.0,0.18,346.98,346.99,0.04,0.02,3
1666651575.23029280,23195185,0.0,0.1,0.0,0.18,346.98,346.99,0.04,0.02,3
1666651575.23251486,23197407,0.0,0.1,0.0,0.18,346.97,346.98,0.04,0.02,3
1666651575.23497295,23199865,0.0,0.1,0.0,0.18,346.97,346.98,0.04,0.02,3
1666651575.23747683,23202369,0.0,0.1,0.0,0.18,346.97,346.98,0.04,0.02,3
1666651575.24041295,23205305,0.0,0.1,0.0,0.18,346.97,346.98,0.04,0.02,3
1666651575.24276185,23207654,0.0,0.1,0.0,0.18,346.97,346.98,0.04,0.02,3
1666651575.24506378,23209956,0.0,0.1,0.0,0.18,346.97,346.98,0.04,0.02,3
1666651575.24749589,23212388,0.0,0.1,0.0,0.18,346.97,346.98,0.04,0.02,3
1666651575.25000381,23214896,0.0,0.1,0.0,0.18,346.97,346.98,0.04,0.02,3
1666651575.25279880,23217691,0.0,0.1,0.0,0.18,346.97,346.98,0.04,0.02,3
1666651575.25557494,23220467,0.0,0.1,0.0,0.18,346.97,346.98,0.04,0.02,3
1666651575.25748181,23222374,0.0,0.1,0.0,0.18,346.97,346.98,0.04,0.02,3
1666651575.26011491,23225007,0.0,0.1,0.0,0.18,346.97,346.98,0.04,0.02,3
1666651575.26248288,23227375,0.0,0.1,0.0,0.18,346.97,346.98,0.04,0.02,3
1666651575.26565576,23230548,0.0,0.1,0.0,0.18,346.97,346.98,0.04,0.02,3
1666651575.26802778,23232920,0.0,0.1,0.0,0.18,346.97,346.98,0.04,0.02,3
1666651575.27008581,23234978,0.0,0.1,0.0,0.18,346.97,346.98,0.04,0.02,3
1666651575.27252579,23237418,0.0,0.1,0.0,0.18,346.97,346.98,0.04,0.02,3
1666651575.27496290,23239855,0.0,0.1,0.0,0.18,346.97,346.98,0.04,0.02,3
1666651575.27775097,23242643,0.0,0.1,0.0,0.18,346.97,346.98,0.04,0.02,3
1666651575.28032279,23245215,0.0,0.1,0.0,0.18,346.97,346.98,0.04,0.02,3
1666651575.28252196,23247414,0.0,0.1,0.0,0.18,346.97,346.98,0.04,0.02,3
1666651575.28497982,23249872,0.0,0.1,0.0,0.18,346.97,346.98,0.04,0.02,3
1666651575.28748083,23252373,0.0,0.1,0.0,0.18,346.97,346.98,0.04,0.02,3
1666651575.29036975,23255262,0.0,0.1,0.0,0.18,346.97,346.98,0.04,0.02,3
1666651575.29276490,23257657,0.0,0.1,0.0,0.18,346.97,346.98,0.04,0.02,3
1666651575.29497886,23259871,0.0,0.1,0.0,0.18,346.97,346.98,0.04,0.02,3
1666651575.29753089,23262423,0.0,0.1,0.0,0.18,346.97,346.98,0.04,0.02,3
1666651575.30007076,23264963,0.0,0.1,0.0,0.18,346.98,346.99,0.04,0.02,3
1666651575.30285788,23267750,0.0,0.1,0.0,0.18,346.98,346.99,0.04,0.02,3
1666651575.30538583,23270278,0.0,0.1,0.0,0.18,346.98,346.99,0.04,0.02,3
1666651575.30749393,23272386,0.0,0.1,0.0,0.18,346.98,346.99,0.04,0.02,3
1666651575.31001782,23274910,0.0,0.1,0.0,0.18,346.98,346.99,0.04,0.02,3
1666651575.31249475,23277387,0.0,0.1,0.0,0.18,346.98,346.99,0.04,0.02,3
1666651575.31524682,23280139,0.0,0.1,0.0,0.18,346.98,346.99,0.04,0.02,3
1666651575.31784582,23282738,0.0,0.1,0.0,0.18,346.98,346.99,0.04,0.02,3
1666651575.32021785,23285110,0.0,0.1,0.0,0.18,346.98,346.99,0.04,0.02,3
1666651575.32255292,23287445,0.0,0.1,0.0,0.18,346.98,346.99,0.04,0.02,3
1666651575.32493186,23289824,0.0,0.1,0.0,0.18,346.98,346.99,0.04,0.02,3
1666651575.32793593,23292828,0.0,0.1,0.0,0.18,346.98,346.99,0.04,0.02,3
1666651575.33035994,23295252,0.0,0.1,0.0,0.18,346.98,346.99,0.04,0.02,3
1666651575.33253884,23297431,0.0,0.1,0.0,0.18,346.98,346.99,0.04,0.02,3
1666651575.33494091,23299833,0.0,0.1,0.0,0.18,346.98,346.99,0.04,0.02,3
1666651575.33747792,23302370,0.0,0.1,0.0,0.18,346.98,346.99,0.04,0.02,3
1666651575.34027982,23305172,0.0,0.1,0.0,0.18,346.98,346.99,0.04,0.02,3
1666651575.34277081,23307663,0.0,0.1,0.0,0.18,346.98,346.99,0.04,0.02,3
1666651575.34499192,23309884,0.0,0.1,0.0,0.18,346.98,346.99,0.04,0.02,3
1666651575.34746194,23312354,0.0,0.1,0.0,0.18,346.98,346.99,0.04,0.02,3
1666651575.35000896,23314901,0.0,0.1,0.0,0.18,346.98,346.99,0.04,0.02,3
1666651575.35281587,23317708,0.0,0.1,0.0,0.18,346.98,346.99,0.04,0.02,3
1666651575.35553074,23320423,0.0,0.1,0.0,0.18,346.99,347.0,0.04,0.02,3
1666651575.35745478,23322347,0.0,0.1,0.0,0.18,346.99,347.0,0.04,0.02,3
1666651575.36008477,23324977,0.0,0.1,0.0,0.18,346.99,347.0,0.04,0.02,3
1666651575.36255193,23327444,0.0,0.1,0.0,0.18,346.99,347.0,0.04,0.02,3
1666651575.36571288,23330605,0.0,0.1,0.0,0.18,346.99,347.0,0.04,0.02,3
1666651575.36800289,23332895,0.0,0.1,0.0,0.18,346.99,347.0,0.04,0.02,3
1666651575.37005281,23334945,0.0,0.1,0.0,0.18,346.99,347.0,0.04,0.02,3
1666651575.37256885,23337461,0.0,0.1,0.0,0.18,346.99,347.0,0.04,0.02,3
1666651575.37495875,23339851,0.0,0.1,0.0,0.18,346.99,347.0,0.04,0.02,3
1666651575.37780380,23342696,0.0,0.1,0.0,0.18,346.99,347.0,0.04,0.02,3
1666651575.38043976,23345332,0.0,0.1,0.0,0.18,346.99,347.0,0.04,0.02,3
1666651575.38253379,23347426,0.0,0.1,0.0,0.18,346.99,347.0,0.04,0.02,3
1666651575.38498282,23349875,0.0,0.1,0.0,0.18,346.99,347.0,0.04,0.02,3
1666651575.38745880,23352351,0.0,0.1,0.0,0.18,346.99,347.0,0.04,0.02,3
1666651575.39036083,23355253,0.0,0.1,0.0,0.18,346.99,347.0,0.04,0.02,3
1666651575.39279175,23357684,0.0,0.1,0.0,0.18,346.99,347.0,0.04,0.02,3
1666651575.39506197,23359954,0.0,0.1,0.0,0.18,346.99,347.0,0.04,0.02,3
1666651575.39745092,23362343,0.0,0.1,0.0,0.18,346.99,347.0,0.04,0.02,3
1666651575.40009284,23364985,0.0,0.1,0.0,0.18,346.99,347.0,0.04,0.02,3
1666651575.40295887,23367851,0.0,0.1,0.0,0.18,346.99,347.0,0.04,0.02,3
1666651575.40525174,23370144,0.0,0.1,0.0,0.18,346.99,347.0,0.04,0.02,3
1666651575.40747380,23372366,0.0,0.1,0.0,0.18,346.99,347.0,0.04,0.02,3
1666651575.40996075,23374853,0.0,0.1,0.0,0.18,347.0,347.01,0.04,0.02,3
1666651575.41251874,23377411,0.0,0.1,0.0,0.18,347.0,347.01,0.04,0.02,3
1666651575.41524577,23380138,0.0,0.1,0.0,0.18,347.0,347.01,0.04,0.02,3
1666651575.41789079,23382783,0.0,0.1,0.0,0.18,347.0,347.01,0.04,0.02,3
1666651575.42022395,23385116,0.0,0.1,0.0,0.18,347.0,347.01,0.04,0.02,3
1666651575.42248082,23387373,0.0,0.1,0.0,0.18,347.0,347.01,0.04,0.02,3
1666651575.42497778,23389870,0.0,0.1,0.0,0.18,347.0,347.01,0.04,0.02,3
1666651575.42781782,23392710,0.0,0.1,0.0,0.18,347.0,347.01,0.04,0.02,3
1666651575.43030477,23395197,0.0,0.1,0.0,0.18,347.0,347.01,0.04,0.02,3
1666651575.43251395,23397406,0.0,0.1,0.0,0.18,347.0,347.01,0.04,0.02,3
1666651575.43505692,23399949,0.0,0.1,0.0,0.18,347.0,347.01,0.04,0.02,3
1666651575.43748093,23402373,0.0,0.1,0.0,0.18,347.0,347.01,0.04,0.02,3
1666651575.44046593,23405358,0.0,0.1,0.0,0.18,347.0,347.01,0.04,0.02,3
1666651575.44274282,23407635,0.0,0.1,0.0,0.18,347.0,347.01,0.04,0.02,3
1666651575.44497895,23409871,0.0,0.1,0.0,0.18,347.0,347.01,0.04,0.02,3
1666651575.44744086,23412333,0.0,0.1,0.0,0.18,347.0,347.01,0.04,0.02,3
1666651575.45003390,23414926,0.0,0.1,0.0,0.18,347.0,347.01,0.04,0.02,3
1666651575.45282888,23417721,0.0,0.1,0.0,0.18,347.0,347.01,0.04,0.02,3
1666651575.45559883,23420491,0.0,0.1,0.0,0.18,347.0,347.01,0.04,0.02,3
1666651575.45746779,23422360,0.0,0.1,0.0,0.18,347.01,347.02,0.04,0.02,3
1666651575.46002078,23424913,0.0,0.1,0.0,0.18,347.01,347.02,0.04,0.02,3
1666651575.46253777,23427430,0.0,0.1,0.0,0.18,347.01,347.02,0.04,0.02,3
1666651575.46570873,23430601,0.0,0.1,0.0,0.18,347.01,347.02,0.04,0.02,3
1666651575.46799088,23432883,0.0,0.1,0.0,0.18,347.01,347.02,0.04,0.02,3
1666651575.47004485,23434937,0.0,0.1,0.0,0.18,347.01,347.02,0.04,0.02,3
1666651575.47253990,23437432,0.0,0.1,0.0,0.18,347.01,347.02,0.04,0.02,3
1666651575.47497177,23439864,0.0,0.1,0.0,0.18,347.01,347.02,0.04,0.02,3
1666651575.47783184,23442724,0.0,0.1,0.0,0.18,347.01,347.02,0.04,0.02,3
1666651575.48035479,23445247,0.0,0.1,0.0,0.18,347.01,347.02,0.04,0.02,3
1666651575.48247886,23447371,0.0,0.1,0.0,0.18,347.01,347.02,0.04,0.02,3
1666651575.48505497,23449947,0.0,0.1,0.0,0.18,347.01,347.02,0.04,0.02,3
1666651575.48750091,23452393,0.0,0.1,0.0,0.18,347.01,347.02,0.04,0.02,3
1666651575.49027181,23455164,0.0,0.1,0.0,0.18,347.01,347.02,0.04,0.02,3
1666651575.49277997,23457672,0.0,0.1,0.0,0.18,347.01,347.02,0.04,0.02,3
1666651575.49497294,23459865,0.0,0.1,0.0,0.18,347.01,347.02,0.04,0.02,3
1666651575.49750876,23462401,0.0,0.1,0.0,0.18,347.01,347.02,0.04,0.02,3
1666651575.50008488,23464977,0.0,0.1,0.0,0.18,347.01,347.02,0.04,0.02,3
1666651575.50282192,23467714,0.0,0.1,0.0,0.18,347.01,347.02,0.04,0.02,3
1666651575.50523996,23470132,0.0,0.1,0.0,0.18,347.01,347.02,0.04,0.02,3
1666651575.50753784,23472430,0.0,0.1,0.0,0.18,347.01,347.02,0.04,0.02,3
1666651575.51009178,23474984,0.0,0.1,0.0,0.18,347.01,347.02,0.04,0.02,3
1666651575.51254892,23477441,0.0,0.1,0.0,0.18,347.01,347.02,0.04,0.02,3
1666651575.51529074,23480183,0.0,0.1,0.0,0.18,347.01,347.02,0.04,0.02,3
1666651575.51774573,23482638,0.0,0.1,0.0,0.18,347.01,347.02,0.04,0.02,3
1666651575.52025795,23485150,0.0,0.1,0.0,0.18,347.01,347.02,0.04,0.02,3
1666651575.52250385,23487396,0.0,0.1,0.0,0.18,347.01,347.02,0.04,0.02,3
1666651575.52500391,23489896,0.0,0.1,0.0,0.18,347.02,347.03000000000003,0.04,0.02,3
1666651575.52773476,23492627,0.0,0.1,0.0,0.18,347.02,347.03000000000003,0.04,0.02,3
1666651575.53048182,23495374,0.0,0.1,0.0,0.18,347.02,347.03000000000003,0.04,0.02,3
1666651575.53248382,23497376,0.0,0.1,0.0,0.18,347.02,347.03000000000003,0.04,0.02,3
1666651575.53500581,23499898,0.0,0.1,0.0,0.18,347.02,347.03000000000003,0.04,0.02,3
1666651575.53750277,23502395,0.0,0.1,0.0,0.18,347.02,347.03000000000003,0.04,0.02,3
1666651575.54032373,23505216,0.0,0.1,0.0,0.18,347.02,347.03000000000003,0.04,0.02,3
1666651575.54274297,23507635,0.0,0.1,0.0,0.18,347.02,347.03000000000003,0.04,0.02,3
1666651575.54498887,23509881,0.0,0.1,0.0,0.18,347.02,347.03000000000003,0.04,0.02,3
1666651575.54751086,23512403,0.0,0.1,0.0,0.18,347.02,347.03000000000003,0.04,0.02,3
1666651575.55005074,23514943,0.0,0.1,0.0,0.18,347.02,347.03000000000003,0.04,0.02,3
1666651575.55287695,23517769,0.0,0.1,0.0,0.18,347.02,347.03000000000003,0.04,0.02,3
1666651575.55548882,23520381,0.0,0.1,0.0,0.18,347.02,347.03000000000003,0.04,0.02,3
1666651575.55754375,23522436,0.0,0.1,0.0,0.18,347.02,347.03000000000003,0.04,0.02,3
1666651575.56012082,23525013,0.0,0.1,0.0,0.18,347.02,347.03000000000003,0.04,0.02,3
1666651575.56251478,23527407,0.0,0.1,0.0,0.18,347.02,347.03000000000003,0.04,0.02,3
1666651575.56562686,23530519,0.0,0.1,0.0,0.18,347.02,347.03000000000003,0.04,0.02,3
1666651575.56796384,23532856,0.0,0.1,0.0,0.18,347.02,347.03000000000003,0.04,0.02,3
1666651575.57007194,23534964,0.0,0.1,0.0,0.18,347.02,347.03000000000003,0.04,0.02,3
1666651575.57252693,23537419,0.0,0.1,0.0,0.18,347.02,347.03000000000003,0.04,0.02,3
1666651575.57503295,23539925,0.0,0.1,0.0,0.18,347.02,347.03000000000003,0.04,0.02,3
1666651575.57777286,23542665,0.0,0.1,0.0,0.18,347.02,347.03000000000003,0.04,0.02,3
1666651575.58041787,23545310,0.0,0.1,0.0,0.18,347.02,347.03000000000003,0.04,0.02,3
1666651575.58247590,23547368,0.0,0.1,0.0,0.18,347.02,347.03000000000003,0.04,0.02,3
1666651575.58502173,23549914,0.0,0.1,0.0,0.18,347.02,347.03000000000003,0.04,0.02,3
1666651575.58745790,23552350,0.0,0.1,0.0,0.18,347.02,347.03000000000003,0.04,0.02,3
1666651575.59045887,23555351,0.0,0.1,0.0,0.18,347.02,347.03000000000003,0.04,0.02,3
1666651575.59275484,23557647,0.0,0.1,0.0,0.18,347.02,347.03000000000003,0.04,0.02,3
1666651575.59500194,23559894,0.0,0.1,0.0,0.18,347.02,347.03000000000003,0.04,0.02,3
1666651575.59753990,23562432,0.0,0.1,0.0,0.18,347.02,347.03000000000003,0.04,0.02,3
1666651575.60007882,23564971,0.0,0.1,0.0,0.18,347.02,347.03000000000003,0.04,0.02,3
1666651575.60281992,23567712,0.0,0.1,0.0,0.18,347.02,347.03000000000003,0.04,0.02,3
1666651575.60526896,23570161,0.0,0.1,0.0,0.18,347.02,347.03000000000003,0.04,0.02,3
1666651575.60747480,23572367,0.0,0.1,0.0,0.18,347.02,347.03000000000003,0.04,0.02,3
1666651575.60998583,23574878,0.0,0.1,0.0,0.18,347.02,347.03000000000003,0.04,0.02,3
1666651575.61252475,23577417,0.0,0.1,0.0,0.18,347.02,347.03000000000003,0.04,0.02,3
1666651575.61524677,23580139,0.0,0.1,0.0,0.18,347.02,347.03000000000003,0.04,0.02,3
1666651575.61774683,23582639,0.0,0.1,0.0,0.18,347.03000000000003,347.04,0.04,0.02,3
1666651575.62028480,23585177,0.0,0.1,0.0,0.18,347.03000000000003,347.04,0.04,0.02,3
1666651575.62254095,23587433,0.0,0.1,0.0,0.18,347.03000000000003,347.04,0.04,0.02,3
1666651575.62499094,23589883,0.0,0.1,0.0,0.18,347.03000000000003,347.04,0.04,0.02,3
1666651575.62777996,23592672,0.0,0.1,0.0,0.18,347.03000000000003,347.04,0.04,0.02,3
1666651575.63035774,23595250,0.0,0.1,0.0,0.18,347.03000000000003,347.04,0.04,0.02,3
1666651575.63244796,23597340,0.0,0.1,0.0,0.18,347.03000000000003,347.04,0.04,0.02,3
1666651575.63501692,23599909,0.0,0.1,0.0,0.18,347.03000000000003,347.04,0.04,0.02,3
1666651575.63745975,23602352,0.0,0.1,0.0,0.18,347.03000000000003,347.04,0.04,0.02,3
1666651575.64034176,23605234,0.0,0.1,0.0,0.18,347.03000000000003,347.04,0.04,0.02,3
1666651575.64296675,23607859,0.0,0.1,0.0,0.18,347.03000000000003,347.04,0.04,0.02,3
1666651575.64500880,23609901,0.0,0.1,0.0,0.18,347.03000000000003,347.04,0.04,0.02,3
1666651575.64745283,23612345,0.0,0.1,0.0,0.18,347.03000000000003,347.04,0.04,0.02,3
1666651575.64998579,23614878,0.0,0.1,0.0,0.18,347.03000000000003,347.04,0.04,0.02,3
1666651575.65274096,23617633,0.0,0.1,0.0,0.18,347.03000000000003,347.04,0.04,0.02,3
1666651575.65554786,23620440,0.0,0.1,0.0,0.18,347.03000000000003,347.04,0.04,0.02,3
1666651575.65755677,23622449,0.0,0.1,0.0,0.18,347.03000000000003,347.04,0.04,0.02,3
1666651575.66006088,23624953,0.0,0.1,0.0,0.18,347.03000000000003,347.04,0.04,0.02,3
1666651575.66253877,23627431,0.0,0.1,0.0,0.18,347.03000000000003,347.04,0.04,0.02,3
1666651575.66587090,23630763,0.0,0.1,0.0,0.18,347.03000000000003,347.04,0.04,0.02,3
1666651575.66803980,23632932,0.0,0.1,0.0,0.18,347.03000000000003,347.04,0.04,0.02,3
1666651575.67002392,23634916,0.0,0.1,0.0,0.18,347.03000000000003,347.04,0.04,0.02,3
1666651575.67256784,23637460,0.0,0.1,0.0,0.18,347.03000000000003,347.04,0.04,0.02,3
1666651575.67502379,23639916,0.0,0.1,0.0,0.18,347.03000000000003,347.04,0.04,0.02,3
1666651575.67779183,23642684,0.0,0.1,0.0,0.18,347.03000000000003,347.04,0.04,0.02,3
1666651575.68040395,23645296,0.0,0.1,0.0,0.18,347.03000000000003,347.04,0.04,0.02,3
1666651575.68250775,23647400,0.0,0.1,0.0,0.18,347.03000000000003,347.04,0.04,0.02,3
1666651575.68501878,23649911,0.0,0.1,0.0,0.18,347.03000000000003,347.04,0.04,0.02,3
1666651575.68754077,23652433,0.0,0.1,0.0,0.18,347.03000000000003,347.04,0.04,0.02,3
1666651575.69024777,23655140,0.0,0.1,0.0,0.18,347.03000000000003,347.04,0.04,0.02,3
1666651575.69288588,23657778,0.0,0.1,0.0,0.18,347.03000000000003,347.04,0.04,0.02,3
1666651575.69504476,23659937,0.0,0.1,0.0,0.18,347.03000000000003,347.04,0.04,0.02,3
1666651575.69748282,23662375,0.0,0.1,0.0,0.18,347.03000000000003,347.04,0.04,0.02,3
1666651575.70006084,23664953,0.0,0.1,0.0,0.18,347.03000000000003,347.04,0.04,0.02,3
1666651575.70284986,23667742,0.0,0.1,0.0,0.18,347.03000000000003,347.04,0.04,0.02,3
1666651575.70529485,23670187,0.0,0.1,0.0,0.18,347.03000000000003,347.04,0.04,0.02,3
1666651575.70752192,23672414,0.0,0.1,0.0,0.18,347.03000000000003,347.04,0.04,0.02,3
1666651575.71005297,23674945,0.0,0.1,0.0,0.18,347.02,347.03000000000003,0.04,0.02,3
1666651575.71249676,23677389,0.0,0.1,0.0,0.18,347.02,347.03000000000003,0.04,0.02,3
1666651575.71528196,23680174,0.0,0.1,0.0,0.18,347.02,347.03000000000003,0.04,0.02,3
1666651575.71793389,23682826,0.0,0.1,0.0,0.18,347.02,347.03000000000003,0.04,0.02,3
1666651575.72028589,23685178,0.0,0.1,0.0,0.18,347.02,347.03000000000003,0.04,0.02,3
1666651575.72252679,23687419,0.0,0.1,0.0,0.18,347.02,347.03000000000003,0.04,0.02,3
1666651575.72498083,23689873,0.0,0.1,0.0,0.18,347.02,347.03000000000003,0.04,0.02,3
1666651575.72780895,23692701,0.0,0.1,0.0,0.18,347.02,347.03000000000003,0.04,0.02,3
1666651575.73029184,23695184,0.0,0.1,0.0,0.18,347.02,347.03000000000003,0.04,0.02,3
1666651575.73251796,23697410,0.0,0.1,0.0,0.18,347.02,347.03000000000003,0.04,0.02,3
1666651575.73497891,23699871,0.0,0.1,0.0,0.18,347.02,347.03000000000003,0.04,0.02,3
1666651575.73749375,23702386,0.0,0.1,0.0,0.18,347.02,347.03000000000003,0.04,0.02,3
1666651575.74038577,23705278,0.0,0.1,0.0,0.18,347.02,347.03000000000003,0.04,0.02,3
1666651575.74284196,23707734,0.0,0.1,0.0,0.18,347.02,347.03000000000003,0.04,0.02,3
1666651575.74492979,23709822,0.0,0.1,0.0,0.18,347.02,347.03000000000003,0.04,0.02,3
1666651575.74749875,23712391,0.0,0.1,0.0,0.18,347.02,347.03000000000003,0.04,0.02,3
1666651575.74997377,23714866,0.0,0.1,0.0,0.18,347.02,347.03000000000003,0.04,0.02,3
1666651575.75275683,23717649,0.0,0.1,0.0,0.18,347.02,347.03000000000003,0.04,0.02,3
1666651575.75559092,23720483,0.0,0.1,0.0,0.18,347.02,347.03000000000003,0.04,0.02,3
1666651575.75755882,23722451,0.0,0.1,0.0,0.18,347.02,347.03000000000003,0.04,0.02,3
1666651575.76005888,23724951,0.0,0.1,0.0,0.18,347.02,347.03000000000003,0.04,0.02,3
1666651575.76250887,23727401,0.0,0.1,0.0,0.18,347.02,347.03000000000003,0.04,0.02,3
1666651575.76568580,23730578,0.0,0.1,0.0,0.18,347.01,347.02,0.04,0.02,3
1666651575.76796675,23732859,0.0,0.1,0.0,0.18,347.01,347.02,0.04,0.02,3
1666651575.77006197,23734954,0.0,0.1,0.0,0.18,347.02,347.03000000000003,0.04,0.02,3
1666651575.77248096,23737373,0.0,0.1,0.0,0.18,347.02,347.03000000000003,0.04,0.02,3
1666651575.77506495,23739957,0.0,0.1,0.0,0.18,347.01,347.02,0.04,0.02,3
1666651575.77789283,23742785,0.0,0.1,0.0,0.18,347.01,347.02,0.04,0.02,3
1666651575.78031874,23745211,0.0,0.1,0.0,0.18,347.01,347.02,0.04,0.02,3
