timestamp,TimeUS,I,Status,GMS,GWk,NSats,HDop,Lat,Lng,Alt,Spd,GCrs,VZ,Yaw,U
1666651573.79999995,21764892,0,3,168391800,2233,8,1.78,42.730884499999995,-84.4904584,238.87,0.29076623916625977,186.3184356689453,0.41100001335144043,0.0,1
1666651574.02000284,21984895,0,3,168392000,2233,8,1.78,42.730883999999996,-84.4904579,239.09,0.26955148577690125,187.88961791992188,0.26900002360343933,0.0,1
1666651574.19998384,22164876,0,3,168392200,2233,8,1.78,42.730883999999996,-84.49045749999999,239.32,0.1091100350022316,252.3953857421875,0.39900001883506775,0.0,1
1666651574.40002584,22364918,0,3,168392400,2233,8,1.78,42.7308837,-84.4904569,239.53,0.26606765389442444,178.70782470703125,0.38100001215934753,0.0,1
1666651574.59999990,22564892,0,3,168392600,2233,8,1.78,42.7308836,-84.4904562,239.78,0.1320037990808487,195.826171875,0.3790000081062317,0.0,1
1666651574.80005074,22764943,0,3,168392800,2233,8,1.78,42.730883399999996,-84.49045559999999,240.03,0.16538742184638977,189.74710083007812,0.5040000081062317,0.0,1
1666651575.00006580,22964958,0,3,168393000,2233,8,1.78,42.7308832,-84.4904549,240.29,0.1934373378753662,183.85348510742188,0.4150000214576721,0.0,1
1666651575.20008683,23164979,0,3,168393200,2233,8,1.78,42.7308831,-84.4904542,240.57,0.11301770061254501,210.87681579589844,0.4830000102519989,0.0,1
1666651575.40006995,23364962,0,3,168393400,2233,8,1.78,42.730882699999995,-84.4904536,240.81,0.22426994144916534,209.0794219970703,0.5400000214576721,0.0,1
1666651575.60005474,23564947,0,3,168393600,2233,8,1.78,42.7308826,-84.4904531,241.1,0.20144478976726532,209.10986328125,0.4910000264644623,0.0,1
1666651575.80005383,23764946,0,3,168393800,2233,8,1.78,42.7308825,-84.4904524,241.41,0.1654237061738968,215.90005493164062,0.5740000009536743,0.0,1
1666651576.01998591,23984878,0,3,168394000,2233,8,1.78,42.730882199999996,-84.4904521,241.63,0.2759438455104828,201.91708374023438,0.4410000145435333,0.0,1
1666651576.20001292,24164905,0,3,168394200,2233,8,1.78,42.7308818,-84.4904517,241.85,0.22896288335323334,197.8018798828125,0.4520000219345093,0.0,1
1666651576.40006280,24364955,0,3,168394400,2233,8,1.78,42.730881499999995,-84.4904512,242.09,0.14317822456359863,204.775146484375,0.5040000081062317,0.0,1
1666651576.60005689,24564949,0,3,168394600,2233,8,1.78,42.7308812,-84.4904507,242.28,0.12151132524013519,219.3225860595703,0.5390000343322754,0.0,1
1666651576.80007482,24764967,0,3,168394800,2233,9,1.78,42.7308837,-84.4904488,242.92000000000002,0.10064790397882462,154.70797729492188,0.4310000240802765,0.0,1
1666651577.00008583,24964978,0,3,168395000,2233,9,1.19,42.7308861,-84.4904469,243.55,0.21153251826763153,184.0663299560547,0.445000022649765,0.0,1
1666651577.20004797,25164940,0,3,168395200,2233,9,1.19,42.7308884,-84.4904454,244.09,0.19596940279006958,194.17807006835938,0.367000013589859,0.0,1
1666651577.40007997,25364972,0,3,168395400,2233,9,1.19,42.7308905,-84.4904439,244.67000000000002,0.17165663838386536,185.01312255859375,0.41200003027915955,0.0,1
1666651577.60003376,25564926,0,3,168395600,2233,9,1.19,42.7308923,-84.49044239999999,245.15,0.05341348424553871,218.1572265625,-0.020000001415610313,0.0,1
1666651577.80007386,25764966,0,3,168395800,2233,9,1.19,42.7308944,-84.49043859999999,246.57,0.3549042344093323,215.48138427734375,-0.06200000271201134,0.0,1
1666651578.02001691,25984909,0,3,168396000,2233,10,1.05,42.730898599999996,-84.4904353,247.95000000000002,0.20787017047405243,174.75564575195312,0.5580000281333923,0.0,1
1666651578.20000482,26164897,0,3,168396200,2233,9,1.05,42.730900899999995,-84.4904328,248.55,0.41771283745765686,123.08136749267578,1.4690001010894775,0.0,1
1666651578.39999485,26364887,0,3,168396400,2233,8,1.05,42.7309021,-84.4904329,248.55,0.7224971055984497,343.01971435546875,-0.6150000095367432,0.0,1
1666651578.60009575,26564988,0,3,168396600,2233,7,1.05,42.7309032,-84.4904346,248.61,0.8085864186286926,243.87860107421875,0.14000000059604645,0.0,1
1666651578.80001187,26764904,0,3,168396800,2233,8,1.05,42.730905899999996,-84.49043449999999,248.96,0.1948794573545456,352.0362243652344,-0.14100000262260437,0.0,1
1666651579.00005984,26964952,0,3,168397000,2233,9,1.09,42.7309096,-84.49043449999999,249.38,0.6426025629043579,307.0303955078125,-0.00800000037997961,0.0,1
1666651579.20004797,27164940,0,3,168397200,2233,9,1.09,42.7309129,-84.49043499999999,249.31,0.9095020890235901,327.02630615234375,0.05700000375509262,0.0,1
1666651579.40002394,27364916,0,3,168397400,2233,9,1.09,42.730917,-84.4904359,249.75,0.8427051901817322,299.4244384765625,-0.5400000214576721,0.0,1
1666651579.59998775,27564880,0,3,168397600,2233,9,1.09,42.7309202,-84.4904366,249.94,0.8924091458320618,341.2402038574219,0.026000000536441803,0.0,1
1666651579.79999995,27764892,0,3,168397800,2233,9,1.09,42.7309221,-84.4904368,250.19,0.39292240142822266,193.54110717773438,0.3840000033378601,0.0,1
1666651580.04036880,28005261,0,3,168398000,2233,9,1.09,42.7309219,-84.4904403,249.46,0.4246092438697815,127.24771118164062,1.3220000267028809,0.0,1
1666651580.20004296,28164935,0,3,168398200,2233,10,1.09,42.7309238,-84.49043929999999,249.66,0.3003747761249542,145.99249267578125,0.9950000643730164,0.0,1
1666651580.40000391,28364896,0,3,168398400,2233,10,1.09,42.7309264,-84.4904396,250.05,0.5469570755958557,333.8565673828125,-0.4570000171661377,0.0,1
1666651580.60010695,28564999,0,3,168398600,2233,11,1.09,42.7309288,-84.4904413,249.93,1.2365925312042236,336.1504211425781,0.7540000081062317,0.0,1
1666651580.80007482,28764967,0,3,168398800,2233,11,1.09,42.7309304,-84.4904418,249.68,0.994265615940094,5.309208393096924,0.242000013589859,0.0,1
1666651581.00011277,28965005,0,3,168399000,2233,10,1.1300000000000001,42.7309297,-84.4904413,249.41,0.10543718934059143,215.34817504882812,0.026000000536441803,0.0,1
1666651581.20000982,29164902,0,3,168399200,2233,10,1.1300000000000001,42.730927799999996,-84.4904408,249.16,0.06985700130462646,76.75947570800781,0.18800000846385956,0.0,1
1666651581.40004778,29364940,0,3,168399400,2233,11,1.1300000000000001,42.7309273,-84.4904397,248.93,0.06768308579921722,347.19573974609375,0.23100000619888306,0.0,1
1666651581.60002685,29564919,0,3,168399600,2233,11,1.1300000000000001,42.7309269,-84.490439,248.94,0.14412495493888855,272.3859558105469,0.1290000081062317,0.0,1
1666651581.79994392,29764836,0,3,168399800,2233,11,1.1300000000000001,42.730927,-84.4904384,248.99,0.06217717006802559,207.8014678955078,0.20500001311302185,0.0,1
1666651582.02004480,29984937,0,3,168400000,2233,11,1.1300000000000001,42.730927199999996,-84.4904378,249.01000000000002,0.03448187932372093,209.53878784179688,0.20900000631809235,0.0,1
1666651582.19999480,30164887,0,3,168400200,2233,11,1.1300000000000001,42.7309276,-84.4904373,249.06,0.13112589716911316,298.715087890625,0.2980000078678131,0.0,1
1666651582.39997387,30364866,0,3,168400400,2233,11,1.1300000000000001,42.7309275,-84.4904371,248.96,0.1272006332874298,216.68972778320312,0.38100001215934753,0.0,1
1666651582.60002494,30564917,0,3,168400600,2233,11,1.1300000000000001,42.7309276,-84.4904366,248.91,0.013152946718037128,81.25382995605469,0.19600000977516174,0.0,1
1666651582.80001593,30764908,0,3,168400800,2233,11,1.1300000000000001,42.730927699999995,-84.49043569999999,248.85,0.10200000554323196,331.9275207519531,0.20500001311302185,0.0,1
1666651582.99997377,30964866,0,3,168401000,2233,11,1.1300000000000001,42.730927699999995,-84.4904349,248.87,0.13738268613815308,204.5129852294922,0.24900001287460327,0.0,1
1666651583.19998980,31164882,0,3,168401200,2233,11,1.1300000000000001,42.7309282,-84.4904342,248.98000000000002,0.0774209275841713,324.4623107910156,0.26200002431869507,0.0,1
1666651583.40001392,31364906,0,3,168401400,2233,11,1.1300000000000001,42.7309292,-84.4904335,249.1,0.1391761600971222,320.24713134765625,0.23600001633167267,0.0,1
1666651583.59995794,31564850,0,3,168401600,2233,11,1.1300000000000001,42.730929599999996,-84.4904329,249.11,0.05508176237344742,3.1221301555633545,0.18300001323223114,0.0,1
1666651583.79994678,31764839,0,3,168401800,2233,11,1.1300000000000001,42.73093,-84.490432,249.12,0.07844743877649307,11.023454666137695,0.1860000044107437,0.0,1
1666651584.01997685,31984869,0,3,168402000,2233,11,1.01,42.7309305,-84.4904311,249.18,0.06324555724859238,235.30484008789062,0.21800000965595245,0.0,1
1666651584.20002174,32164914,0,3,168402200,2233,10,1.01,42.7309311,-84.490431,249.1,0.23935331404209137,208.1710662841797,0.19700001180171967,0.0,1
1666651584.40006781,32364960,0,3,168402400,2233,10,1.01,42.7309316,-84.490431,248.96,0.030610457062721252,218.36749267578125,0.21800000965595245,0.0,1
1666651584.60002875,32564921,0,3,168402600,2233,11,1.01,42.7309323,-84.4904304,249.09,0.0874757170677185,349.4608154296875,0.2710000276565552,0.0,1
1666651584.80005074,32764943,0,3,168402800,2233,11,1.01,42.730932599999996,-84.49042949999999,249.29,0.1404065489768982,198.6930389404297,0.2590000033378601,0.0,1
1666651584.99993396,32964826,0,3,168403000,2233,11,1.01,42.7309328,-84.4904289,249.44,0.04103657230734825,226.97494506835938,0.3140000104904175,0.0,1
1666651585.20000386,33164896,0,3,168403200,2233,11,1.01,42.730933199999996,-84.4904281,249.57,0.05594640597701073,331.14434814453125,0.3450000286102295,0.0,1
1666651585.39992285,33364815,0,3,168403400,2233,11,1.01,42.7309337,-84.4904272,249.75,0.05323532968759537,298.0091857910156,0.21700000762939453,0.0,1
1666651585.59996891,33564861,0,3,168403600,2233,11,1.01,42.7309342,-84.49042659999999,249.9,0.1195073276758194,245.79412841796875,0.35600000619888306,0.0,1
1666651585.80007482,33764967,0,3,168403800,2233,11,1.01,42.7309348,-84.490426,250.02,0.1692010760307312,232.92694091796875,0.34200000762939453,0.0,1
1666651586.02001882,33984911,0,3,168404000,2233,11,1.01,42.7309352,-84.4904256,250.07,0.15246310830116272,247.64031982421875,0.4320000112056732,0.0,1
1666651586.19998288,34164875,0,3,168404200,2233,11,1.01,42.730935599999995,-84.4904251,250.04,0.03801315650343895,181.5074462890625,0.3890000283718109,0.0,1
1666651586.40000486,34364897,0,3,168404400,2233,11,1.01,42.7309361,-84.4904244,250.06,0.09575489908456802,245.30845642089844,0.35600000619888306,0.0,1
1666651586.59994674,34564839,0,3,168404600,2233,11,1.01,42.7309364,-84.49042399999999,250.02,0.05842088907957077,263.1182861328125,0.4400000274181366,0.0,1
1666651586.79997182,34764864,0,3,168404800,2233,11,1.01,42.7309366,-84.4904236,249.98000000000002,0.06506919860839844,226.24537658691406,0.3290000259876251,0.0,1
1666651586.99989295,34964785,0,3,168405000,2233,11,1.01,42.730937,-84.4904231,249.98000000000002,0.07580237835645676,351.6560974121094,0.3530000150203705,0.0,1
1666651587.19997978,35164872,0,3,168405200,2233,11,1.01,42.730937399999995,-84.4904226,250.0,0.13867948949337006,213.23171997070312,0.3360000252723694,0.0,1
1666651587.40002489,35364917,0,3,168405400,2233,11,1.01,42.730937499999996,-84.49042229999999,249.97,0.1320984661579132,187.39401245117188,0.4220000207424164,0.0,1
1666651587.60000992,35564902,0,3,168405600,2233,11,1.01,42.7309378,-84.490422,249.97,0.12440257519483566,184.61065673828125,0.4010000228881836,0.0,1
1666651587.79997277,35764865,0,3,168405800,2233,11,1.01,42.730938099999996,-84.4904217,249.94,0.059405386447906494,216.09829711914062,0.2970000207424164,0.0,1
1666651588.01997781,35984870,0,3,168406000,2233,11,1.01,42.7309378,-84.4904214,249.98000000000002,0.1968882977962494,208.517578125,0.33800002932548523,0.0,1
1666651588.20003796,36164930,0,3,168406200,2233,11,1.01,42.730937499999996,-84.4904212,249.96,0.05780138447880745,210.11375427246094,0.33400002121925354,0.0,1
1666651588.39997077,36364863,0,3,168406400,2233,11,1.01,42.730937399999995,-84.4904208,249.97,0.14785128831863403,203.09683227539062,0.37800002098083496,0.0,1
1666651588.59993291,36564825,0,3,168406600,2233,11,1.01,42.730937399999995,-84.4904205,249.99,0.13448049128055573,200.45632934570312,0.3400000035762787,0.0,1
1666651588.79997587,36764868,0,3,168406800,2233,11,1.01,42.730937399999995,-84.49042,250.01000000000002,0.06312685459852219,86.36705017089844,0.2840000092983246,0.0,1
1666651589.01994681,36984839,0,3,168407000,2233,11,1.01,42.7309377,-84.4904194,250.0,0.13223087787628174,7.823709964752197,0.4360000193119049,0.0,1
1666651589.20000887,37164901,0,3,168407200,2233,11,1.01,42.7309377,-84.490419,249.95000000000002,0.09000556170940399,179.36338806152344,0.3140000104904175,0.0,1
1666651589.39998174,37364874,0,3,168407400,2233,11,1.01,42.7309377,-84.49041849999999,249.99,0.07441102713346481,228.8140869140625,0.33000001311302185,0.0,1
1666651589.60001493,37564907,0,3,168407600,2233,11,1.01,42.7309376,-84.4904182,249.95000000000002,0.03807886689901352,246.80142211914062,0.328000009059906,0.0,1
1666651589.79998374,37764876,0,3,168407800,2233,11,1.01,42.7309376,-84.4904178,249.93,0.10623088479042053,183.7781982421875,0.3450000286102295,0.0,1
1666651590.02001381,37984906,0,3,168408000,2233,11,1.01,42.730937499999996,-84.4904174,249.95000000000002,0.07267048954963684,214.34609985351562,0.32500001788139343,0.0,1
1666651590.20000482,38164897,0,3,168408200,2233,11,1.01,42.730937399999995,-84.490417,249.99,0.04429446905851364,241.69924926757812,0.39400002360343933,0.0,1
1666651590.39997196,38364864,0,3,168408400,2233,11,1.01,42.7309372,-84.49041679999999,249.97,0.10983625054359436,213.11135864257812,0.3290000259876251,0.0,1
1666651590.59994674,38564839,0,3,168408600,2233,11,1.01,42.730936899999996,-84.4904167,249.99,0.22365376353263855,196.8955535888672,0.2590000033378601,0.0,1
1666651590.79994678,38764839,0,3,168408800,2233,11,1.01,42.7309365,-84.4904165,250.0,0.13700366020202637,217.28811645507812,0.320000022649765,0.0,1
1666651590.99998188,38964874,0,3,168409000,2233,11,1.01,42.7309359,-84.49041629999999,249.98000000000002,0.27446678280830383,183.34194946289062,0.26600000262260437,0.0,1
1666651591.20000577,39164898,0,3,168409200,2233,11,1.01,42.7309353,-84.490416,249.97,0.10826818645000458,201.11351013183594,0.3270000219345093,0.0,1
1666651591.39999890,39364891,0,3,168409400,2233,11,1.01,42.730934999999995,-84.49041559999999,249.98000000000002,0.06435060501098633,212.94921875,0.29600000381469727,0.0,1
1666651591.59994197,39564834,0,3,168409600,2233,11,1.01,42.7309345,-84.4904153,249.95000000000002,0.05333854630589485,210.41107177734375,0.3500000238418579,0.0,1
1666651591.79998684,39764879,0,3,168409800,2233,11,1.01,42.7309341,-84.4904148,249.92000000000002,0.09631718695163727,12.593329429626465,0.2710000276565552,0.0,1
1666651592.02001977,39984912,0,3,168410000,2233,11,1.01,42.7309335,-84.4904143,249.87,0.07467261701822281,172.30393981933594,0.41100001335144043,0.0,1
1666651592.20002675,40164919,0,3,168410200,2233,11,1.01,42.7309328,-84.4904138,249.82,0.0570087730884552,254.74488830566406,0.40400001406669617,0.0,1
1666651592.40005779,40364950,0,3,168410400,2233,11,1.01,42.7309321,-84.4904133,249.81,0.16983816027641296,162.5252227783203,0.29100000858306885,0.0,1
1666651592.60004687,40564939,0,3,168410600,2233,11,1.01,42.730931299999995,-84.49041299999999,249.76000000000002,0.09386160969734192,194.18429565429688,0.2970000207424164,0.0,1
1666651592.79988790,40764780,0,3,168410800,2233,11,1.01,42.7309306,-84.4904126,249.73000000000002,0.07302740216255188,268.4306640625,0.35600000619888306,0.0,1
1666651593.00005078,40964943,0,3,168411000,2233,11,1.01,42.7309299,-84.4904122,249.70000000000002,0.10729865729808807,219.32699584960938,0.2850000262260437,0.0,1
1666651593.20004988,41164942,0,3,168411200,2233,11,1.01,42.7309292,-84.4904117,249.55,0.20429880917072296,19.14445686340332,0.46400001645088196,0.0,1
1666651593.39999986,41364892,0,3,168411400,2233,11,1.01,42.730928899999995,-84.490411,249.31,0.4204806983470917,33.16096115112305,0.5350000262260437,0.0,1
1666651593.60000777,41564900,0,3,168411600,2233,11,1.01,42.7309286,-84.4904104,249.28,0.14835430681705475,187.74777221679688,0.43300002813339233,0.0,1
1666651593.80003095,41764923,0,3,168411800,2233,10,1.01,42.730927699999995,-84.49041,249.29,0.10846658796072006,220.88778686523438,0.41600000858306885,0.0,1
1666651594.02000594,41984898,0,3,168412000,2233,10,1.01,42.7309267,-84.4904102,249.16,0.016763055697083473,17.35402488708496,0.4180000126361847,0.0,1
1666651594.19995475,42164847,0,3,168412200,2233,10,1.01,42.730925899999995,-84.49041009999999,249.06,0.0660681501030922,129.4724578857422,0.3360000252723694,0.0,1
1666651594.39993382,42364826,0,3,168412400,2233,10,1.01,42.7309249,-84.49041009999999,248.93,0.09021086990833282,148.6005401611328,0.4020000100135803,0.0,1
1666651594.59990287,42564795,0,3,168412600,2233,10,1.01,42.7309239,-84.49041009999999,248.8,0.055154331028461456,202.38014221191406,0.4100000262260437,0.0,1
1666651594.79995179,42764844,0,3,168412800,2233,10,1.01,42.730922899999996,-84.49041009999999,248.68,0.08209750801324844,145.9228057861328,0.4300000071525574,0.0,1
1666651594.99999595,42964888,0,3,168413000,2233,10,1.05,42.7309219,-84.49041009999999,248.55,0.09219545125961304,114.34107971191406,0.4390000104904175,0.0,1
1666651595.20003486,43164927,0,3,168413200,2233,10,1.05,42.730920999999995,-84.4904102,248.4,0.09861541539430618,300.4655456542969,0.48100003600120544,0.0,1
1666651595.40001488,43364907,0,3,168413400,2233,10,1.05,42.73092,-84.4904104,248.3,0.1484856903553009,184.63548278808594,0.4580000340938568,0.0,1
1666651595.59996676,43564859,0,3,168413600,2233,10,1.05,42.730919,-84.4904104,248.18,0.14280056953430176,142.9696044921875,0.5110000371932983,0.0,1
1666651595.80000496,43764897,0,3,168413800,2233,10,1.05,42.730917999999996,-84.4904104,248.09,0.040804412215948105,197.1027374267578,0.42600002884864807,0.0,1
1666651596.02001190,43984904,0,3,168414000,2233,9,1.19,42.730917399999996,-84.4904104,248.0,0.027018513530492783,231.00901794433594,0.5090000033378601,0.0,1
1666651596.19995880,44164851,0,3,168414200,2233,9,1.19,42.730916799999996,-84.49041059999999,247.91,0.09264988452196121,193.7362823486328,0.43400001525878906,0.0,1
1666651596.39996195,44364854,0,3,168414400,2233,9,1.19,42.730916099999995,-84.49041059999999,247.81,0.1362351030111313,139.76364135742188,0.4360000193119049,0.0,1
1666651596.59999895,44564891,0,3,168414600,2233,9,1.19,42.730915499999995,-84.4904107,247.69,0.08338465541601181,202.5670166015625,0.5450000166893005,0.0,1
1666651596.79999781,44764890,0,3,168414800,2233,9,1.19,42.7309151,-84.49041079999999,247.55,0.13963524997234344,11.148988723754883,0.5509999990463257,0.0,1
1666651597.00001788,44964910,0,3,168415000,2233,9,1.19,42.7309147,-84.4904109,247.45000000000002,0.1659216731786728,169.23184204101562,0.5,0.0,1
1666651597.19999480,45164887,0,3,168415200,2233,9,1.19,42.7309139,-84.4904111,247.35,0.1751028448343277,178.0363311767578,0.5480000376701355,0.0,1
1666651597.39995193,45364844,0,3,168415400,2233,9,1.19,42.730913199999996,-84.4904114,247.25,0.163917675614357,213.30227661132812,0.49000000953674316,0.0,1
1666651597.59994197,45564834,0,3,168415600,2233,9,1.19,42.7309124,-84.49041179999999,247.13,0.17801685631275177,173.87306213378906,0.48500001430511475,0.0,1
1666651597.79992986,45764822,0,3,168415800,2233,9,1.19,42.7309118,-84.49041199999999,246.97,0.05889822170138359,139.82077026367188,0.4710000157356262,0.0,1
1666651598.01995182,45984844,0,3,168416000,2233,9,1.19,42.7309112,-84.4904122,246.86,0.10295630991458893,187.81529235839844,0.48000001907348633,0.0,1
1666651598.19994187,46164834,0,3,168416200,2233,9,1.19,42.7309109,-84.49041249999999,246.84,0.06107373163104057,87.18443298339844,0.38200002908706665,0.0,1
1666651598.39999890,46364891,0,3,168416400,2233,9,1.19,42.7309105,-84.4904126,246.74,0.027018513530492783,267.87890625,0.3920000195503235,0.0,1
1666651598.60003877,46564931,0,3,168416600,2233,10,1.19,42.7309103,-84.4904128,246.63,0.06902898102998734,141.46981811523438,0.35200002789497375,0.0,1
1666651598.80001283,46764905,0,3,168416800,2233,10,1.19,42.730910099999996,-84.4904128,246.55,0.08884256333112717,168.3106231689453,0.38600000739097595,0.0,1
1666651599.00001478,46964907,0,3,168417000,2233,10,1.19,42.730910099999996,-84.4904129,246.54,0.17265284061431885,184.984130859375,0.2850000262260437,0.0,1
1666651599.19994473,47164837,0,3,168417200,2233,9,1.19,42.73091,-84.4904129,246.56,0.09751410782337189,166.96133422851562,0.2970000207424164,0.0,1
1666651599.39990783,47364800,0,3,168417400,2233,10,1.19,42.73091,-84.4904128,246.46,0.08910668641328812,170.96051025390625,0.3830000162124634,0.0,1
1666651599.59995794,47564850,0,3,168417600,2233,10,1.19,42.7309102,-84.4904129,246.4,0.04328972473740578,263.36749267578125,0.3160000145435333,0.0,1
1666651658.60002494,106564917,0,3,168476600,2233,10,0.9500000000000001,42.7309723,-84.4904016,249.79,0.06935416907072067,331.58734130859375,0.10700000822544098,0.0,1
1666651658.79994178,106764834,0,3,168476800,2233,10,0.9500000000000001,42.7309743,-84.49040029999999,249.82,0.1338207721710205,99.46231842041016,0.14300000667572021,0.0,1
1666651658.99999285,106964885,0,3,168477000,2233,10,0.9500000000000001,42.730976299999995,-84.490399,249.9,0.0567186065018177,350.86981201171875,0.19100001454353333,0.0,1
1666651659.20003390,107164926,0,3,168477200,2233,10,0.9500000000000001,42.7309785,-84.49039789999999,250.01000000000002,0.08185963332653046,64.6871109008789,0.17000000178813934,0.0,1
1666651659.39999080,107364883,0,3,168477400,2233,10,0.9500000000000001,42.7309803,-84.4903966,250.06,0.1173456460237503,122.47118377685547,0.14800000190734863,0.0,1
1666651659.59998679,107564879,0,3,168477600,2233,9,0.9500000000000001,42.7309823,-84.4903958,250.14000000000001,0.21476732194423676,347.9052429199219,0.12600000202655792,0.0,1
1666651659.80002594,107764918,0,3,168477800,2233,9,0.9500000000000001,42.730984199999995,-84.49039499999999,250.22,0.10837435722351074,131.63352966308594,0.20100000500679016,0.0,1
1666651659.99997592,107964868,0,3,168478000,2233,9,0.97,42.7309857,-84.4903942,250.29,0.08640602231025696,156.10482788085938,0.08500000089406967,0.0,1
1666651660.20001578,108164908,0,3,168478200,2233,10,0.97,42.7309872,-84.4903934,250.39000000000001,0.05793962627649307,158.74948120117188,0.06200000271201134,0.0,1
1666651660.40004683,108364939,0,3,168478400,2233,10,0.97,42.730988599999996,-84.4903925,250.39000000000001,0.15920114517211914,182.88038635253906,0.11300000548362732,0.0,1
1666651660.59996891,108564861,0,3,168478600,2233,10,0.97,42.7309901,-84.4903916,250.46,0.13703285157680511,91.25444030761719,0.27300000190734863,0.0,1
1666651660.79998374,108764876,0,3,168478800,2233,10,0.97,42.7309917,-84.490391,250.56,0.10401923209428787,127.97159576416016,0.20500001311302185,0.0,1
1666651661.01994491,108984837,0,3,168479000,2233,10,0.89,42.730993399999996,-84.4903906,250.74,0.0495176762342453,46.63657760620117,0.12000000476837158,0.0,1
1666651661.20003891,109164931,0,3,168479200,2233,10,0.89,42.7309949,-84.4903902,250.88,0.05141984298825264,193.49574279785156,0.07000000029802322,0.0,1
1666651661.40004492,109364937,0,3,168479400,2233,10,0.89,42.730996499999996,-84.49038999999999,251.01000000000002,0.026248810812830925,72.25532531738281,0.1980000138282776,0.0,1
1666651661.60002995,109564922,0,3,168479600,2233,10,0.89,42.7309979,-84.4903897,251.07,0.22363588213920593,186.93435668945312,0.21800000965595245,0.0,1
1666651661.80002880,109764921,0,3,168479800,2233,10,0.89,42.730999399999995,-84.49038949999999,251.19,0.034539833664894104,67.89054870605469,0.032999999821186066,0.0,1
1666651662.00005388,109964946,0,3,168480000,2233,10,0.89,42.7310008,-84.4903891,251.31,0.12280065566301346,37.05652618408203,0.08300000429153442,0.0,1
1666651662.19999290,110164885,0,3,168480200,2233,10,0.89,42.731001899999995,-84.4903887,251.41,0.10404806584119797,166.09730529785156,0.0860000029206276,0.0,1
1666651662.39999294,110364885,0,3,168480400,2233,9,0.89,42.731003099999995,-84.4903885,251.49,0.06811755150556564,229.76365661621094,0.0560000017285347,0.0,1
1666651662.60002184,110564914,0,3,168480600,2233,9,0.89,42.7310045,-84.4903884,251.62,0.09372299909591675,39.80556869506836,0.009000000543892384,0.0,1
1666651662.79997778,110764870,0,3,168480800,2233,9,0.89,42.7310058,-84.49038809999999,251.73000000000002,0.12734991312026978,195.01837158203125,0.07100000232458115,0.0,1
1666651663.00002575,110964918,0,3,168481000,2233,8,1.12,42.7310071,-84.49038759999999,251.79,0.03101612627506256,110.77224731445312,-0.01100000087171793,0.0,1
1666651663.20007682,111164969,0,3,168481200,2233,9,1.12,42.731008599999996,-84.49038709999999,251.88,0.03413209691643715,174.95753479003906,0.055000003427267075,0.0,1
1666651663.40002775,111364920,0,3,168481400,2233,9,1.12,42.73101,-84.4903866,251.94,0.03827532008290291,109.85520935058594,0.06599999964237213,0.0,1
1666651663.60005879,111564951,0,3,168481600,2233,9,1.12,42.731011599999995,-84.49038589999999,251.99,0.11313708871603012,8.13010311126709,0.020000001415610313,0.0,1
1666651663.80003977,111764932,0,3,168481800,2233,9,1.12,42.7310133,-84.4903853,252.05,0.06020797789096832,191.49656677246094,0.009000000543892384,0.0,1
1666651664.00006175,111964954,0,3,168482000,2233,9,1.08,42.7310148,-84.4903848,252.13,0.03157530725002289,280.9540710449219,0.006000000052154064,0.0,1
1666651664.20006084,112164953,0,3,168482200,2233,9,1.08,42.731016499999996,-84.4903844,252.17000000000002,0.1387551873922348,328.2572326660156,-0.027000000700354576,0.0,1
1666651664.40004992,112364942,0,3,168482400,2233,9,1.08,42.731018,-84.49038399999999,252.24,0.05522681027650833,5.194428443908691,-0.06200000271201134,0.0,1
1666651664.59999585,112564888,0,3,168482600,2233,9,1.08,42.7310193,-84.4903836,252.31,0.04201190173625946,128.2338104248047,0.04200000315904617,0.0,1
1666651664.80001593,112764908,0,3,168482800,2233,9,1.08,42.731020699999995,-84.49038329999999,252.39000000000001,0.07261542975902557,337.3194274902344,0.03100000135600567,0.0,1
1666651665.00003386,112964926,0,3,168483000,2233,9,1.08,42.731021999999996,-84.4903832,252.47,0.07340981066226959,245.8790283203125,-0.005000000353902578,0.0,1
1666651665.20004392,113164936,0,3,168483200,2233,9,1.08,42.7310234,-84.4903829,252.52,0.18668155372142792,352.303955078125,-0.1210000067949295,0.0,1
1666651665.40003586,113364928,0,3,168483400,2233,9,1.08,42.731024999999995,-84.490383,252.57,0.057584721595048904,290.3231506347656,-0.1510000079870224,0.0,1
1666651665.60007381,113564966,0,3,168483600,2233,8,1.08,42.7310264,-84.4903844,252.79,0.0570087730884552,322.1250305175781,-0.2840000092983246,0.0,1
1666651665.79999495,113764887,0,3,168483800,2233,8,1.08,42.731027499999996,-84.4903858,252.99,0.028442926704883575,349.8753356933594,-0.11100000888109207,0.0,1
1666651666.00005078,113964943,0,3,168484000,2233,9,1.08,42.7310289,-84.4903854,252.85,0.2662273347377777,357.6319885253906,0.004000000189989805,0.0,1
1666651666.19994974,114164842,0,3,168484200,2233,10,1.08,42.7310309,-84.4903882,253.13,0.1854211539030075,36.00465393066406,0.05100000277161598,0.0,1
1666651666.40002084,114364913,0,3,168484400,2233,8,1.08,42.7310316,-84.4903913,253.33,0.01702938787639141,220.23635864257812,0.24900001287460327,0.0,1
1666651666.59995580,114564848,0,3,168484600,2233,9,1.08,42.7310321,-84.4903927,253.17000000000002,0.1814662665128708,40.97800827026367,0.3720000088214874,0.0,1
1666651666.80001974,114764912,0,3,168484800,2233,8,1.08,42.7310322,-84.4903939,253.09,0.4083748459815979,12.300538063049316,0.3800000250339508,0.0,1
1666651667.00001884,114964911,0,3,168485000,2233,10,1.1300000000000001,42.731032,-84.4903946,252.84,0.40067070722579956,351.24298095703125,0.2580000162124634,0.0,1
1666651667.20005393,115164946,0,3,168485200,2233,10,1.1300000000000001,42.731032299999995,-84.4903956,252.81,0.6750267148017883,352.3380432128906,0.11400000751018524,0.0,1
1666651667.40000176,115364894,0,3,168485400,2233,10,1.1300000000000001,42.7310324,-84.4903968,252.73000000000002,0.23792436718940735,333.004150390625,0.021000001579523087,0.0,1
1666651667.60002279,115564915,0,3,168485600,2233,9,1.1300000000000001,42.7310319,-84.4903983,252.46,0.23940134048461914,126.67842864990234,0.012000000104308128,0.0,1
1666651667.79995894,115764851,0,3,168485800,2233,11,1.1300000000000001,42.7310327,-84.4903978,252.76000000000002,0.48662105202674866,46.33222198486328,-0.0690000057220459,0.0,1
1666651668.00000787,115964900,0,3,168486000,2233,11,1.0,42.7310333,-84.49039789999999,252.92000000000002,0.28652748465538025,287.6761169433594,-0.2460000067949295,0.0,1
1666651668.20002174,116164914,0,3,168486200,2233,12,1.0,42.7310332,-84.4903988,253.04,0.3678695559501648,43.237606048583984,-0.2900000214576721,0.0,1
1666651668.40002084,116364913,0,3,168486400,2233,12,1.0,42.7310327,-84.490399,252.83,0.13994643092155457,76.36094665527344,-0.2760000228881836,0.0,1
1666651668.60007477,116564967,0,3,168486600,2233,12,1.0,42.7310319,-84.490399,252.9,0.5407929420471191,184.6668701171875,-0.34300002455711365,0.0,1
1666651668.80006886,116764961,0,3,168486800,2233,10,1.0,42.7310308,-84.4903994,252.81,0.31981247663497925,173.89720153808594,0.19200000166893005,0.0,1
1666651669.00005889,116964951,0,3,168487000,2233,11,0.89,42.731029799999995,-84.4903995,252.86,0.23031283915042877,177.0133514404297,-0.09400000423192978,0.0,1
1666651669.20005488,117164947,0,3,168487200,2233,11,0.89,42.7310296,-84.4904004,253.19,0.39677828550338745,12.0745849609375,0.03700000047683716,0.0,1
1666651669.39998174,117364874,0,3,168487400,2233,11,0.89,42.7310296,-84.4904016,253.36,0.47793829441070557,275.161865234375,0.36500000953674316,0.0,1
1666651669.60000992,117564902,0,3,168487600,2233,12,0.89,42.7310285,-84.49040289999999,253.35,0.19332875311374664,114.4439468383789,0.06599999964237213,0.0,1
1666651669.79997873,117764871,0,3,168487800,2233,12,0.89,42.731027399999995,-84.4904049,253.41,0.0300665944814682,93.81407165527344,0.28300002217292786,0.0,1
1666651670.02003884,117984931,0,3,168488000,2233,12,0.87,42.7310267,-84.4904073,253.56,0.24308229982852936,22.239107131958008,0.24300001561641693,0.0,1
1666651670.20000696,118164899,0,3,168488200,2233,12,0.87,42.731026,-84.4904092,253.69,0.1538083255290985,318.9542541503906,0.30400002002716064,0.0,1
1666651670.40005589,118364948,0,3,168488400,2233,11,0.87,42.7310247,-84.4904091,253.65,0.26554474234580994,356.3294372558594,0.18400001525878906,0.0,1
1666651670.60007882,118564971,0,3,168488600,2233,12,0.87,42.7310239,-84.49040939999999,253.9,0.0152970589697361,348.6900634765625,-0.07400000095367432,0.0,1
1666651670.80006576,118764958,0,3,168488800,2233,11,0.87,42.7310229,-84.4904093,254.18,0.16763055324554443,17.354022979736328,0.01900000125169754,0.0,1
1666651671.00000095,118964893,0,3,168489000,2233,12,0.87,42.731021899999995,-84.4904092,254.13,0.22092759609222412,296.9129943847656,0.17800000309944153,0.0,1
1666651671.20002174,119164914,0,3,168489200,2233,11,0.87,42.7310211,-84.49040889999999,253.94,0.3091278076171875,347.6722412109375,0.1290000081062317,0.0,1
1666651671.39999294,119364885,0,3,168489400,2233,11,0.87,42.7310209,-84.4904087,253.97,0.5220967531204224,34.93807601928711,0.05100000277161598,0.0,1
1666651671.60002375,119564916,0,3,168489600,2233,12,0.87,42.7310199,-84.49040819999999,253.87,0.2007710188627243,337.138671875,0.1770000010728836,0.0,1
1666651671.80001092,119764903,0,3,168489800,2233,11,0.87,42.7310182,-84.4904069,253.56,0.18245548009872437,352.7581481933594,0.242000013589859,0.0,1
1666651671.99998784,119964880,0,3,168490000,2233,10,0.9500000000000001,42.731017,-84.4904049,253.51000000000002,0.17514851689338684,15.22642707824707,0.14400000870227814,0.0,1
1666651672.20003390,120164926,0,3,168490200,2233,12,0.9500000000000001,42.731015199999995,-84.49040459999999,253.54,0.26071441173553467,145.9442138671875,-0.11000000685453415,0.0,1
1666651672.40003586,120364928,0,3,168490400,2233,11,0.9500000000000001,42.7310126,-84.4904044,253.52,0.3402969539165497,193.4237060546875,0.09600000083446503,0.0,1
1666651672.60000491,120564897,0,3,168490600,2233,12,0.9500000000000001,42.7310106,-84.4904037,253.4,0.3524343967437744,23.58283233642578,0.2200000137090683,0.0,1
1666651672.80005193,120764944,0,3,168490800,2233,11,0.9500000000000001,42.7310097,-84.4904012,253.46,1.2326821088790894,43.981075286865234,-0.026000000536441803,0.0,1
1666651673.00002575,120964918,0,3,168491000,2233,12,0.87,42.731008599999996,-84.4903999,253.32,0.159154012799263,39.390724182128906,-0.032999999821186066,0.0,1
1666651673.20002794,121164920,0,3,168491200,2233,12,0.87,42.731006799999996,-84.4903994,253.25,0.22905458509922028,69.82454681396484,0.06300000101327896,0.0,1
1666651673.40002680,121364919,0,3,168491400,2233,12,0.87,42.731004299999995,-84.49040149999999,253.1,0.5112025141716003,217.04922485351562,0.021000001579523087,0.0,1
1666651673.59998274,121564875,0,3,168491600,2233,11,0.87,42.731001899999995,-84.4904032,252.94,0.7021638751029968,234.97457885742188,0.2990000247955322,0.0,1
1666651673.80002093,121764913,0,3,168491800,2233,10,0.87,42.7309987,-84.490403,252.79,0.2814977765083313,174.0868682861328,0.05900000408291817,0.0,1
1666651673.99998474,121964877,0,3,168492000,2233,12,0.87,42.7309962,-84.49040389999999,252.56,0.6610363125801086,244.17147827148438,0.2580000162124634,0.0,1
1666651674.20005989,122164952,0,3,168492200,2233,12,0.87,42.7309953,-84.4904062,252.68,0.6123601794242859,196.21530151367188,0.07500000298023224,0.0,1
1666651674.40003395,122364926,0,3,168492400,2233,12,0.87,42.7309938,-84.4904071,252.76000000000002,0.3749733567237854,220.9990692138672,0.01100000087171793,0.0,1
1666651674.60008192,122564974,0,3,168492600,2233,11,0.87,42.7309929,-84.4904088,252.76000000000002,0.6043351888656616,230.30369567871094,0.2939999997615814,0.0,1
1666651674.80002284,122764915,0,3,168492800,2233,11,0.87,42.730990899999995,-84.4904119,252.48000000000002,0.587639331817627,169.60792541503906,0.23900000751018524,0.0,1
1666651675.00003886,122964931,0,3,168493000,2233,11,1.0,42.7309887,-84.4904138,252.48000000000002,0.8032932877540588,191.19802856445312,0.1770000010728836,0.0,1
1666651675.19997883,123164871,0,3,168493200,2233,10,1.0,42.7309871,-84.4904143,252.62,0.20209155976772308,171.74960327148438,0.2110000103712082,0.0,1
1666651675.40004182,123364934,0,3,168493400,2233,12,1.0,42.730986099999996,-84.490414,252.72,0.4281086325645447,42.82286071777344,0.359000027179718,0.0,1
1666651675.60004187,123564934,0,3,168493600,2233,12,1.0,42.730984899999996,-84.490414,252.64000000000001,0.20967833697795868,326.08258056640625,0.242000013589859,0.0,1
1666651675.80007291,123764965,0,3,168493800,2233,10,1.0,42.7309852,-84.4904146,252.73000000000002,0.44047701358795166,311.8711853027344,0.3830000162124634,0.0,1
1666651676.00003886,123964931,0,3,168494000,2233,11,1.0,42.7309854,-84.4904145,252.99,0.6631086468696594,1.036914348602295,0.6890000104904175,0.0,1
1666651676.20010591,124164998,0,3,168494200,2233,10,1.0,42.7309845,-84.49041489999999,253.22,0.26518863439559937,214.70883178710938,0.29500001668930054,0.0,1
1666651676.40005994,124364952,0,3,168494400,2233,10,1.0,42.730982999999995,-84.4904145,253.37,0.09769339859485626,157.10943603515625,0.23100000619888306,0.0,1
1666651676.60003877,124564931,0,3,168494600,2233,10,1.0,42.7309814,-84.4904134,253.57,0.09500526636838913,0.6030911803245544,0.20900000631809235,0.0,1
1666651676.79997087,124764863,0,3,168494800,2233,9,1.0,42.7309801,-84.49041319999999,253.58,0.229268416762352,336.3420104980469,0.35500001907348633,0.0,1
1666651677.00002193,124964914,0,3,168495000,2233,8,1.33,42.7309795,-84.49041249999999,253.56,0.4283643662929535,14.879721641540527,0.38700002431869507,0.0,1
1666651677.19997787,125164870,0,3,168495200,2233,8,1.33,42.730979,-84.49041179999999,253.56,0.08927486091852188,85.50284576416016,0.24300001561641693,0.0,1
1666651677.40000892,125364901,0,3,168495400,2233,9,1.33,42.7309784,-84.4904116,253.62,0.17060187458992004,164.00845336914062,0.2510000169277191,0.0,1
1666651677.60004091,125564933,0,3,168495600,2233,11,1.33,42.7309771,-84.4904114,253.73000000000002,0.06352952122688293,331.8214111328125,0.20800000429153442,0.0,1
1666651677.80002475,125764917,0,3,168495800,2233,9,1.33,42.7309767,-84.49041129999999,253.74,0.29290443658828735,4.503724575042725,0.2150000035762787,0.0,1
1666651678.00005078,125964943,0,3,168496000,2233,10,1.09,42.7309756,-84.4904109,253.76000000000002,0.19067250192165375,94.81354522705078,0.12600000202655792,0.0,1
1666651678.20005178,126164944,0,3,168496200,2233,10,1.09,42.7309744,-84.49041009999999,253.73000000000002,0.3804103434085846,36.44816589355469,0.32600000500679016,0.0,1
1666651678.39999676,126364889,0,3,168496400,2233,10,1.09,42.7309729,-84.4904095,253.79,0.10778219252824783,297.04052734375,0.3440000116825104,0.0,1
1666651678.60000992,126564902,0,3,168496600,2233,9,1.09,42.7309711,-84.4904093,253.74,0.005385165102779865,248.1986083984375,0.2720000147819519,0.0,1
1666651678.79997587,126764868,0,3,168496800,2233,10,1.09,42.7309687,-84.4904092,253.84,0.010630146600306034,228.8140869140625,0.21300001442432404,0.0,1
1666651679.02003074,126984923,0,3,168497000,2233,10,1.01,42.730966099999996,-84.4904097,253.91,0.22192342579364777,38.78076934814453,0.19300000369548798,0.0,1
1666651679.19996786,127164860,0,3,168497200,2233,9,1.01,42.7309639,-84.4904104,253.97,0.40883252024650574,242.30674743652344,0.2590000033378601,0.0,1
1666651679.40001988,127364912,0,3,168497400,2233,9,1.01,42.730961799999996,-84.4904121,253.97,0.2364571988582611,261.73284912109375,0.4090000092983246,0.0,1
1666651679.60003495,127564927,0,3,168497600,2233,10,1.01,42.730959899999995,-84.49041319999999,253.91,0.16080112755298615,14.036242485046387,0.19200000166893005,0.0,1
1666651679.80001688,127764909,0,3,168497800,2233,11,1.01,42.730957599999996,-84.49041559999999,253.64000000000001,0.2575034201145172,19.983104705810547,0.3660000264644623,0.0,1
1666651680.00002384,127964916,0,3,168498000,2233,12,0.87,42.7309565,-84.4904162,253.76000000000002,0.11482595652341843,56.7251091003418,0.30900001525878906,0.0,1
1666651680.20005488,128164947,0,3,168498200,2233,12,0.87,42.7309562,-84.4904171,254.01000000000002,0.4184017479419708,37.03422164916992,0.26100000739097595,0.0,1
1666651680.39999890,128364891,0,3,168498400,2233,11,0.87,42.730956299999995,-84.49041749999999,254.34,0.32008907198905945,99.16803741455078,0.48000001907348633,0.0,1
1666651680.59994483,128564837,0,3,168498600,2233,11,0.87,42.730955,-84.4904182,254.62,0.1390863060951233,153.0664825439453,0.2630000114440918,0.0,1
1666651680.79998684,128764879,0,3,168498800,2233,11,0.87,42.730955,-84.4904196,254.83,0.81952303647995,307.86273193359375,0.3410000205039978,0.0,1
1666651680.99997687,128964869,0,3,168499000,2233,11,1.0,42.7309552,-84.4904231,254.98000000000002,1.4888805150985718,290.5650634765625,-0.07400000095367432,0.0,1
1666651681.20006180,129164954,0,3,168499200,2233,11,1.0,42.7309562,-84.49042539999999,255.55,0.33720025420188904,116.41305541992188,0.24700000882148743,0.0,1
1666651681.40000796,129364900,0,3,168499400,2233,12,1.0,42.7309555,-84.4904262,255.82,0.32061973214149475,326.0621337890625,0.242000013589859,0.0,1
1666651681.60002089,129564913,0,3,168499600,2233,11,1.0,42.7309566,-84.49042639999999,255.9,1.1746476888656616,358.09735107421875,0.42100003361701965,0.0,1
1666651681.80005383,129764946,0,3,168499800,2233,9,1.0,42.730958799999996,-84.490425,255.73000000000002,1.4863032102584839,28.272037506103516,0.5720000267028809,0.0,1
1666651682.00008082,129964973,0,3,168500000,2233,10,1.05,42.7309609,-84.490425,255.52,0.6210129261016846,0.3690497875213623,0.3660000264644623,0.0,1
1666651682.19996691,130164859,0,3,168500200,2233,11,1.05,42.7309631,-84.490425,255.70000000000002,0.5329502820968628,353.9684753417969,0.27800002694129944,0.0,1
1666651682.40003085,130364923,0,3,168500400,2233,10,1.05,42.730965499999996,-84.4904248,255.98000000000002,0.24781446158885956,312.05596923828125,0.1900000125169754,0.0,1
1666651682.60000896,130564901,0,3,168500600,2233,10,1.05,42.730967299999996,-84.4904281,256.12,0.5317386984825134,240.1081085205078,0.2200000137090683,0.0,1
1666651682.80000877,130764901,0,3,168500800,2233,10,1.05,42.7309677,-84.4904311,256.26,0.23467426002025604,240.3762664794922,0.19500000774860382,0.0,1
1666651682.99999881,130964891,0,3,168501000,2233,10,1.05,42.7309677,-84.49043549999999,256.65,0.685545027256012,3.8474316596984863,0.29100000858306885,0.0,1
1666651683.20004082,131164933,0,3,168501200,2233,11,1.05,42.730967799999995,-84.4904384,256.46,0.6485622525215149,267.61407470703125,0.5080000162124634,0.0,1
1666651683.40006375,131364956,0,3,168501400,2233,11,1.05,42.7309683,-84.4904421,256.53000000000003,0.28589510917663574,19.195465087890625,0.3620000183582306,0.0,1
1666651683.60003376,131564926,0,3,168501600,2233,11,1.05,42.7309701,-84.4904452,256.6,0.6359819769859314,15.78452205657959,0.5190000534057617,0.0,1
1666651683.80002284,131764915,0,3,168501800,2233,11,1.05,42.7309708,-84.490447,256.82,0.23820999264717102,195.08636474609375,0.281000018119812,0.0,1
1666651684.00001574,131964908,0,3,168502000,2233,11,1.05,42.7309704,-84.4904497,256.85,0.8443341255187988,251.7796630859375,0.46800002455711365,0.0,1
1666651684.20005679,132164949,0,3,168502200,2233,11,1.05,42.7309694,-84.49045149999999,256.78000000000003,0.0786447748541832,228.6084747314453,0.2630000114440918,0.0,1
1666651684.40001392,132364906,0,3,168502400,2233,10,1.05,42.7309702,-84.49045149999999,256.82,1.2141309976577759,28.697078704833984,0.3580000102519989,0.0,1
1666651684.59999895,132564891,0,3,168502600,2233,9,1.05,42.7309713,-84.4904512,256.97,1.0009181499481201,81.14938354492188,0.052000001072883606,0.0,1
1666651684.80003691,132764929,0,3,168502800,2233,9,1.05,42.7309723,-84.49045029999999,257.31,0.6408275961875916,46.39101028442383,-0.20000000298023224,0.0,1
1666651684.99998379,132964876,0,3,168503000,2233,10,0.97,42.7309717,-84.49044889999999,257.6,0.5840591192245483,94.81251525878906,0.1210000067949295,0.0,1
1666651685.20003796,133164930,0,3,168503200,2233,11,0.97,42.730971499999995,-84.4904482,257.62,0.5447531938552856,62.682334899902344,-0.13700000941753387,0.0,1
1666651685.40007591,133364968,0,3,168503400,2233,12,0.97,42.730971499999995,-84.49044909999999,257.81,0.35106268525123596,96.21401977539062,0.4320000112056732,0.0,1
1666651685.60000491,133564897,0,3,168503600,2233,12,0.97,42.7309731,-84.4904521,258.28000000000003,0.4023555815219879,355.2955017089844,0.2600000202655792,0.0,1
1666651685.79999995,133764892,0,3,168503800,2233,11,0.97,42.7309732,-84.4904531,258.42,0.44120293855667114,52.92232131958008,0.3840000033378601,0.0,1
1666651686.00002885,133964921,0,3,168504000,2233,11,1.01,42.730972699999995,-84.4904531,258.4,0.3290289044380188,32.3376350402832,0.3440000116825104,0.0,1
1666651686.20000482,134164897,0,3,168504200,2233,11,1.01,42.7309717,-84.4904526,258.2,0.5152281522750854,49.88118362426758,0.32200002670288086,0.0,1
1666651686.40002990,134364922,0,3,168504400,2233,10,1.01,42.7309725,-84.4904523,257.95,0.637952983379364,25.03859519958496,0.5380000472068787,0.0,1
1666651686.60005474,134564947,0,3,168504600,2233,12,1.01,42.730972,-84.4904509,258.26,0.5092946290969849,7.445957660675049,0.25,0.0,1
1666651686.80000687,134764899,0,3,168504800,2233,11,1.01,42.730973399999996,-84.49045249999999,258.36,0.3650164306163788,165.88760375976562,0.09700000286102295,0.0,1
1666651687.00003481,134964927,0,3,168505000,2233,12,0.87,42.7309716,-84.49045149999999,258.55,0.17580103874206543,25.25316047668457,0.0690000057220459,0.0,1
1666651687.20003986,135164932,0,3,168505200,2233,11,0.87,42.730971499999995,-84.4904522,258.28000000000003,0.28696516156196594,16.60362434387207,0.058000002056360245,0.0,1
1666651687.40000677,135364899,0,3,168505400,2233,11,0.87,42.7309716,-84.49045389999999,258.08,0.17255724966526031,45.939186096191406,0.13600000739097595,0.0,1
1666651687.60003781,135564930,0,3,168505600,2233,11,0.87,42.7309704,-84.490456,258.02,0.06545991450548172,288.71173095703125,0.17900000512599945,0.0,1
1666651687.80004597,135764938,0,3,168505800,2233,10,0.87,42.7309694,-84.4904579,257.84000000000003,0.16304908692836761,248.785888671875,0.11400000751018524,0.0,1
1666651688.02001476,135984907,0,3,168506000,2233,12,0.87,42.730968,-84.4904607,257.62,0.15420766174793243,226.57655334472656,0.08900000154972076,0.0,1
1666651688.20004177,136164934,0,3,168506200,2233,11,0.87,42.7309656,-84.490462,257.39,0.2135884016752243,226.13818359375,0.10600000619888306,0.0,1
1666651688.40005088,136364943,0,3,168506400,2233,11,0.87,42.7309635,-84.4904632,257.16,0.44887641072273254,222.11056518554688,-0.032999999821186066,0.0,1
1666651688.60003686,136564929,0,3,168506600,2233,12,0.87,42.7309625,-84.4904645,257.0,0.5425062775611877,205.90380859375,0.11100000888109207,0.0,1
1666651688.80003881,136764931,0,3,168506800,2233,12,0.87,42.730961699999995,-84.49046609999999,256.82,0.3814079463481903,260.3401184082031,0.11300000548362732,0.0,1
1666651689.00003195,136964924,0,3,168507000,2233,12,0.87,42.7309609,-84.49046799999999,256.53000000000003,0.2842710018157959,225.57009887695312,0.0860000029206276,0.0,1
1666651689.20010376,137164996,0,3,168507200,2233,12,0.87,42.7309601,-84.49046899999999,256.49,0.2608601450920105,234.36019897460938,0.07400000095367432,0.0,1
1666651689.40005374,137364946,0,3,168507400,2233,9,0.87,42.7309591,-84.4904691,256.24,0.27475446462631226,239.60845947265625,0.29100000858306885,0.0,1
1666651689.59996295,137564855,0,3,168507600,2233,11,0.87,42.730958099999995,-84.4904713,255.96,0.8297234773635864,171.68434143066406,0.18400001525878906,0.0,1
1666651689.80000186,137764894,0,3,168507800,2233,10,0.87,42.7309564,-84.490473,255.91,0.6291486620903015,245.3902587890625,0.6260000467300415,0.0,1
1666651690.00000691,137964899,0,3,168508000,2233,10,1.17,42.7309561,-84.49047709999999,255.77,1.083901286125183,282.3052062988281,0.6110000014305115,0.0,1
1666651690.20003295,138164925,0,3,168508200,2233,11,1.17,42.730954499999996,-84.49047999999999,255.74,1.342812418937683,158.68983459472656,0.2990000247955322,0.0,1
1666651690.40008473,138364977,0,3,168508400,2233,11,1.17,42.7309531,-84.49048119999999,256.11,0.45707330107688904,167.36241149902344,0.40300002694129944,0.0,1
1666651690.60003877,138564931,0,3,168508600,2233,9,1.17,42.7309542,-84.49048379999999,256.5,0.44650760293006897,294.900634765625,0.37800002098083496,0.0,1
1666651690.80002189,138764914,0,3,168508800,2233,10,1.17,42.730954499999996,-84.4904847,256.81,0.6886980533599854,235.70999145507812,0.5530000329017639,0.0,1
1666651691.00006175,138964954,0,3,168509000,2233,11,1.17,42.7309542,-84.4904849,257.06,0.4652418792247772,231.28250122070312,0.25600001215934753,0.0,1
1666651691.19996190,139164854,0,3,168509200,2233,10,1.17,42.730953899999996,-84.4904847,257.28000000000003,0.5235275030136108,203.52911376953125,0.19200000166893005,0.0,1
1666651691.40007997,139364972,0,3,168509400,2233,11,1.17,42.7309524,-84.4904833,257.81,0.6533269286155701,189.69300842285156,0.06400000303983688,0.0,1
1666651691.59996986,139564862,0,3,168509600,2233,12,1.17,42.7309523,-84.49048359999999,257.75,0.015620499849319458,219.8055877685547,0.1850000023841858,0.0,1
1666651691.80001378,139764906,0,3,168509800,2233,12,1.17,42.7309518,-84.4904823,257.91,0.14165098965168,255.27703857421875,0.15400001406669617,0.0,1
1666651692.00000286,139964895,0,3,168510000,2233,12,0.87,42.730951,-84.4904804,258.19,0.14534442126750946,77.68497467041016,0.18200001120567322,0.0,1
1666651692.20003581,140164928,0,3,168510200,2233,11,0.87,42.7309505,-84.4904786,258.67,0.13473306596279144,348.43988037109375,0.1510000079870224,0.0,1
1666651692.40002394,140364916,0,3,168510400,2233,11,0.87,42.7309505,-84.49047809999999,258.97,0.18278129398822784,56.83157730102539,0.10700000822544098,0.0,1
1666651692.60002995,140564922,0,3,168510600,2233,12,0.87,42.7309504,-84.4904813,258.76,0.08309633284807205,39.62900161743164,0.05000000074505806,0.0,1
1666651692.80004978,140764942,0,3,168510800,2233,12,0.87,42.7309504,-84.4904823,258.76,0.09513149410486221,86.9872055053711,0.11800000816583633,0.0,1
1666651693.00000978,140964902,0,3,168511000,2233,12,0.87,42.7309498,-84.4904828,258.79,0.12941792607307434,45.939186096191406,0.09200000762939453,0.0,1
1666651693.19993782,141164830,0,3,168511200,2233,12,0.87,42.7309492,-84.490484,258.64,0.07962411642074585,101.5921630859375,0.14900000393390656,0.0,1
1666651693.40001297,141364905,0,3,168511400,2233,12,0.87,42.7309482,-84.4904854,258.37,0.12184006720781326,106.20376586914062,0.22600001096725464,0.0,1
1666651693.60002089,141564913,0,3,168511600,2233,11,0.87,42.730948,-84.49048669999999,258.18,0.13029198348522186,17.87869644165039,0.1980000138282776,0.0,1
1666651693.80005383,141764946,0,3,168511800,2233,11,0.87,42.7309479,-84.4904877,258.05,0.19748924672603607,23.579540252685547,0.12700000405311584,0.0,1
1666651694.00003076,141964923,0,3,168512000,2233,11,1.0,42.7309479,-84.490488,258.04,0.005000000353902578,180.0,0.13600000739097595,0.0,1
1666651694.20003796,142164930,0,3,168512200,2233,12,1.0,42.7309476,-84.4904877,258.03000000000003,0.13154847919940948,5.233860969543457,0.021000001579523087,0.0,1
1666651694.40005088,142364943,0,3,168512400,2233,12,1.0,42.7309476,-84.490487,258.03000000000003,0.14641380310058594,43.616310119628906,0.04700000211596489,0.0,1
1666651694.60003495,142564927,0,3,168512600,2233,12,1.0,42.7309479,-84.4904865,257.95,0.020024985074996948,2.8624048233032227,0.1720000058412552,0.0,1
1666651694.79998493,142764877,0,3,168512800,2233,12,1.0,42.730948399999996,-84.49048619999999,257.99,0.3468731939792633,354.0428771972656,0.18300001323223114,0.0,1
1666651695.00003695,142964929,0,3,168513000,2233,12,0.87,42.7309488,-84.49048619999999,257.96,0.22897380590438843,333.5468444824219,0.27000001072883606,0.0,1
1666651695.20004892,143164941,0,3,168513200,2233,12,0.87,42.7309493,-84.4904858,257.83,0.33160218596458435,343.5324401855469,0.17400000989437103,0.0,1
1666651695.40001583,143364908,0,3,168513400,2233,12,0.87,42.7309511,-84.49048619999999,257.98,0.18681809306144714,352.0000305175781,0.23100000619888306,0.0,1
1666651695.60001373,143564906,0,3,168513600,2233,11,0.87,42.730952699999996,-84.4904866,258.05,0.26636067032814026,349.6181945800781,0.2070000171661377,0.0,1
1666651695.80003691,143764929,0,3,168513800,2233,11,0.87,42.7309542,-84.4904873,258.08,0.3160000145435333,0.0,0.2930000126361847,0.0,1
1666651696.00005579,143964948,0,3,168514000,2233,12,0.87,42.7309552,-84.4904873,258.28000000000003,0.18428783118724823,48.96030807495117,0.21900001168251038,0.0,1
1666651696.20003986,144164932,0,3,168514200,2233,12,0.87,42.730955099999996,-84.4904873,258.64,0.28658682107925415,162.95606994628906,0.06200000271201134,0.0,1
1666651696.39998984,144364882,0,3,168514400,2233,12,0.87,42.7309541,-84.4904864,258.96,0.08839117735624313,111.92176818847656,0.32600000500679016,0.0,1
1666651696.59999585,144564888,0,3,168514600,2233,10,0.87,42.730953199999995,-84.4904851,259.28000000000003,0.19851700961589813,158.7345428466797,0.320000022649765,0.0,1
1666651696.80001593,144764908,0,3,168514800,2233,11,0.87,42.730952599999995,-84.49048379999999,259.69,0.18852056562900543,48.871253967285156,0.37300002574920654,0.0,1
1666651697.01999474,144984887,0,3,168515000,2233,11,1.0,42.7309519,-84.49048259999999,260.19,0.189169242978096,177.5762176513672,0.3630000054836273,0.0,1
1666651697.20005894,145164951,0,3,168515200,2233,11,1.0,42.730951,-84.490482,260.71,0.2478911280632019,191.40060424804688,0.18800000846385956,0.0,1
1666651697.40004873,145364941,0,3,168515400,2233,11,1.0,42.730950199999995,-84.4904809,260.95,0.19751709699630737,55.103031158447266,0.27300000190734863,0.0,1
1666651697.60007691,145564969,0,3,168515600,2233,11,1.0,42.7309497,-84.49047999999999,260.94,0.2690817713737488,67.7240982055664,0.25,0.0,1
1666651697.80001473,145764907,0,3,168515800,2233,11,1.0,42.7309501,-84.490479,261.03000000000003,0.37384623289108276,279.2355651855469,0.37700000405311584,0.0,1
1666651698.00007582,145964968,0,3,168516000,2233,11,1.0,42.7309504,-84.49047829999999,261.04,0.268477201461792,356.5834045410156,0.36500000953674316,0.0,1
1666651698.20001078,146164903,0,3,168516200,2233,11,1.0,42.7309507,-84.4904768,261.08,0.4352390170097351,96.994384765625,-0.06000000238418579,0.0,1
1666651698.40001583,146364908,0,3,168516400,2233,11,1.0,42.7309501,-84.4904747,261.17,0.20467780530452728,80.72175598144531,0.17800000309944153,0.0,1
1666651698.59998178,146564874,0,3,168516600,2233,12,1.0,42.730949599999995,-84.4904731,261.45,0.31759095191955566,40.91438293457031,0.15900000929832458,0.0,1
1666651698.80004478,146764937,0,3,168516800,2233,12,1.0,42.7309493,-84.4904722,261.57,0.16956710815429688,352.20440673828125,0.1900000125169754,0.0,1
1666651699.00001383,146964906,0,3,168517000,2233,12,0.85,42.7309487,-84.4904723,261.56,0.20380628108978271,53.57990646362305,0.08900000154972076,0.0,1
1666651699.20007896,147164971,0,3,168517200,2233,12,0.85,42.7309482,-84.4904724,261.61,0.19380660355091095,53.60311508178711,0.15900000929832458,0.0,1
1666651699.40003181,147364924,0,3,168517400,2233,12,0.85,42.7309479,-84.4904729,261.7,0.05824946239590645,124.5085220336914,0.10400000214576721,0.0,1
1666651699.59999990,147564892,0,3,168517600,2233,12,0.85,42.7309479,-84.490473,261.73,0.02340940199792385,19.983104705810547,0.15400001406669617,0.0,1
1666651699.80001187,147764904,0,3,168517800,2233,12,0.85,42.7309479,-84.49047279999999,261.84000000000003,0.0799812525510788,42.466434478759766,0.06599999964237213,0.0,1
1666651700.00002193,147964914,0,3,168518000,2233,12,0.85,42.7309481,-84.49047329999999,261.93,0.397020161151886,343.16253662109375,0.22800001502037048,0.0,1
1666651700.19999075,148164883,0,3,168518200,2233,12,0.85,42.7309483,-84.4904739,262.06,0.19609437882900238,21.855667114257812,-0.014000000432133675,0.0,1
1666651700.40001988,148364912,0,3,168518400,2233,12,0.85,42.730948,-84.49047589999999,262.16,0.277200311422348,216.7872314453125,0.08800000697374344,0.0,1
1666651700.59995484,148564847,0,3,168518600,2233,12,0.85,42.730947099999995,-84.49047759999999,262.21,0.3271161913871765,237.8646697998047,0.2800000011920929,0.0,1
1666651700.80004478,148764937,0,3,168518800,2233,11,0.85,42.730946599999996,-84.4904784,262.26,0.2030886560678482,42.8050651550293,0.05100000277161598,0.0,1
1666651701.00002694,148964919,0,3,168519000,2233,9,1.29,42.730947199999996,-84.4904791,262.25,0.397940993309021,10.71694564819336,0.21900001168251038,0.0,1
1666651701.20000386,149164896,0,3,168519200,2233,11,1.29,42.7309473,-84.4904799,262.49,0.08429116755723953,311.633544921875,0.0430000014603138,0.0,1
1666651701.40007782,149364970,0,3,168519400,2233,8,1.29,42.730947799999996,-84.4904801,262.66,0.07366139441728592,138.30184936523438,0.029000001028180122,0.0,1
1666651701.60005188,149564944,0,3,168519600,2233,9,1.29,42.7309489,-84.49048119999999,262.69,0.0468188039958477,199.9831085205078,0.023000001907348633,0.0,1
1666651701.80006981,149764962,0,3,168519800,2233,10,1.29,42.730950799999995,-84.49048289999999,262.81,0.3660013973712921,317.7684326171875,0.010000000707805157,0.0,1
1666651702.00001979,149964912,0,3,168520000,2233,11,0.93,42.730951499999996,-84.49048479999999,262.91,0.2652112543582916,242.85525512695312,-0.03700000047683716,0.0,1
1666651702.20003676,150164929,0,3,168520200,2233,11,0.93,42.7309517,-84.4904854,262.93,0.03920459374785423,127.74679565429688,-0.11600000411272049,0.0,1
1666651702.40004182,150364934,0,3,168520400,2233,10,0.93,42.7309523,-84.49048549999999,263.01,0.13319535553455353,347.4245300292969,-0.012000000104308128,0.0,1
1666651702.59997988,150564872,0,3,168520600,2233,10,0.93,42.730953199999995,-84.4904882,263.06,0.17715813219547272,30.908287048339844,0.017000000923871994,0.0,1
1666651702.80002689,150764919,0,3,168520800,2233,11,0.93,42.730955099999996,-84.4904918,263.17,0.12106610089540482,91.89337921142578,-0.003000000026077032,0.0,1
1666651703.00007987,150964972,0,3,168521000,2233,11,0.91,42.7309565,-84.4904938,263.12,0.26722651720046997,31.846290588378906,0.0,0.0,1
1666651703.20005393,151164946,0,3,168521200,2233,11,0.91,42.7309565,-84.4904949,263.11,0.45328250527381897,167.77281188964844,-0.10300000756978989,0.0,1
1666651703.40000892,151364901,0,3,168521400,2233,11,0.91,42.7309558,-84.490496,263.26,0.4045899212360382,168.88446044921875,-0.0430000014603138,0.0,1
1666651703.60002995,151564922,0,3,168521600,2233,11,0.91,42.730957,-84.4904974,263.66,0.21418917179107666,20.211647033691406,-0.10200000554323196,0.0,1
1666651703.79998684,151764879,0,3,168521800,2233,11,0.91,42.7309583,-84.4904991,263.55,0.6245414614677429,295.00579833984375,0.4830000102519989,0.0,1
1666651704.00001979,151964912,0,3,168522000,2233,10,1.05,42.730959,-84.4905004,263.8,0.046861499547958374,50.194427490234375,0.11700000613927841,0.0,1
1666651704.19997287,152164865,0,3,168522200,2233,11,1.05,42.7309586,-84.49050079999999,264.09000000000003,0.07766595482826233,325.4914855957031,0.15800000727176666,0.0,1
1666651704.39999890,152364891,0,3,168522400,2233,10,1.05,42.7309595,-84.49050129999999,264.3,0.6146495342254639,37.597007751464844,-0.01600000075995922,0.0,1
1666651704.60007596,152564968,0,3,168522600,2233,11,1.05,42.7309608,-84.4905026,264.15,0.058523502200841904,303.1470031738281,-0.003000000026077032,0.0,1
1666651704.80006075,152764953,0,3,168522800,2233,11,1.05,42.730961699999995,-84.49050439999999,263.97,0.10900459438562393,269.474365234375,0.13600000739097595,0.0,1
1666651705.00006986,152964962,0,3,168523000,2233,11,1.05,42.7309615,-84.4905055,264.03000000000003,0.13313527405261993,272.5830078125,0.021000001579523087,0.0,1
1666651705.20000386,153164896,0,3,168523200,2233,11,1.05,42.7309614,-84.4905064,264.07,0.015231546945869923,336.8014221191406,0.01900000125169754,0.0,1
1666651705.40007496,153364967,0,3,168523400,2233,11,1.05,42.7309613,-84.4905072,264.24,0.0786447748541832,138.60845947265625,-0.013000000268220901,0.0,1
1666651705.59995174,153564844,0,3,168523600,2233,10,1.05,42.7309608,-84.49050749999999,264.41,0.07470609247684479,242.0628662109375,0.027000000700354576,0.0,1
1666651705.79999495,153764887,0,3,168523800,2233,11,1.05,42.7309591,-84.490509,264.46,0.2241896688938141,212.0595703125,0.11400000751018524,0.0,1
1666651705.99999785,153964890,0,3,168524000,2233,12,1.05,42.730958199999996,-84.49051109999999,264.7,0.24346253275871277,202.45693969726562,0.13500000536441803,0.0,1
1666651706.20005393,154164946,0,3,168524200,2233,12,0.85,42.7309566,-84.4905169,264.88,0.4196093678474426,194.6323699951172,0.05000000074505806,0.0,1
1666651706.39999676,154364889,0,3,168524400,2233,11,0.85,42.730955,-84.49052069999999,265.12,0.36156606674194336,173.1697998046875,-0.06400000303983688,0.0,1
1666651706.60009575,154564988,0,3,168524600,2233,9,0.85,42.7309541,-84.49052259999999,264.96,0.2813059091567993,188.79263305664062,0.2710000276565552,0.0,1
1666651706.80004883,154764941,0,3,168524800,2233,9,0.85,42.7309553,-84.490524,265.07,0.193545863032341,23.120847702026367,0.0820000022649765,0.0,1
1666651707.00006580,154964958,0,3,168525000,2233,8,1.46,42.7309564,-84.4905252,265.21,0.6742002964019775,244.99339294433594,0.26500001549720764,0.0,1
1666651707.20003176,155164924,0,3,168525200,2233,9,1.46,42.7309561,-84.4905266,265.2,0.2352381944656372,243.76174926757812,0.20600001513957977,0.0,1
1666651707.39999080,155364883,0,3,168525400,2233,9,1.46,42.730955099999996,-84.4905271,265.21,0.9171854257583618,150.97572326660156,0.046000003814697266,0.0,1
1666651707.60002685,155564919,0,3,168525600,2233,10,1.46,42.730953299999996,-84.49052909999999,265.22,0.5545493960380554,116.79606628417969,-0.0690000057220459,0.0,1
1666651707.80003595,155764928,0,3,168525800,2233,9,1.46,42.7309522,-84.4905318,265.21,0.26748645305633545,215.41317749023438,0.06200000271201134,0.0,1
1666651707.99998093,155964873,0,3,168526000,2233,8,1.37,42.7309517,-84.49053459999999,265.04,0.47280970215797424,220.96932983398438,0.16700001060962677,0.0,1
1666651708.20004582,156164938,0,3,168526200,2233,8,1.37,42.730950799999995,-84.4905355,264.93,0.5135698914527893,147.88818359375,0.164000004529953,0.0,1
1666651708.40003896,156364931,0,3,168526400,2233,9,1.37,42.7309495,-84.4905356,265.46,0.24645690619945526,148.4381866455078,0.04700000211596489,0.0,1
1666651708.60003090,156564923,0,3,168526600,2233,9,1.37,42.7309491,-84.49053579999999,265.96,0.19469976425170898,123.6900634765625,0.07800000160932541,0.0,1
