timestamp,TimeUS,Lat,Lng,Alt,RelHomeAlt,RelOriginAlt
1666651573.80037284,21765265,42.7308849,-84.4904588,238.67999267578125,0.19780036807060242,0.28980815410614014
1666651573.82047796,21785370,42.730884499999995,-84.4904584,238.8699951171875,-0.005651439074426889,0.26147744059562683
1666651573.84090781,21805800,42.730884499999995,-84.4904584,238.8699951171875,-0.005651439074426889,0.23671089112758636
1666651573.88081193,21845704,42.730884499999995,-84.4904584,238.8699951171875,-0.005651439074426889,0.20604443550109863
1666651573.92044091,21885333,42.730884499999995,-84.4904584,238.8699951171875,0.12433166056871414,0.18013110756874084
1666651573.92053175,21885424,42.730884499999995,-84.4904584,238.8699951171875,0.12433166056871414,0.18013110756874084
1666651573.96032691,21925219,42.730884499999995,-84.4904584,238.8699951171875,0.12433166056871414,0.15823757648468018
1666651574.00026393,21965156,42.730884499999995,-84.4904584,238.8699951171875,0.12433166056871414,0.13962522149085999
1666651574.02053380,21985426,42.730884499999995,-84.4904584,238.8699951171875,0.02825719490647316,0.1283661127090454
1666651574.04054785,22005440,42.730883999999996,-84.4904579,239.08999633789062,0.02825719490647316,0.11831148713827133
1666651574.08063388,22045526,42.730883999999996,-84.4904579,239.08999633789062,0.02825719490647316,0.1070268377661705
1666651574.12048197,22085374,42.730883999999996,-84.4904579,239.08999633789062,-0.03390863537788391,0.09819576889276505
1666651574.12058687,22085479,42.730883999999996,-84.4904579,239.08999633789062,-0.03390863537788391,0.09819576889276505
1666651574.16056180,22125454,42.730883999999996,-84.4904579,239.08999633789062,-0.03390863537788391,0.09112264215946198
1666651574.20027089,22165163,42.730883999999996,-84.4904579,239.08999633789062,-0.03390863537788391,0.08544491976499557
1666651574.22050881,22185401,42.730883999999996,-84.49045749999999,239.3199920654297,0.0875973030924797,0.08184737712144852
1666651574.24061894,22205511,42.730883999999996,-84.49045749999999,239.3199920654297,0.0875973030924797,0.07875851541757584
1666651574.28060484,22245497,42.730883999999996,-84.49045749999999,239.3199920654297,0.0875973030924797,0.07531580328941345
1666651574.32057190,22285464,42.730883999999996,-84.49045749999999,239.3199920654297,0.1638917326927185,0.07250302284955978
1666651574.32063580,22285528,42.730883999999996,-84.49045749999999,239.3199920654297,0.1638917326927185,0.07250302284955978
1666651574.36034489,22325237,42.730883999999996,-84.49045749999999,239.3199920654297,0.1638917326927185,0.0706801488995552
1666651574.40030980,22365202,42.730883999999996,-84.49045749999999,239.3199920654297,0.1638917326927185,0.07004114240407944
1666651574.42046785,22385360,42.7308837,-84.4904569,239.52999877929688,0.0028257195372134447,0.06940664350986481
1666651574.44058776,22405480,42.7308837,-84.4904569,239.52999877929688,0.0028257195372134447,0.06899598985910416
1666651574.48058295,22445475,42.7308837,-84.4904569,239.52999877929688,0.0028257195372134447,0.07049668580293655
1666651574.52052474,22485417,42.7308837,-84.4904569,239.52999877929688,0.30800342559814453,0.07285109162330627
1666651574.52063584,22485528,42.7308837,-84.4904569,239.52999877929688,0.30800342559814453,0.07285109162330627
1666651574.56033993,22525232,42.7308837,-84.4904569,239.52999877929688,0.30800342559814453,0.07547282427549362
1666651574.60031676,22565209,42.7308837,-84.4904569,239.52999877929688,0.30800342559814453,0.07736337184906006
1666651574.62049890,22585391,42.7308836,-84.4904562,239.77999877929688,0.10455162078142166,0.07823751121759415
1666651574.64058685,22605479,42.7308836,-84.4904562,239.77999877929688,0.10455162078142166,0.07924474030733109
1666651574.68049479,22645387,42.7308836,-84.4904562,239.77999877929688,0.10455162078142166,0.0835949257016182
1666651574.72068191,22685574,42.7308836,-84.4904562,239.77999877929688,0.17236889898777008,0.0887741819024086
1666651574.72077584,22685668,42.7308836,-84.4904562,239.77999877929688,0.17236889898777008,0.0887741819024086
1666651574.76035476,22725247,42.7308836,-84.4904562,239.77999877929688,0.17236889898777008,0.09397470206022263
1666651574.80036592,22765258,42.7308836,-84.4904562,239.77999877929688,0.17236889898777008,0.0990278497338295
1666651574.82051873,22785411,42.730883399999996,-84.49045559999999,240.02999877929688,0.0,0.10170678794384003
1666651574.84059095,22805483,42.730883399999996,-84.49045559999999,240.02999877929688,0.0,0.10447009652853012
1666651574.88061976,22845512,42.730883399999996,-84.49045559999999,240.02999877929688,0.0,0.10980432480573654
1666651574.92046881,22885361,42.730883399999996,-84.49045559999999,240.02999877929688,0.23453472554683685,0.11531218141317368
1666651574.92060089,22885493,42.730883399999996,-84.49045559999999,240.02999877929688,0.23453472554683685,0.11531218141317368
1666651574.96034884,22925241,42.730883399999996,-84.49045559999999,240.02999877929688,0.23453472554683685,0.12070728093385696
1666651575.00035977,22965252,42.730883399999996,-84.49045559999999,240.02999877929688,0.23453472554683685,0.12459162622690201
1666651575.02046990,22985362,42.7308832,-84.4904549,240.2899932861328,0.0,0.12654975056648254
1666651575.04057288,23005465,42.7308832,-84.4904549,240.2899932861328,0.0,0.12854565680027008
1666651575.08063579,23045528,42.7308832,-84.4904549,240.2899932861328,0.0,0.1332651525735855
1666651575.12038994,23085282,42.7308832,-84.4904549,240.2899932861328,-0.12433166056871414,0.1383686065673828
1666651575.12052274,23085415,42.7308832,-84.4904549,240.2899932861328,-0.12433166056871414,0.1383686065673828
1666651575.16059995,23125492,42.7308832,-84.4904549,240.2899932861328,-0.12433166056871414,0.14337728917598724
1666651575.20041180,23165304,42.7308832,-84.4904549,240.2899932861328,-0.12433166056871414,0.14669515192508698
1666651575.22049689,23185389,42.7308831,-84.4904542,240.5699920654297,0.15824028849601746,0.14832304418087006
1666651575.24059582,23205488,42.7308831,-84.4904542,240.5699920654297,0.15824028849601746,0.15000896155834198
1666651575.28055692,23245449,42.7308831,-84.4904542,240.5699920654297,0.15824028849601746,0.15158335864543915
1666651575.32046080,23285353,42.7308831,-84.4904542,240.5699920654297,0.2514890432357788,0.1525000035762787
1666651575.32057881,23285471,42.7308831,-84.4904542,240.5699920654297,0.2514890432357788,0.1525000035762787
1666651575.36028576,23325178,42.7308831,-84.4904542,240.5699920654297,0.2514890432357788,0.1537342071533203
1666651575.40034389,23365236,42.7308831,-84.4904542,240.5699920654297,0.2514890432357788,0.1554497629404068
1666651575.42046475,23385357,42.730882699999995,-84.4904536,240.80999755859375,0.1949746459722519,0.15618059039115906
1666651575.44065785,23405550,42.730882699999995,-84.4904536,240.80999755859375,0.1949746459722519,0.1569286584854126
1666651575.48058581,23445478,42.730882699999995,-84.4904536,240.80999755859375,0.1949746459722519,0.16000989079475403
1666651575.52049375,23485386,42.730882699999995,-84.4904536,240.80999755859375,0.008477158844470978,0.1634560078382492
1666651575.52055693,23485449,42.730882699999995,-84.4904536,240.80999755859375,0.008477158844470978,0.1634560078382492
1666651575.56040692,23525299,42.730882699999995,-84.4904536,240.80999755859375,0.008477158844470978,0.16703295707702637
1666651575.60028887,23565181,42.730882699999995,-84.4904536,240.80999755859375,0.008477158844470978,0.1709008812904358
1666651575.62084389,23585736,42.7308826,-84.4904531,241.09999084472656,0.07064298540353775,0.17294654250144958
1666651575.64060593,23605498,42.7308826,-84.4904531,241.09999084472656,0.07064298540353775,0.17491400241851807
1666651575.68058681,23645479,42.7308826,-84.4904531,241.09999084472656,0.07064298540353775,0.17768597602844238
1666651575.72056794,23685460,42.7308826,-84.4904531,241.09999084472656,0.28822338581085205,0.18004168570041656
1666651575.72063088,23685523,42.7308826,-84.4904531,241.09999084472656,0.28822338581085205,0.18004168570041656
1666651575.76028180,23725174,42.7308826,-84.4904531,241.09999084472656,0.28822338581085205,0.1826021373271942
1666651575.80039787,23765290,42.7308826,-84.4904531,241.09999084472656,0.28822338581085205,0.18417352437973022
1666651575.82052779,23785420,42.7308825,-84.4904524,241.4099884033203,0.18932320177555084,0.18478704988956451
1666651575.84059095,23805483,42.7308825,-84.4904524,241.4099884033203,0.18932320177555084,0.18551494181156158
1666651575.88055396,23845446,42.7308825,-84.4904524,241.4099884033203,0.18932320177555084,0.1884804368019104
1666651575.92056680,23885459,42.7308825,-84.4904524,241.4099884033203,0.1299830973148346,0.19188149273395538
1666651575.92063093,23885523,42.7308825,-84.4904524,241.4099884033203,0.1299830973148346,0.19188149273395538
1666651575.96035695,23925249,42.7308825,-84.4904524,241.4099884033203,0.1299830973148346,0.19538742303848267
1666651576.00031781,23965210,42.7308825,-84.4904524,241.4099884033203,0.1299830973148346,0.19887612760066986
1666651576.02049875,23985391,42.7308825,-84.4904524,241.4099884033203,0.28822338581085205,0.2006252557039261
1666651576.04053187,24005424,42.730882199999996,-84.4904521,241.62998962402344,0.28822338581085205,0.202400341629982
1666651576.08062196,24045514,42.730882199999996,-84.4904521,241.62998962402344,0.28822338581085205,0.20546184480190277
1666651576.12050486,24085397,42.730882199999996,-84.4904521,241.62998962402344,0.33060917258262634,0.20843768119812012
1666651576.12061286,24085505,42.730882199999996,-84.4904521,241.62998962402344,0.33060917258262634,0.20843768119812012
1666651576.16058993,24125482,42.730882199999996,-84.4904521,241.62998962402344,0.33060917258262634,0.2115372270345688
1666651576.20033979,24165232,42.730882199999996,-84.4904521,241.62998962402344,0.33060917258262634,0.21554729342460632
1666651576.22053480,24185427,42.7308818,-84.4904517,241.84999084472656,0.282571941614151,0.21761655807495117
1666651576.24056077,24205453,42.7308818,-84.4904517,241.84999084472656,0.282571941614151,0.21964144706726074
1666651576.28065395,24245546,42.7308818,-84.4904517,241.84999084472656,0.282571941614151,0.22439530491828918
1666651576.32050776,24285400,42.7308818,-84.4904517,241.84999084472656,0.16954317688941956,0.22943343222141266
1666651576.32057190,24285464,42.7308818,-84.4904517,241.84999084472656,0.16954317688941956,0.22943343222141266
1666651576.36024380,24325136,42.7308818,-84.4904517,241.84999084472656,0.16954317688941956,0.2343733012676239
1666651576.40040779,24365300,42.7308818,-84.4904517,241.84999084472656,0.16954317688941956,0.23960432410240173
1666651576.42049575,24385388,42.730881499999995,-84.4904512,242.08999633789062,0.14693741500377655,0.2424398511648178
1666651576.44054794,24405440,42.730881499999995,-84.4904512,242.08999633789062,0.14693741500377655,0.24522531032562256
1666651576.48065495,24445547,42.730881499999995,-84.4904512,242.08999633789062,0.14693741500377655,0.24969829618930817
1666651576.52055693,24485449,42.730881499999995,-84.4904512,242.08999633789062,0.31930631399154663,0.2538400888442993
1666651576.52067089,24485563,42.730881499999995,-84.4904512,242.08999633789062,0.31930631399154663,0.2538400888442993
1666651576.56023383,24525126,42.730881499999995,-84.4904512,242.08999633789062,0.31930631399154663,0.258076936006546
1666651576.60039878,24565291,42.730881499999995,-84.4904512,242.08999633789062,0.31930631399154663,0.2611324191093445
1666651576.62076688,24585659,42.7308812,-84.4904507,242.27999877929688,0.0762944296002388,0.2626400589942932
1666651576.64061379,24605506,42.7308812,-84.4904507,242.27999877929688,0.0762944296002388,0.2641955018043518
1666651576.68051577,24645408,42.7308812,-84.4904507,242.27999877929688,0.0762944296002388,0.26795172691345215
1666651576.72049880,24685391,42.7308812,-84.4904507,242.27999877929688,-0.1412859708070755,0.27188369631767273
1666651576.72057676,24685469,42.7308812,-84.4904507,242.27999877929688,-0.1412859708070755,0.27188369631767273
1666651576.76031184,24725204,42.7308812,-84.4904507,242.27999877929688,-0.1412859708070755,0.2758309543132782
1666651576.80035496,24765247,42.7308812,-84.4904507,242.27999877929688,-0.1412859708070755,0.2779712378978729
1666651576.82068586,24785578,42.7308837,-84.4904488,242.9199981689453,0.16954317688941956,0.278865247964859
1666651576.84063387,24805526,42.7308837,-84.4904488,242.9199981689453,0.16954317688941956,0.2798134386539459
1666651576.88067484,24845567,42.7308837,-84.4904488,242.9199981689453,0.16954317688941956,0.2796972692012787
1666651576.92046881,24885361,42.7308837,-84.4904488,242.9199981689453,0.02825719490647316,0.27875298261642456
1666651576.92058897,24885481,42.7308837,-84.4904488,242.9199981689453,0.02825719490647316,0.27875298261642456
1666651576.96026778,24925160,42.7308837,-84.4904488,242.9199981689453,0.02825719490647316,0.27832841873168945
1666651577.00035596,24965248,42.7308837,-84.4904488,242.9199981689453,0.02825719490647316,0.2775364816188812
1666651577.02048492,24985377,42.7308861,-84.4904469,243.54998779296875,0.1299830973148346,0.2767150104045868
1666651577.04062486,25005517,42.7308861,-84.4904469,243.54998779296875,0.1299830973148346,0.2760971486568451
1666651577.08059192,25045484,42.7308861,-84.4904469,243.54998779296875,0.1299830973148346,0.2749353349208832
1666651577.12046981,25085362,42.7308861,-84.4904469,243.54998779296875,0.2740947902202606,0.2735826373100281
1666651577.12053275,25085425,42.7308861,-84.4904469,243.54998779296875,0.2740947902202606,0.2735826373100281
1666651577.16067791,25125570,42.7308861,-84.4904469,243.54998779296875,0.2740947902202606,0.2727309465408325
1666651577.20029593,25165188,42.7308861,-84.4904469,243.54998779296875,0.2740947902202606,0.2712962329387665
1666651577.22051287,25185405,42.7308884,-84.4904454,244.08999633789062,0.32213202118873596,0.2701056897640228
1666651577.24076176,25205654,42.7308884,-84.4904454,244.08999633789062,0.32213202118873596,0.26917195320129395
1666651577.28060389,25245496,42.7308884,-84.4904454,244.08999633789062,0.32213202118873596,0.2694072723388672
1666651577.32049489,25285387,42.7308884,-84.4904454,244.08999633789062,0.5453638434410095,0.270033061504364
1666651577.32060575,25285498,42.7308884,-84.4904454,244.08999633789062,0.5453638434410095,0.270033061504364
1666651577.36038375,25325276,42.7308884,-84.4904454,244.08999633789062,0.5453638434410095,0.2728061378002167
1666651577.40029097,25365183,42.7308884,-84.4904454,244.08999633789062,0.5453638434410095,0.2804671823978424
1666651577.42055678,25385449,42.7308905,-84.4904439,244.6699981689453,1.4326398372650146,0.2854973375797272
1666651577.44062495,25405517,42.7308905,-84.4904439,244.6699981689453,1.4326398372650146,0.2914700210094452
1666651577.48052788,25445420,42.7308905,-84.4904439,244.6699981689453,1.4326398372650146,0.3098689019680023
1666651577.52049994,25485392,42.7308905,-84.4904439,244.6699981689453,0.5001523494720459,0.33211708068847656
1666651577.52056384,25485456,42.7308905,-84.4904439,244.6699981689453,0.5001523494720459,0.33211708068847656
1666651577.56036186,25525254,42.7308905,-84.4904439,244.6699981689453,0.5001523494720459,0.35763874650001526
1666651577.60036874,25565261,42.7308905,-84.4904439,244.6699981689453,0.5001523494720459,0.3957395553588867
1666651577.62073183,25585624,42.7308923,-84.49044239999999,245.14999389648438,0.3051777184009552,0.4172016978263855
1666651577.64054990,25605442,42.7308923,-84.49044239999999,245.14999389648438,0.3051777184009552,0.4379129707813263
1666651577.68062282,25645515,42.7308923,-84.49044239999999,245.14999389648438,0.3051777184009552,0.47741881012916565
1666651577.72052479,25685417,42.7308923,-84.49044239999999,245.14999389648438,0.7685956954956055,0.5179563760757446
1666651577.72063684,25685529,42.7308923,-84.49044239999999,245.14999389648438,0.7685956954956055,0.5179563760757446
1666651577.76032782,25725220,42.7308923,-84.49044239999999,245.14999389648438,0.7685956954956055,0.554323136806488
1666651577.80035782,25765250,42.7308923,-84.49044239999999,245.14999389648438,0.7685956954956055,0.5838401913642883
1666651577.82051182,25785404,42.7308944,-84.49043859999999,246.5699920654297,0.45211511850357056,0.5964664220809937
1666651577.84059286,25805485,42.7308944,-84.49043859999999,246.5699920654297,0.45211511850357056,0.607313334941864
1666651577.88054895,25845441,42.7308944,-84.49043859999999,246.5699920654297,0.45211511850357056,0.6209626197814941
1666651577.92050695,25885399,42.7308944,-84.49043859999999,246.5699920654297,0.2712690830230713,0.6244515180587769
1666651577.92062378,25885516,42.7308944,-84.49043859999999,246.5699920654297,0.2712690830230713,0.6244515180587769
1666651577.96036482,25925257,42.7308944,-84.49043859999999,246.5699920654297,0.2712690830230713,0.6163638234138489
1666651578.00034881,25965241,42.7308944,-84.49043859999999,246.5699920654297,0.2712690830230713,0.5949392914772034
1666651578.02051687,25985409,42.7308944,-84.49043859999999,246.5699920654297,0.30800342559814453,0.5800665616989136
1666651578.04053187,26005424,42.730898599999996,-84.4904353,247.9499969482422,0.30800342559814453,0.5618118643760681
1666651578.08075380,26045646,42.730898599999996,-84.4904353,247.9499969482422,0.30800342559814453,0.5159790515899658
1666651578.12037182,26085264,42.730898599999996,-84.4904353,247.9499969482422,0.655566930770874,0.4605503976345062
1666651578.12050295,26085395,42.730898599999996,-84.4904353,247.9499969482422,0.655566930770874,0.4605503976345062
1666651578.16059184,26125484,42.730898599999996,-84.4904353,247.9499969482422,0.655566930770874,0.4123762547969818
1666651578.20034575,26165238,42.730898599999996,-84.4904353,247.9499969482422,0.655566930770874,0.40959876775741577
1666651578.22039080,26185283,42.730900899999995,-84.4904328,248.54998779296875,0.6216583251953125,0.4112529456615448
1666651578.24060893,26205501,42.730900899999995,-84.4904328,248.54998779296875,0.6216583251953125,0.4191710352897644
1666651578.28052783,26245420,42.730900899999995,-84.4904328,248.54998779296875,0.6216583251953125,0.44004321098327637
1666651578.32060075,26285493,42.730900899999995,-84.4904328,248.54998779296875,0.29104912281036377,0.45505180954933167
1666651578.32071090,26285603,42.730900899999995,-84.4904328,248.54998779296875,0.29104912281036377,0.45505180954933167
1666651578.36029482,26325187,42.730900899999995,-84.4904328,248.54998779296875,0.29104912281036377,0.4707255959510803
1666651578.40026689,26365159,42.730900899999995,-84.4904328,248.54998779296875,0.29104912281036377,0.48570308089256287
1666651578.42047286,26385365,42.7309021,-84.4904329,248.54998779296875,0.14411169290542603,0.4931868314743042
1666651578.44057894,26405471,42.7309021,-84.4904329,248.54998779296875,0.14411169290542603,0.4996546804904938
1666651578.48057079,26445463,42.7309021,-84.4904329,248.54998779296875,0.14411169290542603,0.5101970434188843
1666651578.52045584,26485348,42.7309021,-84.4904329,248.54998779296875,0.3023519814014435,0.5184755921363831
1666651578.52057290,26485465,42.7309021,-84.4904329,248.54998779296875,0.3023519814014435,0.5184755921363831
1666651578.56025982,26525152,42.7309021,-84.4904329,248.54998779296875,0.3023519814014435,0.5254730582237244
1666651578.60036874,26565261,42.7309021,-84.4904329,248.54998779296875,0.3023519814014435,0.5287988781929016
1666651578.62046075,26585353,42.7309032,-84.4904346,248.61000061035156,0.36451780796051025,0.5296734571456909
1666651578.64064074,26605533,42.7309032,-84.4904346,248.61000061035156,0.36451780796051025,0.5306605696678162
1666651578.68067384,26645566,42.7309032,-84.4904346,248.61000061035156,0.36451780796051025,0.5316281318664551
1666651578.72055578,26685448,42.7309032,-84.4904346,248.61000061035156,0.4266836643218994,0.5316486954689026
1666651578.72068882,26685581,42.7309032,-84.4904346,248.61000061035156,0.4266836643218994,0.5316486954689026
1666651578.76030588,26725198,42.7309032,-84.4904346,248.61000061035156,0.4266836643218994,0.5313252806663513
1666651578.80028486,26765177,42.7309032,-84.4904346,248.61000061035156,0.4266836643218994,0.5295222401618958
1666651578.82054591,26785438,42.730905899999996,-84.49043449999999,248.95999145507812,0.5990525484085083,0.5277518033981323
1666651578.84060478,26805497,42.730905899999996,-84.49043449999999,248.95999145507812,0.5990525484085083,0.5262848138809204
1666651578.88061285,26845505,42.730905899999996,-84.49043449999999,248.95999145507812,0.5990525484085083,0.5238600969314575
1666651578.92064691,26885539,42.730905899999996,-84.49043449999999,248.95999145507812,0.604703962802887,0.5221396088600159
1666651578.92078280,26885675,42.730905899999996,-84.49043449999999,248.95999145507812,0.604703962802887,0.5221396088600159
1666651578.96035790,26925250,42.730905899999996,-84.49043449999999,248.95999145507812,0.604703962802887,0.5221796631813049
1666651579.00034690,26965239,42.730905899999996,-84.49043449999999,248.95999145507812,0.604703962802887,0.5253133177757263
1666651579.02051783,26985410,42.7309096,-84.49043449999999,249.37998962402344,0.6640440821647644,0.5276764035224915
1666651579.04062080,27005513,42.7309096,-84.49043449999999,249.37998962402344,0.6640440821647644,0.5306569337844849
1666651579.08055592,27045448,42.7309096,-84.49043449999999,249.37998962402344,0.6640440821647644,0.5398952960968018
1666651579.12051797,27085410,42.7309096,-84.49043449999999,249.37998962402344,0.3475635051727295,0.552355170249939
1666651579.12058091,27085473,42.7309096,-84.49043449999999,249.37998962402344,0.3475635051727295,0.552355170249939
1666651579.16061783,27125510,42.7309096,-84.49043449999999,249.37998962402344,0.3475635051727295,0.5688777565956116
1666651579.20032477,27165217,42.7309096,-84.49043449999999,249.37998962402344,0.3475635051727295,0.5922545194625854
1666651579.22058082,27185473,42.7309129,-84.49043499999999,249.30999755859375,0.49732664227485657,0.6058477163314819
1666651579.24056196,27205454,42.7309129,-84.49043499999999,249.30999755859375,0.49732664227485657,0.6209725737571716
1666651579.28061795,27245510,42.7309129,-84.49043499999999,249.30999755859375,0.49732664227485657,0.6532378196716309
1666651579.32050681,27285399,42.7309129,-84.49043499999999,249.30999755859375,0.6725212335586548,0.6887654066085815
1666651579.32061982,27285512,42.7309129,-84.49043499999999,249.30999755859375,0.6725212335586548,0.6887654066085815
1666651579.36036682,27325259,42.7309129,-84.49043499999999,249.30999755859375,0.6725212335586548,0.7269829511642456
1666651579.40036392,27365256,42.7309129,-84.49043499999999,249.30999755859375,0.6725212335586548,0.7659852504730225
1666651579.42046881,27385361,42.730917,-84.4904359,249.75,0.4379865229129791,0.7846448421478271
1666651579.44057894,27405471,42.730917,-84.4904359,249.75,0.4379865229129791,0.8022459745407104
1666651579.48055196,27445444,42.730917,-84.4904359,249.75,0.4379865229129791,0.8350557684898376
1666651579.52058482,27485477,42.730917,-84.4904359,249.75,0.5792725086212158,0.861632227897644
1666651579.52065182,27485544,42.730917,-84.4904359,249.75,0.5792725086212158,0.861632227897644
1666651579.56033778,27525230,42.730917,-84.4904359,249.75,0.5792725086212158,0.8809754848480225
1666651579.60033584,27565228,42.730917,-84.4904359,249.75,0.5792725086212158,0.8880458474159241
1666651579.62052584,27585418,42.7309202,-84.4904366,249.9399871826172,0.6160068511962891,0.8874566555023193
1666651579.64058089,27605473,42.7309202,-84.4904366,249.9399871826172,0.6160068511962891,0.884296715259552
1666651579.68060780,27645500,42.7309202,-84.4904366,249.9399871826172,0.6160068511962891,0.869234025478363
1666651579.72056389,27685456,42.7309202,-84.4904366,249.9399871826172,1.1528935432434082,0.8427661061286926
1666651579.72066188,27685554,42.7309202,-84.4904366,249.9399871826172,1.1528935432434082,0.8427661061286926
1666651579.76030588,27725198,42.7309202,-84.4904366,249.9399871826172,1.1528935432434082,0.8046039342880249
1666651579.80028486,27765177,42.7309202,-84.4904366,249.9399871826172,1.1528935432434082,0.7532727122306824
1666651579.82041383,27785306,42.7309221,-84.4904368,250.1899871826172,1.3224366903305054,0.7231572270393372
1666651579.84058785,27805480,42.7309221,-84.4904368,250.1899871826172,1.3224366903305054,0.6907260417938232
1666651579.88072276,27845615,42.7309221,-84.4904368,250.1899871826172,1.3224366903305054,0.6243847608566284
1666651579.92051792,27885410,42.7309221,-84.4904368,250.1899871826172,1.6417430639266968,0.5527138113975525
1666651579.92064381,27885536,42.7309221,-84.4904368,250.1899871826172,1.6417430639266968,0.5527138113975525
1666651579.96031284,27925205,42.7309221,-84.4904368,250.1899871826172,1.6417430639266968,0.4797631502151489
1666651580.00025177,27965144,42.7309221,-84.4904368,250.1899871826172,1.6417430639266968,0.40972739458084106
1666651580.02049875,27985391,42.7309221,-84.4904368,250.1899871826172,1.5061085224151611,0.37727436423301697
1666651580.04061389,28005506,42.7309221,-84.4904368,250.1899871826172,1.5061085224151611,0.3446084260940552
1666651580.08057380,28045466,42.7309219,-84.4904403,249.45999145507812,1.5061085224151611,0.2859380543231964
1666651580.12046981,28085362,42.7309219,-84.4904403,249.45999145507812,1.3563454151153564,0.2319374978542328
1666651580.12063479,28085527,42.7309219,-84.4904403,249.45999145507812,1.3563454151153564,0.2319374978542328
1666651580.16063476,28125527,42.7309219,-84.4904403,249.45999145507812,1.3563454151153564,0.17890064418315887
1666651580.20030880,28165201,42.7309219,-84.4904403,249.45999145507812,1.3563454151153564,0.1308237612247467
1666651580.22047186,28185364,42.7309238,-84.49043929999999,249.6599884033203,1.1670222282409668,0.10750459879636765
1666651580.24063087,28205523,42.7309238,-84.49043929999999,249.6599884033203,1.1670222282409668,0.09055620431900024
1666651580.28060293,28245495,42.7309238,-84.49043929999999,249.6599884033203,1.1670222282409668,0.10188396275043488
1666651580.32052875,28285421,42.7309238,-84.49043929999999,249.6599884033203,-0.03390863537788391,0.12597964704036713
1666651580.32065177,28285544,42.7309238,-84.49043929999999,249.6599884033203,-0.03390863537788391,0.12597964704036713
1666651580.36028075,28325173,42.7309238,-84.49043929999999,249.6599884033203,-0.03390863537788391,0.15678875148296356
1666651580.40031695,28365209,42.7309238,-84.49043929999999,249.6599884033203,-0.03390863537788391,0.18005910515785217
1666651580.42049980,28385392,42.7309264,-84.4904396,250.04998779296875,0.37582069635391235,0.1935560256242752
1666651580.44061685,28405509,42.7309264,-84.4904396,250.04998779296875,0.37582069635391235,0.20454619824886322
1666651580.48063087,28445523,42.7309264,-84.4904396,250.04998779296875,0.37582069635391235,0.21129846572875977
1666651580.52048993,28485382,42.7309264,-84.4904396,250.04998779296875,0.6301354765892029,0.21053044497966766
1666651580.52060175,28485494,42.7309264,-84.4904396,250.04998779296875,0.6301354765892029,0.21053044497966766
1666651580.56027985,28525172,42.7309264,-84.4904396,250.04998779296875,0.6301354765892029,0.1999458372592926
1666651580.60037875,28565271,42.7309264,-84.4904396,250.04998779296875,0.6301354765892029,0.17997047305107117
1666651580.62049794,28585390,42.7309288,-84.4904413,249.92999267578125,0.5453638434410095,0.17789939045906067
1666651580.64059877,28605491,42.7309288,-84.4904413,249.92999267578125,0.5453638434410095,0.18044494092464447
1666651580.68056488,28645457,42.7309288,-84.4904413,249.92999267578125,0.5453638434410095,0.18857084214687347
1666651580.72059679,28685489,42.7309288,-84.4904413,249.92999267578125,0.31082916259765625,0.19431160390377045
1666651580.72065878,28685551,42.7309288,-84.4904413,249.92999267578125,0.31082916259765625,0.19431160390377045
1666651580.76042390,28725316,42.7309288,-84.4904413,249.92999267578125,0.31082916259765625,0.19288182258605957
1666651580.80030894,28765201,42.7309288,-84.4904413,249.92999267578125,0.31082916259765625,0.19563457369804382
1666651580.82052684,28785419,42.7309304,-84.4904418,249.67999267578125,0.1864974945783615,0.199519544839859
1666651580.84067774,28805570,42.7309304,-84.4904418,249.67999267578125,0.1864974945783615,0.2023194283246994
1666651580.88063288,28845525,42.7309304,-84.4904418,249.67999267578125,0.1864974945783615,0.20324558019638062
1666651580.92039680,28885289,42.7309304,-84.4904418,249.67999267578125,0.5679696202278137,0.20416779816150665
1666651580.92052794,28885420,42.7309304,-84.4904418,249.67999267578125,0.5679696202278137,0.20416779816150665
1666651580.96030879,28925201,42.7309304,-84.4904418,249.67999267578125,0.5679696202278137,0.20498156547546387
1666651581.00038481,28965277,42.7309304,-84.4904418,249.67999267578125,0.5679696202278137,0.20404016971588135
1666651581.02055097,28985443,42.7309297,-84.4904413,249.4099884033203,0.4040778875350952,0.20394374430179596
1666651581.04051685,29005409,42.7309297,-84.4904413,249.4099884033203,0.4040778875350952,0.2037373185157776
1666651581.08052993,29045422,42.7309297,-84.4904413,249.4099884033203,0.4040778875350952,0.20408323407173157
1666651581.12054992,29085442,42.7309297,-84.4904413,249.4099884033203,0.709255576133728,0.2043260633945465
1666651581.12061787,29085510,42.7309297,-84.4904413,249.4099884033203,0.709255576133728,0.2043260633945465
1666651581.16059184,29125484,42.7309297,-84.4904413,249.4099884033203,0.709255576133728,0.2036256641149521
1666651581.20036888,29165261,42.7309297,-84.4904413,249.4099884033203,0.709255576133728,0.2043161541223526
1666651581.22044277,29185335,42.730927799999996,-84.4904408,249.1599884033203,0.40972933173179626,0.2051076889038086
1666651581.24057484,29205467,42.730927799999996,-84.4904408,249.1599884033203,0.40972933173179626,0.20560243725776672
1666651581.28057575,29245468,42.730927799999996,-84.4904408,249.1599884033203,0.40972933173179626,0.2069878876209259
1666651581.32051492,29285407,42.730927799999996,-84.4904408,249.1599884033203,0.44081225991249084,0.20910051465034485
1666651581.32064486,29285537,42.730927799999996,-84.4904408,249.1599884033203,0.44081225991249084,0.20910051465034485
1666651581.36036777,29325260,42.730927799999996,-84.4904408,249.1599884033203,0.44081225991249084,0.21053698658943176
1666651581.40032077,29365213,42.730927799999996,-84.4904408,249.1599884033203,0.44081225991249084,0.21233320236206055
1666651581.42044091,29385333,42.7309273,-84.4904397,248.92999267578125,0.23170900344848633,0.2139812707901001
1666651581.44076276,29405655,42.7309273,-84.4904397,248.92999267578125,0.23170900344848633,0.21530328691005707
1666651581.48054290,29445435,42.7309273,-84.4904397,248.92999267578125,0.23170900344848633,0.2165813148021698
1666651581.52049279,29485385,42.7309273,-84.4904397,248.92999267578125,0.05651438981294632,0.2177664339542389
1666651581.52057481,29485467,42.7309273,-84.4904397,248.92999267578125,0.05651438981294632,0.2177664339542389
1666651581.56027174,29525164,42.7309273,-84.4904397,248.92999267578125,0.05651438981294632,0.21834410727024078
1666651581.60033488,29565227,42.7309273,-84.4904397,248.92999267578125,0.05651438981294632,0.2183094024658203
1666651581.62046790,29585360,42.7309269,-84.490439,248.9399871826172,0.40972933173179626,0.2185830920934677
1666651581.64053774,29605430,42.7309269,-84.490439,248.9399871826172,0.40972933173179626,0.2187364399433136
1666651581.68060994,29645502,42.7309269,-84.490439,248.9399871826172,0.40972933173179626,0.21682380139827728
1666651581.72054291,29685435,42.7309269,-84.490439,248.9399871826172,0.5594924688339233,0.21426312625408173
1666651581.72066283,29685555,42.7309269,-84.490439,248.9399871826172,0.5594924688339233,0.21426312625408173
1666651581.76030183,29725194,42.7309269,-84.490439,248.9399871826172,0.5594924688339233,0.21143493056297302
1666651581.80023980,29765132,42.7309269,-84.490439,248.9399871826172,0.5594924688339233,0.20986774563789368
1666651581.82045388,29785346,42.730927,-84.4904384,248.989990234375,0.40690362453460693,0.20930221676826477
1666651581.84059691,29805489,42.730927,-84.4904384,248.989990234375,0.40690362453460693,0.20856985449790955
1666651581.88062787,29845520,42.730927,-84.4904384,248.989990234375,0.40690362453460693,0.20806580781936646
1666651581.92051387,29885406,42.730927,-84.4904384,248.989990234375,0.47189515829086304,0.20782744884490967
1666651581.92063689,29885529,42.730927,-84.4904384,248.989990234375,0.47189515829086304,0.20782744884490967
1666651581.96029592,29925188,42.730927,-84.4904384,248.989990234375,0.47189515829086304,0.2073477953672409
1666651582.00026488,29965157,42.730927,-84.4904384,248.989990234375,0.47189515829086304,0.2077903300523758
1666651582.02049279,29985385,42.730927,-84.4904384,248.989990234375,0.5255838632583618,0.2083171308040619
1666651582.04054976,30005442,42.730927199999996,-84.4904378,249.00999450683594,0.5255838632583618,0.20872780680656433
1666651582.08056283,30045455,42.730927199999996,-84.4904378,249.00999450683594,0.5255838632583618,0.2094341367483139
1666651582.12045884,30085351,42.730927199999996,-84.4904378,249.00999450683594,0.40690362453460693,0.21002082526683807
1666651582.12052274,30085415,42.730927199999996,-84.4904378,249.00999450683594,0.40690362453460693,0.21002082526683807
1666651582.16049886,30125391,42.730927199999996,-84.4904378,249.00999450683594,0.40690362453460693,0.21020841598510742
1666651582.20028782,30165180,42.730927199999996,-84.4904378,249.00999450683594,0.40690362453460693,0.2121720165014267
1666651582.22046185,30185354,42.7309276,-84.4904373,249.05999755859375,0.2853976786136627,0.2135995328426361
1666651582.24054480,30205437,42.7309276,-84.4904373,249.05999755859375,0.2853976786136627,0.21476499736309052
1666651582.28095579,30245848,42.7309276,-84.4904373,249.05999755859375,0.2853976786136627,0.21622367203235626
1666651582.32043576,30285328,42.7309276,-84.4904373,249.05999755859375,0.18932320177555084,0.21743720769882202
1666651582.32053494,30285427,42.7309276,-84.4904373,249.05999755859375,0.18932320177555084,0.21743720769882202
1666651582.36027980,30325172,42.7309276,-84.4904373,249.05999755859375,0.18932320177555084,0.21808622777462006
1666651582.40030694,30365199,42.7309276,-84.4904373,249.05999755859375,0.18932320177555084,0.21843409538269043
1666651582.42048192,30385374,42.7309275,-84.4904371,248.95999145507812,0.19214892387390137,0.21891126036643982
1666651582.44057989,30405472,42.7309275,-84.4904371,248.95999145507812,0.19214892387390137,0.21920105814933777
1666651582.48052883,30445421,42.7309275,-84.4904371,248.95999145507812,0.19214892387390137,0.21863649785518646
1666651582.52038074,30485273,42.7309275,-84.4904371,248.95999145507812,0.13280881941318512,0.21759925782680511
1666651582.52050495,30485397,42.7309275,-84.4904371,248.95999145507812,0.13280881941318512,0.21759925782680511
1666651582.56024194,30525134,42.7309275,-84.4904371,248.95999145507812,0.13280881941318512,0.21626876294612885
1666651582.60032177,30565214,42.7309275,-84.4904371,248.95999145507812,0.13280881941318512,0.21473562717437744
1666651582.62048984,30585382,42.7309276,-84.4904366,248.9099884033203,0.282571941614151,0.21408255398273468
1666651582.64055681,30605449,42.7309276,-84.4904366,248.9099884033203,0.282571941614151,0.21326188743114471
1666651582.68053985,30645432,42.7309276,-84.4904366,248.9099884033203,0.282571941614151,0.21115100383758545
1666651582.72047091,30685363,42.7309276,-84.4904366,248.9099884033203,0.08194586634635925,0.2088344395160675
1666651582.72059989,30685492,42.7309276,-84.4904366,248.9099884033203,0.08194586634635925,0.2088344395160675
1666651582.76029992,30725192,42.7309276,-84.4904366,248.9099884033203,0.08194586634635925,0.20636698603630066
1666651582.80027986,30765172,42.7309276,-84.4904366,248.9099884033203,0.08194586634635925,0.20398052036762238
1666651582.82043481,30785327,42.730927699999995,-84.49043569999999,248.84999084472656,0.08477158844470978,0.20280277729034424
1666651582.84052992,30805422,42.730927699999995,-84.49043569999999,248.84999084472656,0.08477158844470978,0.20156627893447876
1666651582.88049579,30845388,42.730927699999995,-84.49043569999999,248.84999084472656,0.08477158844470978,0.19878380000591278
1666651582.92039895,30885291,42.730927699999995,-84.49043569999999,248.84999084472656,0.01412859745323658,0.19584813714027405
1666651582.92052078,30885413,42.730927699999995,-84.49043569999999,248.84999084472656,0.01412859745323658,0.19584813714027405
1666651582.96025395,30925146,42.730927699999995,-84.49043569999999,248.84999084472656,0.01412859745323658,0.19288672506809235
1666651583.00030375,30965196,42.730927699999995,-84.49043569999999,248.84999084472656,0.01412859745323658,0.18959559500217438
1666651583.02040577,30985298,42.730927699999995,-84.4904349,248.8699951171875,0.11020306497812271,0.187895730137825
1666651583.04055381,31005446,42.730927699999995,-84.4904349,248.8699951171875,0.11020306497812271,0.18621909618377686
1666651583.08055282,31045445,42.730927699999995,-84.4904349,248.8699951171875,0.11020306497812271,0.18265604972839355
1666651583.12056279,31085455,42.730927699999995,-84.4904349,248.8699951171875,0.19214892387390137,0.1789970099925995
1666651583.12066078,31085553,42.730927699999995,-84.4904349,248.8699951171875,0.19214892387390137,0.1789970099925995
1666651583.16058278,31125475,42.730927699999995,-84.4904349,248.8699951171875,0.19214892387390137,0.17536523938179016
1666651583.20021296,31165105,42.730927699999995,-84.4904349,248.8699951171875,0.19214892387390137,0.1716712862253189
1666651583.22041392,31185306,42.7309282,-84.4904342,248.97999572753906,0.039560072124004364,0.1696932315826416
1666651583.24055076,31205443,42.7309282,-84.4904342,248.97999572753906,0.039560072124004364,0.16772975027561188
1666651583.28088593,31245778,42.7309282,-84.4904342,248.97999572753906,0.039560072124004364,0.16417296230793
1666651583.32044697,31285339,42.7309282,-84.4904342,248.97999572753906,-0.05651438981294632,0.16065211594104767
1666651583.32056093,31285453,42.7309282,-84.4904342,248.97999572753906,-0.05651438981294632,0.16065211594104767
1666651583.36032295,31325215,42.7309282,-84.4904342,248.97999572753906,-0.05651438981294632,0.15721148252487183
1666651583.40023375,31365126,42.7309282,-84.4904342,248.97999572753906,-0.05651438981294632,0.15346725285053253
1666651583.42045379,31385346,42.7309292,-84.4904335,249.09999084472656,-0.016954317688941956,0.1514490395784378
1666651583.44052482,31405417,42.7309292,-84.4904335,249.09999084472656,-0.016954317688941956,0.14947831630706787
1666651583.48060179,31445494,42.7309292,-84.4904335,249.09999084472656,-0.016954317688941956,0.14550435543060303
1666651583.52047086,31485363,42.7309292,-84.4904335,249.09999084472656,0.14411169290542603,0.14143991470336914
1666651583.52058291,31485475,42.7309292,-84.4904335,249.09999084472656,0.14411169290542603,0.14143991470336914
1666651583.56022978,31525122,42.7309292,-84.4904335,249.09999084472656,0.14411169290542603,0.1374567151069641
1666651583.60024595,31565138,42.7309292,-84.4904335,249.09999084472656,0.14411169290542603,0.13315659761428833
1666651583.62049294,31585385,42.730929599999996,-84.4904329,249.11000061035156,-0.12433166056871414,0.13085882365703583
1666651583.64059687,31605489,42.730929599999996,-84.4904329,249.11000061035156,-0.12433166056871414,0.12859079241752625
1666651583.68059587,31645488,42.730929599999996,-84.4904329,249.11000061035156,-0.12433166056871414,0.12462838739156723
1666651583.72061777,31685510,42.730929599999996,-84.4904329,249.11000061035156,-0.28822338581085205,0.12078692018985748
1666651583.72068882,31685581,42.730929599999996,-84.4904329,249.11000061035156,-0.28822338581085205,0.12078692018985748
1666651583.76030493,31725197,42.730929599999996,-84.4904329,249.11000061035156,-0.28822338581085205,0.11698183417320251
1666651583.80026579,31765158,42.730929599999996,-84.4904329,249.11000061035156,-0.28822338581085205,0.11261982470750809
1666651583.82052374,31785416,42.73093,-84.490432,249.1199951171875,-0.11302877962589264,0.11024480313062668
1666651583.84052682,31805419,42.73093,-84.490432,249.1199951171875,-0.11302877962589264,0.10792230814695358
1666651583.88053679,31845429,42.73093,-84.490432,249.1199951171875,-0.11302877962589264,0.10308735072612762
1666651583.92042184,31885314,42.73093,-84.490432,249.1199951171875,-0.1638917326927185,0.09801869839429855
1666651583.92052293,31885415,42.73093,-84.490432,249.1199951171875,-0.1638917326927185,0.09801869839429855
1666651583.96049786,31925390,42.73093,-84.490432,249.1199951171875,-0.1638917326927185,0.09320847690105438
1666651584.00032687,31965219,42.73093,-84.490432,249.1199951171875,-0.1638917326927185,0.0879550576210022
1666651584.02049780,31985390,42.73093,-84.490432,249.1199951171875,-0.19214892387390137,0.08508603274822235
1666651584.04057193,32005464,42.7309305,-84.4904311,249.17999267578125,-0.19214892387390137,0.08230023831129074
1666651584.08065796,32045550,42.7309305,-84.4904311,249.17999267578125,-0.19214892387390137,0.0771084651350975
1666651584.12036991,32085262,42.7309305,-84.4904311,249.17999267578125,-0.045211512595415115,0.07180053740739822
1666651584.12050581,32085398,42.7309305,-84.4904311,249.17999267578125,-0.045211512595415115,0.07180053740739822
1666651584.16049790,32125390,42.7309305,-84.4904311,249.17999267578125,-0.045211512595415115,0.06683171540498734
1666651584.20031691,32165209,42.7309305,-84.4904311,249.17999267578125,-0.045211512595415115,0.06121663749217987
1666651584.22050786,32185400,42.7309311,-84.490431,249.09999084472656,-0.4803723096847534,0.058159954845905304
1666651584.24053192,32205424,42.7309311,-84.490431,249.09999084472656,-0.4803723096847534,0.05519205704331398
1666651584.28084874,32245741,42.7309311,-84.490431,249.09999084472656,-0.4803723096847534,0.049965571612119675
1666651584.32044077,32285333,42.7309311,-84.490431,249.09999084472656,-0.2599661946296692,0.04491019994020462
1666651584.32061982,32285512,42.7309311,-84.490431,249.09999084472656,-0.2599661946296692,0.04491019994020462
1666651584.36023188,32325124,42.7309311,-84.490431,249.09999084472656,-0.2599661946296692,0.03999753296375275
1666651584.40036488,32365257,42.7309311,-84.490431,249.09999084472656,-0.2599661946296692,0.03368884697556496
1666651584.42036080,32385253,42.7309316,-84.490431,248.95999145507812,-0.19780036807060242,0.0301615409553051
1666651584.44064474,32405537,42.7309316,-84.490431,248.95999145507812,-0.19780036807060242,0.02678864821791649
1666651584.48063684,32445529,42.7309316,-84.490431,248.95999145507812,-0.19780036807060242,0.020568862557411194
1666651584.52039289,32485285,42.7309316,-84.490431,248.95999145507812,-0.23170900344848633,0.014400127343833447
1666651584.52051592,32485408,42.7309316,-84.490431,248.95999145507812,-0.23170900344848633,0.014400127343833447
1666651584.56024384,32525136,42.7309316,-84.490431,248.95999145507812,-0.23170900344848633,0.008586041629314423
1666651584.60023379,32565126,42.7309316,-84.490431,248.95999145507812,-0.23170900344848633,0.0023167787585407495
1666651584.62045479,32585347,42.7309323,-84.4904304,249.08999633789062,-0.09607446193695068,-0.0011181070003658533
1666651584.64054585,32605438,42.7309323,-84.4904304,249.08999633789062,-0.09607446193695068,-0.0044282712042331696
1666651584.68056679,32645459,42.7309323,-84.4904304,249.08999633789062,-0.09607446193695068,-0.010485300794243813
1666651584.72087193,32685764,42.7309323,-84.4904304,249.08999633789062,-0.10737734287977219,-0.016413524746894836
1666651584.72101092,32685903,42.7309323,-84.4904304,249.08999633789062,-0.10737734287977219,-0.016413524746894836
1666651584.76024675,32725139,42.7309323,-84.4904304,249.08999633789062,-0.10737734287977219,-0.022086655721068382
1666651584.80039096,32765283,42.7309323,-84.4904304,249.08999633789062,-0.10737734287977219,-0.028406016528606415
1666651584.82044077,32785333,42.730932599999996,-84.49042949999999,249.2899932861328,-0.5255838632583618,-0.031960032880306244
1666651584.84055996,32805452,42.730932599999996,-84.49042949999999,249.2899932861328,-0.5255838632583618,-0.03532496094703674
1666651584.88052177,32845414,42.730932599999996,-84.49042949999999,249.2899932861328,-0.5255838632583618,-0.0414816290140152
1666651584.92049074,32885383,42.730932599999996,-84.49042949999999,249.2899932861328,-0.282571941614151,-0.04764500632882118
1666651584.92067790,32885570,42.730932599999996,-84.49042949999999,249.2899932861328,-0.282571941614151,-0.04764500632882118
1666651584.96030593,32925198,42.730932599999996,-84.49042949999999,249.2899932861328,-0.282571941614151,-0.0534941628575325
1666651585.00026584,32965158,42.730932599999996,-84.49042949999999,249.2899932861328,-0.282571941614151,-0.06470120698213577
1666651585.02046084,32985353,42.7309328,-84.4904289,249.4399871826172,-0.19214892387390137,-0.07113699615001678
1666651585.04052687,33005419,42.7309328,-84.4904289,249.4399871826172,-0.19214892387390137,-0.07719298452138901
1666651585.08062887,33045521,42.7309328,-84.4904289,249.4399871826172,-0.19214892387390137,-0.08794901520013809
1666651585.12049484,33085387,42.7309328,-84.4904289,249.4399871826172,-0.2599661946296692,-0.09852872043848038
1666651585.12058282,33085475,42.7309328,-84.4904289,249.4399871826172,-0.2599661946296692,-0.09852872043848038
1666651585.16058779,33125480,42.7309328,-84.4904289,249.4399871826172,-0.2599661946296692,-0.10831101983785629
1666651585.20032287,33165215,42.7309328,-84.4904289,249.4399871826172,-0.2599661946296692,-0.11815822124481201
1666651585.22062278,33185515,42.730933199999996,-84.4904281,249.5699920654297,-0.20910324156284332,-0.12368631362915039
1666651585.24056697,33205459,42.730933199999996,-84.4904281,249.5699920654297,-0.20910324156284332,-0.12897029519081116
1666651585.28065991,33245552,42.730933199999996,-84.4904281,249.5699920654297,-0.20910324156284332,-0.13822408020496368
1666651585.32057691,33285469,42.730933199999996,-84.4904281,249.5699920654297,-0.32213202118873596,-0.14718714356422424
1666651585.32069874,33285591,42.730933199999996,-84.4904281,249.5699920654297,-0.32213202118873596,-0.14718714356422424
1666651585.36027789,33325170,42.730933199999996,-84.4904281,249.5699920654297,-0.32213202118873596,-0.15560519695281982
1666651585.40024996,33365142,42.730933199999996,-84.4904281,249.5699920654297,-0.32213202118873596,-0.16399376094341278
1666651585.42045379,33385346,42.7309337,-84.4904272,249.75,-0.24301187694072723,-0.16866108775138855
1666651585.44062781,33405520,42.7309337,-84.4904272,249.75,-0.24301187694072723,-0.17305457592010498
1666651585.48061681,33445509,42.7309337,-84.4904272,249.75,-0.24301187694072723,-0.18133458495140076
1666651585.52057076,33485463,42.7309337,-84.4904272,249.75,-0.3503892123699188,-0.18954998254776
1666651585.52065897,33485551,42.7309337,-84.4904272,249.75,-0.3503892123699188,-0.18954998254776
1666651585.56035995,33525252,42.7309337,-84.4904272,249.75,-0.3503892123699188,-0.19731605052947998
1666651585.60030985,33565202,42.7309337,-84.4904272,249.75,-0.3503892123699188,-0.20511026680469513
1666651585.62049294,33585385,42.7309342,-84.49042659999999,249.89999389648438,-0.4012521803379059,-0.20944470167160034
1666651585.64074492,33605637,42.7309342,-84.49042659999999,249.89999389648438,-0.4012521803379059,-0.21349301934242249
1666651585.68053794,33645430,42.7309342,-84.49042659999999,249.89999389648438,-0.4012521803379059,-0.22126184403896332
1666651585.72082496,33685717,42.7309342,-84.49042659999999,249.89999389648438,-0.38429784774780273,-0.22899140417575836
1666651585.72097874,33685871,42.7309342,-84.49042659999999,249.89999389648438,-0.38429784774780273,-0.22899140417575836
1666651585.76024079,33725133,42.7309342,-84.49042659999999,249.89999389648438,-0.38429784774780273,-0.23639576137065887
1666651585.80040193,33765294,42.7309342,-84.49042659999999,249.89999389648438,-0.38429784774780273,-0.24486684799194336
1666651585.82046390,33785356,42.7309348,-84.490426,250.01998901367188,-0.2712690830230713,-0.24959498643875122
1666651585.84058380,33805476,42.7309348,-84.490426,250.01998901367188,-0.2712690830230713,-0.25415509939193726
1666651585.88069892,33845591,42.7309348,-84.490426,250.01998901367188,-0.2712690830230713,-0.2624269425868988
1666651585.92041683,33885309,42.7309348,-84.490426,250.01998901367188,-0.2712690830230713,-0.2706266939640045
1666651585.92056274,33885455,42.7309348,-84.490426,250.01998901367188,-0.2712690830230713,-0.2706266939640045
1666651585.96025681,33925149,42.7309348,-84.490426,250.01998901367188,-0.2712690830230713,-0.2782468795776367
1666651586.00033879,33965231,42.7309348,-84.490426,250.01998901367188,-0.2712690830230713,-0.28564274311065674
1666651586.02047896,33985371,42.7309348,-84.490426,250.01998901367188,-0.4916751980781555,-0.2896111309528351
1666651586.04057789,34005470,42.7309352,-84.4904256,250.0699920654297,-0.4916751980781555,-0.29337403178215027
1666651586.08054495,34045437,42.7309352,-84.4904256,250.0699920654297,-0.4916751980781555,-0.29988646507263184
1666651586.12046075,34085353,42.7309352,-84.4904256,250.0699920654297,-0.28822338581085205,-0.3061008155345917
1666651586.12067890,34085571,42.7309352,-84.4904256,250.0699920654297,-0.28822338581085205,-0.3061008155345917
1666651586.16059184,34125484,42.7309352,-84.4904256,250.0699920654297,-0.28822338581085205,-0.312025785446167
1666651586.20028996,34165182,42.7309352,-84.4904256,250.0699920654297,-0.28822338581085205,-0.3195694088935852
1666651586.22044587,34185338,42.730935599999995,-84.4904251,250.0399932861328,-0.21475468575954437,-0.32355836033821106
1666651586.24063277,34205525,42.730935599999995,-84.4904251,250.0399932861328,-0.21475468575954437,-0.32744529843330383
1666651586.28060889,34245501,42.730935599999995,-84.4904251,250.0399932861328,-0.21475468575954437,-0.3339717388153076
1666651586.32046795,34285360,42.730935599999995,-84.4904251,250.0399932861328,-0.16954317688941956,-0.3401837944984436
1666651586.32062483,34285517,42.730935599999995,-84.4904251,250.0399932861328,-0.16954317688941956,-0.3401837944984436
1666651586.36024880,34325141,42.730935599999995,-84.4904251,250.0399932861328,-0.16954317688941956,-0.34611430764198303
1666651586.40025783,34365150,42.730935599999995,-84.4904251,250.0399932861328,-0.16954317688941956,-0.3509545922279358
1666651586.42052484,34385417,42.7309361,-84.4904244,250.05999755859375,-0.31082916259765625,-0.3534863293170929
1666651586.44053483,34405427,42.7309361,-84.4904244,250.05999755859375,-0.31082916259765625,-0.3559317886829376
1666651586.48074484,34445637,42.7309361,-84.4904244,250.05999755859375,-0.31082916259765625,-0.35973435640335083
1666651586.52048087,34485373,42.7309361,-84.4904244,250.05999755859375,-0.13563454151153564,-0.3632276654243469
1666651586.52066994,34485562,42.7309361,-84.4904244,250.05999755859375,-0.13563454151153564,-0.3632276654243469
1666651586.56028485,34525177,42.7309361,-84.4904244,250.05999755859375,-0.13563454151153564,-0.3668051064014435
1666651586.60029292,34565185,42.7309361,-84.4904244,250.05999755859375,-0.13563454151153564,-0.37030723690986633
1666651586.62048483,34585377,42.7309364,-84.49042399999999,250.01998901367188,-0.22605755925178528,-0.3719431459903717
1666651586.64055181,34605444,42.7309364,-84.49042399999999,250.01998901367188,-0.22605755925178528,-0.37355124950408936
1666651586.68059182,34645484,42.7309364,-84.49042399999999,250.01998901367188,-0.22605755925178528,-0.3761410713195801
1666651586.72092891,34685821,42.7309364,-84.49042399999999,250.01998901367188,-0.24301187694072723,-0.37838420271873474
1666651586.72106481,34685957,42.7309364,-84.49042399999999,250.01998901367188,-0.24301187694072723,-0.37838420271873474
1666651586.76031184,34725204,42.7309364,-84.49042399999999,250.01998901367188,-0.24301187694072723,-0.38084906339645386
1666651586.80030584,34765198,42.7309364,-84.49042399999999,250.01998901367188,-0.24301187694072723,-0.3825666010379791
1666651586.82050490,34785397,42.7309366,-84.4904236,249.97999572753906,-0.23170900344848633,-0.383225679397583
1666651586.84054995,34805442,42.7309366,-84.4904236,249.97999572753906,-0.23170900344848633,-0.3838910162448883
1666651586.88056278,34845455,42.7309366,-84.4904236,249.97999572753906,-0.23170900344848633,-0.3856732249259949
1666651586.92047381,34885366,42.7309366,-84.4904236,249.97999572753906,-0.25431475043296814,-0.38758233189582825
1666651586.92060876,34885501,42.7309366,-84.4904236,249.97999572753906,-0.25431475043296814,-0.38758233189582825
1666651586.96036291,34925255,42.7309366,-84.4904236,249.97999572753906,-0.25431475043296814,-0.38963669538497925
1666651587.00027895,34965171,42.7309366,-84.4904236,249.97999572753906,-0.25431475043296814,-0.3910815119743347
1666651587.02047181,34985364,42.730937,-84.4904231,249.97999572753906,-0.22605755925178528,-0.3914952874183655
1666651587.04053378,35005426,42.730937,-84.4904231,249.97999572753906,-0.22605755925178528,-0.3920373320579529
1666651587.08059788,35045490,42.730937,-84.4904231,249.97999572753906,-0.22605755925178528,-0.39357641339302063
1666651587.12052584,35085418,42.730937,-84.4904231,249.97999572753906,-0.13563454151153564,-0.3952706754207611
1666651587.12062883,35085521,42.730937,-84.4904231,249.97999572753906,-0.13563454151153564,-0.3952706754207611
1666651587.16050482,35125397,42.730937,-84.4904231,249.97999572753906,-0.13563454151153564,-0.3971392810344696
1666651587.20033574,35165228,42.730937,-84.4904231,249.97999572753906,-0.13563454151153564,-0.3983166515827179
1666651587.22039580,35185288,42.730937399999995,-84.4904226,250.0,-0.09607446193695068,-0.3985900580883026
1666651587.24056292,35205455,42.730937399999995,-84.4904226,250.0,-0.09607446193695068,-0.3989981412887573
1666651587.28063583,35245528,42.730937399999995,-84.4904226,250.0,-0.09607446193695068,-0.399704247713089
1666651587.32066393,35285556,42.730937399999995,-84.4904226,250.0,-0.11868022382259369,-0.40025436878204346
1666651587.32077789,35285670,42.730937399999995,-84.4904226,250.0,-0.11868022382259369,-0.40025436878204346
1666651587.36024594,35325138,42.730937399999995,-84.4904226,250.0,-0.11868022382259369,-0.4012834131717682
1666651587.40042686,35365319,42.730937399999995,-84.4904226,250.0,-0.11868022382259369,-0.4006401002407074
1666651587.42045784,35385350,42.730937499999996,-84.49042229999999,249.97000122070312,-0.2599661946296692,-0.39986541867256165
1666651587.44057393,35405466,42.730937499999996,-84.49042229999999,249.97000122070312,-0.2599661946296692,-0.39930808544158936
1666651587.48056078,35445453,42.730937499999996,-84.49042229999999,249.97000122070312,-0.2599661946296692,-0.3986843526363373
1666651587.52038693,35485279,42.730937499999996,-84.49042229999999,249.97000122070312,-0.39560073614120483,-0.3980250358581543
1666651587.52054286,35485435,42.730937499999996,-84.49042229999999,249.97000122070312,-0.39560073614120483,-0.3980250358581543
1666651587.56025195,35525144,42.730937499999996,-84.49042229999999,249.97000122070312,-0.39560073614120483,-0.3978254497051239
1666651587.60030675,35565199,42.730937499999996,-84.49042229999999,249.97000122070312,-0.39560073614120483,-0.3974613547325134
1666651587.62039375,35585286,42.7309378,-84.490422,249.97000122070312,-0.05651438981294632,-0.3968372941017151
1666651587.64056587,35605458,42.7309378,-84.490422,249.97000122070312,-0.05651438981294632,-0.3964115381240845
1666651587.68065381,35645546,42.7309378,-84.490422,249.97000122070312,-0.05651438981294632,-0.39725473523139954
1666651587.72087383,35685766,42.7309378,-84.490422,249.97000122070312,-0.18084605038166046,-0.3984681963920593
1666651587.72097588,35685868,42.7309378,-84.490422,249.97000122070312,-0.18084605038166046,-0.3984681963920593
1666651587.76023984,35725132,42.7309378,-84.490422,249.97000122070312,-0.18084605038166046,-0.3999646306037903
1666651587.80030775,35765200,42.7309378,-84.490422,249.97000122070312,-0.18084605038166046,-0.3996061682701111
1666651587.82046795,35785360,42.730938099999996,-84.4904217,249.9399871826172,-0.282571941614151,-0.39897599816322327
1666651587.84059691,35805489,42.730938099999996,-84.4904217,249.9399871826172,-0.282571941614151,-0.39854687452316284
1666651587.88059092,35845483,42.730938099999996,-84.4904217,249.9399871826172,-0.282571941614151,-0.39825907349586487
1666651587.92043185,35885324,42.730938099999996,-84.4904217,249.9399871826172,-0.1525888592004776,-0.3980587422847748
1666651587.92058682,35885479,42.730938099999996,-84.4904217,249.9399871826172,-0.1525888592004776,-0.3980587422847748
1666651587.96029377,35925186,42.730938099999996,-84.4904217,249.9399871826172,-0.1525888592004776,-0.3983005881309509
1666651588.00026178,35965154,42.730938099999996,-84.4904217,249.9399871826172,-0.1525888592004776,-0.39832746982574463
1666651588.02048373,35985376,42.730938099999996,-84.4904217,249.9399871826172,-0.16954317688941956,-0.39799946546554565
1666651588.04064584,36005538,42.7309378,-84.4904214,249.97999572753906,-0.16954317688941956,-0.3978427052497864
1666651588.08057976,36045472,42.7309378,-84.4904214,249.97999572753906,-0.16954317688941956,-0.39777860045433044
1666651588.12043595,36085328,42.7309378,-84.4904214,249.97999572753906,-0.045211512595415115,-0.397652268409729
1666651588.12056684,36085459,42.7309378,-84.4904214,249.97999572753906,-0.045211512595415115,-0.397652268409729
1666651588.16066480,36125557,42.7309378,-84.4904214,249.97999572753906,-0.045211512595415115,-0.39789655804634094
1666651588.20030189,36165194,42.7309378,-84.4904214,249.97999572753906,-0.045211512595415115,-0.397197961807251
1666651588.22058678,36185479,42.730937499999996,-84.4904212,249.95999145507812,-0.19780036807060242,-0.39642587304115295
1666651588.24063492,36205527,42.730937499999996,-84.4904212,249.95999145507812,-0.19780036807060242,-0.3958146274089813
1666651588.28058290,36245475,42.730937499999996,-84.4904212,249.95999145507812,-0.19780036807060242,-0.3947041928768158
1666651588.32055283,36285445,42.730937499999996,-84.4904212,249.95999145507812,-0.1864974945783615,-0.39332982897758484
1666651588.32067180,36285564,42.730937499999996,-84.4904212,249.95999145507812,-0.1864974945783615,-0.39332982897758484
1666651588.36031175,36325204,42.730937499999996,-84.4904212,249.95999145507812,-0.1864974945783615,-0.3925415873527527
1666651588.40032792,36365220,42.730937499999996,-84.4904212,249.95999145507812,-0.1864974945783615,-0.39113131165504456
1666651588.42045593,36385348,42.730937399999995,-84.4904208,249.97000122070312,-0.10172590613365173,-0.38995423913002014
1666651588.44049978,36405392,42.730937399999995,-84.4904208,249.97000122070312,-0.10172590613365173,-0.38900506496429443
1666651588.48055887,36445451,42.730937399999995,-84.4904208,249.97000122070312,-0.10172590613365173,-0.38793930411338806
1666651588.52053285,36485425,42.730937399999995,-84.4904208,249.97000122070312,-0.24301187694072723,-0.3870318830013275
1666651588.52062774,36485520,42.730937399999995,-84.4904208,249.97000122070312,-0.24301187694072723,-0.3870318830013275
1666651588.56031585,36525208,42.730937399999995,-84.4904208,249.97000122070312,-0.24301187694072723,-0.3865963816642761
1666651588.60033393,36565226,42.730937399999995,-84.4904208,249.97000122070312,-0.24301187694072723,-0.38484179973602295
1666651588.62046695,36585359,42.730937399999995,-84.4904205,249.989990234375,0.0,-0.3834781050682068
1666651588.64056277,36605455,42.730937399999995,-84.4904205,249.989990234375,0.0,-0.3823153078556061
1666651588.68063188,36645524,42.730937399999995,-84.4904205,249.989990234375,0.0,-0.38125118613243103
1666651588.72080994,36685702,42.730937399999995,-84.4904205,249.989990234375,-0.016954317688941956,-0.3804998993873596
1666651588.72101283,36685905,42.730937399999995,-84.4904205,249.989990234375,-0.016954317688941956,-0.3804998993873596
1666651588.76032591,36725218,42.730937399999995,-84.4904205,249.989990234375,-0.016954317688941956,-0.380116730928421
1666651588.80029774,36765190,42.730937399999995,-84.4904205,249.989990234375,-0.016954317688941956,-0.37777286767959595
1666651588.82052279,36785415,42.730937399999995,-84.49042,250.00999450683594,-0.1751946061849594,-0.3760731518268585
1666651588.84050488,36805397,42.730937399999995,-84.49042,250.00999450683594,-0.1751946061849594,-0.3746311068534851
1666651588.88066387,36845556,42.730937399999995,-84.49042,250.00999450683594,-0.1751946061849594,-0.3721175491809845
