timestamp,TimeUS,C,Q1,Q2,Q3,Q4
1666651573.79961991,21764512,1,0.9936134219169617,0.0015124391065910459,0.0001878637121990323,-0.11282730102539062
1666651573.81968474,21784577,1,0.9936091303825378,0.0014950517797842622,0.00018935628759209067,-0.11286573857069016
1666651573.83962393,21804516,1,0.9936062097549438,0.0014937636442482471,0.0002016596554312855,-0.11289144307374954
1666651573.87969685,21844589,1,0.9936044216156006,0.0014797694748267531,0.0002082115679513663,-0.11290732771158218
1666651573.91964984,21884542,1,0.9936087727546692,0.0014829577412456274,0.00021344450942706317,-0.11286871135234833
1666651573.95968080,21924573,1,0.9936123490333557,0.0015037556877359748,0.00022239217651076615,-0.11283697187900543
1666651573.99965787,21964550,1,0.9936103224754333,0.0015051673399284482,0.0002221617614850402,-0.11285459250211716
1666651574.01966977,21984562,1,0.9936056137084961,0.0015002202708274126,0.000213057835935615,-0.11289653927087784
1666651574.03965187,22004544,1,0.993599534034729,0.0014953934587538242,0.0002140328288078308,-0.11294974386692047
1666651574.07967281,22044565,1,0.9935821294784546,0.0014964883448556066,0.00022863497724756598,-0.1131030023097992
1666651574.11966991,22084562,1,0.993557333946228,0.0015064469771459699,0.00021814901265315711,-0.11332058906555176
1666651574.15967894,22124571,1,0.9935294389724731,0.0014926521107554436,0.000230358840781264,-0.11356478929519653
1666651574.19966388,22164556,1,0.9935048818588257,0.0014848073478788137,0.0002279166510561481,-0.11377939581871033
1666651574.21967888,22184571,1,0.9934946298599243,0.0014924569986760616,0.00023483755649067461,-0.11386869102716446
1666651574.23966193,22204554,1,0.9934849739074707,0.0014923857524991035,0.00023420887009706348,-0.11395329236984253
1666651574.27963591,22244528,1,0.9934597015380859,0.0014884265838190913,0.00024332002794835716,-0.11417330801486969
1666651574.31967783,22284570,1,0.9934319853782654,0.001498904312029481,0.0002705607330426574,-0.11441411077976227
1666651574.35967183,22324564,1,0.993407130241394,0.0015007690526545048,0.00031121692154556513,-0.11462938040494919
1666651574.39968276,22364575,1,0.9933918714523315,0.0014850494917482138,0.00031241794931702316,-0.11476180702447891
1666651574.41966987,22384562,1,0.9933860301971436,0.0014895510394126177,0.0003173222648911178,-0.11481227725744247
1666651574.43965483,22404547,1,0.9933801889419556,0.0014846422709524632,0.0003241830854676664,-0.11486297845840454
1666651574.47965193,22444544,1,0.9933748245239258,0.0014864164404571056,0.00031216401839628816,-0.11490938067436218
1666651574.51967788,22484570,1,0.9933832883834839,0.0014966155868023634,0.0003247769200243056,-0.11483576148748398
1666651574.55967379,22524566,1,0.9933927655220032,0.0015035182004794478,0.0003112704725936055,-0.11475411802530289
1666651574.59963679,22564529,1,0.9934078454971313,0.0014933260390534997,0.0002935900411102921,-0.11462322622537613
1666651574.61962891,22584521,1,0.9934169054031372,0.0015052815433591604,0.00028218660736456513,-0.11454476416110992
1666651574.63968587,22604578,1,0.9934266805648804,0.0014970015035942197,0.00027654258883558214,-0.11446011811494827
1666651574.67961478,22644507,1,0.9934467673301697,0.0015348847955465317,0.0002721874916460365,-0.1142849251627922
1666651574.71964788,22684540,1,0.9934644103050232,0.0015392369823530316,0.00025748409098014235,-0.11413171142339706
1666651574.75968289,22724575,1,0.99347984790802,0.0015609828988090158,0.0002432245237287134,-0.11399692296981812
1666651574.79966784,22764560,1,0.9934994578361511,0.0015581654151901603,0.00023903927649371326,-0.11382612586021423
1666651574.81966496,22784557,1,0.9935078620910645,0.001565877115353942,0.0002251654223073274,-0.11375231295824051
1666651574.83965087,22804543,1,0.9935189485549927,0.0015761696267873049,0.00023907182912807912,-0.11365550011396408
1666651574.87963891,22844531,1,0.9935399889945984,0.0015643276274204254,0.0002472337509971112,-0.11347150802612305
1666651574.91962075,22884513,1,0.9935657382011414,0.0015438843984156847,0.0002366105909459293,-0.11324627697467804
1666651574.95966196,22924554,1,0.9935956597328186,0.0015583420172333717,0.00024069059872999787,-0.1129828467965126
1666651574.99966884,22964561,1,0.9936118721961975,0.0015581572661176324,0.00023441656958311796,-0.11284050345420837
1666651575.01962781,22984520,1,0.9936171770095825,0.0015746761346235871,0.0002339160128030926,-0.11279325187206268
1666651575.03966880,23004561,1,0.9936234354972839,0.001569306361488998,0.00023482982942368835,-0.11273860186338425
1666651575.07968473,23044577,1,0.9936296343803406,0.0015615212032571435,0.0002396450872765854,-0.11268381029367447
1666651575.11965585,23084548,1,0.9936369061470032,0.001563051831908524,0.0002617090940475464,-0.11261952668428421
1666651575.15966892,23124561,1,0.9936399459838867,0.001550317625515163,0.00027095398399978876,-0.11259300261735916
1666651575.19967675,23164569,1,0.9936367273330688,0.0015437022084370255,0.0002712222922127694,-0.11262130737304688
1666651575.21967888,23184571,1,0.9936338663101196,0.001542737241834402,0.00027512546512298286,-0.11264662444591522
1666651575.23967385,23204566,1,0.9936321973800659,0.001557947602123022,0.00028129928978160024,-0.11266106367111206
1666651575.27965379,23244546,1,0.9936307072639465,0.0015549440868198872,0.0002763301890809089,-0.11267420649528503
1666651575.31968188,23284574,1,0.9936347603797913,0.0015804352005943656,0.00027618545573204756,-0.11263833194971085
1666651575.35966587,23324558,1,0.9936420917510986,0.0015691326698288321,0.00028544338420033455,-0.1125735193490982
1666651575.39964890,23364541,1,0.9936497807502747,0.0015546120703220367,0.0002963333681691438,-0.11250586062669754
1666651575.41968679,23384579,1,0.9936529994010925,0.0015653417212888598,0.00030421483097597957,-0.11247725784778595
1666651575.43968797,23404580,1,0.9936567544937134,0.001556067611090839,0.0003246601263526827,-0.11244422197341919
1666651575.47967577,23444568,1,0.9936606287956238,0.001568998210132122,0.0003461358428467065,-0.11240991950035095
1666651575.51967096,23484563,1,0.9936664700508118,0.0015790879260748625,0.00034992018481716514,-0.11235783994197845
1666651575.55968475,23524577,1,0.9936718344688416,0.0015836431412026286,0.00034963266807608306,-0.11231057345867157
1666651575.59965777,23564550,1,0.9936771988868713,0.0015762712573632598,0.0003636313194874674,-0.11226321011781693
1666651575.61967492,23584567,1,0.9936808347702026,0.001578057650476694,0.00036069584893994033,-0.11223104596138
1666651575.63965774,23604550,1,0.9936845898628235,0.0015797264641150832,0.0003408811753615737,-0.11219761520624161
1666651575.67968774,23644580,1,0.9936867952346802,0.0015495979459956288,0.00034095929004251957,-0.11217832565307617
1666651575.71966290,23684555,1,0.9936820268630981,0.001577638671733439,0.0003334188659209758,-0.11222053319215775
1666651575.75968575,23724578,1,0.993676483631134,0.0016197776421904564,0.0003247538406867534,-0.11226917803287506
1666651575.79971194,23764604,1,0.9936769604682922,0.0016313896048814058,0.00032464609830640256,-0.1122647374868393
1666651575.81968784,23784580,1,0.9936785101890564,0.0016391443787142634,0.00031969277188181877,-0.11225063353776932
1666651575.83965874,23804551,1,0.993679404258728,0.001650732709094882,0.00031171314185485244,-0.1122429221868515
1666651575.87963390,23844526,1,0.9936827421188354,0.0016530962893739343,0.00031440582824870944,-0.1122128963470459
1666651575.91968393,23884576,1,0.9936903119087219,0.0016464843647554517,0.00033190022804774344,-0.11214615404605865
1666651575.95967174,23924564,1,0.9936992526054382,0.0016678617103025317,0.00030178987071849406,-0.11206653714179993
1666651575.99969292,23964585,1,0.9936978816986084,0.001661858637817204,0.00028645567363128066,-0.11207900941371918
1666651576.01968479,23984577,1,0.9936941266059875,0.001673047081567347,0.0002929232141468674,-0.11211180686950684
1666651576.03967381,24004566,1,0.9936912655830383,0.0016798176802694798,0.00029522960539907217,-0.11213746666908264
1666651576.07966375,24044556,1,0.9936838746070862,0.0016834610141813755,0.00029188362532295287,-0.11220288276672363
1666651576.11964989,24084542,1,0.9936704039573669,0.0016869131941348314,0.00031706131994724274,-0.1123216524720192
1666651576.15967393,24124566,1,0.9936556220054626,0.0016822030302137136,0.00034264419809915125,-0.11245227605104446
1666651576.19967794,24164570,1,0.993643581867218,0.0016859294846653938,0.0003442025918047875,-0.1125587522983551
1666651576.21966696,24184559,1,0.9936389327049255,0.001672085141763091,0.00036856517544947565,-0.11259995400905609
1666651576.23969293,24204585,1,0.9936351776123047,0.0016578255454078317,0.00037730365875177085,-0.11263308674097061
1666651576.27968788,24244580,1,0.993630051612854,0.0016527657862752676,0.00036952694063074887,-0.1126786321401596
1666651576.31962490,24284517,1,0.9936243295669556,0.0016730660572648048,0.0003591669665183872,-0.11272889375686646
1666651576.35967875,24324571,1,0.9936162829399109,0.0016670494806021452,0.00035102860420010984,-0.1127999946475029
1666651576.39967775,24364570,1,0.9936106204986572,0.0016377068823203444,0.0003684039111249149,-0.1128501147031784
1666651576.41966677,24384559,1,0.9936094880104065,0.0016283441800624132,0.00037789568887092173,-0.11286012083292007
1666651576.43964887,24404541,1,0.993606448173523,0.0016287601320073009,0.0003905526245944202,-0.11288658529520035
1666651576.47969389,24444586,1,0.9935993552207947,0.0016261667478829622,0.00037974989390932024,-0.11294916272163391
1666651576.51968193,24484574,1,0.9935930967330933,0.0016482301289215684,0.00037316541420295835,-0.113004170358181
1666651576.55962491,24524517,1,0.9935896992683411,0.0016401398461312056,0.00036160365561954677,-0.11303412914276123
1666651576.59966993,24564562,1,0.9935796856880188,0.0016446405788883567,0.00036804346018470824,-0.11312205344438553
1666651576.61966777,24584560,1,0.9935788512229919,0.0016188722802326083,0.0003757531812880188,-0.11312953382730484
1666651576.63970375,24604596,1,0.9935767650604248,0.0015979601303115487,0.00038335032877512276,-0.11314814537763596
1666651576.67966676,24644559,1,0.9935688972473145,0.0016184787964448333,0.0003810921043623239,-0.11321671307086945
1666651576.71966887,24684561,1,0.9935641884803772,0.001597265712916851,0.0003784668224398047,-0.11325884610414505
1666651576.75966787,24724560,1,0.9935607314109802,0.0016316479304805398,0.00036439328687265515,-0.11328837275505066
1666651576.79965186,24764544,1,0.9935516119003296,0.001621076837182045,0.00035288018989376724,-0.11336851119995117
1666651576.81970096,24784593,1,0.9935453534126282,0.0016039494657889009,0.00035331115941517055,-0.1134234368801117
1666651576.83969688,24804589,1,0.9935401082038879,0.0015989217208698392,0.000373237970052287,-0.1134694442152977
1666651576.87967992,24844572,1,0.993537187576294,0.0016289373161271214,0.0003969690587837249,-0.11349456757307053
1666651576.91969085,24884583,1,0.9935406446456909,0.0016324518946930766,0.0004119650402572006,-0.11346427351236343
1666651576.95967078,24924563,1,0.9935455918312073,0.0016929559642449021,0.0004009087278973311,-0.11342025548219681
1666651576.99966574,24964558,1,0.9935433864593506,0.0017036438221111894,0.0004145059210713953,-0.11343923211097717
1666651577.01966476,24984557,1,0.99354088306427,0.0016982000088319182,0.0004090125148650259,-0.1134614497423172
1666651577.03966379,25004556,1,0.9935377240180969,0.0016793342074379325,0.00043158710468560457,-0.1134893074631691
1666651577.07968974,25044582,1,0.9935333728790283,0.0016595881897956133,0.0004220567352604121,-0.1135275661945343
1666651577.11967874,25084571,1,0.9935174584388733,0.0016973651945590973,0.0003979320463258773,-0.11366640776395798
1666651577.15971088,25124603,1,0.9935089349746704,0.0017065175343304873,0.0003987252712249756,-0.1137406975030899
1666651577.19966674,25164559,1,0.9935019612312317,0.0018236767500638962,0.0004115809570066631,-0.11379970610141754
1666651577.21969080,25184583,1,0.9934998154640198,0.0021781618706882,0.00021242671937216073,-0.11381246894598007
1666651577.23971176,25204604,1,0.9934946894645691,0.0017424082616344094,0.0005261469050310552,-0.11386376619338989
1666651577.27967882,25244571,1,0.993493914604187,0.0016266219317913055,0.0002388766297372058,-0.1138734295964241
1666651577.31968188,25284574,1,0.9934970140457153,0.002327732276171446,0.00048158521531149745,-0.1138334721326828
1666651577.35965586,25324548,1,0.9934796094894409,0.0014350118581205606,0.0009069864172488451,-0.11399716138839722
1666651577.39968085,25364573,1,0.9934865832328796,0.0019144812831655145,0.0011434049811214209,-0.11392754316329956
1666651577.41967678,25384569,1,0.9935269951820374,0.002177371410652995,0.0005334466113708913,-0.11357410252094269
1666651577.43966675,25404559,1,0.9935202598571777,0.002489025006070733,0.0010863379575312138,-0.11362248659133911
1666651577.47963977,25444532,1,0.9936486482620239,0.0032088265288621187,-2.7515541660250165e-05,-0.11248134821653366
1666651577.51969194,25484584,1,0.9937884211540222,0.002184472046792507,-2.149334250134416e-05,-0.11126472800970078
1666651577.55967975,25524572,1,0.9939127564430237,0.0032271298114210367,-0.0008251139661297202,-0.11011960357427597
1666651577.59967780,25564570,1,0.9941259622573853,0.002854067599400878,-0.0009046337218023837,-0.10818787664175034
1666651577.61968374,25584576,1,0.994227409362793,0.00293227331712842,-0.0011468598386272788,-0.10724730789661407
1666651577.63967776,25604570,1,0.9943259358406067,0.002530540805310011,-0.0007226213347166777,-0.10634388029575348
1666651577.67966890,25644561,1,0.9945107698440552,0.00357597297988832,-0.0005321825155988336,-0.1045718714594841
1666651577.71962595,25684518,1,0.9947487115859985,0.0055732764303684235,-0.0007131457095965743,-0.10219310969114304
1666651577.75967574,25724568,1,0.9949666261672974,0.006038265768438578,-0.001620845403522253,-0.10001182556152344
1666651577.79969788,25764590,1,0.9952085614204407,0.007202960085123777,-0.002651121001690626,-0.09747312217950821
1666651577.81966376,25784556,1,0.9953222274780273,0.00828914437443018,-0.0030978864524513483,-0.09620455652475357
1666651577.83968282,25804575,1,0.9954268336296082,0.008707452565431595,-0.003448433941230178,-0.0950666144490242
1666651577.87967086,25844563,1,0.9956604242324829,0.010091302916407585,-0.00436309864744544,-0.09240934252738953
1666651577.91964579,25884538,1,0.9959089756011963,0.01037442497909069,-0.005253038834780455,-0.08961073309183121
1666651577.95968294,25924575,1,0.9960862994194031,0.011556734330952168,-0.0053995647467672825,-0.08746097981929779
1666651577.99968982,25964582,1,0.9961838126182556,0.011628778651356697,-0.005188855342566967,-0.0863458663225174
1666651578.01966381,25984556,1,0.996226966381073,0.011172386817634106,-0.004425429739058018,-0.08595030009746552
1666651578.03969288,26004585,1,0.996235728263855,0.010330346412956715,-0.003919852431863546,-0.08597836643457413
1666651578.07968473,26044577,1,0.9962508678436279,0.009050055406987667,-0.0026209866628050804,-0.08599694818258286
1666651578.11962795,26084520,1,0.9962324500083923,0.007311525288969278,-0.0018353189807385206,-0.08639468997716904
1666651578.15962577,26124518,1,0.9961420893669128,-0.005142922513186932,0.0018016406102105975,-0.08758581429719925
1666651578.19967794,26164570,1,0.996192991733551,-0.0019075935706496239,-0.00024812607443891466,-0.08715374022722244
1666651578.21966386,26184556,1,0.9961645603179932,-0.003280489007011056,-0.0012275965418666601,-0.08742924779653549
1666651578.23967886,26204571,1,0.9961464405059814,-0.000667153624817729,-0.0025181847158819437,-0.08766717463731766
1666651578.27967596,26244568,1,0.9961546659469604,0.0019498140318319201,-0.004258718341588974,-0.087487131357193
1666651578.31967688,26284569,1,0.9961479902267456,0.006434859707951546,-0.006722638849169016,-0.08719252794981003
1666651578.35966396,26324556,1,0.9960792660713196,0.010275347158312798,-0.008383471518754959,-0.0874655544757843
1666651578.39963794,26364530,1,0.9959285259246826,0.010184602811932564,-0.008169692941009998,-0.089196115732193
1666651578.41968775,26384580,1,0.9958838224411011,0.009095563553273678,-0.008009913377463818,-0.08982513844966888
1666651578.43967485,26404567,1,0.9958136081695557,0.007363318465650082,-0.006914932280778885,-0.09084748476743698
1666651578.47966290,26444555,1,0.995725691318512,0.0031547537073493004,-0.004946614149957895,-0.0921735092997551
1666651578.51971078,26484603,1,0.9956260919570923,4.66796927867108e-06,-0.0031580680515617132,-0.09337389469146729
1666651578.55965996,26524552,1,0.9955177903175354,-0.00159099989105016,-0.002485506469383836,-0.09452841430902481
1666651578.59966683,26564559,1,0.995442807674408,-0.0022080650087445974,-0.0030606386717408895,-0.09528561681509018
1666651578.61964273,26584535,1,0.9954157471656799,-0.0029343392234295607,-0.002898263279348612,-0.09555360674858093
1666651578.63965583,26604548,1,0.9953815340995789,-0.0029296702705323696,-0.00347143248654902,-0.09589049220085144
1666651578.67967796,26644570,1,0.9952794313430786,-0.00366447982378304,-0.0038964441046118736,-0.09690309315919876
1666651578.71970081,26684593,1,0.9951461553573608,-0.0025094791781157255,-0.004243051633238792,-0.09828423708677292
1666651578.75968385,26724576,1,0.9949597716331482,-0.002699708566069603,-0.004297507461160421,-0.1001465693116188
1666651578.79965997,26764552,1,0.994746208190918,-0.003000853816047311,-0.004986280109733343,-0.10220608860254288
1666651578.81965494,26784547,1,0.994641125202179,-0.003555066417902708,-0.005001517944037914,-0.10320576280355453
1666651578.83965492,26804547,1,0.9945371747016907,-0.0027914259117096663,-0.004756264388561249,-0.10423705726861954
1666651578.87969279,26844585,1,0.994300901889801,-0.0029273012187331915,-0.004698118660598993,-0.10646632313728333
1666651578.91968894,26884581,1,0.9940629005432129,-0.0020054776687175035,-0.0038530342280864716,-0.10872013866901398
1666651578.95966792,26924560,1,0.9938340187072754,-0.0016665587900206447,-0.003955892752856016,-0.11079494655132294
1666651578.99971676,26964609,1,0.9936079382896423,-7.1291062340606e-05,-0.0033126454800367355,-0.11283738166093826
1666651579.01969290,26984585,1,0.9934701919555664,0.0002471720508765429,-0.002256965497508645,-0.1140691265463829
1666651579.03966284,27004555,1,0.993333637714386,-0.00010136545461136848,-0.0017168043414130807,-0.11526209861040115
1666651579.07964993,27044542,1,0.9930534958839417,0.00013333416427485645,-0.0005769087001681328,-0.11766228079795837
1666651579.11968875,27084581,1,0.992798388004303,0.000730806146748364,0.0002528501790948212,-0.1197948306798935
1666651579.15967989,27124572,1,0.9925448298454285,0.0030733817256987095,0.00042374481563456357,-0.12184043973684311
1666651579.19970894,27164601,1,0.9922702312469482,0.006172983441501856,0.0005044127465225756,-0.12394124269485474
1666651579.21969485,27184587,1,0.9921541213989258,0.005015709903091192,0.0002410879678791389,-0.12491991370916367
1666651579.23969579,27204588,1,0.9920110702514648,0.0070810336619615555,0.0004771735693793744,-0.12595096230506897
1666651579.27966595,27244558,1,0.9917943477630615,0.008131190203130245,0.0017701148753985763,-0.12757250666618347
1666651579.31965780,27284550,1,0.9915522336959839,0.009049886837601662,0.00437597930431366,-0.12931780517101288
1666651579.35966897,27324561,1,0.9913421869277954,0.009685849770903587,0.006272786762565374,-0.13079573214054108
1666651579.39965677,27364549,1,0.9911522269248962,0.009791002608835697,0.0078077614307403564,-0.13213777542114258
1666651579.41962290,27384515,1,0.9910865426063538,0.009875597432255745,0.008264472708106041,-0.1325957179069519
1666651579.43969274,27404585,1,0.9910189509391785,0.009621690027415752,0.008916649036109447,-0.13307656347751617
1666651579.47966886,27444561,1,0.9909375905990601,0.009348897263407707,0.009522151201963425,-0.13365855813026428
1666651579.51966596,27484558,1,0.9909006953239441,0.008828905411064625,0.009565355256199837,-0.13396406173706055
1666651579.55965781,27524550,1,0.9908725023269653,0.008133268915116787,0.009040959179401398,-0.1342528611421585
1666651579.59967589,27564568,1,0.9907969832420349,0.006996497977524996,0.00807909294962883,-0.13493354618549347
1666651579.61967874,27584571,1,0.9907710552215576,0.00607341481372714,0.007506981957703829,-0.135201558470726
1666651579.63968182,27604574,1,0.9907609224319458,0.005305429920554161,0.006770099513232708,-0.1353471875190735
1666651579.67969584,27644588,1,0.9907973408699036,0.003604127326980233,0.0054557425901293755,-0.13519547879695892
1666651579.71966195,27684554,1,0.9908819198608398,0.0018526257481426,0.0039041577838361263,-0.13466377556324005
1666651579.75962591,27724518,1,0.9909968376159668,6.621013744734228e-05,0.002843266585841775,-0.13385526835918427
1666651579.79968381,27764576,1,0.991095781326294,-0.0013628246961161494,0.0020323980133980513,-0.1331283003091812
1666651579.81966782,27784560,1,0.9911083579063416,-0.0018868750194087625,0.0018942771712318063,-0.13303034007549286
1666651579.83967686,27804569,1,0.9910852909088135,-0.002067286055535078,0.0016865230863913894,-0.13320212066173553
1666651579.87963796,27844530,1,0.9910585880279541,-0.0017456866335123777,0.0013964229729026556,-0.1334085613489151
1666651579.91968679,27884579,1,0.9909816384315491,-0.002197680063545704,0.001516064046882093,-0.1339712291955948
1666651579.95967078,27924563,1,0.9909377694129944,-0.0020786502864211798,0.0016156698111444712,-0.13429579138755798
1666651579.99962378,27964516,1,0.9908967614173889,-0.002131486078724265,0.0014393796445801854,-0.1345994472503662
1666651580.01968479,27984577,1,0.9907904267311096,-0.0004984796978533268,0.000911550538148731,-0.13540047407150269
1666651580.03969073,28004583,1,0.9907905459403992,-0.0013688071630895138,0.0014846165431663394,-0.1353885382413864
1666651580.07969189,28044584,1,0.9907779693603516,-0.0007763424655422568,0.0014793835580348969,-0.13548527657985687
1666651580.11967278,28084565,1,0.9908376932144165,0.00038798744208179414,0.0009649404091760516,-0.13505390286445618
1666651580.15967083,28124563,1,0.9908580183982849,0.001028768834657967,0.0012898790882900357,-0.13489872217178345
1666651580.19966578,28164558,1,0.9909588694572449,0.0022187402937561274,0.0007614289061166346,-0.1341453343629837
1666651580.21965981,28184552,1,0.9909786581993103,0.001295581110753119,0.001482136081904173,-0.1340053379535675
1666651580.23966479,28204557,1,0.9910081028938293,0.0010740492725744843,0.0031136733014136553,-0.13376134634017944
1666651580.27967978,28244572,1,0.991148054599762,0.0022132473532110453,0.0005192293901927769,-0.13274192810058594
1666651580.31966496,28284557,1,0.9911978244781494,0.00218971143476665,-0.0020895255729556084,-0.13235428929328918
1666651580.35969496,28324587,1,0.9911724328994751,0.005441359244287014,-0.004406289663165808,-0.13239392638206482
1666651580.39967179,28364564,1,0.9912185668945312,0.004332119133323431,-0.005300917197018862,-0.13205650448799133
1666651580.41967773,28384570,1,0.9912679195404053,0.00501672551035881,-0.00605933228507638,-0.1316283792257309
1666651580.43967295,28404565,1,0.9913275837898254,0.004359505604952574,-0.006271094083786011,-0.13119196891784668
1666651580.47965288,28444545,1,0.9913806915283203,0.002986457198858261,-0.005966753698885441,-0.13084252178668976
1666651580.51968074,28484573,1,0.9914419651031494,0.00230230949819088,-0.0051826173439621925,-0.13042481243610382
1666651580.55967283,28524565,1,0.9914900660514832,0.0007400754257105291,-0.004390041343867779,-0.13010632991790771
1666651580.59968686,28564579,1,0.9916764497756958,0.001616776455193758,-0.002276463434100151,-0.1287248283624649
1666651580.61968493,28584577,1,0.9917383193969727,0.008197030052542686,-0.0006797107052989304,-0.1280137002468109
1666651580.63966489,28604557,1,0.9918672442436218,0.00779010821133852,-0.0003804969019256532,-0.12703746557235718
1666651580.67966175,28644554,1,0.9919430017471313,0.00974805373698473,-0.0010317254345864058,-0.1263049691915512
1666651580.71970677,28684599,1,0.9920308589935303,0.00792151689529419,0.00027833093190565705,-0.12574554979801178
1666651580.75968981,28724582,1,0.9919907450675964,0.003827805398032069,0.002108766697347164,-0.12623505294322968
1666651580.79968882,28764581,1,0.9919233918190002,-0.00042317627230659127,0.00287580955773592,-0.12680499255657196
1666651580.81965876,28784551,1,0.9918708205223083,-0.000631175993476063,0.003455305937677622,-0.1272002011537552
1666651580.83969975,28804592,1,0.9918090105056763,0.00018423746223561466,0.00366120133548975,-0.12767724692821503
1666651580.87966490,28844557,1,0.99165940284729,0.004960964433848858,0.003132174490019679,-0.12875238060951233
1666651580.91962290,28884515,1,0.9915593266487122,0.0066733150742948055,0.002151744905859232,-0.12946394085884094
1666651580.95968080,28924573,1,0.9915487766265869,0.004554848652333021,0.0017237085849046707,-0.12964321672916412
1666651580.99969196,28964584,1,0.9914809465408325,0.0016637425869703293,0.001799130579456687,-0.13022875785827637
1666651581.01966786,28984560,1,0.9914516806602478,0.0009182353969663382,0.0013279602862894535,-0.1304645836353302
1666651581.03969693,29004589,1,0.9914320707321167,0.0010225562145933509,0.0008084732107818127,-0.13061662018299103
1666651581.07967877,29044571,1,0.9913432598114014,0.002698033582419157,5.4316162277245894e-05,-0.1312679648399353
1666651581.11967278,29084565,1,0.991254448890686,0.004762659315019846,-0.00028251143521629274,-0.13187837600708008
1666651581.15965295,29124545,1,0.99114590883255,0.0037547035608440638,0.0006458638235926628,-0.1327223926782608
1666651581.19968390,29164576,1,0.9910773634910583,0.004144215025007725,0.0014889348531141877,-0.13321520388126373
1666651581.21962476,29184517,1,0.9910569787025452,0.003905303543433547,0.0017177793197333813,-0.13337130844593048
1666651581.23969173,29204584,1,0.9910404086112976,0.004318388644605875,0.0019418071024119854,-0.133478581905365
1666651581.27968884,29244581,1,0.9909948110580444,0.004433463793247938,0.0023377917241305113,-0.1338062286376953
1666651581.31969285,29284585,1,0.9909536242485046,0.002901378320530057,0.003049287712201476,-0.1341385692358017
1666651581.35966587,29324558,1,0.9908677935600281,0.002462957054376602,0.003123885951936245,-0.1347782164812088
1666651581.39967394,29364566,1,0.9907367825508118,0.0034889192320406437,0.002554873703047633,-0.13572759926319122
1666651581.41967392,29384566,1,0.9906551837921143,0.0044967192225158215,0.0020530486945062876,-0.13630065321922302
1666651581.43969274,29404585,1,0.990576982498169,0.005341756157577038,0.0016935389721766114,-0.13684259355068207
1666651581.47966290,29444555,1,0.9904475808143616,0.005675685126334429,0.0012880779104307294,-0.1377669721841812
1666651581.51968193,29484574,1,0.9903340935707092,0.004249970428645611,0.0012538597220554948,-0.13863149285316467
1666651581.55962586,29524518,1,0.9902960062026978,0.0025043694768100977,0.0014876663917675614,-0.1389436423778534
1666651581.59965992,29564552,1,0.9902592897415161,0.0026761589106172323,0.0015957144787535071,-0.1392008662223816
1666651581.61971092,29584603,1,0.9902291893959045,0.003296822775155306,0.0016792586538940668,-0.13940049707889557
1666651581.63968277,29604575,1,0.990189790725708,0.004222362767904997,0.0018053215462714434,-0.13965341448783875
1666651581.67968082,29644573,1,0.990047037601471,0.005065663252025843,0.0020016953349113464,-0.1406315267086029
1666651581.71968985,29684582,1,0.9899046421051025,0.005093398038297892,0.002214910462498665,-0.14162606000900269
1666651581.75968695,29724579,1,0.9897637367248535,0.0045455703511834145,0.0024823485873639584,-0.14262165129184723
1666651581.79963994,29764532,1,0.9896826148033142,0.00365429581142962,0.0024773189797997475,-0.14320921897888184
1666651581.81967092,29784563,1,0.9896473288536072,0.0036438729148358107,0.002330670366063714,-0.14345526695251465
1666651581.83961892,29804511,1,0.9896218776702881,0.003455972531810403,0.002136018592864275,-0.14363843202590942
1666651581.87967277,29844565,1,0.9895631670951843,0.0036135222762823105,0.001968194730579853,-0.14404097199440002
1666651581.91968393,29884576,1,0.9894537329673767,0.004332174081355333,0.001730816438794136,-0.14477406442165375
1666651581.95966697,29924559,1,0.989346444606781,0.005424968898296356,0.001324597978964448,-0.14547306299209595
1666651581.99966693,29964559,1,0.9891904592514038,0.005492736119776964,0.0013335216790437698,-0.1465275138616562
1666651582.01967382,29984566,1,0.9891338348388672,0.0053593190386891365,0.0014885729178786278,-0.1469126045703888
1666651582.03961992,30004512,1,0.9891085624694824,0.004971497226506472,0.00174807570874691,-0.14709347486495972
1666651582.07960176,30044494,1,0.9891070127487183,0.004090998787432909,0.002122679492458701,-0.14712603390216827
1666651582.11962986,30084522,1,0.9891649484634399,0.0037067930679768324,0.00224280939437449,-0.14674437046051025
1666651582.15963888,30124531,1,0.9892368912696838,0.004170088097453117,0.0023267893120646477,-0.14624474942684174
1666651582.19964886,30164541,1,0.989256739616394,0.0050652967765927315,0.0022450904361903667,-0.1460835337638855
1666651582.21963787,30184530,1,0.9892306327819824,0.0054153031669557095,0.0021330637391656637,-0.146249458193779
1666651582.23962283,30204515,1,0.9891971945762634,0.00558178685605526,0.00197903485968709,-0.14647147059440613
1666651582.27962685,30244519,1,0.989086925983429,0.005243595689535141,0.0018429845804348588,-0.14722836017608643
1666651582.31958795,30284480,1,0.9889470934867859,0.004528151825070381,0.0018673536833375692,-0.14818771183490753
1666651582.35962892,30324521,1,0.9888516068458557,0.004064413718879223,0.001921243267133832,-0.14883649349212646
1666651582.39963174,30364524,1,0.9888086915016174,0.0040176850743591785,0.0018864889862015843,-0.14912307262420654
1666651582.41957784,30384470,1,0.9888069033622742,0.004199137445539236,0.001847741543315351,-0.149130180478096
1666651582.43964291,30404535,1,0.9888270497322083,0.004566082265228033,0.001863180543296039,-0.14898572862148285
1666651582.47963381,30444526,1,0.9889150261878967,0.005142346024513245,0.0019430440152063966,-0.14838086068630219
1666651582.51959085,30484483,1,0.9889740347862244,0.005327979568392038,0.0019907911773771048,-0.14797984063625336
1666651582.55959678,30524489,1,0.9889920353889465,0.005039585288614035,0.0020677216816693544,-0.14786866307258606
1666651582.59962773,30564520,1,0.9889377355575562,0.00450033089146018,0.0021603896748274565,-0.1482473909854889
1666651582.61962485,30584517,1,0.9888795614242554,0.004201813135296106,0.0021536604035645723,-0.1486434042453766
1666651582.63961792,30604510,1,0.9888155460357666,0.004057597368955612,0.0021660765632987022,-0.14907273650169373
1666651582.67964888,30644541,1,0.9886974096298218,0.004182620905339718,0.002067043911665678,-0.14985215663909912
1666651582.71961784,30684510,1,0.9886123538017273,0.004699628334492445,0.0018430452328175306,-0.15040001273155212
1666651582.75961185,30724504,1,0.9885936975479126,0.005170576274394989,0.001761619234457612,-0.150507852435112
1666651582.79963994,30764532,1,0.9886447787284851,0.005154223181307316,0.0017994949594140053,-0.1501724123954773
1666651582.81958294,30784475,1,0.9886816143989563,0.005047385115176439,0.0018104339251294732,-0.14993318915367126
1666651582.83963490,30804527,1,0.9887145757675171,0.004713048227131367,0.001895849360153079,-0.14972548186779022
1666651582.87965584,30844548,1,0.9887588620185852,0.004234748426824808,0.0020773543510586023,-0.14944452047348022
1666651582.91961288,30884505,1,0.98874831199646,0.004198283888399601,0.002166667254641652,-0.1495141088962555
1666651582.95961881,30924511,1,0.9886710047721863,0.004440983757376671,0.0021525828633457422,-0.15001748502254486
1666651582.99957776,30964470,1,0.9885684847831726,0.00488288002088666,0.002010803436860442,-0.15067993104457855
1666651583.01964283,30984535,1,0.9885239601135254,0.005079701542854309,0.0019829527009278536,-0.15096569061279297
1666651583.03964877,31004541,1,0.9884806275367737,0.005170081276446581,0.0019671020563691854,-0.15124626457691193
1666651583.07961679,31044509,1,0.9884353876113892,0.005013592541217804,0.0019514590967446566,-0.15154732763767242
1666651583.11964679,31084539,1,0.9884617924690247,0.0045661311596632,0.001920006820000708,-0.1513894498348236
1666651583.15963197,31124524,1,0.9885070323944092,0.0041892253793776035,0.001949871308170259,-0.1511041671037674
1666651583.19960785,31164500,1,0.9885485172271729,0.004289848729968071,0.001992257311940193,-0.1508292406797409
1666651583.21963978,31184532,1,0.988563060760498,0.004501058720052242,0.00202959100715816,-0.15072709321975708
1666651583.23960781,31204500,1,0.9885650873184204,0.0046665845438838005,0.001997540472075343,-0.15070921182632446
1666651583.27961588,31244508,1,0.9885053634643555,0.005017374642193317,0.001917744753882289,-0.15109018981456757
1666651583.31962395,31284516,1,0.9884030222892761,0.005088778678327799,0.0020729033276438713,-0.15175394713878632
1666651583.35962987,31324522,1,0.9883055686950684,0.004987770225852728,0.0020961512345820665,-0.15239040553569794
1666651583.39962578,31364518,1,0.988235354423523,0.004462755750864744,0.0021613736171275377,-0.15286049246788025
1666651583.41963482,31384527,1,0.9882242679595947,0.004271249752491713,0.002140323631465435,-0.15293778479099274
1666651583.43959594,31404488,1,0.9882326126098633,0.004292644560337067,0.0021206240635365248,-0.1528834104537964
1666651583.47965884,31444551,1,0.9882590770721436,0.004453002475202084,0.0020819457713514566,-0.15270817279815674
1666651583.51963687,31484529,1,0.9883059859275818,0.0049081239849328995,0.0020019588991999626,-0.1523916870355606
1666651583.55963588,31524528,1,0.9883468151092529,0.004960991442203522,0.001948581193573773,-0.15212562680244446
1666651583.59960794,31564500,1,0.9883236289024353,0.004900536499917507,0.0020056338980793953,-0.15227735042572021
1666651583.61965775,31584550,1,0.9882924556732178,0.004802896175533533,0.002076271455734968,-0.15248173475265503
1666651583.63962889,31604521,1,0.9882581233978271,0.004629614297300577,0.002122223377227783,-0.15270857512950897
1666651583.67958379,31644476,1,0.9881767630577087,0.004455860238522291,0.002147209132090211,-0.15323927998542786
1666651583.71964478,31684537,1,0.9880959391593933,0.004367700777947903,0.0022616328205913305,-0.15376020967960358
1666651583.75963783,31724530,1,0.9880651235580444,0.004653800744563341,0.0021896385587751865,-0.15395082533359528
1666651583.79964375,31764536,1,0.9880703687667847,0.00482800230383873,0.0021348411682993174,-0.15391266345977783
1666651583.81961489,31784507,1,0.9880823493003845,0.005001781973987818,0.0021032916847616434,-0.1538306623697281
1666651583.83957696,31804469,1,0.9880943298339844,0.005048717837780714,0.0020928462035954,-0.15375226736068726
1666651583.87959981,31844492,1,0.9881373047828674,0.004786362871527672,0.002042575739324093,-0.1534847766160965
1666651583.91958189,31884474,1,0.9881390333175659,0.004428034648299217,0.0021047350019216537,-0.1534835696220398
1666651583.95963883,31924531,1,0.9881063103675842,0.00419677933678031,0.002117085736244917,-0.15370050072669983
1666651583.99963284,31964525,1,0.9880387187004089,0.004587254486978054,0.002160330070182681,-0.154122456908226
1666651584.01957893,31984471,1,0.9879963994026184,0.0046882047317922115,0.00212086527608335,-0.1543911248445511
1666651584.03964496,32004537,1,0.9879642724990845,0.004693163093179464,0.002123404759913683,-0.15459638833999634
1666651584.07962394,32044516,1,0.9879279732704163,0.0047144037671387196,0.0021174983121454716,-0.1548275500535965
1666651584.11958694,32084479,1,0.9879286885261536,0.004643147811293602,0.0020672325044870377,-0.15482579171657562
1666651584.15961480,32124507,1,0.9879593849182129,0.004699166864156723,0.0021322269458323717,-0.15462733805179596
1666651584.19963074,32164523,1,0.9880141019821167,0.004400495905429125,0.0021230161655694246,-0.15428617596626282
1666651584.21962595,32184518,1,0.9880322813987732,0.0042939567938447,0.0020973074715584517,-0.15417316555976868
1666651584.23958683,32204479,1,0.9880343675613403,0.004307236522436142,0.0020952189806848764,-0.1541592925786972
1666651584.27963495,32244527,1,0.9880177974700928,0.004437733441591263,0.0020659342408180237,-0.15426252782344818
1666651584.31961989,32284512,1,0.9879697561264038,0.004839745350182056,0.002006798516958952,-0.15455836057662964
1666651584.35957789,32324470,1,0.987899899482727,0.004782814998179674,0.0019854912534356117,-0.15500624477863312
1666651584.39959574,32364488,1,0.9878603219985962,0.004588497802615166,0.0020137308165431023,-0.1552637219429016
1666651584.41961479,32384507,1,0.9878548383712769,0.0046260543167591095,0.002048645168542862,-0.15529732406139374
1666651584.43963289,32404525,1,0.987855851650238,0.004476503003388643,0.0020521809346973896,-0.15529502928256989
1666651584.47963881,32444531,1,0.9878790974617004,0.004414161667227745,0.002085709711536765,-0.15514855086803436
1666651584.51961780,32484510,1,0.9879235029220581,0.0044685788452625275,0.0020955184008926153,-0.15486373007297516
1666651584.55961680,32524509,1,0.9879395961761475,0.004665036220103502,0.0020454046316444874,-0.15475596487522125
1666651584.59957790,32564470,1,0.9879301190376282,0.004731159191578627,0.002036652760580182,-0.15481461584568024
1666651584.61966181,32584554,1,0.9879111647605896,0.004761948715895414,0.001936833723448217,-0.15493562817573547
1666651584.63963294,32604525,1,0.9878795742988586,0.004744867328554392,0.0019533615559339523,-0.15513759851455688
1666651584.67961192,32644504,1,0.9877951145172119,0.004643649328500032,0.00206344504840672,-0.15567578375339508
1666651584.71962690,32684519,1,0.9877349138259888,0.004349229857325554,0.0019777349662035704,-0.15606693923473358
1666651584.75960875,32724501,1,0.987688422203064,0.004405038896948099,0.0020093044731765985,-0.15635906159877777
1666651584.79962087,32764513,1,0.9876753091812134,0.004497422371059656,0.002065161010250449,-0.15643852949142456
1666651584.81961584,32784508,1,0.9876838326454163,0.004507698118686676,0.002012606244534254,-0.1563851684331894
1666651584.83957195,32804464,1,0.9877007007598877,0.004646505229175091,0.002044107997789979,-0.15627381205558777
1666651584.87963390,32844526,1,0.9877274036407471,0.004603243432939053,0.0020665836054831743,-0.156106099486351
1666651584.91961884,32884511,1,0.9877224564552307,0.004497603978961706,0.002035939833149314,-0.15614089369773865
1666651584.95961094,32924503,1,0.9876977801322937,0.004232958424836397,0.0020511187613010406,-0.15630413591861725
1666651584.99961782,32964510,1,0.9876521825790405,0.0040697623044252396,0.0020608585327863693,-0.15659597516059875
1666651585.01963282,32984525,1,0.9876220226287842,0.004047245252877474,0.0020498151425272226,-0.15678711235523224
1666651585.03959179,33004484,1,0.9875840544700623,0.004131051246076822,0.0020156633108854294,-0.1570243388414383
1666651585.07960296,33044495,1,0.9875401258468628,0.004266072064638138,0.002013184828683734,-0.15729676187038422
1666651585.11962581,33084518,1,0.9875442385673523,0.004320811480283737,0.001992693869397044,-0.15726971626281738
1666651585.15958595,33124478,1,0.9875738024711609,0.004251085687428713,0.00203299499116838,-0.15708522498607635
1666651585.19964695,33164539,1,0.9876173138618469,0.0041015674360096455,0.002052242634817958,-0.15681523084640503
1666651585.21963787,33184530,1,0.9876341819763184,0.004027221351861954,0.0020688085351139307,-0.1567106992006302
1666651585.23961878,33204511,1,0.9876477122306824,0.003987237811088562,0.002031477866694331,-0.15662698447704315
1666651585.27957487,33244467,1,0.9876621961593628,0.003952062223106623,0.0020732712000608444,-0.15653593838214874
1666651585.31963587,33284528,1,0.9876559376716614,0.00396734569221735,0.0020744502544403076,-0.15657483041286469
1666651585.35960793,33324500,1,0.9876295328140259,0.0041438620537519455,0.0020192163065075874,-0.15673761069774628
1666651585.39964175,33364534,1,0.9876067638397217,0.004127963446080685,0.0019704699516296387,-0.15688198804855347
1666651585.41960788,33384500,1,0.9876047372817993,0.004090810660272837,0.0020022373646497726,-0.15689541399478912
1666651585.43962574,33404518,1,0.9876075387001038,0.004010459408164024,0.0020015230402350426,-0.15687984228134155
1666651585.47961473,33444507,1,0.9876386523246765,0.00383846927434206,0.002021744614467025,-0.15668770670890808
1666651585.51961875,33484511,1,0.9876974821090698,0.0037193973548710346,0.0020601958967745304,-0.15631894767284393
1666651585.55964088,33524533,1,0.9877548217773438,0.0038255227264016867,0.0021006723400205374,-0.15595297515392303
1666651585.59963083,33564523,1,0.9877774119377136,0.003932590130716562,0.0020635270047932863,-0.1558079570531845
1666651585.61957788,33584470,1,0.987776517868042,0.00395010132342577,0.0020334140863269567,-0.15581336617469788
1666651585.63963795,33604530,1,0.9877654314041138,0.0039427089504897594,0.0020316028967499733,-0.1558839976787567
1666651585.67959189,33644484,1,0.9877321124076843,0.0038360680919140577,0.0020050916355103254,-0.15609782934188843
1666651585.71961975,33684512,1,0.9876801371574402,0.0036834320053458214,0.0020083189010620117,-0.15642988681793213
1666651585.75958991,33724482,1,0.9876550436019897,0.0035355654545128345,0.0019714836962521076,-0.15659227967262268
1666651585.79963684,33764529,1,0.9876443147659302,0.0034959521144628525,0.0019824982155114412,-0.15666046738624573
1666651585.81961179,33784504,1,0.9876519441604614,0.0034866263158619404,0.0019971916917711496,-0.156612366437912
1666651585.83961892,33804511,1,0.9876559972763062,0.0035016515757888556,0.002006921684369445,-0.1565866768360138
1666651585.87963891,33844531,1,0.9876717329025269,0.003566572442650795,0.001969258999451995,-0.15648607909679413
1666651585.91957688,33884469,1,0.9876829981803894,0.003536537056788802,0.0019498409237712622,-0.1564161479473114
1666651585.95962191,33924514,1,0.9876662492752075,0.003328879363834858,0.0020101715344935656,-0.1565256267786026
1666651585.99960589,33964498,1,0.9876273274421692,0.0031403093598783016,0.0020082546398043633,-0.1567748636007309
1666651586.01962090,33984513,1,0.9875985980033875,0.0030530754011124372,0.001985925482586026,-0.15695782005786896
1666651586.03962684,34004519,1,0.9875749945640564,0.0030036631505936384,0.00196570111438632,-0.15710744261741638
1666651586.07961679,34044509,1,0.987531840801239,0.0029854283202439547,0.001915300264954567,-0.1573793739080429
1666651586.11963677,34084529,1,0.9875076413154602,0.0029861624352633953,0.0019223636481910944,-0.15753093361854553
1666651586.15961576,34124508,1,0.9875096678733826,0.0029461097437888384,0.0019007347291335464,-0.15751957893371582
1666651586.19957376,34164466,1,0.9875205159187317,0.002792343031615019,0.0019061625935137272,-0.15745402872562408
1666651586.21962094,34184513,1,0.9875274896621704,0.0027082592714577913,0.001934259431436658,-0.1574113816022873
1666651586.23963475,34204527,1,0.9875274300575256,0.0026162515860050917,0.0019418038427829742,-0.15741334855556488
1666651586.27963686,34244529,1,0.9875144958496094,0.0024260375648736954,0.001973276026546955,-0.15749698877334595
1666651586.31963992,34284532,1,0.9874802231788635,0.002324273344129324,0.0019477447494864464,-0.15771375596523285
1666651586.35961580,34324508,1,0.9874313473701477,0.0022709264885634184,0.0018944329349324107,-0.1580207496881485
1666651586.39961576,34364508,1,0.9873859882354736,0.0022387176286429167,0.0018834230722859502,-0.15830449759960175
1666651586.41961884,34384511,1,0.9873705506324768,0.0022237610537558794,0.0018779642414301634,-0.15840129554271698
1666651586.43957281,34404465,1,0.9873652458190918,0.0021389962639659643,0.0018560100579634309,-0.15843580663204193
1666651586.47963881,34444531,1,0.987377941608429,0.001953809754922986,0.0018535553244873881,-0.15835881233215332
1666651586.51963592,34484528,1,0.9874011278152466,0.0017691475804895163,0.0018775550415739417,-0.15821604430675507
1666651586.55963492,34524527,1,0.9874280691146851,0.0016614561900496483,0.0018667674157768488,-0.15804927051067352
1666651586.59957290,34564465,1,0.9874277114868164,0.0015927094500511885,0.00184740056283772,-0.15805231034755707
1666651586.61963081,34584523,1,0.987414538860321,0.0015945013146847486,0.0018322851974517107,-0.15813477337360382
1666651586.63961291,34604505,1,0.987400472164154,0.0015916455304250121,0.0018184985965490341,-0.1582230031490326
1666651586.67958593,34644478,1,0.9873524308204651,0.0015061460435390472,0.0018189235124737024,-0.1585233509540558
1666651586.71962476,34684517,1,0.9873036742210388,0.0013951095752418041,0.0018120018066838384,-0.15882766246795654
1666651586.75961590,34724508,1,0.9872745871543884,0.00124056963250041,0.0018136583967134356,-0.15900969505310059
1666651586.79963994,34764532,1,0.9872678518295288,0.0010967636480927467,0.001812704955227673,-0.1590525507926941
1666651586.81962085,34784513,1,0.9872754812240601,0.0010369253577664495,0.0018104227492585778,-0.15900567173957825
1666651586.83961177,34804504,1,0.9872903823852539,0.0010177750373259187,0.0018023471347987652,-0.1589132845401764
1666651586.87962079,34844513,1,0.9873204827308655,0.0009938200237229466,0.001754119759425521,-0.15872691571712494
1666651586.91960096,34884493,1,0.9873409867286682,0.0009993690764531493,0.0017671502428129315,-0.15859895944595337
1666651586.95961881,34924511,1,0.987337589263916,0.0009289052104577422,0.0017701794859021902,-0.15862075984477997
1666651586.99960876,34964501,1,0.987308919429779,0.0007876260206103325,0.0017896868521347642,-0.15879958868026733
1666651587.01957273,34984465,1,0.9872862696647644,0.0007219872786663473,0.0017643208848312497,-0.158940851688385
1666651587.03962994,35004522,1,0.9872642755508423,0.00065329932840541,0.00176748086232692,-0.1590777486562729
1666651587.07961488,35044507,1,0.98722904920578,0.0005903523415327072,0.0017716001020744443,-0.15929628908634186
1666651587.11958385,35084476,1,0.9872123003005981,0.0005861320532858372,0.0017437264323234558,-0.15940043330192566
1666651587.15958285,35124475,1,0.9872233271598816,0.0006017323466949165,0.0017312648706138134,-0.1593322902917862
1666651587.19963980,35164532,1,0.9872519373893738,0.0005939905531704426,0.001733316807076335,-0.1591549664735794
1666651587.21957493,35184467,1,0.9872680902481079,0.0005695120780728757,0.00173842697404325,-0.15905475616455078
1666651587.23963690,35204529,1,0.9872782826423645,0.0005235859425738454,0.001730013987980783,-0.15899154543876648
1666651587.27963781,35244530,1,0.9872855544090271,0.00042193447006866336,0.0017304365755990148,-0.15894682705402374
1666651587.31961775,35284510,1,0.9872641563415527,0.0003554452850949019,0.0017103739082813263,-0.1590798944234848
1666651587.35957384,35324466,1,0.9872334599494934,0.00034772080834954977,0.0017183743184432387,-0.1592702716588974
1666651587.39964581,35364538,1,0.9871963858604431,0.000374327675672248,0.0017092161579057574,-0.1594998687505722
1666651587.41961074,35384503,1,0.987177848815918,0.0003836004761978984,0.0016977707855403423,-0.1596146821975708
1666651587.43963575,35404528,1,0.9871658086776733,0.0003779378312174231,0.0016979941865429282,-0.15968924760818481
1666651587.47962284,35444515,1,0.9871578216552734,0.00034726454759947956,0.0016979967476800084,-0.15973860025405884
1666651587.51962280,35484515,1,0.9871513247489929,0.0002700899203773588,0.0017060108948498964,-0.1597788780927658
1666651587.55962777,35524520,1,0.9871523976325989,0.00018338680092711002,0.0016888894606381655,-0.1597726047039032
1666651587.59960485,35564497,1,0.98713618516922,0.0001588538143550977,0.0016883169300854206,-0.15987282991409302
1666651587.61957884,35584471,1,0.9871199727058411,0.00017145708261523396,0.0016969506395980716,-0.15997259318828583
1666651587.63962483,35604517,1,0.9871020317077637,0.00018140683823730797,0.001703403890132904,-0.16008338332176208
1666651587.67959189,35644484,1,0.9870476126670837,0.00022843221086077392,0.0016860412433743477,-0.1604185402393341
1666651587.71963286,35684525,1,0.9869895577430725,0.00023187679471448064,0.0016422885237261653,-0.1607757955789566
1666651587.75962186,35724514,1,0.986941397190094,0.00020173154189251363,0.0016586871352046728,-0.16107115149497986
1666651587.79957676,35764469,1,0.9869253635406494,0.00015372977941296995,0.001644626259803772,-0.16116930544376373
1666651587.81963587,35784528,1,0.9869264364242554,0.00011867732246173546,0.0016455920413136482,-0.16116274893283844
1666651587.83961892,35804511,1,0.9869306087493896,0.0001060689683072269,0.001648721401579678,-0.1611374318599701
1666651587.87963486,35844527,1,0.986944854259491,0.00012278047506697476,0.001633095322176814,-0.16105012595653534
1666651587.91964889,35884541,1,0.9869576096534729,0.00018960352463182062,0.001648522331379354,-0.1609717309474945
1666651587.95961595,35924508,1,0.9869534373283386,0.0002043897402472794,0.0016323697054758668,-0.1609974354505539
1666651587.99961495,35964507,1,0.9869286417961121,0.00018288793216925114,0.0016186683205887675,-0.16114963591098785
1666651588.01961780,35984510,1,0.9869130253791809,0.0001508124259999022,0.001626308192498982,-0.16124531626701355
1666651588.03957582,36004468,1,0.986899197101593,0.00011864561383845285,0.001633518491871655,-0.16132986545562744
1666651588.07962894,36044521,1,0.9868729114532471,5.6421504268655553e-05,0.0016573742032051086,-0.16149021685123444
1666651588.11960673,36084499,1,0.9868599772453308,4.899893974652514e-05,0.0016714184312149882,-0.16156922280788422
1666651588.15962887,36124521,1,0.9868680238723755,7.587141590192914e-05,0.001662407536059618,-0.16152000427246094
1666651588.19962287,36164515,1,0.9868913292884827,0.00012673345918301493,0.0016338025452569127,-0.16137783229351044
1666651588.21963382,36184526,1,0.9869048595428467,0.00014782762445975095,0.001632148982025683,-0.16129495203495026
1666651588.23965192,36204544,1,0.9869182109832764,0.00014474650379270315,0.0016264432342723012,-0.16121362149715424
1666651588.27957773,36244470,1,0.9869275093078613,0.0001276030670851469,0.0016313064843416214,-0.16115649044513702
1666651588.31962681,36284519,1,0.9869167804718018,7.660406845388934e-05,0.001661885529756546,-0.16122207045555115
1666651588.35960484,36324497,1,0.9868959784507751,5.183432949706912e-05,0.001669074292294681,-0.1613490730524063
1666651588.39964175,36364534,1,0.9868769645690918,8.33129306556657e-05,0.0016627389704808593,-0.16146552562713623
1666651588.41962790,36384520,1,0.9868679046630859,0.00010257187386741862,0.001665316871367395,-0.16152092814445496
1666651588.43958378,36404476,1,0.986863911151886,0.00012168590183136985,0.0016612284816801548,-0.16154520213603973
1666651588.47961187,36444504,1,0.9868714213371277,0.00016358052380383015,0.0016676966333761811,-0.1614992469549179
1666651588.51960683,36484499,1,0.9868948459625244,0.00016280522686429322,0.0016636515501886606,-0.16135598719120026
1666651588.55962586,36524518,1,0.9869228601455688,0.00012448019697330892,0.001675174804404378,-0.16118451952934265
1666651588.59960794,36564500,1,0.9869424700737,7.345909398281947e-05,0.0017184383468702435,-0.16106408834457397
1666651588.61957288,36584465,1,0.9869447350502014,5.837643766426481e-05,0.0017242328030988574,-0.1610499620437622
1666651588.63963890,36604531,1,0.9869410991668701,6.792555359425023e-05,0.001716059516184032,-0.16107255220413208
1666651588.67961287,36644505,1,0.986926794052124,0.00013808044604957104,0.0017068070592358708,-0.1611602008342743
1666651588.71957374,36684466,1,0.9869056344032288,0.00018596823792904615,0.0017111079068854451,-0.16128958761692047
1666651588.75962496,36724517,1,0.9868850111961365,0.00021252717124298215,0.0017295234138146043,-0.16141527891159058
1666651588.79963088,36764523,1,0.9868850111961365,0.0001974803308257833,0.0017233924008905888,-0.1614154577255249
1666651588.81958675,36784479,1,0.9868943095207214,0.00018811269546858966,0.0017381277866661549,-0.1613585352897644
1666651588.83963895,36804531,1,0.9869029521942139,0.00017711757391225547,0.0017442746320739388,-0.16130569577217102
1666651588.87964392,36844536,1,0.986925482749939,0.00017213926184922457,0.0017668972723186016,-0.16116733849048615
1666651588.91961575,36884508,1,0.9869503378868103,0.00021631046547554433,0.0017738003516569734,-0.16101494431495667
1666651588.95957375,36924466,1,0.9869619011878967,0.0002696767041925341,0.0017715347930788994,-0.16094402968883514
1666651588.99962974,36964522,1,0.9869491457939148,0.0003003534802701324,0.001769829890690744,-0.16102235019207
1666651589.01961374,36984506,1,0.9869387149810791,0.0003135173465125263,0.0017739955801516771,-0.16108602285385132
1666651589.03962588,37004518,1,0.9869305491447449,0.000295090809231624,0.0017881724052131176,-0.16113616526126862
1666651589.07964492,37044537,1,0.9869129657745361,0.0002960073761641979,0.0017933276249095798,-0.16124357283115387
1666651589.11957788,37084470,1,0.9869071841239929,0.00026832445291802287,0.001812002738006413,-0.1612788885831833
1666651589.15961695,37124509,1,0.986911952495575,0.0002645723579917103,0.001822900609113276,-0.16124947369098663
1666651589.19957185,37164464,1,0.9869253039360046,0.0002891185868065804,0.001811154535971582,-0.16116802394390106
1666651589.21961379,37184506,1,0.9869318604469299,0.00031486901571042836,0.0018066531047224998,-0.1611277461051941
1666651589.23962593,37204518,1,0.9869369268417358,0.00034248235169798136,0.0017981046112254262,-0.16109660267829895
1666651589.27960491,37244497,1,0.9869347214698792,0.0003691292949952185,0.0017903774278238416,-0.16111035645008087
1666651589.31964684,37284539,1,0.9869236946105957,0.0003288619627710432,0.001788051798939705,-0.16117806732654572
1666651589.35958290,37324475,1,0.9868989586830139,0.00029727129731327295,0.0017781214555725455,-0.16132956743240356
1666651589.39957380,37364466,1,0.9868791103363037,0.00029413646552711725,0.0017887038411572576,-0.1614508330821991
1666651589.41962576,37384518,1,0.98687344789505,0.0003036922717001289,0.0017891648458316922,-0.1614851951599121
1666651589.43960786,37404500,1,0.9868694543838501,0.0003213999152649194,0.0018013316439464688,-0.16150948405265808
1666651589.47962189,37444514,1,0.986868143081665,0.0003776226658374071,0.0018063185270875692,-0.16151726245880127
1666651589.51958179,37484474,1,0.9868780374526978,0.00041873787995427847,0.0018067883793264627,-0.16145667433738708
1666651589.55962181,37524514,1,0.9868892431259155,0.00041753650293685496,0.0017946846783161163,-0.1613883376121521
1666651589.59961081,37564503,1,0.9868940114974976,0.00037806195905432105,0.0017912894254550338,-0.16135933995246887
1666651589.61962795,37584520,1,0.9868906736373901,0.00037372956285253167,0.0018024902092292905,-0.16137981414794922
1666651589.63957381,37604466,1,0.9868836402893066,0.00036429017200134695,0.0018054174724966288,-0.16142259538173676
1666651589.67963195,37644524,1,0.9868610501289368,0.00039058993570506573,0.0018116727005690336,-0.16156062483787537
1666651589.71963096,37684523,1,0.9868304133415222,0.00044639327097684145,0.0017858062637969851,-0.16174788773059845
1666651589.75965881,37724551,1,0.9868060946464539,0.00048273662105202675,0.001754352473653853,-0.16189619898796082
1666651589.79961777,37764510,1,0.9867979288101196,0.0005208773072808981,0.0017545245354995131,-0.16194602847099304
1666651589.81963181,37784524,1,0.9867955446243286,0.0005277736345306039,0.0017553477082401514,-0.16196030378341675
1666651589.83961391,37804506,1,0.9867966771125793,0.0005259334575384855,0.0017581648426130414,-0.1619536578655243
1666651589.87958694,37844479,1,0.9868004322052002,0.000534095277544111,0.0017909136367961764,-0.1619301289319992
1666651589.91962886,37884521,1,0.9867979288101196,0.000543074042070657,0.0017744915094226599,-0.16194579005241394
1666651589.95964694,37924539,1,0.9867874383926392,0.0005898813833482563,0.00176771089900285,-0.1620095670223236
1666651589.99963784,37964530,1,0.9867572784423828,0.0006292686448432505,0.0017655061092227697,-0.16219286620616913
1666651590.01959181,37984484,1,0.9867426753044128,0.0006556589505635202,0.0017547397874295712,-0.16228191554546356
1666651590.03962278,38004515,1,0.9867269396781921,0.0006743811536580324,0.0017372450092807412,-0.16237755119800568
1666651590.07958078,38044473,1,0.9866994023323059,0.0006770953186787665,0.001729130046442151,-0.16254504024982452
1666651590.11958480,38084477,1,0.9866833686828613,0.0006552656413987279,0.0017332598799839616,-0.16264234483242035
1666651590.15963292,38124525,1,0.9866775274276733,0.0006472139502875507,0.001722243963740766,-0.16267776489257812
1666651590.19962382,38164516,1,0.98668372631073,0.0006624610396102071,0.0017107132589444518,-0.1626402735710144
1666651590.21957779,38184470,1,0.9866890907287598,0.0006814563530497253,0.0017120626289397478,-0.162607803940773
1666651590.23963284,38204525,1,0.9866934418678284,0.0007084681419655681,0.0017086039297282696,-0.16258110105991364
1666651590.27961683,38244509,1,0.9866986274719238,0.000759350077714771,0.0017171213403344154,-0.16254922747612
1666651590.31957388,38284466,1,0.986680269241333,0.0007810018723830581,0.0017158591654151678,-0.162660613656044
1666651590.35959983,38324492,1,0.9866564869880676,0.0007538953213952482,0.0017097037052735686,-0.16280490159988403
1666651590.39961696,38364509,1,0.9866371154785156,0.0007578105432912707,0.0017091106856241822,-0.1629224270582199
1666651590.41961575,38384508,1,0.986628532409668,0.0007557270000688732,0.0017078106757253408,-0.16297437250614166
1666651590.43964386,38404536,1,0.9866223931312561,0.0007672050269320607,0.0017201905138790607,-0.16301119327545166
1666651590.47963786,38444530,1,0.9866175055503845,0.0007959530921652913,0.001734367455355823,-0.1630406677722931
1666651590.51961589,38484508,1,0.9866238832473755,0.0008406010456383228,0.0017271243268623948,-0.1630018949508667
1666651590.55957294,38524465,1,0.9866347312927246,0.0008610619115643203,0.0017369553679600358,-0.16293619573116302
1666651590.59958076,38564473,1,0.9866389036178589,0.0008669348899275064,0.0017338033067062497,-0.16291090846061707
1666651590.61961079,38584503,1,0.9866386651992798,0.0008524891454726458,0.0017505413852632046,-0.16291221976280212
1666651590.63962483,38604517,1,0.9866336584091187,0.0008426085114479065,0.0017493815394118428,-0.16294260323047638
1666651590.67963290,38644525,1,0.9866148233413696,0.0008487427257932723,0.0017747960519045591,-0.1630561500787735
1666651590.71961975,38684512,1,0.9865914583206177,0.0008646250353194773,0.001772392657585442,-0.16319741308689117
1666651590.75962186,38724514,1,0.9865714907646179,0.000890440191142261,0.0017503052949905396,-0.16331829130649567
1666651590.79957294,38764465,1,0.9865660071372986,0.0009260691003873944,0.0017519748071208596,-0.1633511185646057
1666651590.81962395,38784516,1,0.9865682721138,0.0009282614337280393,0.0017501853872090578,-0.1633373349905014
1666651590.83964181,38804534,1,0.986570417881012,0.0009352269116789103,0.0017414821777492762,-0.16332465410232544
1666651590.87962985,38844522,1,0.9865807890892029,0.0009403913863934577,0.0017685701604932547,-0.16326138377189636
1666651590.91962886,38884521,1,0.986598789691925,0.00092171790311113,0.0017722855554893613,-0.16315263509750366
1666651590.95962095,38924513,1,0.9866099953651428,0.0009334165370091796,0.0017743645003065467,-0.1630849987268448
1666651590.99959874,38964491,1,0.9866051077842712,0.0009718423243612051,0.001761412713676691,-0.16311456263065338
1666651591.01964188,38984534,1,0.9865991473197937,0.0009914734400808811,0.001771355397067964,-0.163150355219841
1666651591.03961897,39004511,1,0.9865948557853699,0.0010069857817143202,0.0017658686265349388,-0.1631760150194168
1666651591.07961082,39044503,1,0.9865792989730835,0.001002769568003714,0.0017613944364711642,-0.16327017545700073
1666651591.11969185,39084584,1,0.9865610003471375,0.0009889231296256185,0.0017524028662592173,-0.16338089108467102
1666651591.15962696,39124519,1,0.9865525960922241,0.001001189579255879,0.0017627374036237597,-0.1634315699338913
1666651591.19961977,39164512,1,0.9865568280220032,0.0010129925794899464,0.00177537533454597,-0.16340579092502594
1666651591.21961784,39184510,1,0.9865603446960449,0.0010166820138692856,0.0017762654460966587,-0.163384348154068
1666651591.23959279,39204485,1,0.9865604639053345,0.0010409248061478138,0.0017765873344615102,-0.1633836179971695
