timestamp,TimeUS,C,Roll,Pitch,Yaw,VN,VE,VD,dPD,PN,PE,PD,GX,GY,GZ,OH
1666651573.79961991,21764512,1,0.16,0.04,347.04,-0.004230380058288574,0.009597229771316051,-0.09296941757202148,0.1169775053858757,0.0,0.0,-0.30390021204948425,0.01,-0.01,0.0,0.0
1666651573.81968474,21784577,1,0.16,0.04,347.03000000000003,-0.0041193715296685696,0.009827831760048866,-0.09294123202562332,0.3690594732761383,0.0,0.0,-0.27523720264434814,0.01,-0.01,0.0,0.0
1666651573.83962393,21804516,1,0.16,0.04,347.03000000000003,-0.003947121091187,0.010087250731885433,-0.09298674017190933,0.6046678423881531,0.0,0.0,-0.2629379332065582,0.01,-0.01,0.0,0.0
1666651573.87969685,21844589,1,0.16,0.04,347.03000000000003,-0.0038853432051837444,0.010476228781044483,-0.09460862725973129,0.9050114154815674,0.0,0.0,-0.21916544437408447,0.01,-0.01,-0.01,0.0
1666651573.91964984,21884542,1,0.16,0.04,347.03000000000003,-0.004137326497584581,0.0109026450663805,-0.09556811302900314,1.0259255170822144,0.0,0.0,-0.1929137110710144,0.01,-0.01,-0.01,0.0
1666651573.95968080,21924573,1,0.16,0.04,347.04,-0.004151653498411179,0.010845737531781197,-0.09620558470487595,0.9979884028434753,0.0,0.0,-0.17090459167957306,0.01,-0.01,-0.01,0.0
1666651573.99965787,21964550,1,0.16,0.04,347.04,-0.004399241413921118,0.010806970298290253,-0.09699729830026627,0.8796977400779724,0.0,0.0,-0.15221798419952393,0.01,-0.01,0.01,0.0
1666651574.01966977,21984562,1,0.16,0.04,347.03000000000003,-0.0045588635839521885,0.010725652799010277,-0.09721451252698898,0.8048228025436401,0.0,0.0,-0.14081484079360962,0.01,-0.01,0.01,0.0
1666651574.03965187,22004544,1,0.16,0.04,347.02,-0.004742079880088568,0.011215655133128166,-0.09737827628850937,0.7257370948791504,0.0,0.0,-0.13660958409309387,0.01,-0.01,0.01,0.0
1666651574.07967281,22044565,1,0.16,0.04,347.01,-0.005037738010287285,0.011784865520894527,-0.09826595336198807,0.5661859512329102,0.0,0.0,-0.11970993131399155,0.01,-0.01,0.04,0.0
1666651574.11966991,22084562,1,0.16,0.04,346.98,-0.005128026474267244,0.012397042475640774,-0.0993959978222847,0.414716511964798,0.0,0.0,-0.11092659085988998,0.01,-0.01,0.04,0.0
1666651574.15967894,22124571,1,0.16,0.04,346.95,-0.004994664806872606,0.012797774747014046,-0.10040170699357986,0.28618672490119934,0.0,0.0,-0.10388217121362686,0.01,-0.01,0.04,0.0
1666651574.19966388,22164556,1,0.16,0.04,346.93,-0.005410115234553814,0.012950632721185684,-0.10072856396436691,0.18597547709941864,0.0,0.0,-0.09823475778102875,0.01,-0.01,0.03,0.0
1666651574.21967888,22184571,1,0.16,0.04,346.92,-0.005456952843815088,0.012932159937918186,-0.10105746239423752,0.1428246647119522,0.0,0.0,-0.09466911107301712,0.01,-0.01,0.03,0.0
1666651574.23966193,22204554,1,0.16,0.04,346.91,-0.0056645795702934265,0.012985802255570889,-0.1012333333492279,0.1059083566069603,0.0,0.0,-0.09413566440343857,0.01,-0.01,0.03,0.0
1666651574.27963591,22244528,1,0.16,0.04,346.88,-0.005638284143060446,0.013427531346678734,-0.10163551568984985,0.05126642435789108,0.0,0.0,-0.08797654509544373,0.01,-0.01,0.04,0.0
1666651574.31967783,22284570,1,0.16,0.05,346.86,-0.005620707757771015,0.01403758767992258,-0.10192921757698059,0.02042824774980545,0.0,0.0,-0.08541775494813919,0.01,-0.01,0.04,0.0
1666651574.35967183,22324564,1,0.16,0.05,346.83,-0.005952637642621994,0.014681951142847538,-0.10229451209306717,-0.004671065602451563,0.0,0.0,-0.08393767476081848,0.01,-0.01,0.04,0.0
1666651574.39968276,22364575,1,0.16,0.05,346.82,-0.006213143467903137,0.014799797907471657,-0.10275334119796753,-0.02834497019648552,0.0,0.0,-0.08350036293268204,0.01,-0.01,0.03,0.0
1666651574.41966987,22384562,1,0.16,0.05,346.81,-0.006482862867414951,0.014865009114146233,-0.10305988788604736,-0.03922871872782707,0.0,0.0,-0.08292805403470993,0.01,-0.01,0.03,0.0
1666651574.43965483,22404547,1,0.16,0.05,346.8,-0.006564619950950146,0.014993941411376,-0.10310159623622894,-0.04904160648584366,0.0,0.0,-0.08377794176340103,0.01,-0.01,0.03,0.0
1666651574.47965193,22444544,1,0.16,0.05,346.8,-0.006842858623713255,0.015150850638747215,-0.10411632061004639,-0.07129465043544769,0.0,0.0,-0.08479057252407074,0.01,-0.01,0.01,0.0
1666651574.51967788,22484570,1,0.16,0.05,346.81,-0.006752167362719774,0.015442646108567715,-0.10470486432313919,-0.0942547544836998,0.0,0.0,-0.08730727434158325,0.01,-0.01,0.01,0.0
1666651574.55967379,22524566,1,0.16,0.05,346.82,-0.006673519499599934,0.015620646998286247,-0.10505160689353943,-0.11069351434707642,0.0,0.0,-0.0898040309548378,0.01,-0.01,0.01,0.0
1666651574.59963679,22564529,1,0.16,0.05,346.83,-0.006866900250315666,0.015841733664274216,-0.10536160320043564,-0.11244363337755203,0.0,0.0,-0.09197312593460083,0.01,-0.01,0.01,0.0
1666651574.61962891,22584521,1,0.16,0.05,346.84000000000003,-0.007455236744135618,0.01600654050707817,-0.10555175691843033,-0.1108933761715889,0.0,0.0,-0.09296905249357224,0.01,-0.01,0.01,0.0
1666651574.63968587,22604578,1,0.16,0.05,346.85,-0.007732701022177935,0.016143526881933212,-0.10575485974550247,-0.10921508818864822,0.0,0.0,-0.09450719505548477,0.01,-0.01,0.01,0.0
1666651574.67961478,22644507,1,0.17,0.05,346.87,-0.007791023701429367,0.016085155308246613,-0.10685160011053085,-0.11752349883317947,0.0,0.0,-0.09943040460348129,0.01,-0.01,0.01,0.0
1666651574.71964788,22684540,1,0.17,0.04,346.89,-0.007934371009469032,0.016189612448215485,-0.1078978180885315,-0.14114020764827728,0.0,0.0,-0.1048087403178215,0.01,-0.01,0.01,0.0
1666651574.75968289,22724575,1,0.17,0.04,346.90000000000003,-0.007738044485449791,0.016236774623394012,-0.10891422629356384,-0.15935449302196503,0.0,0.0,-0.11012287437915802,0.01,-0.01,0.01,0.0
1666651574.79966784,22764560,1,0.17,0.04,346.92,-0.008009709417819977,0.01632617600262165,-0.10965386778116226,-0.16675996780395508,0.0,0.0,-0.11530754715204239,0.01,-0.01,0.0,0.0
1666651574.81966496,22784557,1,0.17,0.04,346.93,-0.008226326666772366,0.016514156013727188,-0.11014705896377563,-0.16752105951309204,0.0,0.0,-0.11810033768415451,0.01,-0.01,0.0,0.0
1666651574.83965087,22804543,1,0.17,0.04,346.94,-0.007944578304886818,0.016490131616592407,-0.11030809581279755,-0.16698890924453735,0.0,0.0,-0.12052621692419052,0.01,-0.01,0.0,0.0
1666651574.87963891,22844531,1,0.17,0.04,346.96,-0.008264903910458088,0.016545206308364868,-0.11110781878232956,-0.1654805690050125,0.0,0.0,-0.12647591531276703,0.01,-0.01,-0.01,0.0
1666651574.91962075,22884513,1,0.17,0.04,346.99,-0.00833429116755724,0.017378002405166626,-0.11170116066932678,-0.1653124988079071,0.0,0.0,-0.13216336071491241,0.01,-0.01,-0.01,0.0
1666651574.95966196,22924554,1,0.17,0.04,347.02,-0.008749430067837238,0.01799226924777031,-0.1122327670454979,-0.1625293642282486,0.0,0.0,-0.13720349967479706,0.01,-0.01,-0.01,0.0
1666651574.99966884,22964561,1,0.17,0.04,347.04,-0.008842164650559425,0.018439767882227898,-0.11290223896503448,-0.14547473192214966,0.0,0.0,-0.14121682941913605,0.01,-0.01,0.0,0.0
1666651575.01962781,22984520,1,0.17,0.04,347.04,-0.008422864601016045,0.018766041845083237,-0.11278142780065536,-0.1354929506778717,0.0,0.0,-0.14322243630886078,0.01,-0.01,0.0,0.0
1666651575.03966880,23004561,1,0.17,0.04,347.05,-0.008390986360609531,0.018854215741157532,-0.11279601603746414,-0.1265532672405243,0.0,0.0,-0.14542126655578613,0.01,-0.01,0.0,0.0
1666651575.07968473,23044577,1,0.17,0.04,347.05,-0.008557361550629139,0.019208643585443497,-0.11300200968980789,-0.11832526326179504,0.0,0.0,-0.15057037770748138,0.01,-0.01,0.0,0.0
1666651575.11965585,23084548,1,0.17,0.04,347.06,-0.008678841404616833,0.019542677327990532,-0.11357036978006363,-0.12206415086984634,0.0,0.0,-0.15576300024986267,0.01,-0.01,0.0,0.0
1666651575.15966892,23124561,1,0.17,0.05,347.07,-0.009019112214446068,0.019639693200588226,-0.11403380334377289,-0.12625038623809814,0.0,0.0,-0.1604783684015274,0.01,-0.01,0.0,0.0
1666651575.19967675,23164569,1,0.17,0.05,347.06,-0.008909285999834538,0.01987648196518421,-0.11391346156597137,-0.11394962668418884,0.0,0.0,-0.16397373378276825,0.01,-0.01,0.01,0.0
1666651575.21967888,23184571,1,0.17,0.05,347.06,-0.00915195420384407,0.01996292546391487,-0.1139223650097847,-0.10684499889612198,0.0,0.0,-0.16559584438800812,0.01,-0.01,0.01,0.0
1666651575.23967385,23204566,1,0.17,0.05,347.06,-0.009315457195043564,0.01999063789844513,-0.1141158863902092,-0.1003771498799324,0.0,0.0,-0.16764740645885468,0.01,-0.01,0.01,0.0
1666651575.27965379,23244546,1,0.17,0.05,347.06,-0.009637005627155304,0.020636146888136864,-0.1127515360713005,-0.07828903198242188,0.0,0.0,-0.16814953088760376,0.01,-0.01,0.0,0.0
1666651575.31968188,23284574,1,0.17,0.05,347.06,-0.009513113647699356,0.02095063030719757,-0.11180265992879868,-0.044116027653217316,0.0,0.0,-0.1693609058856964,0.01,-0.01,0.0,0.0
1666651575.35966587,23324558,1,0.17,0.05,347.07,-0.009922277182340622,0.02141219936311245,-0.11083871126174927,-0.022373873740434647,0.0,0.0,-0.17096923291683197,0.01,-0.01,0.0,0.0
1666651575.39964890,23364541,1,0.17,0.05,347.08,-0.010219372808933258,0.02198520302772522,-0.11000419408082962,-0.016421513631939888,0.0,0.0,-0.17299099266529083,0.01,-0.01,0.0,0.0
1666651575.41968679,23384579,1,0.17,0.05,347.08,-0.010367045179009438,0.02209392562508583,-0.10972600430250168,-0.01815039850771427,0.0,0.0,-0.17369335889816284,0.01,-0.01,0.0,0.0
1666651575.43968797,23404580,1,0.17,0.05,347.08,-0.010380463674664497,0.022015122696757317,-0.10949733108282089,-0.021378817036747932,0.0,0.0,-0.17525960505008698,0.01,-0.01,0.0,0.0
1666651575.47967577,23444568,1,0.17,0.05,347.09000000000003,-0.010571916587650776,0.022581443190574646,-0.10879454761743546,-0.03558509796857834,0.0,0.0,-0.17814649641513824,0.01,-0.01,0.0,0.0
1666651575.51967096,23484563,1,0.17,0.06,347.09000000000003,-0.01049583125859499,0.023205727338790894,-0.10883890837430954,-0.05694502964615822,0.0,0.0,-0.18179571628570557,0.01,-0.01,0.0,0.0
1666651575.55968475,23524577,1,0.17,0.06,347.1,-0.010732206515967846,0.023845141753554344,-0.10860823839902878,-0.07553373277187347,0.0,0.0,-0.1856110692024231,0.01,-0.01,0.0,0.0
1666651575.59965777,23564550,1,0.17,0.06,347.1,-0.011001153849065304,0.024629926308989525,-0.10858608782291412,-0.09078748524188995,0.0,0.0,-0.18966397643089294,0.01,-0.01,0.0,0.0
1666651575.61967492,23584567,1,0.17,0.06,347.11,-0.010929424315690994,0.024930192157626152,-0.10863369703292847,-0.09677112102508545,0.0,0.0,-0.19166144728660583,0.01,-0.01,0.0,0.0
1666651575.63965774,23604550,1,0.17,0.05,347.11,-0.01085235271602869,0.025201473385095596,-0.1087905541062355,-0.10174637287855148,0.0,0.0,-0.19375817477703094,0.01,-0.01,0.0,0.0
1666651575.67968774,23644580,1,0.17,0.05,347.11,-0.010989815928041935,0.02561144158244133,-0.10800332576036453,-0.09996891766786575,0.0,0.0,-0.1959514617919922,0.01,-0.01,0.0,0.0
1666651575.71966290,23684555,1,0.17,0.05,347.11,-0.011517411097884178,0.025765813887119293,-0.1074349656701088,-0.08452174067497253,0.0,0.0,-0.19847455620765686,0.01,-0.01,0.0,0.0
1666651575.75968575,23724578,1,0.18,0.05,347.1,-0.012359091080725193,0.026450326666235924,-0.10677560418844223,-0.07188326865434647,0.0,0.0,-0.20080097019672394,0.01,-0.01,0.0,0.0
1666651575.79971194,23764604,1,0.18,0.05,347.1,-0.012408683076500893,0.02710256725549698,-0.10621654242277145,-0.05637031048536301,0.0,0.0,-0.2025585025548935,0.01,-0.01,0.0,0.0
1666651575.81968784,23784580,1,0.18,0.05,347.1,-0.012605891562998295,0.027333885431289673,-0.10613474249839783,-0.05049804598093033,0.0,0.0,-0.20325273275375366,0.01,-0.01,0.0,0.0
1666651575.83965874,23804551,1,0.18,0.05,347.11,-0.01268977764993906,0.02782711572945118,-0.1062871441245079,-0.046577610075473785,0.0,0.0,-0.20468789339065552,0.01,-0.01,0.0,0.0
1666651575.87963390,23844526,1,0.18,0.05,347.11,-0.012410891242325306,0.027912480756640434,-0.10574126988649368,-0.04841316491365433,0.0,0.0,-0.20747607946395874,0.01,-0.01,-0.01,0.0
1666651575.91968393,23884576,1,0.18,0.05,347.12,-0.012609883211553097,0.028555050492286682,-0.1057884693145752,-0.06200117617845535,0.0,0.0,-0.21108722686767578,0.01,-0.01,-0.01,0.0
1666651575.95967174,23924564,1,0.18,0.05,347.13,-0.01287828478962183,0.0292009599506855,-0.10567112267017365,-0.07573112100362778,0.0,0.0,-0.21464067697525024,0.01,-0.01,-0.01,0.0
1666651575.99969292,23964585,1,0.18,0.05,347.12,-0.013295858167111874,0.029517535120248795,-0.10557231307029724,-0.08531127125024796,0.0,0.0,-0.2182580679655075,0.01,-0.01,0.01,0.0
1666651576.01968479,23984577,1,0.18,0.05,347.12,-0.013192678801715374,0.02969920076429844,-0.1056472435593605,-0.08888036012649536,0.0,0.0,-0.22000643610954285,0.01,-0.01,0.01,0.0
1666651576.03967381,24004566,1,0.18,0.05,347.12,-0.013494403101503849,0.029789714142680168,-0.10576070845127106,-0.09185118973255157,0.0,0.0,-0.2219068706035614,0.01,-0.01,0.01,0.0
1666651576.07966375,24044556,1,0.18,0.05,347.11,-0.013730448670685291,0.03052058257162571,-0.1054110899567604,-0.0926385298371315,0.0,0.0,-0.22473911941051483,0.01,-0.01,0.01,0.0
1666651576.11964989,24084542,1,0.18,0.05,347.1,-0.01382558885961771,0.03092440962791443,-0.10540685057640076,-0.08719179034233093,0.0,0.0,-0.22786523401737213,0.01,-0.01,0.01,0.0
1666651576.15967393,24124566,1,0.18,0.06,347.08,-0.013823838904500008,0.03139983117580414,-0.10510759800672531,-0.08388704806566238,0.0,0.0,-0.23142722249031067,0.01,-0.01,0.01,0.0
1666651576.19967794,24164570,1,0.18,0.06,347.07,-0.013830635696649551,0.03172335773706436,-0.10502167046070099,-0.08922692388296127,0.0,0.0,-0.23548820614814758,0.01,-0.01,0.01,0.0
1666651576.21966696,24184559,1,0.18,0.06,347.06,-0.01384509913623333,0.03177386149764061,-0.10488690435886383,-0.09303440898656845,0.0,0.0,-0.23752650618553162,0.01,-0.01,0.01,0.0
1666651576.23969293,24204585,1,0.18,0.06,347.06,-0.014030116610229015,0.03197357431054115,-0.10506276786327362,-0.0970371663570404,0.0,0.0,-0.23960259556770325,0.01,-0.01,0.01,0.0
1666651576.27968788,24244580,1,0.18,0.06,347.06,-0.014464941807091236,0.03276059031486511,-0.10566343367099762,-0.10777891427278519,0.0,0.0,-0.24466001987457275,0.01,-0.01,0.01,0.0
1666651576.31962490,24284517,1,0.18,0.06,347.05,-0.015055299736559391,0.03338072821497917,-0.10589303076267242,-0.12192977219820023,0.0,0.0,-0.2498273253440857,0.01,-0.01,0.01,0.0
1666651576.35967875,24324571,1,0.18,0.06,347.04,-0.015099872834980488,0.033775389194488525,-0.10631649941205978,-0.13184110820293427,0.0,0.0,-0.25495249032974243,0.01,-0.01,0.01,0.0
1666651576.39967775,24364570,1,0.18,0.06,347.04,-0.015217256732285023,0.034303147345781326,-0.10673576593399048,-0.13890917599201202,0.0,0.0,-0.26021072268486023,0.01,-0.01,0.01,0.0
1666651576.41966677,24384559,1,0.18,0.06,347.03000000000003,-0.015343531966209412,0.03407293185591698,-0.10697761923074722,-0.14101512730121613,0.0,0.0,-0.2629763185977936,0.01,-0.01,0.01,0.0
1666651576.43964887,24404541,1,0.18,0.06,347.03000000000003,-0.015447447076439857,0.03448019549250603,-0.10698344558477402,-0.1421748697757721,0.0,0.0,-0.2654181718826294,0.01,-0.01,0.01,0.0
1666651576.47969389,24444586,1,0.18,0.06,347.02,-0.0151884276419878,0.03476925939321518,-0.10716266930103302,-0.13810712099075317,0.0,0.0,-0.26987606287002563,0.01,-0.01,0.01,0.0
1666651576.51968193,24484574,1,0.18,0.06,347.02,-0.015311218798160553,0.03504162281751633,-0.10725840926170349,-0.1266011893749237,0.0,0.0,-0.27414777874946594,0.01,-0.01,0.01,0.0
1666651576.55962491,24524517,1,0.18,0.06,347.01,-0.01573977805674076,0.03552727401256561,-0.1069929450750351,-0.1158226951956749,0.0,0.0,-0.2779947519302368,0.01,-0.01,0.01,0.0
1666651576.59966993,24564562,1,0.18,0.06,347.0,-0.014759577810764313,0.03676598519086838,-0.10678905248641968,-0.09890056401491165,0.0,0.0,-0.28112852573394775,0.01,-0.01,0.02,0.0
1666651576.61966777,24584560,1,0.17,0.06,347.0,-0.01609812118113041,0.03744502365589142,-0.10684563219547272,-0.09160862118005753,0.0,0.0,-0.28255608677864075,0.01,-0.01,0.02,0.0
1666651576.63970375,24604596,1,0.17,0.06,347.0,-0.017597347497940063,0.035560242831707,-0.10706894099712372,-0.08556590229272842,0.0,0.0,-0.28443023562431335,0.01,-0.01,0.02,0.0
1666651576.67966676,24644559,1,0.17,0.06,346.99,-0.016153281554579735,0.039733827114105225,-0.1061052531003952,-0.07986000925302505,0.0,0.0,-0.28807708621025085,0.01,-0.01,0.02,0.0
1666651576.71966887,24684561,1,0.17,0.06,346.99,-0.01692335307598114,0.037008028477430344,-0.10573852062225342,-0.08258021622896194,0.0,0.0,-0.29208508133888245,0.01,-0.01,0.02,0.0
1666651576.75966787,24724560,1,0.18,0.06,346.99,-0.01702478528022766,0.040389083325862885,-0.1074749305844307,-0.08843439072370529,0.0,0.0,-0.29548951983451843,0.01,-0.01,0.02,0.0
1666651576.79965186,24764544,1,0.17,0.06,346.98,-0.01665450818836689,0.03821699321269989,-0.10516440868377686,-0.07359841465950012,0.0,0.0,-0.29762694239616394,0.01,-0.01,0.02,0.0
1666651576.81970096,24784593,1,0.17,0.06,346.97,-0.016809046268463135,0.04162358120083809,-0.1051996499300003,-0.06659720838069916,0.0,0.0,-0.29849252104759216,0.01,-0.01,0.02,0.0
1666651576.83969688,24804589,1,0.17,0.06,346.96,-0.018270520493388176,0.04005936160683632,-0.10556056350469589,-0.060804855078458786,0.0,0.0,-0.3000277280807495,0.01,-0.01,0.02,0.0
1666651576.87967992,24844572,1,0.18,0.06,346.96,-0.017341570928692818,0.04075030982494354,-0.10333249717950821,-0.036030422896146774,0.0,0.0,-0.2980889081954956,0.01,-0.01,0.01,0.0
1666651576.91969085,24884583,1,0.18,0.06,346.97,-0.019402414560317993,0.03956107795238495,-0.10186821222305298,0.005870150867849588,0.0,0.0,-0.29731887578964233,0.01,-0.01,0.01,0.0
1666651576.95967078,24924563,1,0.18,0.06,346.97,-0.018596703186631203,0.04198703542351723,-0.10105941444635391,0.03144411742687225,0.0,0.0,-0.2967882454395294,0.01,-0.01,0.01,0.0
1666651576.99966574,24964558,1,0.18,0.06,346.97,-0.020028280094265938,0.04121817648410797,-0.0994371622800827,0.04643956199288368,0.0,0.0,-0.29620781540870667,0.01,-0.01,0.02,0.0
1666651577.01966476,24984557,1,0.18,0.06,346.97,-0.02035978063941002,0.042672302573919296,-0.09836354106664658,0.048387665301561356,0.0,0.0,-0.2954077124595642,0.01,-0.01,0.02,0.0
1666651577.03966379,25004556,1,0.18,0.07,346.96,-0.02096012979745865,0.04183690994977951,-0.09898552298545837,0.04656000807881355,0.0,0.0,-0.29607415199279785,0.01,-0.01,0.02,0.0
1666651577.07968974,25044582,1,0.18,0.06,346.96,-0.01885179616510868,0.04365422949194908,-0.09699171036481857,0.046928614377975464,0.0,0.0,-0.29304277896881104,0.01,-0.01,0.03,0.0
1666651577.11967874,25084571,1,0.18,0.06,346.94,-0.02130812220275402,0.04437824711203575,-0.09281156957149506,0.05791965126991272,0.0,0.0,-0.29187092185020447,0.01,-0.01,0.03,0.0
1666651577.15971088,25124603,1,0.18,0.06,346.93,-0.017667921259999275,0.04586387798190117,-0.0943935438990593,0.055320385843515396,0.0,0.0,-0.2908840775489807,0.01,-0.01,0.03,0.0
1666651577.19966674,25164559,1,0.2,0.07,346.93,-0.024346251040697098,0.036067500710487366,-0.10432139784097672,0.04456484317779541,0.0,0.0,-0.2895348072052002,0.01,-0.01,0.03,0.0
1666651577.21969080,25184583,1,0.24,0.05,346.92,-0.022351635619997978,0.04401577264070511,-0.09170745313167572,0.05452130734920502,0.0,0.0,-0.2884179353713989,0.01,-0.01,0.03,0.0
1666651577.23971176,25204604,1,0.19,0.08,346.92,-0.018718497827649117,0.04709060862660408,-0.09053438156843185,0.05202069878578186,0.0,0.0,-0.2889184355735779,0.01,-0.01,0.03,0.0
1666651577.27967882,25244571,1,0.18,0.04,346.92,-0.004608024377375841,0.04799645394086838,-0.10042931139469147,0.028440669178962708,0.0,0.0,-0.28792113065719604,0.01,-0.01,0.02,0.0
1666651577.31968188,25284574,1,0.25,0.08,346.92,-0.017685342580080032,0.04319825395941734,-0.09701557457447052,0.015236083418130875,0.0,0.0,-0.2886371910572052,0.01,-0.01,0.02,0.0
1666651577.35965586,25324548,1,0.15,0.12,346.90000000000003,-0.04784241318702698,0.040873873978853226,-0.18622906506061554,-0.09165656566619873,0.0,0.0,-0.29165440797805786,0.01,-0.01,0.02,0.0
1666651577.39968085,25364573,1,0.2,0.15,346.91,-0.04063604027032852,0.06439929455518723,-0.24647308886051178,-0.17239798605442047,0.0,0.0,-0.29919594526290894,0.01,-0.01,-0.05,0.0
1666651577.41967678,25384569,1,0.24,0.08,346.95,-0.03443969786167145,0.031048037111759186,-0.3733786344528198,-0.30952024459838867,0.0,0.0,-0.30412057042121887,0.01,-0.01,-0.05,0.0
1666651577.43966675,25404559,1,0.26,0.15,346.95,-0.01642320305109024,0.06321191787719727,-0.38955527544021606,-0.3348022401332855,0.0,0.0,-0.3108971416950226,0.01,-0.01,-0.05,0.0
1666651577.47963977,25444532,1,0.36,0.03,347.08,-0.03146248683333397,0.021716536954045296,-0.5263875126838684,-0.49728304147720337,0.0,0.0,-0.3292437195777893,0.01,-0.01,-0.16,0.0
1666651577.51969194,25484584,1,0.24,0.02,347.22,-0.018710507079958916,0.06803209334611893,-0.5629785060882568,-0.5688061714172363,0.0,0.0,-0.3515540361404419,0.01,-0.01,-0.16,0.0
1666651577.55967975,25524572,1,0.37,-0.05,347.35,-0.030541516840457916,0.04405868425965309,-0.637327253818512,-0.675955057144165,0.0,0.0,-0.3805096745491028,0.01,-0.01,-0.16,0.0
1666651577.59967780,25564570,1,0.33,-0.06,347.57,-0.04314384236931801,0.047381456941366196,-0.6931370496749878,-0.835350513458252,0.0,0.0,-0.4183835983276367,0.01,-0.01,-0.26,0.0
1666651577.61968374,25584576,1,0.34,-0.09,347.68,-0.020439503714442253,0.05899627506732941,-0.7199938297271729,-0.9134825468063354,0.0,0.0,-0.439182311296463,0.01,-0.01,-0.26,0.0
1666651577.63967776,25604570,1,0.29,-0.05,347.79,-0.030252156779170036,0.0705363005399704,-0.716679573059082,-0.9539711475372314,0.0,0.0,-0.45706063508987427,0.01,-0.01,-0.26,0.0
1666651577.67966890,25644561,1,0.41000000000000003,-0.01,347.99,-0.025879669934511185,0.06223360821604729,-0.8066120743751526,-1.09739089012146,0.0,0.0,-0.5004292130470276,0.01,-0.01,-0.36,0.0
1666651577.71962595,25684518,1,0.64,-0.01,348.26,-0.01667402870953083,0.054737530648708344,-0.7897300124168396,-1.1021771430969238,0.0,0.0,-0.5403977036476135,0.01,-0.01,-0.36,0.0
1666651577.75967574,25724568,1,0.7000000000000001,-0.11,348.51,-0.023720620200037956,0.06511399149894714,-0.6597604155540466,-0.9640074372291565,0.0,0.0,-0.5763401389122009,0.01,-0.01,-0.36,0.0
1666651577.79969788,25764590,1,0.85,-0.22,348.81,-0.030952224507927895,0.06748353689908981,-0.5142086744308472,-0.7795937061309814,0.0,0.0,-0.6055078506469727,0.01,-0.01,-0.47000000000000003,0.0
1666651577.81966376,25784556,1,0.97,-0.26,348.95,-0.013589068315923214,0.07057850062847137,-0.4334377646446228,-0.6740511655807495,0.0,0.0,-0.6183246374130249,0.01,-0.01,-0.47000000000000003,0.0
1666651577.83968282,25804575,1,1.03,-0.29,349.08,-0.022654825821518898,0.07272697240114212,-0.321562796831131,-0.5394376516342163,0.0,0.0,-0.6272017359733582,0.01,-0.01,-0.47000000000000003,0.0
1666651577.87967086,25844563,1,1.19,-0.39,349.39,-0.020640095695853233,0.07754029333591461,-0.08227763324975967,-0.26501408219337463,0.0,0.0,-0.6430224776268005,0.01,-0.01,-0.5700000000000001,0.0
1666651577.91964579,25884538,1,1.23,-0.49,349.71,-0.024968473240733147,0.0732060968875885,0.16822437942028046,-0.0008807179401628673,0.0,0.0,-0.6467840075492859,0.01,-0.01,-0.5700000000000001,0.0
1666651577.95968294,25924575,1,1.37,-0.5,349.95,-0.02117142081260681,0.0708436667919159,0.4652588963508606,0.309299498796463,0.0,0.0,-0.6383194327354431,0.01,-0.01,-0.5700000000000001,0.0
1666651577.99968982,25964582,1,1.37,-0.47000000000000003,350.08,-0.019304698333144188,0.07777892798185349,0.7535718679428101,0.6268970966339111,0.0,0.0,-0.6165353059768677,0.01,-0.01,-0.54,0.0
1666651578.01966381,25984556,1,1.31,-0.39,350.13,-0.022083351388573647,0.07004901021718979,0.8988027572631836,0.7882795333862305,0.0,0.0,-0.6017544865608215,0.01,-0.01,-0.54,0.0
1666651578.03969288,26004585,1,1.21,-0.34,350.13,-0.01463805790990591,0.06660135090351105,1.0257922410964966,0.9296872615814209,0.0,0.0,-0.5838688611984253,0.01,-0.01,-0.54,0.0
1666651578.07968473,26044577,1,1.05,-0.21,350.13,-0.01934322901070118,0.08229102939367294,1.2590242624282837,1.2037172317504883,0.0,0.0,-0.5369473099708557,0.01,-0.01,-0.53,0.0
1666651578.11962795,26084520,1,0.85,-0.13,350.08,-0.017104364931583405,0.07678921520709991,1.4157441854476929,1.414286732673645,0.0,0.0,-0.4820123016834259,0.01,-0.01,-0.53,0.0
1666651578.15962577,26124518,1,-0.6,0.15,349.94,-0.047709494829177856,-0.18744167685508728,-0.12630808353424072,-0.08169573545455933,0.0,0.0,-0.43321681022644043,0.01,-0.01,-0.53,0.0
1666651578.19967794,26164570,1,-0.21,-0.04,350.0,-0.06610791385173798,-0.19038337469100952,-0.29243242740631104,-0.1862221360206604,0.0,0.0,-0.4303050935268402,0.01,-0.01,-0.53,0.0
1666651578.21966386,26184556,1,-0.36,-0.17,349.96,-0.07840147614479065,-0.2823087275028229,-0.19833186268806458,-0.07300589978694916,0.0,0.0,-0.43204250931739807,0.01,-0.01,-0.53,0.0
1666651578.23967886,26204571,1,-0.05,-0.29,349.94,-0.05415179207921028,-0.3034290373325348,-0.7704828381538391,-0.6303226351737976,0.0,0.0,-0.4411785900592804,0.01,-0.01,-0.53,0.0
1666651578.27967596,26244568,1,0.26,-0.46,349.96,-0.07797686010599136,-0.19790241122245789,-0.45745792984962463,-0.3154938519001007,0.0,0.0,-0.46081116795539856,0.01,-0.01,-0.63,0.0
1666651578.31967688,26284569,1,0.8,-0.7000000000000001,349.99,-0.05844862386584282,-0.2633359730243683,-0.4475240409374237,-0.3274730443954468,0.0,0.0,-0.4753058850765228,0.01,-0.01,-0.63,0.0
1666651578.35966396,26324556,1,1.25,-0.85,349.95,-0.06119867414236069,-0.21435442566871643,-0.4254430830478668,-0.3316344618797302,0.0,0.0,-0.4915592074394226,0.01,-0.01,-0.63,0.0
1666651578.39963794,26364530,1,1.24,-0.8200000000000001,349.75,-0.06438915431499481,-0.2742065489292145,-0.35160499811172485,-0.2941105365753174,0.0,0.0,-0.5054001808166504,0.01,-0.01,-0.53,0.0
1666651578.41968775,26384580,1,1.12,-0.8200000000000001,349.68,-0.05237278714776039,-0.259517639875412,-0.324242502450943,-0.28175342082977295,0.0,0.0,-0.5119771957397461,0.01,-0.01,-0.53,0.0
1666651578.43967485,26404567,1,0.91,-0.71,349.56,-0.059437576681375504,-0.21165324747562408,-0.2506331503391266,-0.22180140018463135,0.0,0.0,-0.5179407596588135,0.01,-0.01,-0.53,0.0
1666651578.47966290,26444555,1,0.41000000000000003,-0.53,349.42,-0.06274725496768951,-0.2526512145996094,-0.22243061661720276,-0.20749153196811676,0.0,0.0,-0.5271424055099487,0.01,-0.01,-0.62,0.0
1666651578.51971078,26484603,1,0.03,-0.36,349.28000000000003,-0.05145972594618797,-0.24291667342185974,-0.21637208759784698,-0.20057380199432373,0.0,0.0,-0.5348168611526489,0.01,-0.01,-0.62,0.0
1666651578.55965996,26524552,1,-0.15,-0.3,349.15000000000003,-0.043067097663879395,-0.24287229776382446,-0.16850623488426208,-0.14876534044742584,0.0,0.0,-0.5400918126106262,0.01,-0.01,-0.62,0.0
1666651578.59966683,26564559,1,-0.21,-0.37,349.06,-0.03794590383768082,-0.2366188019514084,-0.14381222426891327,-0.09628515690565109,0.0,0.0,-0.5429353713989258,0.01,-0.01,-0.72,0.0
1666651578.61964273,26584535,1,-0.3,-0.36,349.03000000000003,-0.023081151768565178,-0.25242868065834045,-0.13247665762901306,-0.07082980871200562,0.0,0.0,-0.543404757976532,0.01,-0.01,-0.72,0.0
1666651578.63965583,26604548,1,-0.29,-0.42,348.99,-0.029165999963879585,-0.23112086951732635,-0.12362808734178543,-0.050340551882982254,0.0,0.0,-0.5450587272644043,0.01,-0.01,-0.72,0.0
1666651578.67967796,26644570,1,-0.37,-0.48,348.87,-0.027028027921915054,-0.24136672914028168,-0.10676717013120651,-0.01443423517048359,0.0,0.0,-0.5440637469291687,0.01,-0.01,-0.63,0.0
1666651578.71970081,26684593,1,-0.23,-0.51,348.72,-0.02481350488960743,-0.24803374707698822,-0.06891223043203354,0.041730593889951706,0.0,0.0,-0.5436172485351562,0.01,-0.01,-0.63,0.0
1666651578.75968385,26724576,1,-0.25,-0.52,348.5,-0.010590425692498684,-0.25256773829460144,-0.04494857415556908,0.07252368330955505,0.0,0.0,-0.5424894690513611,0.01,-0.01,-0.63,0.0
1666651578.79965997,26764552,1,-0.28,-0.6,348.26,-0.01183958537876606,-0.25866037607192993,-0.038406722247600555,0.0837177112698555,0.0,0.0,-0.5402836799621582,0.01,-0.01,-0.63,0.0
1666651578.81965494,26784547,1,-0.34,-0.61,348.15000000000003,-0.020137690007686615,-0.25142335891723633,-0.03183462470769882,0.09023603796958923,0.0,0.0,-0.5383453965187073,0.01,-0.01,-0.63,0.0
1666651578.83965492,26804547,1,-0.26,-0.5700000000000001,348.03000000000003,-0.016076963394880295,-0.2511151432991028,-0.02400936745107174,0.0965040996670723,0.0,0.0,-0.5378319621086121,0.01,-0.01,-0.63,0.0
1666651578.87969279,26844585,1,-0.27,-0.5700000000000001,347.77,-0.00717738876119256,-0.24206270277500153,-0.025016944855451584,0.0894632488489151,0.0,0.0,-0.5336747169494629,0.01,-0.01,-0.63,0.0
1666651578.91968894,26884581,1,-0.18,-0.46,347.51,0.003320972202345729,-0.23508481681346893,-0.006269043777137995,0.10355298966169357,0.0,0.0,-0.531536340713501,0.01,-0.01,-0.63,0.0
1666651578.95966792,26924560,1,-0.13,-0.47000000000000003,347.27,0.0055092875845730305,-0.25333303213119507,-0.08789964020252228,0.01296931505203247,0.0,0.0,-0.531372606754303,0.01,-0.01,-0.63,0.0
1666651578.99971676,26964609,1,0.03,-0.37,347.04,-0.002409535925835371,-0.2582622468471527,-0.1620522290468216,-0.07903127372264862,0.0,0.0,-0.5339676737785339,0.01,-0.01,-0.63,0.0
1666651579.01969290,26984585,1,0.05,-0.25,346.89,0.006760094780474901,-0.26493263244628906,-0.1482078731060028,-0.0749746561050415,0.0,0.0,-0.5361690521240234,0.01,-0.01,-0.63,0.0
1666651579.03966284,27004555,1,0.01,-0.19,346.76,-0.004310277756303549,-0.2530081570148468,-0.21144428849220276,-0.1476568579673767,0.0,0.0,-0.5393901467323303,0.01,-0.01,-0.63,0.0
1666651579.07964993,27044542,1,0.02,-0.06,346.48,-0.0035522456746548414,-0.2611803412437439,-0.2689532935619354,-0.22444450855255127,0.0,0.0,-0.5478206276893616,0.01,-0.01,-0.63,0.0
1666651579.11968875,27084581,1,0.07,0.03,346.23,0.0031641502864658833,-0.2723047435283661,-0.3582038879394531,-0.3327758014202118,0.0,0.0,-0.5597891211509705,0.01,-0.01,-0.63,0.0
1666651579.15967989,27124572,1,0.34,0.09,346.0,0.02052660658955574,-0.24149689078330994,-0.476593554019928,-0.46549659967422485,0.0,0.0,-0.5760416388511658,0.01,-0.01,-0.63,0.0
1666651579.19970894,27164601,1,0.6900000000000001,0.14,345.76,0.008216073736548424,-0.2527619004249573,-0.6073231101036072,-0.6133104562759399,0.0,0.0,-0.5984506011009216,0.01,-0.01,-0.63,0.0
1666651579.21969485,27184587,1,0.56,0.09,345.64,0.01752128079533577,-0.240709587931633,-0.688611626625061,-0.7016292214393616,0.0,0.0,-0.6119749546051025,0.01,-0.01,-0.63,0.0
1666651579.23969579,27204588,1,0.79,0.15,345.52,0.012397941201925278,-0.24789902567863464,-0.7307981252670288,-0.7499001026153564,0.0,0.0,-0.6267252564430237,0.01,-0.01,-0.63,0.0
1666651579.27966595,27244558,1,0.89,0.32,345.34000000000003,0.018213920295238495,-0.22290977835655212,-0.8787348866462708,-0.8988073468208313,0.0,0.0,-0.6578367948532104,0.01,-0.01,-0.63,0.0
1666651579.31965780,27284550,1,0.96,0.63,345.14,0.00643565971404314,-0.22748754918575287,-0.9290688633918762,-0.935413658618927,0.0,0.0,-0.692609429359436,0.01,-0.01,-0.63,0.0
1666651579.35966897,27324561,1,1.0,0.85,344.97,0.009843557141721249,-0.22653305530548096,-0.9772705435752869,-0.971756637096405,0.0,0.0,-0.7297661304473877,0.01,-0.01,-0.63,0.0
1666651579.39965677,27364549,1,0.99,1.03,344.82,-0.0011120308190584183,-0.2142680287361145,-0.968096137046814,-0.951362669467926,0.0,0.0,-0.7680096626281738,0.01,-0.01,-0.63,0.0
1666651579.41962290,27384515,1,0.99,1.08,344.76,0.010086880065500736,-0.20224535465240479,-0.9316689372062683,-0.9112972021102905,0.0,0.0,-0.78630530834198,0.01,-0.01,-0.63,0.0
1666651579.43969274,27404585,1,0.9500000000000001,1.1500000000000001,344.71,0.00724804075434804,-0.20663794875144958,-0.8957983255386353,-0.8728378415107727,0.0,0.0,-0.8042401075363159,0.01,-0.01,-0.63,0.0
1666651579.47966886,27444561,1,0.91,1.22,344.64,0.0044107805006206036,-0.19651846587657928,-0.7522879838943481,-0.7289242744445801,0.0,0.0,-0.8356444835662842,0.01,-0.01,-0.63,0.0
1666651579.51966596,27484558,1,0.85,1.22,344.61,0.001781166298314929,-0.1896749883890152,-0.5792595148086548,-0.5614011883735657,0.0,0.0,-0.8625903129577637,0.01,-0.01,-0.63,0.0
1666651579.55965781,27524550,1,0.78,1.1500000000000001,344.57,0.0033369262237101793,-0.1886756420135498,-0.3571757376194,-0.3454613983631134,0.0,0.0,-0.8803028464317322,0.01,-0.01,-0.63,0.0
1666651579.59967589,27564568,1,0.66,1.02,344.49,-0.0038430874701589346,-0.18090510368347168,-0.10895748436450958,-0.08369867503643036,0.0,0.0,-0.8871574997901917,0.01,-0.01,-0.53,0.0
1666651579.61967874,27584571,1,0.5700000000000001,0.9400000000000001,344.46,0.0026835636235773563,-0.18119169771671295,0.039125218987464905,0.07248575985431671,0.0,0.0,-0.8864150643348694,0.01,-0.01,-0.53,0.0
1666651579.63968182,27604574,1,0.49,0.85,344.44,-0.005229847505688667,-0.18254618346691132,0.16195502877235413,0.20219796895980835,0.0,0.0,-0.8838112950325012,0.01,-0.01,-0.53,0.0
1666651579.67969584,27644588,1,0.32,0.67,344.46,-0.003964023198932409,-0.17952510714530945,0.44698575139045715,0.5016809701919556,0.0,0.0,-0.8673073053359985,0.01,-0.01,-0.49,0.0
1666651579.71966195,27684554,1,0.15,0.47000000000000003,344.52,-0.009439478628337383,-0.17510341107845306,0.7390232682228088,0.8123619556427002,0.0,0.0,-0.8404843807220459,0.01,-0.01,-0.49,0.0
1666651579.75962591,27724518,1,-0.03,0.32,344.61,-0.0067826369777321815,-0.1735980063676834,1.0301381349563599,1.113645315170288,0.0,0.0,-0.8011850714683533,0.01,-0.01,-0.49,0.0
1666651579.79968381,27764576,1,-0.18,0.21,344.69,-0.012833151035010815,-0.16759862005710602,1.309950351715088,1.4096404314041138,0.0,0.0,-0.7499436736106873,0.01,-0.01,-0.49,0.0
1666651579.81966782,27784560,1,-0.24,0.18,344.71,-0.017967374995350838,-0.1724402755498886,1.4384658336639404,1.5437315702438354,0.0,0.0,-0.7205865383148193,0.01,-0.01,-0.49,0.0
1666651579.83967686,27804569,1,-0.26,0.15,344.69,-0.01741008646786213,-0.17472347617149353,1.554310917854309,1.6633206605911255,0.0,0.0,-0.6888336539268494,0.01,-0.01,-0.49,0.0
1666651579.87963796,27844530,1,-0.21,0.13,344.66,-0.03071781061589718,-0.1677962988615036,1.7226969003677368,1.820410132408142,0.0,0.0,-0.621537983417511,0.01,-0.01,-0.48,0.0
1666651579.91968679,27884579,1,-0.27,0.13,344.6,-0.042317915707826614,-0.16449002921581268,1.818036675453186,1.8839094638824463,0.0,0.0,-0.5500842332839966,0.01,-0.01,-0.48,0.0
1666651579.95967078,27924563,1,-0.26,0.15,344.56,-0.01908157207071781,-0.1636764407157898,1.8393555879592896,1.873558759689331,0.0,0.0,-0.477116197347641,0.01,-0.01,-0.48,0.0
1666651579.99962378,27964516,1,-0.26,0.13,344.52,-0.021802786737680435,-0.18276092410087585,1.7918343544006348,1.7698557376861572,0.0,0.0,-0.4079689383506775,0.01,-0.01,-0.42,0.0
1666651580.01968479,27984577,1,-0.07,0.09,344.43,-0.025737786665558815,-0.18192754685878754,1.7597627639770508,1.7117507457733154,0.0,0.0,-0.3745930790901184,0.01,-0.01,-0.42,0.0
1666651580.03969073,28004583,1,-0.17,0.14,344.43,-0.012547703459858894,-0.14691253006458282,1.7054976224899292,1.6353166103363037,0.0,0.0,-0.3401475250720978,0.01,-0.01,-0.42,0.0
1666651580.07969189,28044584,1,-0.11,0.15,344.42,-0.0021480133291333914,-0.1807834506034851,1.6181832551956177,1.4910203218460083,0.0,0.0,-0.2855681777000427,0.01,-0.01,-0.42,0.0
1666651580.11967278,28084565,1,0.02,0.11,344.47,-0.01905200071632862,-0.16085344552993774,1.5641777515411377,1.3537245988845825,0.0,0.0,-0.23113036155700684,0.01,-0.01,-0.42,0.0
1666651580.15967083,28124563,1,0.09,0.16,344.49,-0.024722468107938766,-0.13129647076129913,1.565708041191101,1.30105721950531,0.0,0.0,-0.17955529689788818,0.01,-0.01,-0.42,0.0
1666651580.19966578,28164558,1,0.24,0.12,344.58,-0.02868572250008583,-0.13904984295368195,1.6226260662078857,1.2789942026138306,0.0,0.0,-0.13006055355072021,0.01,-0.01,-0.42,0.0
1666651580.21965981,28184552,1,0.12,0.18,344.59000000000003,-0.022856036201119423,-0.1712154597043991,1.6175365447998047,1.243910551071167,0.0,0.0,-0.10633829236030579,0.01,-0.01,-0.42,0.0
1666651580.23966479,28204557,1,0.07,0.37,344.62,0.02619134448468685,-0.023674095049500465,0.33957740664482117,-0.05223274230957031,0.0,0.0,-0.08463092148303986,0.01,-0.01,-0.42,0.0
1666651580.27967978,28244572,1,0.24,0.09,344.74,-0.055729661136865616,-0.10645880550146103,-0.02166941948235035,-0.43239888548851013,0.0,0.0,-0.10119574517011642,0.01,-0.01,-0.42,0.0
1666651580.31966496,28284557,1,0.28,-0.2,344.78000000000003,-0.044835735112428665,-0.10768082737922668,-0.36630144715309143,-0.8248704671859741,0.0,0.0,-0.12356770038604736,0.01,-0.01,-0.42,0.0
1666651580.35969496,28324587,1,0.68,-0.41000000000000003,344.78000000000003,-0.05936325341463089,-0.08513499796390533,-0.28019994497299194,-0.754863440990448,0.0,0.0,-0.15525832772254944,0.0,-0.01,-0.42,0.0
1666651580.39967179,28364564,1,0.5700000000000001,-0.53,344.82,-0.04000626131892204,-0.1178448349237442,-0.02201877161860466,-0.5358608365058899,0.0,0.0,-0.17666248977184296,0.0,-0.01,-0.4,0.0
1666651580.41967773,28384570,1,0.66,-0.61,344.86,-0.03992222249507904,-0.10380874574184418,-0.04263317584991455,-0.565412700176239,0.0,0.0,-0.18905872106552124,0.0,-0.01,-0.4,0.0
1666651580.43967295,28404565,1,0.58,-0.64,344.91,-0.0626070648431778,-0.09201116114854813,0.10168083012104034,-0.4233887493610382,0.0,0.0,-0.19395224750041962,0.0,-0.01,-0.4,0.0
1666651580.47965288,28444545,1,0.42,-0.63,344.96,-0.06148245185613632,-0.09826072305440903,0.26415881514549255,-0.2261120080947876,0.0,0.0,-0.20361773669719696,0.0,-0.01,-0.31,0.0
1666651580.51968074,28484573,1,0.33,-0.55,345.0,-0.049536190927028656,-0.08944065868854523,0.41963502764701843,-0.0012913239188492298,0.0,0.0,-0.20145255327224731,0.0,-0.01,-0.31,0.0
1666651580.55967283,28524565,1,0.14,-0.48,345.04,-0.04989737644791603,-0.08935075998306274,0.621268630027771,0.27593061327934265,0.0,0.0,-0.18999525904655457,0.0,-0.01,-0.31,0.0
1666651580.59968686,28564579,1,0.21,-0.23,345.2,-0.03466404601931572,-0.046914540231227875,0.7529073357582092,0.4700288474559784,0.0,0.0,-0.1691296249628067,0.0,-0.01,-0.39,0.0
1666651580.61968493,28584577,1,0.9400000000000001,0.04,345.29,-0.04322830215096474,0.09388269484043121,0.1810040920972824,-0.06968949735164642,0.0,0.0,-0.16636936366558075,0.0,-0.01,-0.39,0.0
1666651580.63966489,28604557,1,0.89,0.07,345.40000000000003,-0.05078818276524544,0.19976286590099335,0.0360410250723362,-0.18519389629364014,0.0,0.0,-0.16597533226013184,0.0,-0.01,-0.39,0.0
1666651580.67966175,28644554,1,1.12,0.02,345.48,-0.09069926291704178,0.30501413345336914,0.11062917113304138,-0.07375352829694748,0.0,0.0,-0.17621785402297974,0.0,-0.01,-0.31,0.0
1666651580.71970677,28684599,1,0.89,0.14,345.55,-0.05654911324381828,0.34321698546409607,0.16938672959804535,-0.01004011183977127,0.0,0.0,-0.1808912605047226,0.0,-0.01,-0.31,0.0
1666651580.75968981,28724582,1,0.4,0.29,345.49,-0.08553029596805573,0.26282674074172974,0.20152828097343445,0.025072425603866577,0.0,0.0,-0.17926277220249176,0.0,-0.01,-0.31,0.0
1666651580.79968882,28764581,1,-0.08,0.32,345.42,-0.07059687376022339,0.18195194005966187,0.1015574038028717,-0.0799793228507042,0.0,0.0,-0.18112803995609283,0.0,-0.01,-0.3,0.0
1666651580.81965876,28784551,1,-0.12,0.38,345.38,-0.0693589523434639,0.1570916473865509,0.08880382776260376,-0.09408045560121536,0.0,0.0,-0.18447346985340118,0.0,-0.01,-0.3,0.0
1666651580.83969975,28804592,1,-0.03,0.41000000000000003,345.32,-0.07051242142915726,0.12588909268379211,0.13677094876766205,-0.04532018303871155,0.0,0.0,-0.18463453650474548,0.0,-0.01,-0.3,0.0
1666651580.87966490,28844557,1,0.51,0.42,345.2,-0.02023986726999283,0.11126783490180969,0.16493086516857147,-0.009485919028520584,0.0,0.0,-0.18707244098186493,0.0,-0.01,-0.31,0.0
1666651580.91962290,28884515,1,0.72,0.34,345.12,0.017204392701387405,0.1662587970495224,0.1334455907344818,-0.030053963884711266,0.0,0.0,-0.1873178482055664,0.0,-0.01,-0.31,0.0
1666651580.95968080,28924573,1,0.49,0.26,345.1,0.05971154943108559,0.2327888458967209,0.1383887380361557,-0.007213199511170387,0.0,0.0,-0.18709978461265564,0.0,-0.01,-0.31,0.0
1666651580.99969196,28964584,1,0.16,0.22,345.03000000000003,0.05176478624343872,0.2651699185371399,0.14605744183063507,0.02405858226120472,0.0,0.0,-0.18543048202991486,0.0,0.0,-0.23,0.0
1666651581.01966786,28984560,1,0.08,0.16,345.0,0.04117565229535103,0.27278101444244385,0.13729117810726166,0.027984878048300743,0.0,0.0,-0.18491190671920776,0.0,-0.01,-0.23,0.0
1666651581.03969693,29004589,1,0.1,0.1,344.98,0.038385841995477676,0.24922724068164825,0.12909458577632904,0.03062581457197666,0.0,0.0,-0.18342922627925873,0.0,-0.01,-0.23,0.0
1666651581.07967877,29044571,1,0.3,0.04,344.91,-0.013285243883728981,0.17775242030620575,0.12890057265758514,0.040206898003816605,0.0,0.0,-0.18518874049186707,0.0,-0.01,-0.26,0.0
1666651581.11967278,29084565,1,0.54,0.03,344.84000000000003,-0.047152627259492874,0.13923989236354828,0.1395132839679718,0.03959650173783302,0.0,0.0,-0.1848025918006897,0.0,-0.01,-0.26,0.0
1666651581.15965295,29124545,1,0.41000000000000003,0.13,344.74,-0.06053730100393295,0.15390022099018097,0.13136501610279083,0.02474956028163433,0.0,0.0,-0.1841566115617752,0.0,0.0,-0.26,0.0
1666651581.19968390,29164576,1,0.44,0.23,344.68,-0.06722354143857956,0.25079184770584106,0.12078151851892471,0.005200923420488834,0.0,0.0,-0.18436644971370697,0.0,0.0,-0.24,0.0
1666651581.21962476,29184517,1,0.41000000000000003,0.25,344.67,-0.050447821617126465,0.2791531980037689,0.12768907845020294,0.009898281656205654,0.0,0.0,-0.18487505614757538,0.0,0.0,-0.24,0.0
1666651581.23969173,29204584,1,0.46,0.28,344.65000000000003,-0.04180166870355606,0.27741554379463196,0.13266326487064362,0.014301230199635029,0.0,0.0,-0.18378186225891113,0.0,0.0,-0.24,0.0
1666651581.27968884,29244581,1,0.46,0.33,344.62,-0.03233086317777634,0.29296809434890747,0.12947918474674225,0.00184645876288414,0.0,0.0,-0.18729165196418762,0.0,0.0,-0.21,0.0
1666651581.31969285,29284585,1,0.28,0.39,344.58,-0.01322020124644041,0.22117005288600922,0.1210053339600563,-0.03229318559169769,0.0,0.0,-0.18887220323085785,0.0,0.0,-0.21,0.0
1666651581.35966587,29324558,1,0.23,0.39,344.5,-0.0016898605972528458,0.1934814155101776,0.12044791132211685,-0.04599155858159065,0.0,0.0,-0.19010384380817413,0.0,0.0,-0.21,0.0
1666651581.39967394,29364566,1,0.35000000000000003,0.34,344.39,0.01152699626982212,0.1851641833782196,0.11712103337049484,-0.05623298138380051,0.0,0.0,-0.191449373960495,0.0,0.0,-0.18,0.0
1666651581.41967392,29384566,1,0.47000000000000003,0.3,344.33,0.01672423630952835,0.20152108371257782,0.12207008898258209,-0.05044734477996826,0.0,0.0,-0.19292525947093964,0.0,0.0,-0.18,0.0
1666651581.43969274,29404585,1,0.5700000000000001,0.27,344.27,0.026258256286382675,0.2149311900138855,0.11815270781517029,-0.05168135464191437,0.0,0.0,-0.192249596118927,0.0,0.0,-0.18,0.0
1666651581.47966290,29444555,1,0.62,0.23,344.16,0.019217748194932938,0.2447444200515747,0.1149972677230835,-0.04696844145655632,0.0,0.0,-0.19535256922245026,0.0,0.0,-0.16,0.0
1666651581.51968193,29484574,1,0.46,0.2,344.06,0.010226136073470116,0.2625678479671478,0.12031267583370209,-0.03904802352190018,0.0,0.0,-0.19604118168354034,0.0,0.0,-0.16,0.0
1666651581.55962586,29524518,1,0.26,0.2,344.02,-0.009637154638767242,0.2688334286212921,0.11621975898742676,-0.03302769735455513,0.0,0.0,-0.19607490301132202,0.0,0.0,-0.16,0.0
1666651581.59965992,29564552,1,0.27,0.22,343.99,-0.02347923442721367,0.2461346685886383,0.11094888299703598,-0.021970273926854134,0.0,0.0,-0.1956074833869934,0.0,0.0,-0.15,0.0
1666651581.61971092,29584603,1,0.34,0.24,343.97,-0.03291584551334381,0.23293213546276093,0.11453770846128464,-0.00852715689688921,0.0,0.0,-0.19581331312656403,0.0,0.0,-0.15,0.0
1666651581.63968277,29604575,1,0.45,0.27,343.94,-0.03903185576200485,0.22333763539791107,0.11471738666296005,0.001463799155317247,0.0,0.0,-0.19464994966983795,0.0,0.0,-0.15,0.0
1666651581.67968082,29644573,1,0.54,0.3,343.83,-0.03176138922572136,0.2146860957145691,0.1059613823890686,0.017868371680378914,0.0,0.0,-0.19306762516498566,0.0,0.0,-0.14,0.0
1666651581.71968985,29684582,1,0.54,0.33,343.71,-0.0171424001455307,0.24997763335704803,0.1067875325679779,0.04815744608640671,0.0,0.0,-0.190148264169693,0.0,0.0,-0.14,0.0
1666651581.75968695,29724579,1,0.47000000000000003,0.35000000000000003,343.6,0.011012560687959194,0.27233773469924927,0.11457212269306183,0.07854148000478745,0.0,0.0,-0.18751956522464752,0.0,0.0,-0.14,0.0
1666651581.79963994,29764532,1,0.37,0.34,343.53000000000003,0.017462734133005142,0.2766517996788025,0.11018022149801254,0.07714727520942688,0.0,0.0,-0.18557505309581757,0.0,0.0,-0.12,0.0
1666651581.81967092,29784563,1,0.37,0.32,343.5,0.02242063544690609,0.2632567584514618,0.11304664611816406,0.0787496343255043,0.0,0.0,-0.18487101793289185,0.0,0.0,-0.12,0.0
1666651581.83961892,29804511,1,0.35000000000000003,0.29,343.48,0.019931940361857414,0.25572577118873596,0.10801558196544647,0.07226549088954926,0.0,0.0,-0.1833396703004837,0.0,0.0,-0.12,0.0
1666651581.87967277,29844565,1,0.37,0.28,343.43,0.004307627212256193,0.22769998013973236,0.11879300326108932,0.0712399035692215,0.0,0.0,-0.1840534657239914,0.0,0.0,-0.13,0.0
1666651581.91968393,29884576,1,0.46,0.26,343.35,0.005363150034099817,0.23018532991409302,0.1090770959854126,0.03672337159514427,0.0,0.0,-0.18349987268447876,0.0,0.0,-0.13,0.0
1666651581.95966697,29924559,1,0.59,0.24,343.27,-0.007288041058927774,0.2500247359275818,0.10510224103927612,0.017026495188474655,0.0,0.0,-0.1831982135772705,0.0,0.0,-0.13,0.0
1666651581.99966693,29964559,1,0.6,0.24,343.14,-0.00254432181827724,0.27172574400901794,0.1100655123591423,0.006672597490251064,0.0,0.0,-0.18330197036266327,0.0,0.0,-0.09,0.0
1666651582.01967382,29984566,1,0.58,0.25,343.1,-0.00830824114382267,0.28643330931663513,0.10696569085121155,-0.0012931686360388994,0.0,0.0,-0.18366171419620514,0.0,0.0,-0.09,0.0
1666651582.03961992,30004512,1,0.53,0.28,343.08,-0.008135293610394001,0.2848537564277649,0.10647785663604736,-0.004102820996195078,0.0,0.0,-0.18275177478790283,0.0,0.0,-0.09,0.0
1666651582.07960176,30044494,1,0.42,0.3,343.08,-0.011246937327086926,0.27820730209350586,0.1015612781047821,-0.01314164325594902,0.0,0.0,-0.18497754633426666,0.0,0.0,-0.09,0.0
1666651582.11962986,30084522,1,0.38,0.31,343.12,-0.006321849767118692,0.2635479271411896,0.10215643793344498,-0.02220064215362072,0.0,0.0,-0.18526864051818848,0.0,0.0,-0.09,0.0
1666651582.15963888,30124531,1,0.43,0.33,343.18,-0.006604259833693504,0.25400832295417786,0.09834486991167068,-0.027154691517353058,0.0,0.0,-0.18588437139987946,0.0,0.0,-0.09,0.0
1666651582.19964886,30164541,1,0.53,0.33,343.2,0.009058881551027298,0.246139794588089,0.09884128719568253,-0.0373501256108284,0.0,0.0,-0.18759678304195404,0.0,0.0,-0.09,0.0
1666651582.21963787,30184530,1,0.5700000000000001,0.33,343.18,0.0078001488000154495,0.2501903176307678,0.098965123295784,-0.041673336178064346,0.0,0.0,-0.18887890875339508,0.0,0.0,-0.09,0.0
1666651582.23962283,30204515,1,0.59,0.31,343.15000000000003,0.006017911713570356,0.2600252032279968,0.09793312847614288,-0.04413134604692459,0.0,0.0,-0.18850457668304443,0.0,0.0,-0.09,0.0
1666651582.27962685,30244519,1,0.56,0.29,343.06,0.018205314874649048,0.2679917514324188,0.09373080730438232,-0.04841998964548111,0.0,0.0,-0.19156286120414734,0.0,0.0,-0.09,0.0
1666651582.31958795,30284480,1,0.48,0.28,342.95,0.015275144949555397,0.2819291055202484,0.09468810260295868,-0.048769257962703705,0.0,0.0,-0.19246818125247955,0.0,0.0,-0.09,0.0
1666651582.35962892,30324521,1,0.42,0.28,342.88,0.007926544174551964,0.2762531042098999,0.09337884187698364,-0.04262770712375641,0.0,0.0,-0.19285465776920319,0.0,0.0,-0.09,0.0
1666651582.39963174,30364524,1,0.42,0.28,342.84000000000003,0.0008758616750128567,0.26621344685554504,0.08963094651699066,-0.03293197229504585,0.0,0.0,-0.19290529191493988,0.0,0.0,-0.08,0.0
1666651582.41957784,30384470,1,0.44,0.28,342.84000000000003,-0.00014681399625260383,0.25643011927604675,0.08928187936544418,-0.025044932961463928,0.0,0.0,-0.19326214492321014,0.0,0.0,-0.08,0.0
1666651582.43964291,30404535,1,0.48,0.28,342.86,-0.005730229429900646,0.2568402588367462,0.09468969702720642,-0.011106859892606735,0.0,0.0,-0.192453995347023,0.0,0.0,-0.08,0.0
1666651582.47963381,30444526,1,0.54,0.3,342.93,-0.004187687765806913,0.263374000787735,0.08613932132720947,-0.0012404992012307048,0.0,0.0,-0.19241608679294586,0.0,0.0,-0.08,0.0
1666651582.51959085,30484483,1,0.5700000000000001,0.31,342.98,-0.00025981050566770136,0.27254390716552734,0.08870402723550797,0.017931925132870674,0.0,0.0,-0.1910981386899948,0.0,0.0,-0.08,0.0
1666651582.55959678,30524489,1,0.53,0.31,342.99,0.009136292152106762,0.284272164106369,0.08688133209943771,0.031105060130357742,0.0,0.0,-0.1894277185201645,0.0,0.0,-0.08,0.0
1666651582.59962773,30564520,1,0.47000000000000003,0.32,342.95,0.009573080576956272,0.2842054069042206,0.08765784651041031,0.04501137137413025,0.0,0.0,-0.1875547617673874,0.0,0.0,-0.07,0.0
1666651582.61962485,30584517,1,0.43,0.31,342.90000000000003,0.014724409207701683,0.2802264094352722,0.0901678055524826,0.05336301028728485,0.0,0.0,-0.18673278391361237,0.0,0.0,-0.07,0.0
1666651582.63961792,30604510,1,0.42,0.31,342.85,0.016053656116127968,0.2740228474140167,0.08570774644613266,0.05405718833208084,0.0,0.0,-0.18541660904884338,0.0,0.0,-0.07,0.0
1666651582.67964888,30644541,1,0.43,0.3,342.76,0.007275005336850882,0.26528364419937134,0.08523730933666229,0.06336978822946548,0.0,0.0,-0.18328748643398285,0.0,0.0,-0.06,0.0
1666651582.71961784,30684510,1,0.5,0.28,342.7,0.009461582638323307,0.2623336911201477,0.08582977205514908,0.07191214710474014,0.0,0.0,-0.18065595626831055,0.0,0.0,-0.06,0.0
1666651582.75961185,30724504,1,0.55,0.28,342.68,0.00867639109492302,0.2693711519241333,0.08398086577653885,0.0761902928352356,0.0,0.0,-0.17793160676956177,0.0,0.0,-0.06,0.0
1666651582.79963994,30764532,1,0.55,0.29,342.72,0.005576276686042547,0.28187182545661926,0.08737418800592422,0.082337886095047,0.0,0.0,-0.17523643374443054,0.0,0.0,-0.06,0.0
1666651582.81958294,30784475,1,0.54,0.29,342.75,0.0065994905307888985,0.2857416868209839,0.08514376729726791,0.08096762746572495,0.0,0.0,-0.1739586889743805,0.0,0.0,-0.06,0.0
1666651582.83963490,30804527,1,0.5,0.29,342.77,0.011188829317688942,0.2902017831802368,0.08527874201536179,0.08181162923574448,0.0,0.0,-0.17238213121891022,0.0,0.0,-0.06,0.0
1666651582.87965584,30844548,1,0.44,0.3,342.81,0.0054801288060843945,0.2872743010520935,0.08257534354925156,0.0816287249326706,0.0,0.0,-0.16932366788387299,0.0,0.0,-0.06,0.0
1666651582.91961288,30884505,1,0.43,0.31,342.8,0.005092091858386993,0.275662899017334,0.08401406556367874,0.08670668303966522,0.0,0.0,-0.1660853922367096,0.0,0.0,-0.06,0.0
1666651582.95961881,30924511,1,0.46,0.32,342.74,0.005461124237626791,0.2701495885848999,0.08308999240398407,0.089044488966465,0.0,0.0,-0.16267409920692444,0.0,0.0,-0.06,0.0
1666651582.99957776,30964470,1,0.51,0.31,342.66,0.006403674371540546,0.267669677734375,0.08103841543197632,0.0907675102353096,0.0,0.0,-0.15915930271148682,0.0,0.0,-0.05,0.0
1666651583.01964283,30984535,1,0.54,0.31,342.63,0.009130391292273998,0.2722342908382416,0.08109919726848602,0.0924307331442833,0.0,0.0,-0.1573614925146103,0.0,0.0,-0.05,0.0
1666651583.03964877,31004541,1,0.55,0.31,342.6,0.012688160873949528,0.27513232827186584,0.08121171593666077,0.09387105703353882,0.0,0.0,-0.15558627247810364,0.0,0.0,-0.05,0.0
1666651583.07961679,31044509,1,0.53,0.3,342.56,0.016043828800320625,0.28477752208709717,0.08437416702508926,0.09994446486234665,0.0,0.0,-0.15159957110881805,0.0,0.0,-0.04,0.0
1666651583.11964679,31084539,1,0.48,0.29,342.58,0.014434944838285446,0.2870641350746155,0.08240106701850891,0.10188812017440796,0.0,0.0,-0.14767883718013763,0.0,0.0,-0.04,0.0
1666651583.15963197,31124524,1,0.44,0.29,342.61,0.014290707185864449,0.28296688199043274,0.08452516794204712,0.10638172924518585,0.0,0.0,-0.14374054968357086,0.0,0.0,-0.04,0.0
1666651583.19960785,31164500,1,0.45,0.29,342.65000000000003,0.007597975432872772,0.2758600413799286,0.08427499979734421,0.10742228478193283,0.0,0.0,-0.139752596616745,0.0,0.0,-0.04,0.0
1666651583.21963978,31184532,1,0.47000000000000003,0.3,342.66,0.004217274487018585,0.2734694480895996,0.0833328440785408,0.10660477727651596,0.0,0.0,-0.13768160343170166,0.0,0.0,-0.04,0.0
1666651583.23960781,31204500,1,0.49,0.3,342.66,0.004009675234556198,0.2737598419189453,0.0857163816690445,0.10900066792964935,0.0,0.0,-0.1358243077993393,0.0,0.0,-0.04,0.0
1666651583.27961588,31244508,1,0.53,0.3,342.62,0.006950955372303724,0.27646708488464355,0.08535293489694595,0.10716589540243149,0.0,0.0,-0.13185347616672516,0.0,0.0,-0.03,0.0
1666651583.31962395,31284516,1,0.54,0.32,342.54,0.008271235041320324,0.2823858857154846,0.08026985079050064,0.09941630810499191,0.0,0.0,-0.1280989646911621,0.0,0.0,-0.03,0.0
1666651583.35962987,31324522,1,0.52,0.32,342.47,0.013474870473146439,0.2895560562610626,0.08488326519727707,0.10168085992336273,0.0,0.0,-0.1242963895201683,0.0,0.0,-0.03,0.0
1666651583.39962578,31364518,1,0.46,0.32,342.41,0.017419539391994476,0.2882048189640045,0.08050776273012161,0.09722144901752472,0.0,0.0,-0.12028764188289642,0.0,0.0,-0.03,0.0
1666651583.41963482,31384527,1,0.44,0.31,342.40000000000003,0.013133530505001545,0.2827254831790924,0.08139961957931519,0.09835951030254364,0.0,0.0,-0.11827265471220016,0.0,0.0,-0.03,0.0
1666651583.43959594,31404488,1,0.44,0.31,342.41,0.011719794012606144,0.2790786027908325,0.08166741579771042,0.0989094004034996,0.0,0.0,-0.11639193445444107,0.0,0.0,-0.03,0.0
1666651583.47965884,31444551,1,0.46,0.31,342.43,0.014973820187151432,0.27246057987213135,0.08201564848423004,0.10120322555303574,0.0,0.0,-0.11187160015106201,0.0,0.0,-0.03,0.0
1666651583.51963687,31484529,1,0.52,0.31,342.47,0.008372589945793152,0.27490562200546265,0.08259041607379913,0.10607228428125381,0.0,0.0,-0.10763676464557648,0.0,0.0,-0.03,0.0
1666651583.55963588,31524528,1,0.52,0.3,342.5,0.010656442493200302,0.2814086675643921,0.08524072915315628,0.11158681660890579,0.0,0.0,-0.10334794223308563,0.0,0.0,-0.03,0.0
1666651583.59960794,31564500,1,0.52,0.31,342.48,0.010621290653944016,0.28573915362358093,0.08289340138435364,0.11244350671768188,0.0,0.0,-0.0989190861582756,0.0,0.0,-0.03,0.0
1666651583.61965775,31584550,1,0.5,0.31,342.45,0.009696712717413902,0.289554238319397,0.08192440867424011,0.11257992684841156,0.0,0.0,-0.09649141132831573,0.0,0.0,-0.03,0.0
1666651583.63962889,31604521,1,0.48,0.32,342.43,0.007663866505026817,0.29169154167175293,0.08419760316610336,0.11550513654947281,0.0,0.0,-0.09447789192199707,0.0,0.0,-0.03,0.0
1666651583.67958379,31644476,1,0.46,0.32,342.37,0.011775702238082886,0.2872205376625061,0.08343832939863205,0.11368309706449509,0.0,0.0,-0.09001754224300385,0.01,0.0,-0.02,0.0
1666651583.71964478,31684537,1,0.45,0.33,342.31,0.010632462799549103,0.2798977792263031,0.08379755914211273,0.11108960956335068,0.0,0.0,-0.08592363446950912,0.01,0.0,-0.02,0.0
1666651583.75963783,31724530,1,0.48,0.33,342.28000000000003,0.0058298842050135136,0.2789191007614136,0.08534584194421768,0.10958150774240494,0.0,0.0,-0.08169762045145035,0.01,0.0,-0.02,0.0
1666651583.79964375,31764536,1,0.5,0.32,342.29,0.014877053909003735,0.2782139182090759,0.08051971346139908,0.10690705478191376,0.0,0.0,-0.07711996138095856,0.01,0.0,-0.02,0.0
1666651583.81961489,31784507,1,0.52,0.32,342.3,0.013126645237207413,0.27932244539260864,0.08415668457746506,0.11204353719949722,0.0,0.0,-0.0746464654803276,0.01,0.0,-0.02,0.0
1666651583.83957696,31804469,1,0.53,0.32,342.31,0.011963896453380585,0.28552716970443726,0.08485130965709686,0.113832488656044,0.0,0.0,-0.0726395845413208,0.01,0.0,-0.02,0.0
1666651583.87959981,31844492,1,0.5,0.31,342.34000000000003,0.014031716622412205,0.28978797793388367,0.08649106323719025,0.1206277459859848,0.0,0.0,-0.06684929132461548,0.01,0.0,-0.02,0.0
1666651583.91958189,31884474,1,0.46,0.31,342.34000000000003,0.014555703848600388,0.2902441620826721,0.08665628731250763,0.13044781982898712,0.0,0.0,-0.06165323778986931,0.01,0.0,-0.02,0.0
1666651583.95963883,31924531,1,0.43,0.31,342.31,0.007161961868405342,0.28273525834083557,0.07843667268753052,0.12784764170646667,0.0,0.0,-0.05643190070986748,0.01,0.0,-0.02,0.0
1666651583.99963284,31964525,1,0.48,0.32,342.26,0.008514589630067348,0.2799052894115448,0.08855852484703064,0.14268377423286438,0.0,0.0,-0.051068637520074844,0.01,0.0,-0.01,0.0
1666651584.01957893,31984471,1,0.49,0.32,342.23,0.008335912600159645,0.28132715821266174,0.08820121735334396,0.14350327849388123,0.0,0.0,-0.04813293740153313,0.01,0.0,-0.01,0.0
1666651584.03964496,32004537,1,0.49,0.32,342.21,0.007622622884809971,0.28274276852607727,0.08482712507247925,0.14044682681560516,0.0,0.0,-0.045890964567661285,0.01,0.0,-0.01,0.0
1666651584.07962394,32044516,1,0.49,0.32,342.18,0.005786938592791557,0.2843908369541168,0.08790118992328644,0.14377975463867188,0.0,0.0,-0.03977067023515701,0.01,0.0,-0.01,0.0
1666651584.11958694,32084479,1,0.48,0.31,342.18,0.013232923112809658,0.28658542037010193,0.08478999882936478,0.14249125123023987,0.0,0.0,-0.034331247210502625,0.01,0.0,-0.01,0.0
1666651584.15961480,32124507,1,0.49,0.32,342.21,0.01366841234266758,0.29179108142852783,0.08851926773786545,0.14540885388851166,0.0,0.0,-0.02890862338244915,0.01,0.0,-0.01,0.0
1666651584.19963074,32164523,1,0.46,0.31,342.25,0.011572121642529964,0.28865814208984375,0.08999975025653839,0.14889241755008698,0.0,0.0,-0.023175839334726334,0.01,0.0,-0.01,0.0
1666651584.21962595,32184518,1,0.44,0.31,342.26,0.0142827732488513,0.28608912229537964,0.08716923743486404,0.14649581909179688,0.0,0.0,-0.020091600716114044,0.01,0.0,-0.01,0.0
1666651584.23958683,32204479,1,0.45,0.31,342.26,0.013273037038743496,0.28175410628318787,0.08609645813703537,0.14544300734996796,0.0,0.0,-0.017762597650289536,0.01,0.0,-0.01,0.0
1666651584.27963495,32244527,1,0.46,0.31,342.25,0.005568476859480143,0.2761152684688568,0.08536987751722336,0.14220434427261353,0.0,0.0,-0.011720278300344944,0.01,0.0,-0.01,0.0
1666651584.31961989,32284512,1,0.51,0.31,342.21,0.008791287429630756,0.2806340157985687,0.0864591971039772,0.1405392289161682,0.0,0.0,-0.006519571878015995,0.01,0.0,-0.01,0.0
1666651584.35957789,32324470,1,0.5,0.3,342.16,0.007916079834103584,0.2856653928756714,0.08770028501749039,0.13825196027755737,0.0,0.0,-0.000936195021495223,0.01,0.0,-0.01,0.0
1666651584.39959574,32364488,1,0.48,0.3,342.13,0.007111614570021629,0.2918756902217865,0.08878368884325027,0.1476275622844696,0.0,0.0,0.005530700087547302,0.01,0.0,-0.01,0.0
1666651584.41961479,32384507,1,0.48,0.31,342.13,0.0074997832998633385,0.2894478440284729,0.09154685586690903,0.15465566515922546,0.0,0.0,0.009020975790917873,0.01,0.0,-0.01,0.0
1666651584.43963289,32404525,1,0.47000000000000003,0.31,342.13,0.010468006134033203,0.29160141944885254,0.09127898514270782,0.15809860825538635,0.0,0.0,0.01166925672441721,0.01,0.0,-0.01,0.0
1666651584.47963881,32444531,1,0.46,0.31,342.15000000000003,0.007632803171873093,0.2851697504520416,0.09030357003211975,0.16222456097602844,0.0,0.0,0.01907251961529255,0.01,0.0,0.0,0.0
1666651584.51961780,32484510,1,0.46,0.31,342.18,0.0083841010928154,0.28357967734336853,0.09164226055145264,0.16900238394737244,0.0,0.0,0.025297002866864204,0.01,0.0,0.0,0.0
1666651584.55961680,32524509,1,0.49,0.31,342.19,0.011244283057749271,0.281686395406723,0.09214448183774948,0.16962847113609314,0.0,0.0,0.03153879567980766,0.01,0.0,0.0,0.0
1666651584.59957790,32564470,1,0.49,0.31,342.18,0.006419913377612829,0.2798958122730255,0.08878377079963684,0.16563411056995392,0.0,0.0,0.03779701143503189,0.01,0.0,0.0,0.0
1666651584.61966181,32584554,1,0.5,0.3,342.17,0.00814025942236185,0.28389623761177063,0.09250771999359131,0.167775958776474,0.0,0.0,0.04114894941449165,0.01,0.0,0.0,0.0
1666651584.63963294,32604525,1,0.5,0.3,342.15000000000003,0.011470314115285873,0.28397831320762634,0.08864127099514008,0.16192209720611572,0.0,0.0,0.04374706745147705,0.01,0.0,0.0,0.0
1666651584.67961192,32644504,1,0.48,0.31,342.08,0.01090711634606123,0.28577345609664917,0.091280497610569,0.16060501337051392,0.0,0.0,0.05075766146183014,0.01,0.0,0.0,0.0
1666651584.71962690,32684519,1,0.45,0.3,342.04,0.005816061049699783,0.2886243164539337,0.09224874526262283,0.16035304963588715,0.0,0.0,0.056743476539850235,0.01,0.0,0.0,0.0
1666651584.75960875,32724501,1,0.46,0.3,342.0,0.0089285122230649,0.2757255434989929,0.0924011617898941,0.1572280079126358,0.0,0.0,0.06261586397886276,0.01,0.0,0.0,0.0
