timestamp,TimeUS,DesRoll,Roll,DesPitch,Pitch,DesYaw,Yaw,ErrRP,ErrYaw,AEKF
8.47416200,8474162,0.0,-0.07,0.0,0.45,359.99,0.0,1.0,1.0,0
8.57383200,8573832,0.0,-0.08,0.2,0.45,137.08,137.08,1.0,0.8,0
8.67386700,8673867,0.0,-0.08,0.68,0.45,137.04,137.04,0.8,0.64,0
8.77369600,8773696,0.0,-0.08,0.35000000000000003,0.44,136.54,136.54,0.8,0.53,0
8.87375300,8873753,0.0,-0.1,0.17,0.44,134.81,134.81,0.64,0.49,0
8.97374900,8973749,0.0,-0.1,0.09,0.44,134.07,134.07,0.64,0.42,0
9.07376500,9073765,0.0,-0.1,0.04,0.43,134.4,134.4,0.51,0.35000000000000003,0
9.17384000,9173840,0.0,-0.09,0.02,0.43,134.67000000000002,134.67000000000002,0.51,0.29,0
9.27389100,9273891,0.0,-0.1,0.01,0.43,134.93,134.93,0.4,0.24,0
9.37392200,9373922,0.0,-0.1,0.0,0.43,135.1,135.1,0.4,0.2,0
9.47400100,9474001,0.0,-0.1,0.0,0.43,135.23,135.23,0.32,0.17,0
9.57391400,9573914,0.0,-0.09,0.0,0.43,135.35,135.35,0.32,0.14,0
9.67384600,9673846,0.0,-0.09,0.0,0.43,135.55,135.55,0.26,0.12,0
9.77388700,9773887,0.0,-0.08,0.0,0.43,135.78,135.78,0.26,0.1,0
9.87388500,9873885,0.0,-0.08,0.0,0.43,135.88,135.88,0.21,0.08,0
9.97390600,9973906,0.0,-0.07,0.0,0.43,135.96,135.96,0.21,0.07,0
10.07395600,10073956,0.0,-0.07,0.0,0.43,136.13,136.13,0.16,0.06,0
10.17403700,10174037,0.0,-0.07,0.0,0.43,136.25,136.25,0.16,0.05,0
10.27402500,10274025,0.0,-0.07,0.0,0.43,136.36,136.36,0.13,0.05,0
10.37402400,10374024,0.0,-0.07,0.0,0.43,136.48,136.48,0.13,0.04,0
10.47423300,10474233,0.04,0.01,0.04,0.53,359.99,0.0,0.1,0.03,3
10.57408000,10574080,0.02,0.01,0.02,0.53,359.99,0.0,0.1,0.03,3
10.67448700,10674487,0.01,0.01,0.01,0.53,359.99,0.0,0.08,0.02,3
10.77441600,10774416,0.0,0.01,0.0,0.53,359.99,0.0,0.08,0.02,3
10.87414400,10874144,0.0,0.01,0.0,0.53,359.98,359.99,0.06,0.01,3
10.97413600,10974136,0.0,0.02,0.0,0.53,359.98,359.99,0.06,0.01,3
11.07419800,11074198,0.0,0.02,0.0,0.52,359.98,359.99,0.05,0.01,3
11.17423500,11174235,0.0,0.02,0.0,0.52,359.98,359.99,0.05,0.01,3
11.27434100,11274341,0.0,0.02,0.0,0.52,359.98,359.99,0.04,0.01,3
11.37428400,11374284,0.0,0.01,0.0,0.52,359.97,359.98,0.04,0.01,3
11.47417200,11474172,0.0,0.01,0.0,0.52,359.97,359.98,0.03,0.01,3
11.57417500,11574175,0.0,0.01,0.0,0.51,359.97,359.98,0.03,0.01,3
11.67420000,11674200,0.0,0.0,0.0,0.51,359.97,359.98,0.02,0.05,3
11.77415000,11774150,0.0,0.0,0.0,0.5,359.97,359.98,0.02,0.09,3
11.87413600,11874136,0.0,0.0,0.0,0.5,359.97,359.98,0.02,0.08,3
11.97423000,11974230,0.0,-0.02,-0.02,0.47000000000000003,136.48,136.48,0.02,0.07,3
12.07421900,12074219,0.0,-0.01,-0.01,0.48,136.49,136.49,0.01,0.06,3
12.17444000,12174440,0.0,-0.01,0.0,0.49,136.51,136.51,0.01,0.06,3
12.27397900,12273979,0.0,-0.02,0.0,0.53,136.56,136.56,0.01,0.05,3
12.37395300,12373953,0.0,-0.01,0.0,0.53,136.63,136.63,0.01,0.04,3
12.47393500,12473935,0.0,0.0,0.0,0.52,136.68,136.68,0.01,0.04,3
12.57393100,12573931,0.0,0.0,0.0,0.53,136.73,136.73,0.01,0.04,3
12.67395800,12673958,0.0,0.0,0.0,0.53,136.78,136.78,0.01,0.03,3
12.77401200,12774012,0.0,0.0,0.0,0.53,136.82,136.82,0.01,0.03,3
12.87403400,12874034,0.0,0.0,0.0,0.53,136.85,136.85,0.0,0.03,3
12.97409800,12974098,0.0,0.01,0.0,0.53,136.88,136.88,0.0,0.03,3
13.07428500,13074285,0.0,0.01,0.0,0.53,136.91,136.91,0.0,0.02,3
13.17429500,13174295,0.0,0.0,0.0,0.53,136.94,136.94,0.0,0.02,3
13.27420200,13274202,0.0,0.0,0.0,0.53,136.97,136.97,0.0,0.02,3
13.37396200,13373962,0.0,0.0,0.0,0.54,137.0,137.0,0.0,0.02,3
13.47395300,13473953,0.0,0.0,0.0,0.54,137.02,137.02,0.0,0.07,3
13.57396900,13573969,0.0,0.0,0.0,0.54,136.88,136.88,0.0,0.12,3
13.67400700,13674007,0.0,0.02,0.0,0.52,136.45,136.45,0.0,0.15,3
13.77406300,13774063,0.0,0.01,0.0,0.53,135.72,135.72,0.0,0.18,3
13.87410100,13874101,0.0,0.01,0.0,0.52,134.78,134.78,0.0,0.2,3
13.97407800,13974078,0.0,0.01,0.0,0.52,133.7,133.7,0.0,0.17,3
14.07404600,14074046,0.0,0.0,0.0,0.53,132.67000000000002,132.67000000000002,0.0,0.16,3
14.17394700,14173947,0.0,0.01,0.0,0.52,131.88,131.88,0.0,0.15,3
14.27394200,14273942,0.0,0.01,0.0,0.53,131.41,131.41,0.0,0.14,3
14.37426200,14374262,0.0,0.01,0.0,0.52,131.22,131.22,0.0,0.13,3
14.47419300,14474193,0.0,0.01,0.0,0.52,131.24,131.24,0.0,0.12,3
14.57432800,14574328,0.0,0.01,0.0,0.52,131.39000000000001,131.39000000000001,0.0,0.11,3
14.67424000,14674240,0.0,0.02,0.0,0.51,131.61,131.61,0.0,0.1,3
14.77412400,14774124,0.0,0.01,0.0,0.51,131.85,131.85,0.0,0.09,3
14.87426800,14874268,0.0,0.01,0.0,0.5,132.09,132.09,0.0,0.09,3
14.97421600,14974216,0.0,0.0,0.0,0.5,132.3,132.3,0.0,0.08,3
15.07419400,15074194,0.0,0.0,0.0,0.49,132.49,132.49,0.0,0.08,3
15.17419200,15174192,0.0,0.0,0.0,0.49,132.66,132.66,0.0,0.07,3
15.27411800,15274118,0.0,0.0,0.0,0.48,132.83,132.83,0.0,0.07,3
15.37417200,15374172,0.0,0.0,0.0,0.48,133.0,133.0,0.0,0.06,3
15.47427800,15474278,0.0,-0.01,0.0,0.47000000000000003,133.17000000000002,133.17000000000002,0.0,0.06,3
15.57417400,15574174,0.0,-0.02,0.0,0.47000000000000003,133.34,133.34,0.0,0.05,3
15.67426000,15674260,0.0,-0.02,0.0,0.46,133.5,133.5,0.0,0.05,3
15.77426300,15774263,0.0,-0.03,0.0,0.46,133.65,133.65,0.0,0.04,3
15.87426300,15874263,0.0,-0.03,0.0,0.46,133.8,133.8,0.0,0.04,3
15.97440200,15974402,0.0,-0.04,0.0,0.46,133.95,133.95,0.0,0.04,3
16.07393400,16073934,0.0,-0.04,0.0,0.46,134.11,134.11,0.0,0.04,3
16.17395100,16173951,0.0,-0.04,0.0,0.45,134.28,134.28,0.0,0.03,3
16.27395900,16273959,0.0,-0.04,0.0,0.45,134.42000000000002,134.42000000000002,0.0,0.02,3
16.37402700,16374027,0.0,-0.05,0.0,0.45,134.54,134.54,0.0,0.02,3
16.47407100,16474071,0.0,-0.05,0.0,0.44,134.64000000000001,134.64000000000001,0.0,0.02,3
16.57410900,16574109,0.0,-0.05,0.0,0.44,134.73,134.73,0.0,0.02,3
16.67404100,16674041,0.0,-0.05,0.0,0.44,134.83,134.83,0.0,0.02,3
16.77397400,16773974,0.0,-0.06,0.0,0.44,134.94,134.94,0.0,0.01,3
16.87393900,16873939,0.0,-0.06,0.0,0.44,135.05,135.05,0.0,0.01,3
16.97394100,16973941,0.0,-0.06,0.0,0.44,135.15,135.15,0.0,0.02,3
17.07395200,17073952,0.0,-0.06,0.0,0.44,135.27,135.27,0.0,0.02,3
17.17400200,17174002,0.0,-0.07,0.0,0.44,135.39000000000001,135.39000000000001,0.0,0.01,3
17.27417800,17274178,0.0,-0.06,0.0,0.45,135.51,135.51,0.0,0.01,3
17.37425200,17374252,0.0,-0.06,0.0,0.44,135.62,135.62,0.0,0.01,3
17.47425700,17474257,0.0,-0.06,0.0,0.44,135.74,135.74,0.0,0.01,3
17.57439000,17574390,0.0,-0.06,0.0,0.44,135.84,135.84,0.0,0.01,3
17.67397400,17673974,0.0,-0.07,0.0,0.44,135.95,135.95,0.0,0.01,3
17.77394700,17773947,0.0,-0.07,0.0,0.45,136.06,136.06,0.0,0.01,3
17.87394900,17873949,0.0,-0.07,0.0,0.45,136.17000000000002,136.17000000000002,0.0,0.01,3
17.97392600,17973926,0.0,-0.06,0.0,0.45,136.28,136.28,0.0,0.01,3
18.07394800,18073948,0.0,-0.07,0.0,0.45,136.39000000000001,136.39000000000001,0.0,0.01,3
18.17402300,18174023,0.0,-0.07,0.0,0.46,136.51,136.51,0.0,0.01,3
18.27405700,18274057,0.0,-0.06,0.0,0.46,136.62,136.62,0.0,0.01,3
18.37413800,18374138,0.0,-0.06,0.0,0.46,136.71,136.71,0.0,0.01,3
18.47407400,18474074,0.0,-0.06,0.0,0.46,136.79,136.79,0.0,0.01,3
18.57397000,18573970,0.0,-0.06,0.0,0.46,136.85,136.85,0.0,0.0,3
18.67393700,18673937,0.0,-0.05,0.0,0.46,136.9,136.9,0.0,0.0,3
18.77393900,18773939,0.0,-0.05,0.0,0.47000000000000003,136.96,136.96,0.0,0.0,3
18.87424300,18874243,0.0,-0.05,0.0,0.47000000000000003,137.02,137.02,0.0,0.0,3
18.97417700,18974177,0.0,-0.04,0.0,0.47000000000000003,137.06,137.06,0.0,0.0,3
19.07419900,19074199,0.0,-0.04,0.0,0.48,137.1,137.1,0.0,0.0,3
19.17427700,19174277,0.0,-0.04,0.0,0.48,137.14000000000001,137.14000000000001,0.0,0.0,3
19.27409200,19274092,0.0,-0.04,0.0,0.48,137.17000000000002,137.17000000000002,0.0,0.0,3
19.37408400,19374084,0.0,-0.04,0.0,0.48,137.21,137.21,0.0,0.01,3
19.47396700,19473967,0.0,-0.04,0.0,0.47000000000000003,137.24,137.24,0.0,0.0,3
19.57392700,19573927,0.0,-0.03,0.0,0.47000000000000003,137.28,137.28,0.0,0.0,3
19.67393100,19673931,0.0,-0.04,0.0,0.48,137.3,137.3,0.0,0.0,3
19.77394400,19773944,0.0,-0.03,0.0,0.48,137.34,137.34,0.0,0.0,3
19.87396100,19873961,0.0,-0.03,0.0,0.48,137.37,137.37,0.0,0.0,3
19.97402700,19974027,0.0,-0.03,0.0,0.48,137.39000000000001,137.39000000000001,0.0,0.0,3
20.07403600,20074036,0.0,-0.02,0.0,0.49,137.4,137.4,0.0,0.0,3
20.17411900,20174119,0.0,-0.02,0.0,0.48,137.41,137.41,0.0,0.0,3
20.27428200,20274282,0.0,-0.02,0.0,0.48,137.43,137.43,0.0,0.0,3
20.37400000,20374000,0.0,-0.02,0.0,0.48,137.44,137.44,0.0,0.0,3
20.47422100,20474221,0.0,-0.02,0.0,0.47000000000000003,137.46,137.46,0.0,0.0,3
20.57431300,20574313,0.0,-0.02,0.0,0.48,137.48,137.48,0.0,0.0,3
20.67427000,20674270,0.0,-0.02,0.0,0.48,137.5,137.5,0.0,0.0,3
20.77417300,20774173,0.0,-0.01,0.0,0.48,137.52,137.52,0.0,0.0,3
20.87420200,20874202,0.0,-0.01,0.0,0.48,137.55,137.55,0.0,0.0,3
20.97423200,20974232,0.0,-0.01,0.0,0.48,137.57,137.57,0.0,0.0,3
21.07427800,21074278,0.0,-0.01,0.0,0.47000000000000003,137.58,137.58,0.0,0.0,3
21.17429500,21174295,0.0,-0.01,0.0,0.47000000000000003,137.61,137.61,0.0,0.0,3
21.27447400,21274474,0.0,-0.01,0.0,0.47000000000000003,137.63,137.63,0.0,0.0,3
21.37428700,21374287,0.0,-0.01,0.0,0.47000000000000003,137.64000000000001,137.64000000000001,0.0,0.0,3
21.47431300,21474313,0.0,-0.01,0.0,0.47000000000000003,137.65,137.65,0.0,0.0,3
21.57392800,21573928,0.0,-0.01,0.0,0.47000000000000003,137.65,137.65,0.0,0.0,3
21.67396500,21673965,0.0,-0.01,0.0,0.47000000000000003,137.66,137.66,0.0,0.0,3
21.77407100,21774071,0.0,-0.01,0.0,0.47000000000000003,137.67000000000002,137.67000000000002,0.0,0.0,3
21.87404800,21874048,0.0,-0.01,0.0,0.47000000000000003,137.69,137.69,0.0,0.0,3
21.97410700,21974107,0.0,0.0,0.0,0.47000000000000003,137.71,137.71,0.0,0.0,3
22.07404100,22074041,0.0,0.0,0.0,0.47000000000000003,137.74,137.74,0.0,0.01,3
22.17403900,22174039,0.0,-0.01,0.0,0.47000000000000003,137.77,137.77,0.0,0.01,3
22.27392500,22273925,0.0,-0.01,0.0,0.47000000000000003,137.8,137.8,0.0,0.01,3
22.37396300,22373963,0.0,-0.01,0.0,0.47000000000000003,137.82,137.82,0.0,0.01,3
22.47393300,22473933,0.0,-0.01,0.0,0.47000000000000003,137.83,137.83,0.0,0.01,3
22.57395400,22573954,0.0,-0.01,0.0,0.46,137.83,137.83,0.0,0.01,3
22.67400700,22674007,0.0,-0.01,0.0,0.46,137.82,137.82,0.0,0.0,3
22.77403900,22774039,0.0,0.0,0.0,0.46,137.81,137.81,0.0,0.0,3
22.87407500,22874075,0.0,0.0,0.0,0.46,137.81,137.81,0.0,0.0,3
22.97404800,22974048,0.0,-0.01,0.0,0.46,137.82,137.82,0.0,0.0,3
23.07404900,23074049,0.0,0.0,0.0,0.46,137.83,137.83,0.0,0.0,3
23.17395900,23173959,0.0,0.0,0.0,0.46,137.83,137.83,0.0,0.01,3
23.27392700,23273927,0.0,-0.01,0.0,0.45,137.83,137.83,0.0,0.01,3
23.37401100,23374011,0.0,-0.01,0.0,0.46,137.81,137.81,0.0,0.01,3
23.47397000,23473970,0.0,-0.01,0.0,0.45,137.79,137.79,0.0,0.01,3
23.57401700,23574017,0.0,-0.01,0.0,0.46,137.76,137.76,0.0,0.0,3
23.67407300,23674073,0.0,-0.01,0.0,0.45,137.75,137.75,0.0,0.0,3
23.77412100,23774121,0.0,-0.01,0.0,0.45,137.74,137.74,0.0,0.0,3
23.87411500,23874115,0.0,-0.01,0.0,0.45,137.73,137.73,0.0,0.0,3
23.97404600,23974046,0.0,-0.01,0.0,0.45,137.73,137.73,0.0,0.01,3
24.07392100,24073921,0.0,-0.01,0.0,0.45,137.74,137.74,0.0,0.0,3
24.17394100,24173941,0.0,-0.01,0.0,0.45,137.75,137.75,0.0,0.0,3
24.27394500,24273945,0.0,-0.01,0.0,0.45,137.76,137.76,0.0,0.0,3
24.37399000,24373990,0.0,-0.01,0.0,0.46,137.77,137.77,0.0,0.0,3
24.47420400,24474204,0.0,-0.01,0.0,0.45,137.78,137.78,0.0,0.0,3
24.57422800,24574228,0.0,-0.01,0.0,0.46,137.79,137.79,0.0,0.0,3
24.67428900,24674289,0.0,-0.01,0.0,0.46,137.8,137.8,0.0,0.0,3
24.77430200,24774302,0.0,-0.01,0.0,0.46,137.81,137.81,0.0,0.0,3
24.87430700,24874307,0.0,-0.01,0.0,0.47000000000000003,137.81,137.81,0.0,0.0,3
24.97426900,24974269,0.0,-0.01,0.0,0.47000000000000003,137.8,137.8,0.0,0.0,3
25.07430700,25074307,0.0,-0.01,0.0,0.47000000000000003,137.81,137.81,0.0,0.0,3
25.17424200,25174242,0.0,-0.01,0.0,0.47000000000000003,137.81,137.81,0.0,0.0,3
25.27395300,25273953,0.0,-0.01,0.0,0.48,137.82,137.82,0.0,0.0,3
25.37403900,25374039,0.0,0.0,0.0,0.48,137.82,137.82,0.0,0.0,3
25.47404200,25474042,0.0,0.0,0.0,0.48,137.83,137.83,0.0,0.0,3
25.57409300,25574093,0.0,0.0,0.0,0.48,137.82,137.82,0.0,0.0,3
25.67404000,25674040,0.0,0.0,0.0,0.48,137.82,137.82,0.0,0.0,3
25.77395000,25773950,0.0,0.0,0.0,0.48,137.82,137.82,0.0,0.0,3
25.87396100,25873961,0.0,-0.01,0.0,0.49,137.82,137.82,0.0,0.0,3
25.97394900,25973949,0.0,0.0,0.0,0.49,137.83,137.83,0.0,0.0,3
26.07423700,26074237,0.0,0.0,0.0,0.49,137.83,137.83,0.0,0.0,3
26.17396400,26173964,0.0,0.0,0.0,0.49,137.84,137.84,0.0,0.0,3
26.27400600,26274006,0.0,0.0,0.0,0.49,137.84,137.84,0.0,0.0,3
26.37406100,26374061,0.0,0.0,0.0,0.49,137.85,137.85,0.0,0.0,3
26.47412500,26474125,0.0,0.0,0.0,0.5,137.85,137.85,0.0,0.0,3
26.57404400,26574044,0.0,0.0,0.0,0.5,137.86,137.86,0.0,0.0,3
26.67425900,26674259,0.0,0.0,0.0,0.5,137.86,137.86,0.0,0.0,3
26.77419500,26774195,0.0,0.0,0.0,0.5,137.86,137.86,0.0,0.0,3
26.87418800,26874188,0.0,0.0,0.0,0.5,137.86,137.86,0.0,0.0,3
26.97426600,26974266,0.0,0.0,0.0,0.5,137.85,137.85,0.0,0.0,3
27.07395400,27073954,0.0,0.0,0.0,0.5,137.85,137.85,0.0,0.0,3
27.17402600,27174026,0.0,0.0,0.0,0.5,137.85,137.85,0.0,0.0,3
27.27406600,27274066,0.0,0.0,0.0,0.5,137.85,137.85,0.0,0.0,3
27.37413600,27374136,0.0,0.0,0.0,0.5,137.85,137.85,0.0,0.01,3
27.47407200,27474072,0.0,0.0,0.0,0.5,137.84,137.84,0.0,0.01,3
27.57397600,27573976,0.0,0.0,0.0,0.5,137.83,137.83,0.0,0.01,3
27.67395400,27673954,0.0,0.01,0.0,0.5,137.83,137.83,0.0,0.0,3
27.77395100,27773951,0.0,0.0,0.0,0.5,137.83,137.83,0.0,0.0,3
27.87394800,27873948,0.0,0.0,0.0,0.5,137.83,137.83,0.0,0.0,3
27.97396400,27973964,0.0,0.01,0.0,0.5,137.83,137.83,0.0,0.0,3
28.07406900,28074069,0.0,0.01,0.0,0.5,137.84,137.84,0.0,0.0,3
28.17404900,28174049,0.0,0.01,0.0,0.5,137.84,137.84,0.0,0.0,3
28.27411500,28274115,0.0,0.02,0.0,0.5,137.84,137.84,0.0,0.0,3
28.37407900,28374079,0.0,0.02,0.0,0.5,137.85,137.85,0.0,0.0,3
28.47396100,28473961,0.0,0.02,0.0,0.51,137.85,137.85,0.0,0.0,3
28.57395500,28573955,0.0,0.02,0.0,0.51,137.85,137.85,0.0,0.0,3
28.67394000,28673940,0.0,0.03,0.0,0.51,137.86,137.86,0.0,0.0,3
28.77395500,28773955,0.0,0.03,0.0,0.51,137.86,137.86,0.0,0.01,3
28.87396100,28873961,0.0,0.03,0.0,0.51,137.86,137.86,0.0,0.01,3
28.97401200,28974012,0.0,0.03,0.0,0.51,137.85,137.85,0.0,0.01,3
29.07422600,29074226,0.0,0.03,0.0,0.52,137.84,137.84,0.0,0.0,3
29.17428600,29174286,0.0,0.03,0.0,0.52,137.83,137.83,0.0,0.01,3
29.27428700,29274287,0.0,0.03,0.0,0.52,137.81,137.81,0.0,0.01,3
29.37432400,29374324,0.0,0.03,0.0,0.52,137.8,137.8,0.0,0.01,3
29.47423000,29474230,0.0,0.03,0.0,0.52,137.78,137.78,0.0,0.01,3
29.57431300,29574313,0.0,0.03,0.0,0.52,137.76,137.76,0.0,0.01,3
29.67424600,29674246,0.0,0.03,0.0,0.52,137.75,137.75,0.0,0.01,3
29.77419700,29774197,0.0,0.04,0.0,0.52,137.73,137.73,0.0,0.0,3
29.87418200,29874182,0.0,0.03,0.0,0.53,137.72,137.72,0.0,0.0,3
29.97422700,29974227,0.0,0.04,0.0,0.53,137.71,137.71,0.0,0.0,3
30.07424700,30074247,0.0,0.04,0.0,0.53,137.70000000000002,137.70000000000002,0.0,0.0,3
30.17455600,30174556,0.0,0.04,0.0,0.53,137.70000000000002,137.70000000000002,0.0,0.0,3
30.27428100,30274281,0.0,0.04,0.0,0.53,137.70000000000002,137.70000000000002,0.0,0.0,3
30.37425800,30374258,0.0,0.04,0.0,0.54,137.70000000000002,137.70000000000002,0.0,0.0,3
30.47429300,30474293,0.0,0.04,0.0,0.53,137.69,137.69,0.0,0.01,3
30.57423900,30574239,0.0,0.04,0.0,0.53,137.68,137.68,0.0,0.01,3
30.67415300,30674153,0.0,0.04,0.0,0.53,137.67000000000002,137.67000000000002,0.0,0.0,3
30.77401500,30774015,0.0,0.04,0.0,0.53,137.67000000000002,137.67000000000002,0.0,0.0,3
30.87402700,30874027,0.0,0.04,0.0,0.53,137.67000000000002,137.67000000000002,0.0,0.0,3
30.97410300,30974103,0.0,0.04,0.0,0.53,137.67000000000002,137.67000000000002,0.0,0.0,3
31.07404500,31074045,0.0,0.04,0.0,0.53,137.67000000000002,137.67000000000002,0.0,0.0,3
31.17395700,31173957,0.0,0.04,0.0,0.53,137.66,137.66,0.0,0.0,3
31.27386200,31273862,0.0,0.04,0.0,0.53,137.66,137.66,0.0,0.0,3
31.37394500,31373945,0.0,0.04,0.0,0.53,137.65,137.65,0.0,0.0,3
31.47392100,31473921,0.0,0.04,0.0,0.53,137.64000000000001,137.64000000000001,0.0,0.0,3
31.57393300,31573933,0.0,0.04,0.0,0.53,137.64000000000001,137.64000000000001,0.0,0.0,3
31.67417300,31674173,0.0,0.04,0.0,0.53,137.64000000000001,137.64000000000001,0.0,0.0,3
31.77421200,31774212,0.0,0.04,0.0,0.53,137.63,137.63,0.0,0.0,3
31.87425700,31874257,0.0,0.04,0.0,0.53,137.62,137.62,0.0,0.0,3
31.97426800,31974268,0.0,0.04,0.0,0.53,137.62,137.62,0.0,0.0,3
32.07396100,32073961,0.0,0.04,0.0,0.53,137.61,137.61,0.0,0.0,3
32.17386700,32173867,0.0,0.04,0.0,0.53,137.61,137.61,0.0,0.0,3
32.27391100,32273911,0.0,0.04,0.0,0.52,137.6,137.6,0.0,0.0,3
32.37395800,32373958,0.0,0.04,0.0,0.53,137.59,137.59,0.0,0.0,3
32.47395500,32473955,0.0,0.03,0.0,0.53,137.58,137.58,0.0,0.0,3
32.57399700,32573997,0.0,0.03,0.0,0.53,137.57,137.57,0.0,0.0,3
32.67404700,32674047,0.0,0.04,0.0,0.53,137.56,137.56,0.0,0.0,3
32.77410800,32774108,0.0,0.04,0.0,0.53,137.55,137.55,0.0,0.0,3
32.87403500,32874035,0.0,0.04,0.0,0.53,137.54,137.54,0.0,0.01,3
32.97402400,32974024,0.0,0.04,0.0,0.52,137.52,137.52,0.0,0.0,3
33.07389600,33073896,0.0,0.04,0.0,0.52,137.51,137.51,0.0,0.0,3
33.17392800,33173928,0.0,0.04,0.0,0.52,137.5,137.5,0.0,0.01,3
33.27392900,33273929,0.0,0.04,0.0,0.52,137.49,137.49,0.0,0.0,3
33.37398700,33373987,0.0,0.04,0.0,0.52,137.48,137.48,0.0,0.0,3
33.47425900,33474259,0.0,0.04,0.0,0.52,137.48,137.48,0.0,0.0,3
33.57422300,33574223,0.0,0.04,0.0,0.52,137.48,137.48,0.0,0.0,3
33.67410800,33674108,0.0,0.04,0.0,0.52,137.47,137.47,0.0,0.0,3
33.77427100,33774271,0.0,0.04,0.0,0.51,137.47,137.47,0.0,0.01,3
33.87423100,33874231,0.0,0.04,0.0,0.51,137.47,137.47,0.0,0.01,3
33.97407200,33974072,0.0,0.04,0.0,0.51,137.45000000000002,137.45000000000002,0.0,0.01,3
34.07429900,34074299,0.0,0.04,0.0,0.51,137.44,137.44,0.0,0.0,3
34.17410600,34174106,0.0,0.04,0.0,0.51,137.43,137.43,0.0,0.0,3
34.27413600,34274136,0.0,0.04,0.0,0.51,137.43,137.43,0.0,0.0,3
34.37428800,34374288,0.0,0.04,0.0,0.51,137.42000000000002,137.42000000000002,0.0,0.0,3
34.47417300,34474173,0.0,0.04,0.0,0.51,137.41,137.41,0.0,0.0,3
34.57424600,34574246,0.0,0.03,0.0,0.51,137.41,137.41,0.0,0.0,3
34.67443400,34674434,0.0,0.04,0.0,0.51,137.4,137.4,0.0,0.01,3
34.77429800,34774298,0.0,0.04,0.0,0.5,137.4,137.4,0.0,0.01,3
34.87418500,34874185,0.0,0.04,0.0,0.5,137.39000000000001,137.39000000000001,0.0,0.01,3
34.97392800,34973928,0.0,0.03,0.0,0.5,137.37,137.37,0.0,0.01,3
35.07392500,35073925,0.0,0.03,0.0,0.5,137.35,137.35,0.0,0.01,3
35.17394500,35173945,0.0,0.03,0.0,0.5,137.34,137.34,0.0,0.0,3
35.27400200,35274002,0.0,0.03,0.0,0.5,137.34,137.34,0.0,0.0,3
35.37405900,35374059,0.0,0.04,0.0,0.5,137.33,137.33,0.0,0.0,3
35.47408900,35474089,0.0,0.03,0.0,0.5,137.32,137.32,0.0,0.0,3
35.57403300,35574033,0.0,0.04,0.0,0.5,137.32,137.32,0.0,0.0,3
35.67395000,35673950,0.0,0.04,0.0,0.5,137.32,137.32,0.0,0.0,3
35.77420600,35774206,0.0,0.03,0.0,0.51,137.31,137.31,0.0,0.01,3
35.87450400,35874504,0.0,0.04,0.0,0.5,137.31,137.31,0.0,0.0,3
35.97422800,35974228,0.0,0.04,0.0,0.51,137.3,137.3,0.0,0.0,3
36.07415800,36074158,0.0,0.03,0.0,0.51,137.28,137.28,0.0,0.0,3
36.17399100,36173991,0.0,0.03,0.0,0.51,137.28,137.28,0.0,0.0,3
36.27402600,36274026,0.0,0.04,0.0,0.51,137.28,137.28,0.0,0.0,3
36.37410000,36374100,0.0,0.03,0.0,0.51,137.27,137.27,0.0,0.0,3
36.47413500,36474135,0.0,0.03,0.0,0.51,137.27,137.27,0.0,0.0,3
36.57395900,36573959,0.0,0.03,0.0,0.51,137.27,137.27,0.0,0.0,3
36.67386200,36673862,0.0,0.03,0.0,0.51,137.27,137.27,0.0,0.0,3
36.77392700,36773927,0.0,0.03,0.0,0.51,137.27,137.27,0.0,0.0,3
36.87443700,36874437,0.0,0.03,0.0,0.51,137.27,137.27,0.0,0.0,3
36.97419900,36974199,0.0,0.03,0.0,0.51,137.27,137.27,0.0,0.0,3
37.07418200,37074182,0.0,0.03,0.0,0.51,137.27,137.27,0.0,0.0,3
37.17421700,37174217,0.0,0.03,0.0,0.52,137.27,137.27,0.0,0.0,3
37.27410400,37274104,0.0,0.03,0.0,0.51,137.27,137.27,0.0,0.01,3
37.37406900,37374069,0.0,0.03,0.0,0.52,137.26,137.26,0.0,0.01,3
37.47393300,37473933,0.0,0.03,0.0,0.52,137.25,137.25,0.0,0.0,3
37.57386400,37573864,0.0,0.03,0.0,0.52,137.24,137.24,0.0,0.0,3
37.67392000,37673920,0.0,0.03,0.0,0.52,137.24,137.24,0.0,0.0,3
37.77394600,37773946,0.0,0.03,0.0,0.52,137.23,137.23,0.0,0.0,3
37.87420200,37874202,0.0,0.03,0.0,0.52,137.23,137.23,0.0,0.0,3
37.97400300,37974003,0.0,0.04,0.0,0.52,137.22,137.22,0.0,0.0,3
38.07404500,38074045,0.0,0.03,0.0,0.52,137.22,137.22,0.0,0.0,3
38.17409700,38174097,0.0,0.03,0.0,0.52,137.22,137.22,0.0,0.0,3
38.27405800,38274058,0.0,0.03,0.0,0.52,137.21,137.21,0.0,0.0,3
38.37427500,38374275,0.0,0.03,0.0,0.53,137.22,137.22,0.0,0.0,3
38.47408200,38474082,0.0,0.03,0.0,0.52,137.22,137.22,0.0,0.0,3
38.57418300,38574183,0.0,0.04,0.0,0.53,137.22,137.22,0.0,0.0,3
38.67411100,38674111,0.0,0.03,0.0,0.53,137.22,137.22,0.0,0.0,3
38.77413900,38774139,0.0,0.03,0.0,0.53,137.21,137.21,0.0,0.0,3
38.87416000,38874160,0.0,0.03,0.0,0.53,137.21,137.21,0.0,0.0,3
38.97417300,38974173,0.0,0.03,0.0,0.53,137.20000000000002,137.20000000000002,0.0,0.0,3
39.07423900,39074239,0.0,0.03,0.0,0.53,137.19,137.19,0.0,0.0,3
39.17425000,39174250,0.0,0.03,0.0,0.53,137.19,137.19,0.0,0.01,3
39.27424800,39274248,0.0,0.03,0.0,0.53,137.18,137.18,0.0,0.0,3
39.37419200,39374192,0.0,0.02,0.0,0.53,137.18,137.18,0.0,0.0,3
39.47416600,39474166,0.0,0.02,0.0,0.53,137.19,137.19,0.0,0.0,3
39.57413200,39574132,0.0,0.02,0.0,0.53,137.19,137.19,0.0,0.0,3
39.67413400,39674134,0.0,0.02,0.0,0.53,137.19,137.19,0.0,0.0,3
39.77417100,39774171,0.0,0.01,0.0,0.53,137.19,137.19,0.0,0.0,3
39.87420900,39874209,0.0,0.01,0.0,0.53,137.19,137.19,0.0,0.0,3
39.97421900,39974219,0.0,0.01,0.0,0.53,137.18,137.18,0.0,0.0,3
40.07424000,40074240,0.0,0.01,0.0,0.53,137.17000000000002,137.17000000000002,0.0,0.0,3
40.17418700,40174187,0.0,0.01,0.0,0.53,137.17000000000002,137.17000000000002,0.0,0.0,3
40.27437900,40274379,0.0,0.01,0.0,0.54,137.17000000000002,137.17000000000002,0.0,0.0,3
40.37395000,40373950,0.0,0.01,0.0,0.54,137.17000000000002,137.17000000000002,0.0,0.0,3
40.47393800,40473938,0.0,0.0,0.0,0.54,137.18,137.18,0.0,0.0,3
40.57396300,40573963,0.0,0.0,0.0,0.53,137.18,137.18,0.0,0.0,3
40.67410500,40674105,0.0,0.0,0.0,0.54,137.19,137.19,0.0,0.0,3
40.77404200,40774042,0.0,0.0,0.0,0.53,137.19,137.19,0.0,0.0,3
40.87411400,40874114,0.0,0.0,0.0,0.54,137.19,137.19,0.0,0.0,3
40.97405500,40974055,0.0,0.0,0.0,0.54,137.19,137.19,0.0,0.0,3
41.07394400,41073944,0.0,0.0,0.0,0.54,137.18,137.18,0.0,0.01,3
41.17392000,41173920,0.0,0.0,0.0,0.54,137.18,137.18,0.0,0.0,3
41.27393700,41273937,0.0,0.0,0.0,0.54,137.18,137.18,0.0,0.0,3
41.37424800,41374248,0.0,0.0,0.0,0.54,137.19,137.19,0.0,0.0,3
41.47416000,41474160,0.0,0.0,0.0,0.54,137.19,137.19,0.0,0.0,3
41.57416200,41574162,0.0,0.0,0.0,0.54,137.19,137.19,0.0,0.0,3
41.67420200,41674202,0.0,0.0,0.0,0.54,137.19,137.19,0.0,0.0,3
41.77426400,41774264,0.0,0.0,0.0,0.54,137.19,137.19,0.0,0.0,3
41.87431200,41874312,0.0,0.0,0.0,0.54,137.19,137.18,0.0,0.0,3
41.97428400,41974284,0.0,0.0,0.0,0.54,137.18,137.18,0.0,0.0,3
42.07420300,42074203,0.0,0.0,0.0,0.54,137.18,137.18,0.0,0.0,3
42.17391400,42173914,0.0,0.0,0.0,0.53,137.18,137.18,0.0,0.0,3
42.27392300,42273923,0.0,0.0,0.0,0.53,137.18,137.18,0.0,0.0,3
42.37397200,42373972,0.0,0.0,0.0,0.53,137.18,137.18,0.0,0.0,3
42.47403500,42474035,0.0,0.0,0.0,0.53,137.18,137.18,0.0,0.0,3
42.57403200,42574032,0.0,0.0,0.0,0.53,137.18,137.18,0.0,0.0,3
42.67407800,42674078,0.0,0.0,0.0,0.53,137.18,137.18,0.0,0.0,3
42.77411900,42774119,0.0,0.0,0.0,0.53,137.18,137.18,0.0,0.0,3
42.87396300,42873963,0.0,-0.01,0.0,0.53,137.18,137.18,0.0,0.0,3
42.97388200,42973882,0.0,-0.01,0.0,0.53,137.18,137.18,0.0,0.0,3
43.07392500,43073925,0.0,-0.01,0.0,0.53,137.17000000000002,137.17000000000002,0.0,0.0,3
43.17423500,43174235,0.0,-0.01,0.0,0.52,137.17000000000002,137.17000000000002,0.0,0.0,3
43.27395800,43273958,0.0,-0.02,0.0,0.52,137.16,137.16,0.0,0.0,3
43.37403300,43374033,0.0,-0.02,0.0,0.51,137.16,137.16,0.0,0.0,3
43.47403700,43474037,0.0,-0.02,0.0,0.52,137.15,137.15,0.0,0.0,3
43.57409100,43574091,0.0,-0.02,0.0,0.51,137.14000000000001,137.14000000000001,0.0,0.0,3
43.67408400,43674084,0.0,-0.02,0.0,0.51,137.14000000000001,137.14000000000001,0.0,0.0,3
43.77430300,43774303,0.0,-0.02,0.0,0.51,137.15,137.15,0.0,0.0,3
43.87422800,43874228,0.0,-0.02,0.0,0.51,137.15,137.15,0.0,0.0,3
43.97390700,43973907,0.0,-0.03,0.0,0.51,137.15,137.15,0.0,0.0,3
44.07391700,44073917,0.0,-0.02,0.0,0.51,137.15,137.15,0.0,0.0,3
44.17395200,44173952,0.0,-0.02,0.0,0.51,137.15,137.15,0.0,0.0,3
44.27402100,44274021,0.0,-0.03,0.0,0.51,137.15,137.15,0.0,0.0,3
44.37407500,44374075,0.0,-0.03,0.0,0.51,137.14000000000001,137.14000000000001,0.0,0.0,3
44.47409700,44474097,0.0,-0.03,0.0,0.51,137.13,137.13,0.0,0.0,3
44.57403600,44574036,0.0,-0.04,0.0,0.51,137.13,137.13,0.0,0.0,3
44.67394900,44673949,0.0,-0.03,0.0,0.5,137.13,137.13,0.0,0.01,3
44.77395900,44773959,0.0,-0.03,0.0,0.5,137.13,137.13,0.0,0.0,3
44.87392400,44873924,0.0,-0.04,0.0,0.5,137.13,137.13,0.0,0.0,3
44.97392800,44973928,0.0,-0.04,0.0,0.5,137.13,137.13,0.0,0.0,3
45.07393800,45073938,0.0,-0.04,0.0,0.5,137.14000000000001,137.14000000000001,0.0,0.0,3
45.17400400,45174004,0.0,-0.04,0.78,0.5,137.14000000000001,137.14000000000001,0.0,0.0,3
45.27402700,45274027,0.0,-0.04,4.44,0.5,137.14000000000001,137.14000000000001,0.0,0.0,3
45.37410400,45374104,0.0,-0.04,6.71,0.49,137.13,137.13,0.0,0.0,3
45.47407800,45474078,0.0,-0.04,5.4,0.49,137.13,137.13,0.0,0.0,3
45.57395400,45573954,0.0,-0.04,2.8000000000000003,0.49,137.13,137.13,0.0,0.0,3
45.67395100,45673951,0.0,-0.05,2.91,0.49,137.14000000000001,137.14000000000001,0.0,0.0,3
45.77397300,45773973,0.0,-0.05,5.92,0.49,137.13,137.13,0.0,0.0,3
45.87392200,45873922,0.0,-0.05,6.49,0.49,137.14000000000001,137.14000000000001,0.0,0.0,3
45.97394800,45973948,0.01,-0.05,3.41,0.48,137.14000000000001,137.14000000000001,0.0,0.0,3
46.07398600,46073986,0.01,-0.04,-2.47,0.48,137.15,137.15,0.0,0.0,3
46.17401100,46174011,0.0,-0.04,-5.7,0.48,137.14000000000001,137.15,0.0,0.0,3
46.27409300,46274093,0.0,-0.04,-5.2700000000000005,0.48,137.14000000000001,137.15,0.0,0.0,3
46.37406500,46374065,0.0,-0.04,-1.19,0.47000000000000003,137.12,137.15,0.0,0.0,3
46.47395000,46473950,0.0,-0.04,3.66,0.47000000000000003,137.1,137.15,0.0,0.0,3
46.57392400,46573924,0.0,-0.04,4.91,0.47000000000000003,137.1,137.15,0.0,0.0,3
46.67392700,46673927,0.0,-0.03,2.5,0.47000000000000003,137.1,137.15,0.0,0.0,3
46.77395200,46773952,0.0,-0.03,-2.87,0.46,137.11,137.15,0.0,0.0,3
46.87396000,46873960,0.0,-0.03,-6.34,0.47000000000000003,137.09,137.15,0.0,0.0,3
46.97429300,46974293,0.0,-0.03,-6.640000000000001,0.47000000000000003,137.09,137.14000000000001,0.0,0.0,3
47.07423100,47074231,0.0,-0.03,-3.29,0.46,137.1,137.14000000000001,0.0,0.0,3
47.17424300,47174243,0.0,-0.03,2.66,0.46,137.13,137.14000000000001,0.0,0.0,3
47.27428200,47274282,0.0,-0.03,6.25,0.46,137.14000000000001,137.15,0.0,0.0,3
47.37431700,47374317,0.0,-0.03,7.83,0.46,137.14000000000001,137.15,0.0,0.0,3
47.47421800,47474218,0.0,-0.03,6.13,0.46,137.15,137.15,0.0,0.0,3
47.57431100,47574311,0.0,-0.03,0.78,0.46,137.15,137.15,0.0,0.0,3
47.67423000,47674230,0.0,-0.03,-4.47,0.46,137.15,137.15,0.0,0.0,3
47.77418800,47774188,0.0,-0.03,-7.18,0.46,137.14000000000001,137.15,0.0,0.0,3
47.87419000,47874190,0.0,-0.03,-8.55,0.46,137.15,137.15,0.0,0.0,3
47.97422000,47974220,0.0,-0.02,-7.58,0.45,137.15,137.15,0.0,0.0,3
48.07426500,48074265,0.0,-0.02,-2.96,0.45,137.15,137.15,0.0,0.01,3
48.17431500,48174315,0.0,-0.02,3.18,0.45,137.15,137.15,0.0,0.01,3
48.27431500,48274315,0.0,-0.02,6.3500000000000005,0.45,137.16,137.16,0.0,0.01,3
48.37427100,48374271,0.0,-0.02,6.0600000000000005,0.45,137.16,137.16,0.0,0.01,3
48.47391900,48473919,0.0,-0.02,2.12,0.45,137.16,137.16,0.0,0.01,3
48.57391800,48573918,0.0,-0.02,-3.6,0.45,137.15,137.15,0.0,0.0,3
48.67394400,48673944,0.0,-0.02,-6.73,0.45,137.15,137.15,0.0,0.0,3
48.77400400,48774004,0.0,-0.02,-8.0,0.44,137.14000000000001,137.14000000000001,0.0,0.01,3
48.87403700,48874037,0.0,-0.02,-5.95,0.44,137.14000000000001,137.14000000000001,0.0,0.01,3
48.97409700,48974097,0.0,-0.02,-3.04,0.44,137.14000000000001,137.14000000000001,0.0,0.01,3
49.07410700,49074107,0.0,-0.01,-1.55,0.44,137.14000000000001,137.14000000000001,0.0,0.0,3
49.17394900,49173949,0.0,-0.01,-0.79,0.44,137.15,137.15,0.0,0.0,3
49.27395800,49273958,0.0,-0.01,-0.4,0.45,137.15,137.15,0.0,0.0,3
49.37395300,49373953,0.0,-0.01,-0.2,0.45,137.16,137.16,0.0,0.01,3
49.47393400,49473934,0.0,-0.01,-0.1,0.45,137.15,137.15,0.0,0.0,3
49.57394900,49573949,0.0,-0.01,-0.05,0.45,137.15,137.15,0.0,0.0,3
49.67401500,49674015,0.0,-0.01,-0.02,0.45,137.14000000000001,137.14000000000001,0.0,0.0,3
49.77408000,49774080,0.0,-0.01,-0.01,0.46,137.14000000000001,137.14000000000001,0.0,0.0,3
49.87422900,49874229,0.0,-0.01,0.0,0.45,137.13,137.13,0.0,0.0,3
49.97427800,49974278,0.0,-0.01,0.0,0.45,137.13,137.13,0.0,0.01,3
50.07393100,50073931,0.0,-0.01,0.0,0.46,137.13,137.13,0.0,0.01,3
50.17391200,50173912,0.0,-0.01,0.0,0.46,137.13,137.13,0.0,0.0,3
50.27392500,50273925,0.0,0.0,0.0,0.46,137.14000000000001,137.14000000000001,0.0,0.0,3
50.37395700,50373957,0.0,0.0,0.0,0.46,137.14000000000001,137.14000000000001,0.0,0.0,3
50.47396300,50473963,0.0,0.0,0.0,0.46,137.13,137.13,0.0,0.0,3
50.57401400,50574014,0.0,0.0,0.0,0.46,137.13,137.13,0.0,0.0,3
50.67403600,50674036,0.0,0.0,0.0,0.46,137.13,137.13,0.0,0.0,3
50.77411800,50774118,0.0,0.0,0.0,0.46,137.12,137.12,0.0,0.0,3
50.87403300,50874033,0.0,-0.01,0.0,0.46,137.12,137.12,0.0,0.0,3
50.97395300,50973953,0.0,-0.01,0.0,0.47000000000000003,137.11,137.11,0.0,0.0,3
51.07419800,51074198,0.0,-0.01,0.0,0.47000000000000003,137.11,137.11,0.0,0.0,3
51.17432400,51174324,0.0,-0.01,0.0,0.47000000000000003,137.1,137.1,0.0,0.0,3
51.27421400,51274214,0.0,-0.01,0.0,0.47000000000000003,137.1,137.1,0.0,0.0,3
51.37397900,51373979,0.0,-0.01,0.0,0.47000000000000003,137.09,137.09,0.0,0.0,3
51.47400100,51474001,0.0,-0.01,0.0,0.47000000000000003,137.09,137.09,0.0,0.0,3
51.57404300,51574043,0.0,-0.01,0.0,0.47000000000000003,137.08,137.08,0.0,0.0,3
51.67412500,51674125,0.0,-0.01,0.0,0.48,137.08,137.08,0.0,0.0,3
51.77405600,51774056,0.0,-0.02,0.0,0.48,137.09,137.09,0.0,0.0,3
51.87395300,51873953,0.0,-0.01,0.0,0.48,137.09,137.09,0.0,0.0,3
51.97395000,51973950,0.0,-0.01,0.0,0.48,137.09,137.09,0.0,0.0,3
52.07393000,52073930,0.0,-0.01,0.0,0.49,137.09,137.09,0.0,0.0,3
52.17393400,52173934,0.0,-0.01,0.0,0.49,137.09,137.09,0.0,0.0,3
52.27394300,52273943,0.0,-0.01,0.0,0.49,137.09,137.09,0.0,0.0,3
52.37401200,52374012,0.0,-0.01,0.0,0.49,137.09,137.09,0.0,0.0,3
52.47421000,52474210,-1.68,-0.01,0.0,0.49,137.1,137.08,0.0,0.0,3
52.57425300,52574253,-5.47,-0.01,0.0,0.49,137.11,137.07,0.0,0.0,3
52.67431900,52674319,-6.94,-0.01,0.0,0.49,137.1,137.06,0.0,0.0,3
52.77430700,52774307,-5.28,-0.01,0.0,0.49,137.08,137.06,0.0,0.0,3
52.87423300,52874233,-0.49,-0.01,0.0,0.49,137.05,137.05,0.0,0.0,3
52.97432400,52974324,4.58,-0.01,0.0,0.5,137.02,137.05,0.0,0.0,3
53.07391600,53073916,6.55,-0.01,0.0,0.5,137.02,137.04,0.0,0.0,3
53.17394800,53173948,5.4,-0.01,0.0,0.51,137.03,137.04,0.0,0.0,3
53.27406300,53274063,1.34,-0.01,0.0,0.51,137.04,137.04,0.0,0.0,3
53.37405600,53374056,-1.28,-0.01,0.0,0.51,137.04,137.04,0.0,0.0,3
53.47406500,53474065,-1.04,-0.01,0.0,0.51,137.04,137.04,0.0,0.0,3
53.57404100,53574041,-0.53,-0.01,0.0,0.51,137.04,137.04,0.0,0.0,3
53.67397700,53673977,-0.27,-0.02,0.0,0.51,137.04,137.04,0.0,0.0,3
53.77395100,53773951,-0.13,-0.02,0.0,0.51,137.04,137.04,0.0,0.0,3
53.87393500,53873935,-0.07,-0.01,0.0,0.51,137.03,137.03,0.0,0.0,3
53.97394600,53973946,-0.03,-0.01,0.0,0.51,137.03,137.03,0.0,0.0,3
54.07394900,54073949,-0.01,-0.02,0.0,0.51,137.02,137.02,0.0,0.0,3
54.17400700,54174007,0.0,-0.02,0.0,0.51,137.02,137.02,0.0,0.01,3
54.27405800,54274058,0.0,-0.02,0.0,0.51,137.02,137.02,0.0,0.0,3
54.37412400,54374124,0.0,-0.02,0.0,0.51,137.02,137.02,0.0,0.0,3
54.47428800,54474288,0.0,-0.02,0.0,0.51,137.02,137.02,0.0,0.01,3
54.57394700,54573947,0.0,-0.02,0.0,0.51,137.02,137.02,0.0,0.0,3
54.67395800,54673958,0.0,-0.01,0.0,0.5,137.03,137.03,0.0,0.0,3
54.77392500,54773925,0.0,-0.02,0.0,0.51,137.03,137.03,0.0,0.0,3
54.87392200,54873922,0.0,-0.02,0.0,0.5,137.03,137.03,0.0,0.0,3
54.97394500,54973945,0.0,-0.02,0.0,0.5,137.03,137.03,0.0,0.0,3
55.07401900,55074019,0.0,-0.03,0.0,0.5,137.02,137.02,0.0,0.0,3
55.17405200,55174052,0.0,-0.03,0.0,0.5,137.02,137.02,0.0,0.0,3
55.27410700,55274107,0.0,-0.04,0.0,0.5,137.02,137.02,0.0,0.0,3
55.37419100,55374191,0.0,-0.04,0.0,0.5,137.02,137.02,0.0,0.0,3
55.47419400,55474194,0.0,-0.04,0.0,0.5,137.02,137.02,0.0,0.0,3
55.57407800,55574078,0.0,-0.04,0.0,0.5,137.02,137.02,0.0,0.0,3
55.67447200,55674472,0.0,-0.05,0.0,0.5,137.01,137.01,0.0,0.0,3
55.77423500,55774235,0.0,-0.05,0.0,0.5,137.01,137.01,0.0,0.0,3
55.87415700,55874157,0.0,-0.05,0.0,0.5,137.01,137.01,0.0,0.0,3
55.97418200,55974182,0.0,-0.05,0.0,0.5,137.01,137.01,0.0,0.0,3
56.07419500,56074195,0.0,-0.05,0.0,0.5,137.01,137.01,0.0,0.0,3
56.17423800,56174238,0.0,-0.05,0.0,0.49,137.01,137.01,0.0,0.0,3
56.27407900,56274079,0.0,-0.06,0.0,0.49,137.0,137.0,0.0,0.0,3
56.37406200,56374062,0.0,-0.06,0.0,0.49,137.0,137.0,0.0,0.0,3
56.47386600,56473866,0.0,-0.06,0.0,0.49,136.99,136.99,0.0,0.0,3
56.57391900,56573919,0.0,-0.06,0.0,0.49,136.99,136.99,0.0,0.0,3
56.67390700,56673907,0.0,-0.06,0.0,0.49,136.99,136.99,0.0,0.0,3
56.77395400,56773954,0.0,-0.06,0.0,0.49,136.99,136.99,0.0,0.0,3
56.87399600,56873996,0.0,-0.07,0.0,0.49,136.99,136.99,0.0,0.0,3
56.97402400,56974024,0.0,-0.07,0.0,0.49,136.99,136.99,0.0,0.0,3
57.07409400,57074094,0.0,-0.06,0.0,0.49,136.99,136.99,0.0,0.0,3
57.17404100,57174041,0.0,-0.06,0.0,0.49,136.99,136.99,0.0,0.0,3
57.27396100,57273961,0.0,-0.06,0.0,0.49,136.99,136.99,0.0,0.0,3
57.37394500,57373945,0.0,-0.06,0.0,0.49,136.99,136.99,0.0,0.0,3
57.47392300,57473923,0.0,-0.06,0.0,0.49,136.99,136.99,0.0,0.0,3
57.57393800,57573938,0.0,-0.05,0.0,0.48,136.99,136.99,0.0,0.0,3
57.67396600,57673966,0.0,-0.06,0.0,0.48,136.98,136.98,0.0,0.0,3
57.77401400,57774014,0.0,-0.06,0.0,0.48,136.99,136.99,0.0,0.0,3
57.87402700,57874027,0.0,-0.05,0.0,0.48,136.99,136.99,0.0,0.0,3
57.97407200,57974072,0.0,-0.06,0.0,0.48,136.99,136.99,0.0,0.0,3
58.07403500,58074035,0.0,-0.06,0.0,0.48,136.99,136.99,0.0,0.0,3
58.17396100,58173961,0.0,-0.06,0.0,0.48,137.0,137.0,0.0,0.0,3
58.27386500,58273865,0.0,-0.05,0.0,0.47000000000000003,137.0,137.0,0.0,0.0,3
58.37395600,58373956,0.0,-0.05,0.0,0.48,137.0,137.0,0.0,0.0,3
58.47423200,58474232,0.0,-0.05,0.0,0.48,137.0,137.0,0.0,0.0,3
58.57416100,58574161,0.0,-0.05,0.0,0.48,137.0,137.0,0.0,0.0,3
58.67400200,58674002,0.0,-0.05,0.0,0.48,137.0,137.0,0.0,0.0,3
58.77407000,58774070,0.0,-0.05,0.0,0.48,137.0,137.0,0.0,0.0,3
58.87410800,58874108,0.0,-0.05,0.0,0.49,136.99,136.99,0.0,0.0,3
58.97404900,58974049,0.0,-0.05,0.0,0.48,136.99,136.99,0.0,0.0,3
59.07395700,59073957,0.0,-0.04,0.0,0.48,136.98,136.98,0.0,0.0,3
59.17390800,59173908,0.0,-0.04,0.0,0.49,136.98,136.98,0.0,0.0,3
59.27395700,59273957,0.0,-0.04,0.0,0.49,136.97,136.97,0.0,0.0,3
59.37395100,59373951,0.0,-0.04,0.0,0.49,136.97,136.97,0.0,0.0,3
59.47394200,59473942,0.0,-0.04,0.0,0.49,136.96,136.96,0.0,0.0,3
59.57428300,59574283,0.0,-0.03,0.0,0.49,136.96,136.96,0.0,0.0,3
59.67420900,59674209,0.0,-0.03,0.0,0.49,136.95000000000002,136.95000000000002,0.0,0.0,3
59.77412000,59774120,0.0,-0.03,0.0,0.49,136.95000000000002,136.95000000000002,0.0,0.0,3
59.87413800,59874138,0.0,-0.03,0.0,0.49,136.95000000000002,136.95000000000002,0.0,0.0,3
59.97404500,59974045,0.0,-0.03,0.0,0.49,136.95000000000002,136.95000000000002,0.0,0.0,3
60.07385600,60073856,0.0,-0.03,0.0,0.49,136.94,136.94,0.0,0.0,3
60.17392800,60173928,0.0,-0.02,0.0,0.49,136.94,136.94,0.0,0.0,3
60.27392200,60273922,0.0,-0.02,0.0,0.5,136.94,136.94,0.0,0.0,3
60.37396100,60373961,0.0,-0.02,0.0,0.5,136.93,136.93,0.0,0.0,3
60.47399800,60473998,0.0,-0.02,0.0,0.5,136.93,136.93,0.0,0.0,3
60.57403000,60574030,0.0,-0.02,0.0,0.5,136.93,136.93,0.0,0.0,3
60.67408200,60674082,0.0,-0.02,0.0,0.51,136.93,136.93,0.0,0.0,3
60.77405100,60774051,0.0,-0.01,0.0,0.5,136.93,136.93,0.0,0.0,3
60.87395400,60873954,0.0,-0.01,0.0,0.51,136.93,136.93,0.0,0.0,3
60.97419900,60974199,0.0,-0.01,0.0,0.51,136.93,136.93,0.0,0.0,3
61.07432300,61074323,0.0,-0.01,0.0,0.51,136.93,136.93,0.0,0.0,3
61.17421900,61174219,0.0,-0.01,0.0,0.51,136.94,136.94,0.0,0.0,3
61.27417200,61274172,0.0,-0.01,0.0,0.51,136.93,136.93,0.0,0.0,3
61.37419800,61374198,0.0,-0.01,0.0,0.51,136.93,136.93,0.0,0.0,3
61.47422600,61474226,0.0,-0.01,0.0,0.51,136.93,136.93,0.0,0.0,3
61.57409700,61574097,0.0,-0.01,0.0,0.52,136.92000000000002,136.92000000000002,0.0,0.0,3
61.67416900,61674169,0.0,-0.01,0.0,0.52,136.93,136.93,0.0,0.0,3
61.77395600,61773956,0.0,-0.01,0.0,0.52,136.93,136.93,0.0,0.0,3
61.87386800,61873868,0.0,0.0,0.0,0.52,136.92000000000002,136.92000000000002,0.0,0.0,3
61.97393000,61973930,0.0,0.0,0.0,0.52,136.92000000000002,136.92000000000002,0.0,0.0,3
62.07393300,62073933,0.0,0.0,0.0,0.52,136.92000000000002,136.92000000000002,0.0,0.01,3
62.17395800,62173958,0.0,0.0,0.0,0.53,136.92000000000002,136.92000000000002,0.0,0.01,3
62.27425100,62274251,0.0,0.0,0.0,0.52,136.93,136.93,0.0,0.01,3
62.37424300,62374243,0.0,0.0,0.0,0.53,136.93,136.93,0.0,0.01,3
62.47438500,62474385,0.0,0.0,0.0,0.53,136.94,136.94,0.0,0.01,3
62.57443700,62574437,0.0,0.0,0.0,0.53,136.95000000000002,136.95000000000002,0.0,0.01,3
62.67420500,62674205,0.0,0.0,0.0,0.53,136.95000000000002,136.95000000000002,0.0,0.01,3
62.77420300,62774203,0.0,0.0,0.0,0.54,136.95000000000002,136.95000000000002,0.0,0.01,3
62.87419200,62874192,0.0,0.0,0.0,0.54,136.96,136.95000000000002,0.0,0.01,3
62.97413500,62974135,0.0,0.0,0.0,0.54,136.97,136.94,0.0,0.0,3
63.07412700,63074127,0.0,0.0,0.0,0.54,136.99,136.93,0.0,0.0,3
63.17415700,63174157,0.0,0.0,0.0,0.54,137.0,136.93,0.0,0.0,3
63.27418000,63274180,0.0,0.0,0.0,0.54,136.99,136.92000000000002,0.0,0.0,3
63.37425800,63374258,0.0,0.0,0.0,0.54,136.97,136.92000000000002,0.0,0.0,3
63.47425400,63474254,0.0,0.0,0.0,0.54,136.94,136.92000000000002,0.0,0.0,3
63.57425900,63574259,0.0,0.01,0.0,0.54,136.92000000000002,136.92000000000002,0.0,0.0,3
63.67417600,63674176,0.0,0.01,0.0,0.54,136.92000000000002,136.92000000000002,0.0,0.0,3
63.77419800,63774198,0.0,0.01,0.0,0.54,136.91,136.91,0.0,0.01,3
63.87411200,63874112,0.0,0.01,0.0,0.54,136.91,136.91,0.0,0.0,3
63.97413700,63974137,0.0,0.01,0.0,0.54,136.9,136.9,0.0,0.0,3
64.07416000,64074160,0.0,0.01,0.0,0.54,136.9,136.9,0.0,0.0,3
64.17417400,64174174,0.0,0.01,0.0,0.54,136.9,136.89000000000001,0.0,0.0,3
64.27425400,64274254,0.0,0.01,0.0,0.54,136.9,136.89000000000001,0.0,0.0,3
64.37430300,64374303,0.0,0.01,0.0,0.55,136.91,136.88,0.0,0.0,3
64.47394800,64473948,0.0,0.01,0.0,0.54,136.92000000000002,136.88,0.0,0.0,3
64.57420900,64574209,0.0,0.0,0.0,0.54,136.93,136.88,0.0,0.0,3
64.67433500,64674335,0.0,0.01,0.0,0.54,136.93,136.88,0.0,0.0,3
64.77424800,64774248,0.0,0.01,0.0,0.54,136.94,136.88,0.0,0.0,3
64.87415700,64874157,0.0,0.0,0.0,0.53,136.93,136.88,0.0,0.0,3
64.97418500,64974185,0.0,0.0,0.0,0.53,136.93,136.88,0.0,0.0,3
65.07427300,65074273,0.0,0.0,0.0,0.54,136.92000000000002,136.88,0.0,0.0,3
65.17425200,65174252,0.0,0.0,0.0,0.53,136.9,136.87,0.0,0.0,3
65.27428300,65274283,0.0,0.0,0.0,0.53,136.87,136.87,0.0,0.0,3
65.37429100,65374291,0.0,0.0,0.0,0.53,136.87,136.87,0.0,0.0,3
65.47420500,65474205,0.0,0.0,0.0,0.53,136.86,136.86,0.0,0.0,3
65.57430700,65574307,0.0,0.0,0.0,0.53,136.85,136.85,0.0,0.0,3
65.67447900,65674479,0.0,0.0,0.0,0.53,136.85,136.85,0.0,0.0,3
65.77395900,65773959,0.0,0.01,0.0,0.53,136.85,136.85,0.0,0.0,3
65.87406900,65874069,0.0,0.01,0.0,0.53,136.85,136.85,0.0,0.01,3
65.97403400,65974034,0.0,0.01,0.0,0.53,136.85,136.85,0.0,0.01,3
66.07408900,66074089,0.0,0.01,0.0,0.53,136.84,136.84,0.0,0.0,3
66.17402900,66174029,0.0,0.01,0.0,0.53,136.85,136.85,0.0,0.0,3
66.27395600,66273956,0.0,0.01,0.0,0.53,136.85,136.85,0.0,0.0,3
66.37396200,66373962,0.0,0.01,0.0,0.53,136.85,136.85,0.0,0.0,3
66.47395400,66473954,0.0,0.01,0.0,0.53,136.85,136.85,0.0,0.0,3
66.57393100,66573931,0.0,0.01,0.0,0.53,136.85,136.85,0.0,0.0,3
66.67395600,66673956,0.0,0.01,0.0,0.53,136.85,136.85,0.0,0.0,3
66.77401300,66774013,0.0,0.01,0.0,0.52,136.85,136.85,0.0,0.01,3
66.87404400,66874044,0.0,0.01,0.0,0.52,136.84,136.84,0.0,0.0,3
66.97409900,66974099,0.0,0.01,0.0,0.52,136.86,136.84,0.0,0.0,3
67.07406500,67074065,0.0,0.01,0.0,0.52,136.88,136.84,0.0,0.0,3
67.17395600,67173956,0.0,0.02,0.0,0.52,136.9,136.84,0.0,0.0,3
67.27394700,67273947,0.0,0.02,0.0,0.52,136.9,136.84,0.0,0.0,3
67.37395600,67373956,0.0,0.02,0.0,0.52,136.88,136.84,0.0,0.0,3
67.47393000,67473930,0.0,0.02,0.0,0.52,136.86,136.84,0.0,0.0,3
67.57395400,67573954,0.0,0.02,0.0,0.52,136.84,136.84,0.0,0.0,3
67.67422000,67674220,0.0,0.02,0.0,0.51,136.84,136.84,0.0,0.0,3
67.77423600,67774236,0.0,0.02,0.0,0.51,136.84,136.84,0.0,0.0,3
67.87425900,67874259,0.0,0.02,0.0,0.51,136.83,136.83,0.0,0.0,3
67.97438300,67974383,0.0,0.02,0.0,0.5,136.84,136.84,0.0,0.0,3
68.07394800,68073948,0.0,0.02,0.0,0.51,136.84,136.84,0.0,0.0,3
68.17392200,68173922,0.0,0.01,0.0,0.51,136.83,136.83,0.0,0.0,3
68.27406500,68274065,0.0,0.02,0.0,0.5,136.83,136.83,0.0,0.0,3
68.37394000,68373940,0.0,0.02,0.0,0.5,136.83,136.83,0.0,0.0,3
68.47395100,68473951,0.0,0.02,0.0,0.5,136.82,136.82,0.0,0.0,3
68.57399500,68573995,0.0,0.01,0.0,0.5,136.82,136.82,0.0,0.0,3
68.67402600,68674026,0.0,0.01,0.0,0.5,136.82,136.82,0.0,0.0,3
68.77410600,68774106,0.0,0.01,0.0,0.5,136.82,136.82,0.0,0.0,3
68.87407900,68874079,0.0,0.01,0.0,0.5,136.82,136.82,0.0,0.0,3
68.97429900,68974299,0.0,0.01,0.0,0.5,136.82,136.82,0.0,0.0,3
69.07420700,69074207,0.0,0.0,0.0,0.5,136.82,136.82,0.0,0.0,3
69.17393600,69173936,0.0,0.01,0.0,0.5,136.81,136.81,0.0,0.0,3
69.27394300,69273943,0.0,0.01,0.0,0.51,136.81,136.81,0.0,0.0,3
69.37397500,69373975,0.0,0.01,0.0,0.5,136.82,136.82,0.0,0.0,3
69.47400400,69474004,0.0,0.01,0.0,0.5,136.82,136.82,0.0,0.0,3
69.57404300,69574043,0.0,0.01,0.0,0.5,136.82,136.82,0.0,0.0,3
69.67424100,69674241,0.0,0.01,0.0,0.5,136.82,136.82,0.0,0.0,3
69.77425800,69774258,0.0,0.01,0.0,0.5,136.82,136.82,0.0,0.0,3
69.87426000,69874260,0.0,0.01,0.0,0.5,136.82,136.82,0.0,0.0,3
69.97418800,69974188,0.0,0.0,0.0,0.5,136.83,136.83,0.0,0.0,3
70.07418900,70074189,0.0,0.0,0.0,0.5,136.82,136.82,0.0,0.0,3
70.17441500,70174415,0.0,0.0,0.0,0.5,136.82,136.82,0.0,0.0,3
70.27414700,70274147,0.0,0.0,0.0,0.5,136.82,136.82,0.0,0.0,3
70.37418600,70374186,0.0,0.0,0.0,0.49,136.82,136.82,0.0,0.0,3
70.47421800,70474218,0.0,0.0,0.0,0.49,136.81,136.81,0.0,0.0,3
70.57427600,70574276,0.0,0.0,0.0,0.5,136.81,136.81,0.0,0.0,3
70.67426200,70674262,0.0,0.0,0.0,0.5,136.81,136.81,0.0,0.0,3
70.77427200,70774272,0.0,0.0,0.0,0.49,136.81,136.81,0.0,0.0,3
70.87419300,70874193,0.0,0.0,0.0,0.49,136.81,136.81,0.0,0.0,3
70.97416400,70974164,0.0,0.0,0.0,0.49,136.81,136.81,0.0,0.0,3
71.07411600,71074116,0.0,0.0,0.0,0.49,136.81,136.81,0.0,0.0,3
71.17439200,71174392,0.0,0.0,0.0,0.49,136.8,136.8,0.0,0.0,3
71.27436700,71274367,0.0,0.0,0.0,0.49,136.8,136.8,0.0,0.0,3
71.37421900,71374219,0.0,0.0,0.0,0.49,136.8,136.8,0.0,0.0,3
71.47424800,71474248,0.0,0.0,0.0,0.49,136.8,136.8,0.0,0.0,3
71.57428400,71574284,0.0,0.0,0.0,0.49,136.78,136.8,0.0,0.0,3
71.67429100,71674291,0.0,0.0,0.0,0.48,136.79,136.79,0.0,0.0,3
71.77427000,71774270,0.0,0.0,0.0,0.48,136.79,136.79,0.0,0.0,3
71.87431100,71874311,0.0,0.0,0.0,0.48,136.79,136.79,0.0,0.0,3
71.97422000,71974220,0.0,0.0,0.0,0.48,136.79,136.79,0.0,0.0,3
72.07393400,72073934,0.0,0.0,0.0,0.48,136.78,136.78,0.0,0.0,3
72.17415000,72174150,0.0,0.0,0.0,0.48,136.78,136.78,0.0,0.0,3
72.27403500,72274035,0.0,0.0,0.0,0.47000000000000003,136.78,136.78,0.0,0.0,3
72.37410100,72374101,0.0,0.0,0.0,0.48,136.78,136.78,0.0,0.0,3
72.47402800,72474028,0.0,-0.01,0.0,0.48,136.77,136.77,0.0,0.0,3
72.57394000,72573940,0.0,-0.01,0.0,0.48,136.77,136.77,0.0,0.0,3
72.67386800,72673868,0.0,-0.01,0.0,0.48,136.77,136.77,0.0,0.0,3
72.77393300,72773933,0.0,-0.01,0.0,0.48,136.77,136.77,0.0,0.0,3
72.87393100,72873931,0.0,-0.01,0.0,0.48,136.77,136.77,0.0,0.0,3
72.97396900,72973969,0.0,-0.01,0.0,0.48,136.76,136.76,0.0,0.0,3
73.07400100,73074001,0.0,-0.01,0.0,0.48,136.76,136.76,0.0,0.0,3
73.17412800,73174128,0.0,0.0,0.0,0.48,136.76,136.76,0.0,0.0,3
73.27406900,73274069,0.0,-0.01,0.0,0.48,136.76,136.76,0.0,0.0,3
73.37407200,73374072,0.0,-0.01,0.0,0.47000000000000003,136.76,136.76,0.0,0.0,3
73.47396200,73473962,0.0,-0.01,0.0,0.47000000000000003,136.75,136.75,0.0,0.0,3
73.57392100,73573921,0.0,-0.01,0.0,0.47000000000000003,136.75,136.75,0.0,0.0,3
73.67393000,73673930,0.0,-0.01,0.0,0.47000000000000003,136.76,136.76,0.0,0.0,3
73.77425900,73774259,0.0,-0.01,0.0,0.47000000000000003,136.76,136.76,0.0,0.0,3
73.87416900,73874169,0.0,-0.01,0.0,0.47000000000000003,136.75,136.75,0.0,0.0,3
73.97419100,73974191,0.0,-0.02,0.0,0.47000000000000003,136.76,136.76,0.0,0.0,3
74.07403100,74074031,0.0,-0.02,0.0,0.47000000000000003,136.76,136.76,0.0,0.0,3
74.17412600,74174126,0.0,-0.02,0.0,0.47000000000000003,136.76,136.76,0.0,0.0,3
74.27411300,74274113,0.0,-0.02,0.0,0.47000000000000003,136.76,136.76,0.0,0.0,3
74.37430500,74374305,0.0,-0.02,0.0,0.47000000000000003,136.75,136.75,0.0,0.0,3
74.47422200,74474222,0.0,-0.02,0.0,0.47000000000000003,136.75,136.75,0.0,0.0,3
74.57431400,74574314,0.0,-0.02,0.0,0.47000000000000003,136.75,136.75,0.0,0.0,3
74.67422100,74674221,0.0,-0.02,0.0,0.46,136.74,136.74,0.0,0.0,3
74.77418200,74774182,0.0,-0.02,0.0,0.47000000000000003,136.74,136.74,0.0,0.0,3
74.87419100,74874191,0.0,-0.02,0.0,0.47000000000000003,136.73,136.73,0.0,0.0,3
74.97422500,74974225,0.0,-0.02,0.0,0.46,136.73,136.73,0.0,0.0,3
75.07426900,75074269,0.0,-0.02,0.0,0.46,136.72,136.72,0.0,0.0,3
75.17429600,75174296,0.0,-0.03,0.0,0.46,136.72,136.72,0.0,0.0,3
75.27429600,75274296,0.0,-0.03,0.0,0.46,136.72,136.72,0.0,0.0,3
75.37426600,75374266,0.0,-0.03,0.0,0.46,136.71,136.71,0.0,0.0,3
75.47430700,75474307,0.0,-0.04,0.0,0.46,136.71,136.71,0.0,0.0,3
75.57421100,75574211,0.0,-0.04,0.0,0.46,136.71,136.71,0.0,0.0,3
75.67417000,75674170,0.0,-0.04,0.0,0.46,136.71,136.71,0.0,0.0,3
75.77419600,75774196,0.0,-0.03,0.0,0.46,136.71,136.71,0.0,0.0,3
75.87441600,75874416,0.0,-0.03,0.0,0.46,136.71,136.71,0.0,0.0,3
75.97427100,75974271,0.0,-0.04,0.0,0.46,136.71,136.71,0.0,0.0,3
76.07427300,76074273,0.0,-0.04,0.0,0.46,136.70000000000002,136.70000000000002,0.0,0.0,3
76.17430200,76174302,0.0,-0.04,0.0,0.47000000000000003,136.70000000000002,136.70000000000002,0.0,0.0,3
76.27424300,76274243,0.0,-0.04,0.0,0.46,136.70000000000002,136.70000000000002,0.0,0.0,3
76.37433500,76374335,0.0,-0.04,0.0,0.46,136.70000000000002,136.70000000000002,0.0,0.0,3
76.47422700,76474227,0.0,-0.04,0.0,0.46,136.70000000000002,136.70000000000002,0.0,0.0,3
76.57416000,76574160,0.0,-0.04,0.0,0.46,136.70000000000002,136.70000000000002,0.0,0.0,3
76.67417000,76674170,0.0,-0.04,0.0,0.46,136.71,136.71,0.0,0.0,3
76.77423900,76774239,0.0,-0.04,0.0,0.46,136.71,136.71,0.0,0.0,3
76.87425500,76874255,0.0,-0.04,0.0,0.47000000000000003,136.71,136.71,0.0,0.0,3
76.97427900,76974279,0.0,-0.04,0.0,0.47000000000000003,136.71,136.71,0.0,0.0,3
77.07427500,77074275,0.0,-0.04,0.0,0.47000000000000003,136.71,136.71,0.0,0.0,3
77.17430600,77174306,0.0,-0.04,0.0,0.47000000000000003,136.70000000000002,136.70000000000002,0.0,0.0,3
77.27430500,77274305,0.0,-0.03,0.0,0.47000000000000003,136.70000000000002,136.70000000000002,0.0,0.0,3
77.37427000,77374270,0.0,-0.03,0.0,0.47000000000000003,136.70000000000002,136.70000000000002,0.0,0.0,3
77.47416600,77474166,0.0,-0.03,0.0,0.47000000000000003,136.69,136.69,0.0,0.0,3
77.57418100,77574181,0.0,-0.03,0.0,0.47000000000000003,136.69,136.69,0.0,0.0,3
77.67421200,77674212,0.0,-0.03,0.0,0.47000000000000003,136.69,136.69,0.0,0.0,3
77.77409200,77774092,0.0,-0.02,0.0,0.47000000000000003,136.69,136.69,0.0,0.0,3
77.87402600,77874026,0.0,-0.02,0.0,0.47000000000000003,136.69,136.69,0.0,0.0,3
77.97395800,77973958,0.0,-0.02,0.0,0.47000000000000003,136.68,136.68,0.0,0.0,3
78.07388300,78073883,0.0,-0.02,0.0,0.47000000000000003,136.68,136.68,0.0,0.0,3
78.17393300,78173933,0.0,-0.02,0.0,0.47000000000000003,136.68,136.68,0.0,0.0,3
78.27394800,78273948,0.0,-0.02,0.0,0.47000000000000003,136.68,136.68,0.0,0.0,3
78.37397800,78373978,0.0,-0.01,0.0,0.47000000000000003,136.68,136.68,0.0,0.0,3
78.47408600,78474086,0.0,-0.01,0.0,0.47000000000000003,136.68,136.68,0.0,0.0,3
78.57403600,78574036,0.0,-0.01,0.0,0.47000000000000003,136.68,136.68,0.0,0.0,3
78.67414500,78674145,0.0,-0.01,0.0,0.47000000000000003,136.68,136.68,0.0,0.0,3
78.77405300,78774053,0.0,-0.01,0.0,0.48,136.68,136.68,0.0,0.0,3
78.87396500,78873965,0.0,-0.01,0.0,0.47000000000000003,136.68,136.68,0.0,0.0,3
78.97392400,78973924,0.0,-0.01,0.0,0.48,136.68,136.68,0.0,0.0,3
79.07419700,79074197,0.0,-0.01,0.0,0.47000000000000003,136.68,136.68,0.0,0.0,3
79.17422200,79174222,0.0,-0.01,0.0,0.47000000000000003,136.67000000000002,136.67000000000002,0.0,0.0,3
79.27415200,79274152,0.0,-0.01,0.0,0.47000000000000003,136.67000000000002,136.67000000000002,0.0,0.0,3
79.37419000,79374190,0.0,0.0,0.0,0.47000000000000003,136.67000000000002,136.67000000000002,0.0,0.0,3
79.47420900,79474209,0.0,-0.01,0.0,0.47000000000000003,136.67000000000002,136.67000000000002,0.0,0.0,3
79.57427700,79574277,0.0,-0.01,0.0,0.47000000000000003,136.66,136.66,0.0,0.0,3
79.67404700,79674047,0.0,-0.01,0.0,0.47000000000000003,136.65,136.65,0.0,0.0,3
79.77395900,79773959,0.0,-0.01,0.0,0.48,136.65,136.65,0.0,0.0,3
79.87390900,79873909,0.0,-0.01,0.0,0.48,136.65,136.65,0.0,0.0,3
79.97394400,79973944,0.0,-0.01,0.0,0.48,136.64000000000001,136.64000000000001,0.0,0.0,3
80.07394100,80073941,0.0,-0.01,0.0,0.48,136.64000000000001,136.64000000000001,0.0,0.0,3
80.17395400,80173954,0.0,-0.02,0.0,0.47000000000000003,136.64000000000001,136.64000000000001,0.0,0.0,3
80.27400500,80274005,0.0,-0.02,0.0,0.47000000000000003,136.64000000000001,136.64000000000001,0.0,0.0,3
80.37406600,80374066,0.0,-0.02,0.0,0.47000000000000003,136.63,136.63,0.0,0.0,3
80.47409500,80474095,0.0,-0.02,0.0,0.47000000000000003,136.62,136.62,0.0,0.0,3
80.57409000,80574090,0.0,-0.01,0.0,0.47000000000000003,136.62,136.62,0.0,0.0,3
80.67395800,80673958,0.0,-0.02,0.0,0.48,136.62,136.62,0.0,0.0,3
80.77394000,80773940,0.0,-0.02,0.0,0.48,136.62,136.62,0.0,0.0,3
80.87393600,80873936,0.0,-0.02,0.0,0.47000000000000003,136.62,136.62,0.0,0.0,3
80.97422900,80974229,0.0,-0.02,0.0,0.47000000000000003,136.61,136.61,0.0,0.0,3
81.07416000,81074160,0.0,-0.02,0.0,0.47000000000000003,136.61,136.61,0.0,0.0,3
81.17423100,81174231,0.0,-0.02,0.0,0.47000000000000003,136.61,136.61,0.0,0.0,3
81.27421300,81274213,0.0,-0.02,0.0,0.47000000000000003,136.61,136.61,0.0,0.0,3
81.37425600,81374256,0.0,-0.02,0.0,0.46,136.61,136.61,0.0,0.0,3
81.47425600,81474256,0.0,-0.02,0.0,0.46,136.6,136.6,0.0,0.0,3
81.57424100,81574241,0.0,-0.02,0.0,0.46,136.6,136.6,0.0,0.0,3
81.67417600,81674176,0.0,-0.02,0.0,0.46,136.6,136.6,0.0,0.0,3
81.77418900,81774189,0.0,-0.02,0.0,0.46,136.6,136.6,0.0,0.0,3
81.87411800,81874118,0.0,-0.02,0.0,0.46,136.61,136.61,0.0,0.0,3
81.97415300,81974153,0.0,-0.02,0.0,0.46,136.61,136.61,0.0,0.0,3
82.07415000,82074150,0.0,-0.02,0.0,0.46,136.61,136.61,0.0,0.0,3
82.17418900,82174189,0.0,-0.02,0.0,0.46,136.61,136.61,0.0,0.0,3
82.27424100,82274241,0.0,-0.02,0.0,0.47000000000000003,136.62,136.61,0.0,0.0,3
82.37425600,82374256,0.0,-0.03,0.0,0.47000000000000003,136.64000000000001,136.62,0.0,0.0,3
82.47425100,82474251,0.0,-0.02,0.0,0.47000000000000003,136.62,136.62,0.0,0.0,3
82.57406900,82574069,0.0,-0.02,0.0,0.47000000000000003,136.62,136.62,0.0,0.0,3
82.67418600,82674186,0.0,-0.02,0.0,0.47000000000000003,136.61,136.61,0.0,0.01,3
82.77443800,82774438,0.0,-0.02,0.0,0.47000000000000003,136.61,136.61,0.0,0.0,3
82.87416600,82874166,0.0,-0.03,0.0,0.47000000000000003,136.62,136.62,0.0,0.0,3
82.97400200,82974002,0.0,-0.03,0.0,0.46,136.62,136.62,0.0,0.0,3
83.07405700,83074057,0.0,-0.03,0.0,0.46,136.62,136.62,0.0,0.0,3
83.17409900,83174099,0.0,-0.03,0.0,0.46,136.62,136.62,0.0,0.0,3
83.27404600,83274046,0.0,-0.04,0.0,0.47000000000000003,136.62,136.62,0.0,0.0,3
83.37398300,83373983,0.0,-0.04,0.0,0.46,136.63,136.63,0.0,0.0,3
83.47391000,83473910,0.0,-0.04,0.0,0.46,136.63,136.63,0.0,0.0,3
83.57395000,83573950,0.0,-0.05,0.0,0.46,136.62,136.62,0.0,0.0,3
83.67393400,83673934,0.0,-0.05,0.0,0.46,136.62,136.62,0.0,0.0,3
83.77396700,83773967,0.0,-0.05,0.0,0.46,136.63,136.63,0.0,0.01,3
83.87418100,83874181,0.0,-0.05,0.0,0.46,136.63,136.63,0.0,0.01,3
83.97422200,83974222,0.0,-0.05,0.0,0.46,136.63,136.63,0.0,0.01,3
84.07407900,84074079,0.0,-0.05,0.0,0.45,136.63,136.63,0.0,0.01,3
84.17407600,84174076,0.0,-0.05,0.0,0.45,136.63,136.63,0.0,0.0,3
84.27402900,84274029,0.0,-0.05,0.0,0.45,136.63,136.63,0.0,0.0,3
84.37395700,84373957,0.0,-0.05,0.0,0.45,136.63,136.63,0.0,0.0,3
84.47393200,84473932,0.0,-0.05,0.0,0.45,136.63,136.63,0.0,0.0,3
84.57392300,84573923,0.0,-0.05,0.0,0.44,136.63,136.63,0.0,0.0,3
84.67394800,84673948,0.0,-0.05,0.0,0.45,136.63,136.63,0.0,0.01,3
84.77407500,84774075,0.0,-0.06,0.0,0.45,136.62,136.62,0.0,0.0,3
84.87403000,84874030,0.0,-0.06,0.0,0.45,136.61,136.61,0.0,0.01,3
84.97411000,84974110,0.0,-0.06,0.0,0.44,136.61,136.61,0.0,0.01,3
85.07405100,85074051,0.0,-0.06,0.0,0.45,136.61,136.61,0.0,0.01,3
85.17395400,85173954,0.0,-0.06,0.0,0.44,136.61,136.61,0.0,0.01,3
85.27421400,85274214,0.0,-0.06,0.0,0.44,136.61,136.61,0.0,0.0,3
85.37394000,85373940,0.0,-0.06,0.0,0.44,136.61,136.61,0.0,0.01,3
85.47392400,85473924,0.0,-0.07,0.0,0.44,136.61,136.61,0.0,0.0,3
85.57395100,85573951,0.0,-0.07,0.0,0.44,136.61,136.61,0.0,0.0,3
85.67401300,85674013,0.0,-0.06,0.0,0.44,136.61,136.61,0.0,0.0,3
85.77408000,85774080,0.0,-0.06,0.0,0.44,136.61,136.61,0.0,0.0,3
85.87408900,85874089,0.0,-0.06,0.0,0.44,136.61,136.61,0.0,0.0,3
85.97405000,85974050,0.0,-0.06,0.0,0.44,136.61,136.61,0.0,0.0,3
86.07425100,86074251,0.0,-0.06,0.0,0.44,136.6,136.6,0.0,0.0,3
86.17419300,86174193,0.0,-0.06,0.0,0.45,136.61,136.61,0.0,0.0,3
86.27417000,86274170,0.0,-0.06,0.0,0.45,136.61,136.61,0.0,0.0,3
86.37420300,86374203,0.0,-0.07,0.0,0.45,136.61,136.61,0.0,0.0,3
86.47415200,86474152,0.0,-0.07,0.0,0.45,136.61,136.61,0.0,0.0,3
86.57415600,86574156,0.0,-0.07,0.0,0.45,136.61,136.61,0.0,0.0,3
86.67419000,86674190,0.0,-0.07,0.0,0.45,136.61,136.61,0.0,0.0,3
86.77440500,86774405,0.0,-0.07,0.0,0.45,136.61,136.61,0.0,0.0,3
86.87440200,86874402,0.0,-0.08,0.0,0.44,136.6,136.6,0.0,0.0,3
86.97429200,86974292,0.0,-0.08,0.0,0.44,136.61,136.61,0.0,0.0,3
87.07419800,87074198,0.0,-0.08,0.0,0.44,136.6,136.6,0.0,0.0,3
87.17392900,87173929,0.0,-0.08,0.0,0.44,136.59,136.59,0.0,0.0,3
87.27393600,87273936,0.0,-0.08,0.0,0.44,136.59,136.59,0.0,0.0,3
87.37397100,87373971,0.0,-0.08,0.0,0.44,136.59,136.59,0.0,0.0,3
87.47398700,87473987,0.0,-0.08,0.0,0.44,136.59,136.59,0.0,0.0,3
87.57402300,87574023,0.0,-0.08,0.0,0.44,136.6,136.6,0.0,0.0,3
87.67409700,87674097,0.0,-0.08,0.0,0.45,136.6,136.6,0.0,0.0,3
87.77431400,87774314,0.0,-0.08,0.0,0.45,136.6,136.6,0.0,0.0,3
87.87394500,87873945,0.0,-0.08,0.0,0.45,136.6,136.6,0.0,0.0,3
87.97391900,87973919,0.0,-0.08,0.0,0.45,136.6,136.6,0.0,0.0,3
88.07392300,88073923,0.0,-0.08,0.0,0.45,136.6,136.6,0.0,0.0,3
88.17393200,88173932,0.0,-0.09,0.0,0.45,136.61,136.61,0.0,0.0,3
88.27394500,88273945,0.0,-0.08,0.0,0.46,136.61,136.61,0.0,0.0,3
88.37401500,88374015,0.0,-0.09,0.0,0.46,136.61,136.61,0.0,0.0,3
88.47402300,88474023,0.0,-0.09,0.0,0.46,136.62,136.62,0.0,0.0,3
88.57407700,88574077,0.0,-0.09,0.0,0.46,136.62,136.62,0.0,0.0,3
88.67404100,88674041,0.0,-0.09,0.0,0.46,136.61,136.61,0.0,0.0,3
88.77397300,88773973,0.0,-0.09,0.0,0.46,136.61,136.61,0.0,0.0,3
88.87396500,88873965,0.0,-0.09,0.0,0.46,136.62,136.62,0.0,0.0,3
88.97393200,88973932,0.0,-0.09,0.0,0.46,136.62,136.62,0.0,0.0,3
89.07391700,89073917,0.0,-0.09,0.0,0.46,136.63,136.63,0.0,0.0,3
89.17395300,89173953,0.0,-0.09,0.0,0.46,136.63,136.63,0.0,0.0,3
89.27398900,89273989,0.0,-0.09,0.0,0.46,136.63,136.63,0.0,0.01,3
89.37407400,89374074,0.0,-0.09,0.0,0.46,136.63,136.63,0.0,0.0,3
89.47408600,89474086,0.0,-0.09,0.0,0.46,136.63,136.63,0.0,0.0,3
89.57429100,89574291,0.0,-0.09,0.0,0.46,136.63,136.63,0.0,0.0,3
89.67429600,89674296,0.0,-0.09,0.0,0.46,136.63,136.63,0.0,0.0,3
89.77423800,89774238,0.0,-0.09,0.0,0.46,136.63,136.63,0.0,0.0,3
89.87431400,89874314,0.0,-0.09,0.0,0.46,136.63,136.63,0.0,0.0,3
89.97425400,89974254,0.0,-0.09,0.0,0.46,136.63,136.63,0.0,0.0,3
90.07394400,90073944,0.0,-0.09,0.0,0.46,136.63,136.63,0.0,0.0,3
90.17400400,90174004,0.0,-0.09,0.0,0.46,136.63,136.63,0.0,0.0,3
90.27412000,90274120,0.0,-0.08,0.0,0.46,136.63,136.63,0.0,0.01,3
90.37411300,90374113,0.0,-0.08,0.0,0.46,136.63,136.63,0.0,0.01,3
90.47413300,90474133,0.0,-0.08,0.0,0.46,136.63,136.63,0.0,0.01,3
90.57394700,90573947,0.0,-0.08,0.0,0.46,136.63,136.63,0.0,0.01,3
90.67395800,90673958,0.0,-0.09,0.0,0.46,136.64000000000001,136.64000000000001,0.0,0.01,3
90.77394300,90773943,0.0,-0.08,0.0,0.46,136.64000000000001,136.64000000000001,0.0,0.01,3
90.87394100,90873941,0.0,-0.08,0.0,0.46,136.65,136.65,0.0,0.01,3
90.97395600,90973956,0.0,-0.08,0.0,0.47000000000000003,136.65,136.65,0.0,0.01,3
91.07433100,91074331,0.0,-0.08,0.0,0.46,136.65,136.65,0.0,0.0,3
91.17423100,91174231,0.0,-0.08,0.0,0.46,136.65,136.65,0.0,0.0,3
91.27428700,91274287,0.0,-0.08,0.0,0.46,136.64000000000001,136.64000000000001,0.0,0.0,3
91.37429800,91374298,0.0,-0.08,0.0,0.47000000000000003,136.64000000000001,136.64000000000001,0.0,0.0,3
91.47394600,91473946,0.0,-0.07,0.0,0.47000000000000003,136.64000000000001,136.64000000000001,0.0,0.0,3
91.57391600,91573916,0.0,-0.07,0.0,0.46,136.64000000000001,136.64000000000001,0.0,0.0,3
91.67396100,91673961,0.0,-0.07,0.0,0.46,136.64000000000001,136.64000000000001,0.0,0.0,3
91.77393900,91773939,0.0,-0.07,0.0,0.46,136.64000000000001,136.64000000000001,0.0,0.0,3
91.87395300,91873953,0.0,-0.07,0.0,0.46,136.64000000000001,136.64000000000001,0.0,0.0,3
91.97400100,91974001,0.0,-0.07,0.0,0.46,136.63,136.63,0.0,0.0,3
92.07404300,92074043,0.0,-0.07,0.0,0.46,136.63,136.63,0.0,0.0,3
92.17411300,92174113,0.0,-0.07,0.0,0.46,136.63,136.63,0.0,0.0,3
92.27405400,92274054,0.0,-0.06,0.0,0.46,136.63,136.63,0.0,0.0,3
92.37398100,92373981,0.0,-0.06,0.0,0.46,136.62,136.62,0.0,0.0,3
92.47392300,92473923,0.0,-0.07,0.0,0.45,136.62,136.62,0.0,0.0,3
92.57393000,92573930,0.0,-0.06,0.0,0.45,136.63,136.63,0.0,0.0,3
92.67391900,92673919,0.0,-0.07,0.0,0.45,136.63,136.63,0.0,0.0,3
92.77395700,92773957,0.0,-0.07,0.0,0.45,136.64000000000001,136.64000000000001,0.0,0.0,3
92.87403000,92874030,0.0,-0.07,0.0,0.45,136.64000000000001,136.64000000000001,0.0,0.0,3
92.97402800,92974028,0.0,-0.07,0.0,0.44,136.64000000000001,136.64000000000001,0.0,0.0,3
93.07407600,93074076,0.0,-0.07,0.0,0.44,136.64000000000001,136.64000000000001,0.0,0.01,3
93.17438200,93174382,0.0,-0.07,0.0,0.44,136.63,136.63,0.0,0.01,3
93.27429500,93274295,0.0,-0.07,0.0,0.44,136.63,136.63,0.0,0.01,3
93.37422900,93374229,0.0,-0.07,0.0,0.44,136.63,136.63,0.0,0.01,3
93.47395500,93473955,0.0,-0.07,0.0,0.44,136.63,136.63,0.0,0.01,3
93.57392500,93573925,0.0,-0.07,0.0,0.44,136.63,136.63,0.0,0.0,3
93.67394600,93673946,0.0,-0.07,0.0,0.44,136.63,136.63,0.0,0.0,3
93.77402300,93774023,0.0,-0.08,0.0,0.44,136.63,136.63,0.0,0.0,3
93.87402100,93874021,0.0,-0.08,0.0,0.43,136.63,136.63,0.0,0.0,3
93.97410000,93974100,0.0,-0.08,0.0,0.44,136.63,136.63,0.0,0.0,3
94.07404900,94074049,0.0,-0.08,0.0,0.43,136.63,136.63,0.0,0.0,3
94.17396000,94173960,0.0,-0.08,0.0,0.43,136.63,136.63,0.0,0.0,3
94.27394600,94273946,0.0,-0.08,0.0,0.43,136.63,136.63,0.0,0.0,3
94.37395200,94373952,0.0,-0.08,0.0,0.43,136.63,136.63,0.0,0.0,3
94.47394600,94473946,0.0,-0.08,0.0,0.43,136.63,136.63,0.0,0.0,3
94.57394100,94573941,0.0,-0.08,0.0,0.43,136.63,136.63,0.0,0.0,3
94.67402900,94674029,0.0,-0.08,0.0,0.42,136.63,136.63,0.0,0.0,3
94.77405600,94774056,0.0,-0.08,0.0,0.42,136.63,136.63,0.0,0.01,3
94.87409400,94874094,0.0,-0.08,0.0,0.42,136.63,136.63,0.0,0.01,3
94.97404900,94974049,0.0,-0.08,0.0,0.42,136.63,136.63,0.0,0.01,3
95.07396000,95073960,0.0,-0.08,0.0,0.42,136.63,136.63,0.0,0.01,3
95.17392300,95173923,0.0,-0.08,0.0,0.42,136.63,136.63,0.0,0.0,3
95.27394900,95273949,0.0,-0.08,0.0,0.42,136.63,136.63,0.0,0.0,3
95.37394800,95373948,0.0,-0.08,0.0,0.42,136.64000000000001,136.64000000000001,0.0,0.0,3
95.47395300,95473953,0.0,-0.08,0.0,0.42,136.64000000000001,136.64000000000001,0.0,0.0,3
95.57418700,95574187,0.0,-0.08,0.0,0.42,136.64000000000001,136.64000000000001,0.0,0.01,3
95.67425400,95674254,0.0,-0.08,0.0,0.42,136.64000000000001,136.64000000000001,0.0,0.01,3
95.77429700,95774297,0.0,-0.08,0.0,0.42,136.64000000000001,136.64000000000001,0.0,0.0,3
