timestamp,TimeUS,C,Roll,Pitch,Yaw,VN,VE,VD,dPD,PN,PE,PD,GX,GY,GZ,OH
9.47341700,9473417,2,0.0,0.0,0.0,0.0,0.0,0.0,0.0,0.0,0.0,0.0,0.0,0.0,0.0,0.0
9.57341800,9573418,2,0.0,0.0,0.0,0.0,0.0,0.0,0.0,0.0,0.0,0.0,0.0,0.0,0.0,0.0
9.67341500,9673415,2,0.0,0.0,0.0,0.0,0.0,0.0,0.0,0.0,0.0,0.0,0.0,0.0,0.0,0.0
9.77344400,9773444,2,0.0,0.0,0.0,0.0,0.0,0.0,0.0,0.0,0.0,0.0,0.0,0.0,0.0,0.0
9.87341800,9873418,2,0.0,0.0,0.0,0.0,0.0,0.0,0.0,0.0,0.0,0.0,0.0,0.0,0.0,0.0
9.97345300,9973453,2,0.0,0.0,0.0,0.0,0.0,0.0,0.0,0.0,0.0,0.0,0.0,0.0,0.0,0.0
10.07344600,10073446,2,0.0,0.0,0.0,0.0,0.0,0.0,0.0,0.0,0.0,0.0,0.0,0.0,0.0,0.0
10.17349200,10173492,2,0.0,0.0,0.0,0.0,0.0,0.0,0.0,0.0,0.0,0.0,0.0,0.0,0.0,0.0
10.27344500,10273445,2,0.0,0.0,0.0,0.0,0.0,0.0,0.0,0.0,0.0,0.0,0.0,0.0,0.0,0.0
10.37341200,10373412,2,0.0,0.0,0.0,0.0,0.0,0.0,0.0,0.0,0.0,0.0,0.0,0.0,0.0,0.0
10.47341700,10473417,2,-0.14,0.34,359.98,0.0005650246166624129,0.0007999555091373622,0.01936962455511093,0.004776586778461933,0.0,0.0,0.0006616708124056458,0.0,0.0,0.0,0.0
10.57341600,10573416,2,-0.13,0.33,359.98,0.0025922430213540792,-8.009163138922304e-06,0.06371177732944489,0.03427984565496445,0.0,0.0,0.004818299785256386,0.0,0.0,0.0,0.0
10.67344600,10673446,2,-0.14,0.33,359.97,0.002870759228244424,-0.0008031827164813876,0.1079743355512619,-0.18429923057556152,0.0,0.0,-0.022150695323944092,0.0,0.0,0.0,0.0
10.77342000,10773420,2,-0.13,0.33,359.97,0.003603959223255515,-0.0014868119033053517,0.13811160624027252,-0.267549991607666,0.0,0.0,-0.03958594426512718,0.0,0.0,0.0,0.0
10.87345200,10873452,2,-0.14,0.33,359.96,0.005306756589561701,-0.002864852314814925,0.15799157321453094,-0.2042844444513321,0.0,0.0,-0.05634154751896858,0.0,0.0,0.0,0.0
10.97345700,10973457,2,-0.14,0.33,359.96,0.007450170814990997,-0.004278371576219797,0.17275969684123993,-0.04821566864848137,0.0,0.0,-0.05461816489696503,0.0,0.0,0.0,0.0
11.07347800,11073478,2,-0.14,0.33,359.96,0.008046147413551807,-0.005071704741567373,0.18229693174362183,0.13443106412887573,0.0,0.0,-0.0433533638715744,0.0,0.0,0.0,0.0
11.17344000,11173440,2,-0.14,0.34,359.96,0.009385154582560062,-0.005941198207437992,0.18773001432418823,0.15145167708396912,0.0,0.0,-0.03532801941037178,0.0,0.0,0.0,0.0
11.27341800,11273418,2,-0.15,0.34,359.95,0.010489062406122684,-0.007115855813026428,0.1891443133354187,0.09261114150285721,0.0,0.0,-0.02982706017792225,0.0,0.0,0.0,0.0
11.37342200,11373422,2,-0.15,0.34,359.94,0.010820056311786175,-0.007347458973526955,0.19032809138298035,0.09772040694952011,0.0,0.0,-0.019421454519033432,0.0,0.0,0.0,0.0
11.47341700,11473417,2,-0.15,0.34,359.94,0.011654126457870007,-0.008551184087991714,0.190790593624115,0.1306973695755005,0.0,0.0,-0.007274216040968895,0.0,0.0,0.0,0.0
11.57344500,11573445,2,-0.14,0.35000000000000003,359.94,0.011841680854558945,-0.00872669368982315,0.19108091294765472,0.1389804631471634,0.0,0.0,0.005458681378513575,0.0,0.0,0.0,0.0
11.67342500,11673425,2,-0.14,0.35000000000000003,359.94,0.01116137020289898,-0.008825235068798065,0.18816326558589935,0.11126860976219177,0.0,0.0,0.014730398543179035,0.0,0.0,0.0,0.0
11.77344800,11773448,2,-0.13,0.35000000000000003,359.95,0.011028110049664974,-0.009148413315415382,0.18206870555877686,0.03728872165083885,0.0,0.0,0.01709827594459057,0.0,0.0,0.0,0.0
11.87344600,11873446,2,-0.12,0.36,359.94,0.010284444317221642,-0.008525459095835686,0.17637266218662262,-0.0120628010481596,0.0,0.0,0.018032517284154892,0.0,0.0,0.0,0.0
11.97348500,11973485,2,-0.13,0.39,136.58,0.010920667089521885,-0.009848130866885185,0.16654866933822632,-0.06371800601482391,0.0,0.0,0.01226415578275919,0.0,0.0,0.0,0.0
12.07343100,12073431,2,-0.13,0.38,136.58,0.009446586482226849,-0.007965011522173882,0.15716853737831116,-0.09575240314006805,0.0,0.0,0.006076863966882229,0.0,0.0,0.0,0.0
12.17341600,12173416,2,-0.12,0.37,136.6,0.012674889527261257,-0.011485772207379341,0.14797775447368622,-0.09830635040998459,0.0,0.0,-0.0020932320039719343,0.0,0.0,0.0,0.0
12.27340900,12273409,2,-0.13,0.4,136.64000000000001,-0.004055599682033062,-0.0021326623391360044,0.1382959634065628,-0.11116694658994675,0.0,0.0,-0.009405258111655712,0.0,0.0,0.0,0.0
12.37340400,12373404,2,-0.11,0.38,136.70000000000002,0.004398070741444826,-0.00043349163024686277,0.12764035165309906,-0.1320132613182068,0.0,0.0,-0.02151712402701378,0.0,0.0,0.0,0.0
12.47343600,12473436,2,-0.11,0.36,136.76,0.00030484405579045415,0.002334343269467354,0.11769142001867294,-0.14421826601028442,0.0,0.0,-0.03455313667654991,0.0,0.0,0.0,0.0
12.57341900,12573419,2,-0.11,0.36,136.8,-0.003080433700233698,0.004231848753988743,0.10764478892087936,-0.14911887049674988,0.0,0.0,-0.048412322998046875,0.0,0.0,0.0,0.0
12.67345500,12673455,2,-0.1,0.35000000000000003,136.85,-0.0010811082320287824,0.00432380149140954,0.09567711502313614,-0.17409738898277283,0.0,0.0,-0.06538518518209457,0.0,0.0,0.0,0.0
12.77344700,12773447,2,-0.1,0.34,136.89000000000001,-0.005376631394028664,0.007859881035983562,0.08673907071352005,-0.14310868084430695,0.0,0.0,-0.07778985798358917,0.0,0.0,0.0,0.0
12.87348100,12873481,2,-0.09,0.34,136.92000000000002,-0.005597725044935942,0.008631648495793343,0.08099260926246643,-0.06957505643367767,0.0,0.0,-0.0843995064496994,0.0,0.0,0.0,0.0
12.97343500,12973435,2,-0.09,0.34,136.95000000000002,-0.004980091005563736,0.009578367695212364,0.07424013316631317,-0.040230099111795425,0.0,0.0,-0.09025401622056961,0.0,0.0,0.0,0.0
13.07341100,13073411,2,-0.09,0.33,136.99,-0.006386191118508577,0.010640734806656837,0.0664922371506691,-0.06410511583089828,0.0,0.0,-0.09860294312238693,0.0,0.0,-0.01,0.0
13.17341300,13173413,2,-0.09,0.34,137.01,-0.00738106481730938,0.011718091554939747,0.05960126221179962,-0.07555247098207474,0.0,0.0,-0.10592472553253174,0.0,0.0,-0.01,0.0
13.27341100,13273411,2,-0.09,0.34,137.04,-0.007991845719516277,0.011890373192727566,0.05220171436667442,-0.07981012016534805,0.0,0.0,-0.11437974870204926,0.0,0.0,-0.01,0.0
13.37343700,13373437,2,-0.08,0.34,137.08,-0.008400465361773968,0.01257466059178114,0.0431068129837513,-0.11452563852071762,0.0,0.0,-0.1259571760892868,0.0,0.0,-0.01,0.0
13.47342700,13473427,2,-0.08,0.33,137.09,-0.00986583810299635,0.012164886109530926,0.03566698357462883,-0.12802189588546753,0.0,0.0,-0.13753823935985565,0.0,0.0,-0.01,0.0
13.57344800,13573448,2,-0.07,0.34,136.95000000000002,-0.011806181631982327,0.012242652475833893,0.027806369587779045,-0.10348526388406754,0.0,0.0,-0.1465224027633667,0.0,0.0,0.08,0.0
13.67344600,13673446,2,-0.06,0.32,136.52,-0.016508929431438446,0.012472287751734257,0.020066702738404274,-0.10469424724578857,0.0,0.0,-0.15787409245967865,0.0,-0.01,0.22,0.0
13.77347800,13773478,2,-0.06,0.34,135.81,-0.01058922428637743,0.010064182803034782,0.013151679188013077,-0.11759943515062332,0.0,0.0,-0.16988378763198853,-0.01,-0.01,0.34,0.0
13.87343600,13873436,2,-0.05,0.33,134.88,-0.00805367436259985,0.009022035636007786,0.003235587850213051,-0.14602668583393097,0.0,0.0,-0.18517650663852692,-0.01,-0.01,0.48,0.0
13.97342200,13973422,2,-0.05,0.34,133.82,-0.01542047318071127,0.010757921263575554,-0.00351922120898962,-0.14432337880134583,0.0,0.0,-0.19698978960514069,-0.01,-0.01,0.61,0.0
14.07340100,14073401,2,-0.04,0.34,132.78,-0.008378807455301285,0.006266542244702578,-0.008421758189797401,-0.09353363513946533,0.0,0.0,-0.20596948266029358,-0.01,-0.02,0.65,0.0
14.17340400,14173404,2,-0.03,0.35000000000000003,131.97,-0.012906763702630997,0.006729028653353453,-0.013364984653890133,-0.0805925503373146,0.0,0.0,-0.21501033008098602,-0.01,-0.02,0.61,0.0
14.27343400,14273434,2,-0.03,0.37,131.49,-0.012670173309743404,0.005465355701744556,-0.02199196070432663,-0.1124970018863678,0.0,0.0,-0.22766420245170593,-0.01,-0.02,0.5700000000000001,0.0
14.37342100,14373421,2,-0.03,0.36,131.29,-0.008018087595701218,0.0018009258201345801,-0.027670497074723244,-0.1364753395318985,0.0,0.0,-0.24080613255500793,-0.01,-0.02,0.53,0.0
14.47345700,14473457,2,-0.03,0.37,131.3,-0.012846310622990131,0.0026855000760406256,-0.033022038638591766,-0.11557485908269882,0.0,0.0,-0.2508554756641388,-0.01,-0.03,0.5,0.0
14.57345000,14573450,2,-0.03,0.39,131.43,-0.010095583274960518,0.00026470833108760417,-0.03565744310617447,-0.08192932605743408,0.0,0.0,-0.25908881425857544,-0.01,-0.03,0.45,0.0
14.67347800,14673478,2,-0.02,0.38,131.65,-0.009948816150426865,-0.001139561994932592,-0.03807346150279045,-0.04505852609872818,0.0,0.0,-0.26361384987831116,-0.01,-0.03,0.41000000000000003,0.0
14.77344200,14773442,2,-0.03,0.39,131.88,-0.011016818694770336,-0.0018402340356260538,-0.04114653915166855,-0.04659999907016754,0.0,0.0,-0.2706294059753418,-0.01,-0.03,0.37,0.0
14.87340800,14873408,2,-0.03,0.4,132.11,-0.008064975030720234,-0.004114957060664892,-0.046940289437770844,-0.09493281692266464,0.0,0.0,-0.2816823422908783,0.0,-0.03,0.34,0.0
14.97341000,14973410,2,-0.03,0.4,132.32,-0.007897444069385529,-0.004819860681891441,-0.05093997344374657,-0.10559342801570892,0.0,0.0,-0.29064682126045227,0.0,-0.03,0.3,0.0
15.07343300,15073433,2,-0.03,0.4,132.51,-0.008467557840049267,-0.0052453819662332535,-0.054672256112098694,-0.08055812865495682,0.0,0.0,-0.2979694604873657,0.0,-0.03,0.27,0.0
15.17343800,15173438,2,-0.04,0.41000000000000003,132.68,-0.007064650766551495,-0.006029109470546246,-0.05591968446969986,-0.04456191137433052,0.0,0.0,-0.3018862009048462,0.0,-0.03,0.22,0.0
15.27341600,15273416,2,-0.04,0.41000000000000003,132.85,-0.005883304867893457,-0.005523839499801397,-0.057893361896276474,-0.02954363264143467,0.0,0.0,-0.3063340485095978,0.0,-0.03,0.18,0.0
15.37345500,15373455,2,-0.04,0.42,133.01,-0.005157450679689646,-0.005980873946100473,-0.05927807092666626,-0.030877377837896347,0.0,0.0,-0.3099721372127533,0.0,-0.03,0.14,0.0
15.47344900,15473449,2,-0.05,0.43,133.19,-0.003392420709133148,-0.0068882000632584095,-0.05943094938993454,-0.005169181618839502,0.0,0.0,-0.31024491786956787,0.0,-0.03,0.1,0.0
15.57348400,15573484,2,-0.06,0.43,133.36,-0.002900863066315651,-0.006477946415543556,-0.058278147131204605,0.018620014190673828,0.0,0.0,-0.30953097343444824,0.0,-0.03,0.07,0.0
15.67343800,15673438,2,-0.06,0.44,133.52,-0.0018555406713858247,-0.006911360193043947,-0.05643923953175545,0.020513081923127174,0.0,0.0,-0.3087526559829712,0.0,-0.03,0.03,0.0
15.77340300,15773403,2,-0.06,0.44,133.67000000000002,-0.000511675956659019,-0.007212918717414141,-0.05606647580862045,-0.002418552991002798,0.0,0.0,-0.31049230694770813,0.0,-0.03,0.01,0.0
15.87341900,15873419,2,-0.06,0.44,133.82,0.00040545998490415514,-0.007513001095503569,-0.05513174086809158,-0.022331148386001587,0.0,0.0,-0.3125113546848297,0.0,-0.03,-0.02,0.0
15.97341700,15973417,2,-0.07,0.44,133.97,0.0015294516924768686,-0.007199098356068134,-0.057178255170583725,-0.057204145938158035,0.0,0.0,-0.3190652132034302,0.0,-0.03,-0.05,0.0
16.07343100,16073431,2,-0.07,0.45,134.13,0.0024207860697060823,-0.0066467104479670525,-0.06111752614378929,-0.09728880226612091,0.0,0.0,-0.32737359404563904,0.0,-0.03,-0.09,0.0
16.17341900,16173419,2,-0.06,0.45,134.29,0.002796853194013238,-0.00720603670924902,-0.06448117643594742,-0.10198630392551422,0.0,0.0,-0.3358294367790222,0.0,-0.03,-0.12,0.0
16.27345200,16273452,2,-0.07,0.45,134.44,0.002862728200852871,-0.006753751542419195,-0.06375953555107117,-0.03262802213430405,0.0,0.0,-0.3367462754249573,0.0,-0.03,-0.13,0.0
16.37344400,16373444,2,-0.06,0.46,134.56,0.00328323757275939,-0.007689515594393015,-0.05988726019859314,0.04836009442806244,0.0,0.0,-0.3332776427268982,0.01,-0.03,-0.14,0.0
16.47347800,16473478,2,-0.07,0.46,134.66,0.003567133564502001,-0.008409718982875347,-0.05392209812998772,0.09199027717113495,0.0,0.0,-0.3261929154396057,0.01,-0.03,-0.16,0.0
16.57343900,16573439,2,-0.07,0.46,134.76,0.003854054491966963,-0.008656296879053116,-0.04942933842539787,0.08780455589294434,0.0,0.0,-0.32069694995880127,0.01,-0.03,-0.18,0.0
16.67340200,16673402,2,-0.07,0.47000000000000003,134.85,0.003978446125984192,-0.008929511532187462,-0.049013130366802216,0.024720260873436928,0.0,0.0,-0.3200390040874481,0.01,-0.03,-0.2,0.0
16.77340800,16773408,2,-0.06,0.47000000000000003,134.95,0.004741697106510401,-0.008756373077630997,-0.048229169100522995,-0.008644958026707172,0.0,0.0,-0.320072740316391,0.01,-0.03,-0.22,0.0
16.87341200,16873412,2,-0.05,0.48,135.06,0.004191242158412933,-0.007340605836361647,-0.04532390460371971,0.018324045464396477,0.0,0.0,-0.3168714940547943,0.01,-0.03,-0.24,0.0
16.97343200,16973432,2,-0.06,0.47000000000000003,135.16,0.004887523129582405,-0.007841465063393116,-0.04184670373797417,0.0628170520067215,0.0,0.0,-0.31048691272735596,0.01,-0.03,-0.26,0.0
17.07343000,17073430,2,-0.05,0.47000000000000003,135.27,0.005288349464535713,-0.009567046537995338,-0.03564868122339249,0.09434673190116882,0.0,0.0,-0.30211684107780457,0.01,-0.03,-0.28,0.0
17.17345000,17173450,2,-0.05,0.47000000000000003,135.4,0.005318345036357641,-0.011318821460008621,-0.03136715665459633,0.0859488695859909,0.0,0.0,-0.29535919427871704,0.01,-0.02,-0.3,0.0
17.27344500,17273445,2,-0.05,0.47000000000000003,135.51,0.005198798608034849,-0.013475627638399601,-0.026961972936987877,0.07718290388584137,0.0,0.0,-0.28754788637161255,0.01,-0.02,-0.31,0.0
17.37349800,17373498,2,-0.05,0.46,135.61,0.005003104917705059,-0.01455365028232336,-0.023330973461270332,0.07471010088920593,0.0,0.0,-0.28097155690193176,0.01,-0.02,-0.33,0.0
17.47343600,17473436,2,-0.05,0.47000000000000003,135.72,0.004520272370427847,-0.015535050071775913,-0.021138707175850868,0.03154492750763893,0.0,0.0,-0.27859506011009216,0.01,-0.02,-0.34,0.0
17.57340400,17573404,2,-0.05,0.46,135.82,0.005147282965481281,-0.017748218029737473,-0.018954358994960785,0.017584726214408875,0.0,0.0,-0.2752761244773865,0.01,-0.02,-0.36,0.0
17.67341100,17673411,2,-0.05,0.46,135.93,0.004741363693028688,-0.018669147044420242,-0.01770677976310253,0.017239658161997795,0.0,0.0,-0.27329328656196594,0.01,-0.02,-0.37,0.0
17.77340200,17773402,2,-0.05,0.45,136.03,0.004191094543784857,-0.01940811425447464,-0.01657620631158352,0.020082170143723488,0.0,0.0,-0.2700982987880707,0.01,-0.02,-0.39,0.0
17.87343200,17873432,2,-0.05,0.45,136.13,0.004606700036674738,-0.019539307802915573,-0.014271039515733719,0.0382244735956192,0.0,0.0,-0.26629605889320374,0.01,-0.02,-0.4,0.0
17.97341700,17973417,2,-0.06,0.45,136.23,0.004362732637673616,-0.019291559234261513,-0.013059754855930805,0.03245161101222038,0.0,0.0,-0.2634117305278778,0.01,-0.02,-0.41000000000000003,0.0
18.07344500,18073445,2,-0.06,0.45,136.34,0.004048148635774851,-0.019613733515143394,-0.010130094364285469,0.04004903882741928,0.0,0.0,-0.2590787410736084,0.01,-0.02,-0.43,0.0
18.17344500,18173445,2,-0.07,0.45,136.46,0.004067881498485804,-0.019604258239269257,-0.005277096759527922,0.08110588788986206,0.0,0.0,-0.25062841176986694,0.01,-0.02,-0.44,0.0
18.27347900,18273479,2,-0.08,0.44,136.57,0.0035712833050638437,-0.01976022683084011,-0.0026306293439120054,0.07416196912527084,0.0,0.0,-0.24565893411636353,0.01,-0.02,-0.45,0.0
18.37343700,18373437,2,-0.09,0.44,136.66,0.0036926588509231806,-0.019954854622483253,-0.0034844251349568367,-0.02033832110464573,0.0,0.0,-0.24917423725128174,0.02,-0.01,-0.45,0.0
18.47340600,18473406,2,-0.09,0.44,136.74,0.0029193907976150513,-0.019526038318872452,-0.005432767793536186,-0.06993154436349869,0.0,0.0,-0.25333836674690247,0.02,-0.01,-0.45,0.0
18.57341400,18573414,2,-0.1,0.44,136.8,0.0034970419947057962,-0.019063308835029602,-0.006096123717725277,-0.0365438275039196,0.0,0.0,-0.25429853796958923,0.02,-0.01,-0.45,0.0
18.67340700,18673407,2,-0.1,0.43,136.86,0.004398640710860491,-0.018769625574350357,-0.0059031336568295956,-0.0011637859279289842,0.0,0.0,-0.25383928418159485,0.02,-0.01,-0.46,0.0
18.77342700,18773427,2,-0.1,0.42,136.91,0.004862130153924227,-0.018035657703876495,-0.007426581345498562,-0.015158637426793575,0.0,0.0,-0.25658297538757324,0.02,-0.01,-0.46,0.0
18.87342500,18873425,2,-0.1,0.42,136.96,0.004620378836989403,-0.01718500442802906,-0.006501495838165283,-0.020808881148695946,0.0,0.0,-0.2575841248035431,0.02,-0.01,-0.46,0.0
18.97345700,18973457,2,-0.1,0.41000000000000003,137.02,0.004659371450543404,-0.015996934846043587,-0.006700632628053427,-0.008579859510064125,0.0,0.0,-0.25879523158073425,0.02,-0.01,-0.46,0.0
19.07344400,19073444,2,-0.11,0.42,137.06,0.0053167142905294895,-0.015426406636834145,-0.006548676639795303,-0.018692033365368843,0.0,0.0,-0.2607196867465973,0.02,-0.01,-0.45,0.0
19.17347900,19173479,2,-0.11,0.42,137.1,0.0052497186698019505,-0.014116519130766392,-0.005308815743774176,-0.0064958203583955765,0.0,0.0,-0.2608354389667511,0.02,-0.01,-0.45,0.0
19.27343600,19273436,2,-0.11,0.41000000000000003,137.13,0.005800871178507805,-0.013006182387471199,-0.0044200243428349495,0.01907980442047119,0.0,0.0,-0.25886231660842896,0.02,-0.01,-0.46,0.0
19.37340200,19373402,2,-0.11,0.41000000000000003,137.18,0.006264512427151203,-0.011564413085579872,-0.0018239285564050078,0.0410076379776001,0.0,0.0,-0.2554638981819153,0.02,-0.01,-0.46,0.0
19.47340400,19473404,2,-0.11,0.41000000000000003,137.22,0.00539997685700655,-0.010350355878472328,-0.0010823662159964442,0.038596224039793015,0.0,0.0,-0.25283801555633545,0.02,-0.01,-0.45,0.0
19.57340600,19573406,2,-0.12,0.41000000000000003,137.24,0.00526995537802577,-0.009622751735150814,0.00019626657012850046,0.02911948226392269,0.0,0.0,-0.250317245721817,0.02,-0.01,-0.45,0.0
19.67343500,19673435,2,-0.12,0.41000000000000003,137.28,0.006071366835385561,-0.008718426339328289,0.0017535313963890076,0.025829197838902473,0.0,0.0,-0.24799929559230804,0.02,-0.01,-0.45,0.0
19.77341900,19773419,2,-0.13,0.42,137.32,0.005954347550868988,-0.007815406657755375,0.0020881283562630415,0.013067767955362797,0.0,0.0,-0.24700245261192322,0.02,-0.01,-0.45,0.0
19.87345600,19873456,2,-0.13,0.42,137.35,0.006096941884607077,-0.0071442038752138615,0.0022223300766199827,0.0025727059692144394,0.0,0.0,-0.24634017050266266,0.02,-0.01,-0.44,0.0
19.97347200,19973472,2,-0.13,0.42,137.37,0.006822287570685148,-0.006453817244619131,0.00140690291300416,-0.025493253022432327,0.0,0.0,-0.2493852972984314,0.02,0.0,-0.44,0.0
20.07347400,20073474,2,-0.13,0.43,137.4,0.007668199948966503,-0.0061571947298944,0.000482790928799659,-0.053356047719717026,0.0,0.0,-0.25365152955055237,0.02,0.0,-0.43,0.0
20.17344400,20173444,2,-0.14,0.43,137.41,0.0087975412607193,-0.005644373130053282,7.780273335811216e-06,-0.0305104311555624,0.0,0.0,-0.2545984387397766,0.02,0.0,-0.43,0.0
20.27340900,20273409,2,-0.14,0.43,137.43,0.01003285963088274,-0.004938917234539986,-0.000293947261525318,-0.0005292045534588397,0.0,0.0,-0.2545325458049774,0.02,0.0,-0.43,0.0
20.37340000,20373400,2,-0.14,0.43,137.45000000000002,0.010880619287490845,-0.004605390131473541,0.0001738385617500171,0.009856073185801506,0.0,0.0,-0.2541167438030243,0.02,0.0,-0.42,0.0
20.47340400,20473404,2,-0.15,0.43,137.47,0.012343430891633034,-0.003444180591031909,-0.00024283213133458048,0.00474886829033494,0.0,0.0,-0.2543443739414215,0.02,0.0,-0.42,0.0
20.57343900,20573439,2,-0.15,0.43,137.49,0.013617663644254208,-0.003910628613084555,-0.0006047014612704515,-0.016063088551163673,0.0,0.0,-0.25638818740844727,0.02,0.0,-0.42,0.0
20.67344200,20673442,2,-0.15,0.43,137.52,0.014057339169085026,-0.004532210528850555,0.00011819443898275495,-0.010926584713160992,0.0,0.0,-0.25667324662208557,0.02,0.0,-0.42,0.0
20.77344500,20773445,2,-0.15,0.43,137.54,0.015577289275825024,-0.0039589498192071915,0.0005935761146247387,0.006972333416342735,0.0,0.0,-0.256049782037735,0.02,0.0,-0.42,0.0
20.87345000,20873450,2,-0.15,0.43,137.57,0.016789698973298073,-0.0038997435476630926,0.0007774432306177914,0.0030965132173150778,0.0,0.0,-0.25624826550483704,0.02,0.0,-0.42,0.0
20.97348100,20973481,2,-0.15,0.42,137.6,0.016746189445257187,-0.003166870679706335,0.001302634715102613,-0.009029841981828213,0.0,0.0,-0.2573859989643097,0.02,0.0,-0.41000000000000003,0.0
21.07343800,21073438,2,-0.16,0.43,137.62,0.01749105378985405,-0.0021938353311270475,0.0022429395467042923,-0.013708416372537613,0.0,0.0,-0.25850582122802734,0.02,0.0,-0.41000000000000003,0.0
21.17341300,21173413,2,-0.16,0.43,137.64000000000001,0.01825249008834362,-0.002275478094816208,0.0031768002081662416,0.00666175177320838,0.0,0.0,-0.2572254538536072,0.02,0.0,-0.41000000000000003,0.0
21.27341400,21273414,2,-0.16,0.42,137.67000000000002,0.01862364076077938,-0.002330200048163533,0.006220512557774782,0.037365056574344635,0.0,0.0,-0.25385582447052,0.02,0.0,-0.41000000000000003,0.0
21.37341100,21373411,2,-0.16,0.43,137.68,0.0183974951505661,-0.001629296108148992,0.007604376412928104,0.055382948368787766,0.0,0.0,-0.24907247722148895,0.02,0.0,-0.4,0.0
21.47343000,21473430,2,-0.16,0.42,137.69,0.018108779564499855,-0.0008169681532308459,0.009615544229745865,0.061023861169815063,0.0,0.0,-0.24404314160346985,0.02,0.0,-0.4,0.0
21.57341600,21573416,2,-0.16,0.42,137.69,0.019120996817946434,-0.0003027392958756536,0.009956106543540955,0.03239969164133072,0.0,0.0,-0.2419801503419876,0.02,0.0,-0.39,0.0
21.67345800,21673458,2,-0.15,0.42,137.69,0.019927555695176125,-0.00015047327906358987,0.009352105669677258,-0.01585264503955841,0.0,0.0,-0.24368472397327423,0.02,0.0,-0.39,0.0
21.77344300,21773443,2,-0.15,0.43,137.71,0.019441338256001472,-0.00025913119316101074,0.007650840561836958,-0.05015292018651962,0.0,0.0,-0.2474520206451416,0.02,0.0,-0.39,0.0
21.87348400,21873484,2,-0.15,0.42,137.73,0.019224679097533226,-0.0005828505964018404,0.006355589255690575,-0.04627145081758499,0.0,0.0,-0.25010183453559875,0.02,0.0,-0.39,0.0
21.97345500,21973455,2,-0.15,0.42,137.76,0.018861833959817886,-0.0008797327755019069,0.006814470514655113,-0.014209841378033161,0.0,0.0,-0.2504686713218689,0.02,0.0,-0.39,0.0
22.07341300,22073413,2,-0.15,0.41000000000000003,137.78,0.018652530387043953,-0.001331452396698296,0.005529451183974743,-0.01496348436921835,0.0,0.0,-0.2526891529560089,0.02,0.0,-0.39,0.0
22.17341500,22173415,2,-0.15,0.41000000000000003,137.81,0.01845616288483143,-0.0022897564340382814,0.005685756448656321,-0.017104899510741234,0.0,0.0,-0.2538750469684601,0.02,0.0,-0.39,0.0
22.27342200,22273422,2,-0.15,0.41000000000000003,137.84,0.018007811158895493,-0.0018357544904574752,0.007171324919909239,0.015238325111567974,0.0,0.0,-0.25210660696029663,0.02,0.0,-0.39,0.0
22.37343000,22373430,2,-0.15,0.41000000000000003,137.86,0.01829991303384304,-0.0013750629732385278,0.00797115545719862,0.019735736772418022,0.0,0.0,-0.2514340281486511,0.02,0.0,-0.38,0.0
22.47341200,22473412,2,-0.15,0.42,137.87,0.018419548869132996,-0.0007099077920429409,0.006608417257666588,-0.01792692020535469,0.0,0.0,-0.25420764088630676,0.02,0.0,-0.37,0.0
22.57345100,22573451,2,-0.15,0.42,137.88,0.017870400100946426,-0.0010130498558282852,0.00566459633409977,-0.04789948835968971,0.0,0.0,-0.2583296000957489,0.02,0.0,-0.37,0.0
22.67345500,22673455,2,-0.16,0.41000000000000003,137.87,0.01808147504925728,-0.0013508342672139406,0.006011071149259806,-0.018271945416927338,0.0,0.0,-0.2579632103443146,0.02,0.0,-0.36,0.0
22.77348500,22773485,2,-0.15,0.41000000000000003,137.87,0.017904315143823624,-0.0017665704945102334,0.006619780324399471,0.025000624358654022,0.0,0.0,-0.25588807463645935,0.02,0.0,-0.36,0.0
22.87343400,22873434,2,-0.15,0.41000000000000003,137.87,0.017359696328639984,-0.0013809970114380121,0.007417143788188696,0.02777133882045746,0.0,0.0,-0.2542605996131897,0.02,0.0,-0.36,0.0
22.97341000,22973410,2,-0.15,0.4,137.87,0.01734081469476223,-0.00044586238800548017,0.00737688597291708,0.006579455453902483,0.0,0.0,-0.25472208857536316,0.02,0.0,-0.36,0.0
23.07341000,23073410,2,-0.16,0.4,137.88,0.017564956098794937,0.0003029821382369846,0.006992291659116745,-0.019552070647478104,0.0,0.0,-0.2565261423587799,0.02,0.0,-0.35000000000000003,0.0
23.17341500,23173415,2,-0.16,0.4,137.9,0.017774688079953194,0.0002556907129473984,0.007619229145348072,-0.03732336312532425,0.0,0.0,-0.25997626781463623,0.02,0.0,-0.35000000000000003,0.0
23.27343700,23273437,2,-0.16,0.4,137.89000000000001,0.01754305697977543,0.0004988291184417903,0.00822437833994627,-0.04574498161673546,0.0,0.0,-0.2635405361652374,0.02,0.0,-0.34,0.0
23.37343000,23373430,2,-0.16,0.4,137.88,0.01753639616072178,-5.9597539802780375e-05,0.007600609678775072,-0.04105168953537941,0.0,0.0,-0.26690998673439026,0.02,0.0,-0.33,0.0
23.47344800,23473448,2,-0.16,0.39,137.86,0.017614442855119705,-0.00010156807547900826,0.00762264896184206,-0.02421567775309086,0.0,0.0,-0.2684682309627533,0.02,0.0,-0.33,0.0
23.57344900,23573449,2,-0.17,0.39,137.84,0.018402960151433945,-0.00019692110072355717,0.008682001382112503,0.0034412662498652935,0.0,0.0,-0.2681575119495392,0.02,0.0,-0.32,0.0
23.67348400,23673484,2,-0.18,0.39,137.82,0.018088413402438164,0.0007091006846167147,0.00846584141254425,0.009358960203826427,0.0,0.0,-0.26814132928848267,0.02,0.0,-0.32,0.0
23.77343200,23773432,2,-0.17,0.39,137.81,0.018082289025187492,0.0013693239307031035,0.009562910534441471,0.024718914180994034,0.0,0.0,-0.26543065905570984,0.02,0.0,-0.32,0.0
23.87340300,23873403,2,-0.17,0.4,137.81,0.01888611540198326,0.0023353237193077803,0.011715441010892391,0.046326518058776855,0.0,0.0,-0.2619042992591858,0.02,0.0,-0.31,0.0
23.97341400,23973414,2,-0.17,0.4,137.81,0.018542081117630005,0.0027542125899344683,0.014534545131027699,0.0567915104329586,0.0,0.0,-0.2568420469760895,0.02,0.0,-0.31,0.0
24.07340100,24073401,2,-0.18,0.4,137.83,0.01828605681657791,0.0041177659295499325,0.016967156901955605,0.06698599457740784,0.0,0.0,-0.2512238621711731,0.02,0.0,-0.31,0.0
24.17343100,24173431,2,-0.17,0.39,137.85,0.018817421048879623,0.004534067120403051,0.018437720835208893,0.055236633867025375,0.0,0.0,-0.2466062605381012,0.02,0.0,-0.31,0.0
24.27342100,24273421,2,-0.17,0.39,137.86,0.018347881734371185,0.005568910855799913,0.01965360902249813,0.04726240411400795,0.0,0.0,-0.24190892279148102,0.02,0.0,-0.31,0.0
24.37344500,24373445,2,-0.17,0.39,137.87,0.01948441192507744,0.006244002841413021,0.021016830578446388,0.048395030200481415,0.0,0.0,-0.2371085286140442,0.02,0.0,-0.31,0.0
24.47344600,24473446,2,-0.17,0.38,137.88,0.018778279423713684,0.0062769572250545025,0.02188194915652275,0.04279237985610962,0.0,0.0,-0.2329869568347931,0.02,0.0,-0.31,0.0
24.57348600,24573486,2,-0.16,0.38,137.9,0.01795184798538685,0.00647391751408577,0.022947991266846657,0.017712431028485298,0.0,0.0,-0.23178748786449432,0.02,0.0,-0.3,0.0
24.67344000,24673440,2,-0.16,0.38,137.92000000000002,0.01731782592833042,0.006799750030040741,0.02411518059670925,-0.00019884228822775185,0.0,0.0,-0.23097212612628937,0.02,0.0,-0.3,0.0
24.77340300,24773403,2,-0.17,0.38,137.92000000000002,0.016160285100340843,0.006846384610980749,0.02471381612122059,0.0266661886125803,0.0,0.0,-0.22656205296516418,0.01,0.0,-0.3,0.0
24.87340400,24873404,2,-0.17,0.38,137.91,0.01573706604540348,0.006596609950065613,0.027545999735593796,0.052887022495269775,0.0,0.0,-0.22181391716003418,0.01,0.0,-0.29,0.0
24.97340400,24973404,2,-0.16,0.38,137.91,0.015128690749406815,0.0072410255670547485,0.02803785167634487,0.05184558033943176,0.0,0.0,-0.2172451913356781,0.01,0.0,-0.29,0.0
25.07342600,25073426,2,-0.17,0.38,137.91,0.014180258847773075,0.007361849304288626,0.029705462977290154,0.04907040297985077,0.0,0.0,-0.21269401907920837,0.01,0.0,-0.29,0.0
25.17341800,25173418,2,-0.17,0.38,137.91,0.013369020074605942,0.007106568664312363,0.029647694900631905,0.04535948112607002,0.0,0.0,-0.20826952159404755,0.01,0.0,-0.29,0.0
25.27344900,25273449,2,-0.18,0.38,137.92000000000002,0.012934220023453236,0.007101291790604591,0.030033690854907036,0.03736091032624245,0.0,0.0,-0.20475760102272034,0.01,0.0,-0.29,0.0
25.37345900,25373459,2,-0.18,0.38,137.94,0.013094359077513218,0.007757329847663641,0.03074362501502037,0.04003845155239105,0.0,0.0,-0.20026136934757233,0.01,0.0,-0.29,0.0
25.47347700,25473477,2,-0.18,0.37,137.94,0.012931893579661846,0.0080195851624012,0.0317908450961113,0.05723593756556511,0.0,0.0,-0.19431570172309875,0.01,0.0,-0.28,0.0
25.57343800,25573438,2,-0.17,0.37,137.94,0.012084605172276497,0.009671097621321678,0.03167532756924629,0.04458802193403244,0.0,0.0,-0.19096854329109192,0.01,0.0,-0.28,0.0
25.67340800,25673408,2,-0.17,0.36,137.95000000000002,0.01240855734795332,0.010340658947825432,0.03145723417401314,0.012492815963923931,0.0,0.0,-0.18986333906650543,0.01,0.0,-0.28,0.0
25.77340000,25773400,2,-0.18,0.36,137.94,0.012331794016063213,0.011542662046849728,0.03146695718169212,-0.00527650723233819,0.0,0.0,-0.18962831795215607,0.01,0.0,-0.27,0.0
25.87340700,25873407,2,-0.18,0.36,137.94,0.011885185725986958,0.012270773760974407,0.0325438492000103,0.013312852941453457,0.0,0.0,-0.18680541217327118,0.01,0.0,-0.27,0.0
25.97343500,25973435,2,-0.19,0.36,137.95000000000002,0.010500860400497913,0.013469292782247066,0.033590808510780334,0.03147914260625839,0.0,0.0,-0.18382464349269867,0.01,0.0,-0.27,0.0
26.07341900,26073419,2,-0.19,0.36,137.96,0.009873229078948498,0.014401362277567387,0.03363797068595886,0.020017914474010468,0.0,0.0,-0.18246708810329437,0.01,0.0,-0.27,0.0
26.17344900,26173449,2,-0.19,0.36,137.97,0.011069800704717636,0.01455707661807537,0.03226181119680405,-0.012863080948591232,0.0,0.0,-0.18416355550289154,0.01,0.0,-0.27,0.0
26.27345000,26273450,2,-0.19,0.35000000000000003,137.98,0.010528523474931717,0.015253026969730854,0.0315345861017704,-0.033203139901161194,0.0,0.0,-0.1864866018295288,0.01,0.0,-0.27,0.0
26.37348300,26373483,2,-0.19,0.34,138.0,0.010306225158274174,0.01622454822063446,0.03000643104314804,-0.05326267331838608,0.0,0.0,-0.19137243926525116,0.01,0.0,-0.27,0.0
26.47345000,26473450,2,-0.18,0.34,138.0,0.0097964433953166,0.017439614981412888,0.02693171799182892,-0.08674072474241257,0.0,0.0,-0.19925683736801147,0.01,0.0,-0.27,0.0
26.57340700,26573407,2,-0.18,0.34,138.01,0.010340801440179348,0.017509207129478455,0.024788513779640198,-0.09144601225852966,0.0,0.0,-0.20641538500785828,0.01,0.0,-0.26,0.0
26.67340300,26673403,2,-0.18,0.34,138.01,0.009890335611999035,0.017528804019093513,0.022923659533262253,-0.05816545709967613,0.0,0.0,-0.2107856124639511,0.01,0.0,-0.26,0.0
26.77340200,26773402,2,-0.18,0.35000000000000003,138.01,0.009780878201127052,0.018273552879691124,0.022534450516104698,-0.024726828560233116,0.0,0.0,-0.2132086306810379,0.01,0.0,-0.26,0.0
26.87343300,26873433,2,-0.18,0.35000000000000003,138.01,0.010334056802093983,0.018750928342342377,0.0223072562366724,-0.020484836772084236,0.0,0.0,-0.216509610414505,0.01,0.0,-0.25,0.0
26.97342500,26973425,2,-0.17,0.35000000000000003,138.02,0.010290891863405704,0.018897099420428276,0.022694332525134087,-0.017367754131555557,0.0,0.0,-0.21797947585582733,0.01,0.0,-0.25,0.0
27.07345600,27073456,2,-0.17,0.35000000000000003,138.02,0.009698042646050453,0.019570019096136093,0.023371871560811996,-0.00010455044684931636,0.0,0.0,-0.2182968407869339,0.01,0.0,-0.25,0.0
27.17345500,27173455,2,-0.17,0.35000000000000003,138.03,0.00993410125374794,0.020383108407258987,0.022770917043089867,-0.0036137315910309553,0.0,0.0,-0.2195873260498047,0.01,0.0,-0.25,0.0
27.27347400,27273474,2,-0.17,0.35000000000000003,138.03,0.010646349750459194,0.020390035584568977,0.021391309797763824,-0.02252284251153469,0.0,0.0,-0.22205965220928192,0.01,0.0,-0.25,0.0
27.37343700,27373437,2,-0.17,0.35000000000000003,138.03,0.010325520299375057,0.01969977281987667,0.02092355489730835,-0.022028159350156784,0.0,0.0,-0.22380240261554718,0.01,0.0,-0.24,0.0
27.47340200,27473402,2,-0.18,0.35000000000000003,138.02,0.010435636155307293,0.019717443734407425,0.020938606932759285,-0.010007918812334538,0.0,0.0,-0.22465087473392487,0.01,0.0,-0.24,0.0
27.57340600,27573406,2,-0.18,0.35000000000000003,138.02,0.010685250163078308,0.020700136199593544,0.02071390487253666,-0.009458406828343868,0.0,0.0,-0.22591529786586761,0.01,0.0,-0.24,0.0
27.67340600,27673406,2,-0.18,0.35000000000000003,138.02,0.010191846638917923,0.021171478554606438,0.020600423216819763,-0.02939467690885067,0.0,0.0,-0.22922128438949585,0.01,0.0,-0.24,0.0
27.77342700,27773427,2,-0.18,0.34,138.02,0.009823266416788101,0.021540861576795578,0.019805926829576492,-0.03291032835841179,0.0,0.0,-0.2316383570432663,0.01,0.0,-0.24,0.0
27.87342200,27873422,2,-0.18,0.34,138.02,0.009487691335380077,0.02158011496067047,0.020074980333447456,-0.01189216785132885,0.0,0.0,-0.23245219886302948,0.01,0.0,-0.24,0.0
27.97345100,27973451,2,-0.19,0.34,138.03,0.010553551837801933,0.02215687371790409,0.020071571692824364,0.003877494717016816,0.0,0.0,-0.2323199361562729,0.01,0.0,-0.23,0.0
28.07345900,28073459,2,-0.19,0.34,138.04,0.010259187780320644,0.02283603884279728,0.020918717607855797,0.017580006271600723,0.0,0.0,-0.23099379241466522,0.01,0.0,-0.23,0.0
28.17348700,28173487,2,-0.19,0.34,138.04,0.010204617865383625,0.023391103371977806,0.021716253831982613,0.03017325885593891,0.0,0.0,-0.22850830852985382,0.01,0.0,-0.23,0.0
28.27345700,28273457,2,-0.2,0.34,138.04,0.00976624060422182,0.024828242138028145,0.022253161296248436,0.03735032305121422,0.0,0.0,-0.22545745968818665,0.01,0.0,-0.23,0.0
28.37340100,28373401,2,-0.2,0.34,138.05,0.009974414482712746,0.0260277409106493,0.023630067706108093,0.04766877740621567,0.0,0.0,-0.22117266058921814,0.01,0.0,-0.23,0.0
28.47340300,28473403,2,-0.2,0.34,138.06,0.010770300403237343,0.025574633851647377,0.023317525163292885,0.028354471549391747,0.0,0.0,-0.2195470929145813,0.01,0.0,-0.23,0.0
28.57340900,28573409,2,-0.19,0.35000000000000003,138.07,0.010831226594746113,0.026674656197428703,0.023517780005931854,-0.0013393518747761846,0.0,0.0,-0.21942982077598572,0.01,0.0,-0.23,0.0
28.67343200,28673432,2,-0.19,0.34,138.08,0.011283551342785358,0.026755258440971375,0.024029653519392014,0.008856356143951416,0.0,0.0,-0.2174772322177887,0.01,0.0,-0.23,0.0
28.77341800,28773418,2,-0.19,0.35000000000000003,138.08,0.010688002221286297,0.027106070891022682,0.024382101371884346,0.025627808645367622,0.0,0.0,-0.21487507224082947,0.01,0.0,-0.22,0.0
28.87344800,28873448,2,-0.19,0.35000000000000003,138.08,0.010776295326650143,0.027454642578959465,0.023717865347862244,0.007976215332746506,0.0,0.0,-0.21483135223388672,0.01,0.0,-0.22,0.0
28.97346100,28973461,2,-0.19,0.35000000000000003,138.07,0.0108109712600708,0.02767636999487877,0.021967943757772446,-0.02852543629705906,0.0,0.0,-0.2175014466047287,0.01,0.0,-0.21,0.0
29.07347700,29073477,2,-0.2,0.35000000000000003,138.05,0.010129428468644619,0.027733301743865013,0.022275526076555252,-0.04078080132603645,0.0,0.0,-0.22039960324764252,0.01,0.0,-0.21,0.0
29.17343700,29173437,2,-0.19,0.35000000000000003,138.04,0.009715654887259007,0.028487268835306168,0.021340979263186455,-0.048148538917303085,0.0,0.0,-0.22456291317939758,0.01,0.0,-0.21,0.0
29.27340500,29273405,2,-0.2,0.35000000000000003,138.03,0.009788351133465767,0.028924591839313507,0.02029423601925373,-0.032146863639354706,0.0,0.0,-0.22619423270225525,0.01,0.0,-0.21,0.0
29.37340200,29373402,2,-0.2,0.36,138.02,0.010734058916568756,0.029518047347664833,0.02009628713130951,0.010839137248694897,0.0,0.0,-0.22485065460205078,0.01,0.0,-0.2,0.0
29.47340700,29473407,2,-0.2,0.36,138.0,0.011621479876339436,0.030151082202792168,0.020586982369422913,0.04761367663741112,0.0,0.0,-0.22069968283176422,0.01,0.0,-0.2,0.0
29.57343700,29573437,2,-0.2,0.36,137.98,0.012399938888847828,0.03069600835442543,0.021236294880509377,0.05723261088132858,0.0,0.0,-0.21679694950580597,0.01,0.0,-0.2,0.0
29.67343100,29673431,2,-0.2,0.36,137.97,0.012860924936830997,0.03053397499024868,0.021703874692320824,0.03248549997806549,0.0,0.0,-0.21491962671279907,0.01,0.0,-0.2,0.0
29.77345000,29773450,2,-0.2,0.36,137.96,0.013344848528504372,0.031137149780988693,0.0215755682438612,0.010931729339063168,0.0,0.0,-0.21386297047138214,0.01,0.0,-0.2,0.0
29.87344500,29873445,2,-0.19,0.37,137.94,0.013687875121831894,0.030713262036442757,0.021011920645833015,-0.005663152318447828,0.0,0.0,-0.21423767507076263,0.01,0.0,-0.19,0.0
29.97348400,29973484,2,-0.19,0.37,137.93,0.014910674653947353,0.030657349154353142,0.019419535994529724,-0.031078333035111427,0.0,0.0,-0.21712128818035126,0.01,0.0,-0.19,0.0
30.07342700,30073427,2,-0.19,0.37,137.92000000000002,0.01543401088565588,0.03073401190340519,0.0184174831956625,-0.04611847922205925,0.0,0.0,-0.22049427032470703,0.01,0.0,-0.19,0.0
30.17339200,30173392,2,-0.2,0.37,137.92000000000002,0.01604817621409893,0.0298618134111166,0.017499839887022972,-0.04781198501586914,0.0,0.0,-0.22445626556873322,0.01,0.0,-0.19,0.0
30.27340400,30273404,2,-0.19,0.37,137.91,0.016108430922031403,0.02852638065814972,0.017751488834619522,-0.042652130126953125,0.0,0.0,-0.22778646647930145,0.01,0.0,-0.19,0.0
30.37340000,30373400,2,-0.19,0.38,137.91,0.01600387506186962,0.028494486585259438,0.018113236874341965,-0.026738964021205902,0.0,0.0,-0.23003792762756348,0.01,0.0,-0.19,0.0
30.47341800,30473418,2,-0.19,0.38,137.9,0.0159858800470829,0.026647180318832397,0.018085291609168053,-0.016642022877931595,0.0,0.0,-0.23182150721549988,0.01,0.0,-0.18,0.0
30.57341400,30573414,2,-0.19,0.38,137.89000000000001,0.016729194670915604,0.026133110746741295,0.018258368596434593,-0.01824035681784153,0.0,0.0,-0.2340393215417862,0.01,0.0,-0.18,0.0
30.67343400,30673434,2,-0.19,0.38,137.88,0.016623668372631073,0.025350848212838173,0.019405951723456383,-0.015973301604390144,0.0,0.0,-0.23552991449832916,0.01,0.0,-0.18,0.0
30.77345500,30773455,2,-0.19,0.38,137.87,0.017149237915873528,0.02352236583828926,0.01973109133541584,0.0026307289954274893,0.0,0.0,-0.23501093685626984,0.01,0.0,-0.18,0.0
30.87346900,30873469,2,-0.19,0.38,137.87,0.01763913966715336,0.022784873843193054,0.01995893567800522,0.021487195044755936,0.0,0.0,-0.2333267778158188,0.01,0.0,-0.18,0.0
30.97342200,30973422,2,-0.19,0.38,137.87,0.018132159486413002,0.022090865299105644,0.01956130377948284,0.02031412534415722,0.0,0.0,-0.23223409056663513,0.01,0.0,-0.18,0.0
31.07339400,31073394,2,-0.19,0.39,137.87,0.018187357112765312,0.021571088582277298,0.02009185403585434,0.012717637233436108,0.0,0.0,-0.23131386935710907,0.0,0.0,-0.18,0.0
31.17339900,31173399,2,-0.19,0.39,137.87,0.019057173281908035,0.02146504633128643,0.020100075751543045,0.0023094264324754477,0.0,0.0,-0.23144951462745667,0.0,0.0,-0.18,0.0
31.27340300,31273403,2,-0.18,0.39,137.87,0.019527606666088104,0.019936878234148026,0.020306136459112167,-0.010230537503957748,0.0,0.0,-0.23224367201328278,0.0,0.0,-0.17,0.0
31.37342400,31373424,2,-0.18,0.38,137.86,0.020266307517886162,0.01969681866466999,0.02018638327717781,-0.0171660203486681,0.0,0.0,-0.23364926874637604,0.0,0.0,-0.17,0.0
31.47340200,31473402,2,-0.18,0.38,137.85,0.021186262369155884,0.01887376792728901,0.019034525379538536,-0.02763286605477333,0.0,0.0,-0.23605389893054962,0.0,0.0,-0.17,0.0
31.57343900,31573439,2,-0.18,0.38,137.85,0.02108890190720558,0.017897646874189377,0.019843123853206635,-0.02467878721654415,0.0,0.0,-0.23778071999549866,0.0,0.0,-0.17,0.0
31.67345800,31673458,2,-0.18,0.38,137.85,0.020327188074588776,0.01684589870274067,0.019895531237125397,-0.023584548383951187,0.0,0.0,-0.24022585153579712,0.0,0.0,-0.17,0.0
31.77346500,31773465,2,-0.17,0.38,137.85,0.020459752529859543,0.017111295834183693,0.019144725054502487,-0.01686706207692623,0.0,0.0,-0.2410607784986496,0.0,0.0,-0.17,0.0
31.87342100,31873421,2,-0.17,0.38,137.84,0.020406167954206467,0.01639888435602188,0.018755607306957245,-0.001093789003789425,0.0,0.0,-0.2414042055606842,0.0,0.0,-0.17,0.0
31.97340600,31973406,2,-0.17,0.38,137.84,0.020359570160508156,0.015457539819180965,0.019959429278969765,-0.0070634870789945126,0.0,0.0,-0.2427176833152771,0.0,0.0,-0.16,0.0
32.07339000,32073390,2,-0.17,0.38,137.84,0.019948558881878853,0.01391433086246252,0.020159892737865448,0.004019378684461117,0.0,0.0,-0.2416635900735855,0.0,0.0,-0.16,0.0
32.17339200,32173392,2,-0.17,0.38,137.83,0.01984832063317299,0.01210571639239788,0.022175733000040054,0.0355067141354084,0.0,0.0,-0.23839513957500458,0.0,0.0,-0.16,0.0
32.27342000,32273420,2,-0.17,0.38,137.83,0.019419394433498383,0.010770712979137897,0.024474117904901505,0.04542006179690361,0.0,0.0,-0.2350614219903946,0.0,0.0,-0.16,0.0
32.37339700,32373397,2,-0.17,0.38,137.82,0.019259966909885406,0.010241514071822166,0.024845922365784645,0.0480341799557209,0.0,0.0,-0.23066934943199158,0.0,0.0,-0.16,0.0
32.47338900,32473389,2,-0.18,0.38,137.81,0.018508749082684517,0.009643378667533398,0.025965960696339607,0.05308708921074867,0.0,0.0,-0.22607441246509552,0.0,0.0,-0.16,0.0
32.57343600,32573436,2,-0.18,0.39,137.79,0.019188934937119484,0.009012045338749886,0.02598152682185173,0.03531551733613014,0.0,0.0,-0.223420649766922,0.0,0.0,-0.15,0.0
32.67346600,32673466,2,-0.18,0.39,137.78,0.01875258795917034,0.010029825381934643,0.025926072150468826,0.012418631464242935,0.0,0.0,-0.2220650017261505,0.0,0.0,-0.15,0.0
32.77342000,32773420,2,-0.18,0.38,137.77,0.018819965422153473,0.009557830169796944,0.025912892073392868,0.001189605100080371,0.0,0.0,-0.22144809365272522,0.0,0.0,-0.15,0.0
32.87339200,32873392,2,-0.19,0.38,137.77,0.018618181347846985,0.008678319863975048,0.025179293006658554,-0.009206339716911316,0.0,0.0,-0.22192472219467163,0.0,0.0,-0.15,0.0
32.97339800,32973398,2,-0.19,0.39,137.76,0.017540648579597473,0.008126779459416866,0.02411756105720997,-0.0032727019861340523,0.0,0.0,-0.22104229032993317,0.0,0.0,-0.15,0.0
33.07338900,33073389,2,-0.18,0.38,137.75,0.01773262210190296,0.007977331057190895,0.023838939145207405,0.0011113317450508475,0.0,0.0,-0.22104007005691528,0.0,0.0,-0.15,0.0
33.17341800,33173418,2,-0.18,0.39,137.75,0.01769435964524746,0.007452556397765875,0.023202955722808838,-0.02012575790286064,0.0,0.0,-0.2233487218618393,0.0,0.0,-0.15,0.0
33.27340900,33273409,2,-0.18,0.4,137.74,0.017219729721546173,0.008479849435389042,0.022793017327785492,-0.028817834332585335,0.0,0.0,-0.22537213563919067,0.0,0.0,-0.14,0.0
33.37344200,33373442,2,-0.18,0.39,137.74,0.017342649400234222,0.009518996812403202,0.022057047113776207,-0.022029269486665726,0.0,0.0,-0.22696618735790253,0.0,0.0,-0.14,0.0
33.47343300,33473433,2,-0.18,0.39,137.74,0.01798960566520691,0.009778826497495174,0.022472510114312172,-0.012272391468286514,0.0,0.0,-0.22787341475486755,0.0,0.0,-0.14,0.0
33.57346400,33573464,2,-0.18,0.4,137.75,0.018105734139680862,0.009269237518310547,0.021604565903544426,-0.019189439713954926,0.0,0.0,-0.2302764505147934,0.0,0.0,-0.14,0.0
33.67343100,33673431,2,-0.18,0.4,137.74,0.01823069341480732,0.009458261542022228,0.02004069648683071,-0.050539884716272354,0.0,0.0,-0.23568598926067352,0.0,0.0,-0.14,0.0
33.77338900,33773389,2,-0.19,0.4,137.75,0.018010670319199562,0.010059569962322712,0.01809707097709179,-0.05310056358575821,0.0,0.0,-0.2395380288362503,0.0,0.0,-0.14,0.0
33.87339100,33873391,2,-0.18,0.4,137.75,0.017936451360583305,0.010414325632154942,0.017938727512955666,-0.02499435842037201,0.0,0.0,-0.24114204943180084,0.0,0.0,-0.14,0.0
33.97339300,33973393,2,-0.18,0.39,137.74,0.017377635464072227,0.010775817558169365,0.016949711367487907,-0.007384730037301779,0.0,0.0,-0.24223189055919647,0.0,0.0,-0.14,0.0
34.07341600,34073416,2,-0.18,0.39,137.73,0.017460592091083527,0.011195623315870762,0.017422275617718697,-0.011332791298627853,0.0,0.0,-0.24426306784152985,0.0,0.0,-0.13,0.0
34.17340400,34173404,2,-0.18,0.39,137.71,0.018108418211340904,0.011401539668440819,0.017205389216542244,-0.008068777620792389,0.0,0.0,-0.24479708075523376,0.0,0.0,-0.13,0.0
34.27344200,34273442,2,-0.19,0.4,137.70000000000002,0.018093448132276535,0.011708940379321575,0.017844511196017265,0.012940569780766964,0.0,0.0,-0.2434302568435669,0.0,0.0,-0.13,0.0
34.37342800,34373428,2,-0.18,0.4,137.69,0.018971586599946022,0.011710775084793568,0.01817866414785385,0.030914872884750366,0.0,0.0,-0.24082189798355103,0.0,0.0,-0.13,0.0
34.47346200,34473462,2,-0.17,0.39,137.68,0.019259866327047348,0.01206301897764206,0.018758442252874374,0.04271433502435684,0.0,0.0,-0.23720549046993256,0.0,0.0,-0.13,0.0
34.57343300,34573433,2,-0.17,0.39,137.67000000000002,0.01873154379427433,0.012086756527423859,0.02059001661837101,0.04672028124332428,0.0,0.0,-0.23348914086818695,0.0,0.0,-0.13,0.0
34.67339500,34673395,2,-0.17,0.4,137.67000000000002,0.017824353650212288,0.012493367306888103,0.02174961380660534,0.028521789237856865,0.0,0.0,-0.23182228207588196,0.0,0.0,-0.13,0.0
34.77339800,34773398,2,-0.17,0.39,137.67000000000002,0.01770078018307686,0.012471118941903114,0.021474530920386314,-0.008326313458383083,0.0,0.0,-0.2327413260936737,0.0,0.0,-0.13,0.0
34.87340200,34873402,2,-0.16,0.39,137.65,0.017099449411034584,0.013205761089920998,0.021306218579411507,-0.027228891849517822,0.0,0.0,-0.23431415855884552,0.0,0.0,-0.12,0.0
34.97342100,34973421,2,-0.15,0.39,137.64000000000001,0.01761918142437935,0.012468336150050163,0.021085236221551895,-0.03385229781270027,0.0,0.0,-0.23692308366298676,0.0,0.0,-0.12,0.0
35.07339900,35073399,2,-0.15,0.39,137.61,0.016147907823324203,0.01251441054046154,0.020828746259212494,-0.03352455794811249,0.0,0.0,-0.23927658796310425,0.0,0.0,-0.12,0.0
35.17343000,35173430,2,-0.16,0.38,137.6,0.01583218201994896,0.012617736123502254,0.020444825291633606,-0.013639851473271847,0.0,0.0,-0.23993241786956787,0.0,0.0,-0.12,0.0
35.27344000,35273440,2,-0.15,0.39,137.6,0.015379347838461399,0.012018258683383465,0.020715637132525444,0.000416177703300491,0.0,0.0,-0.24012039601802826,0.0,0.0,-0.12,0.0
35.37346600,35373466,2,-0.16,0.39,137.6,0.015350301750004292,0.011906127445399761,0.021019145846366882,0.01619541645050049,0.0,0.0,-0.23855464160442352,0.0,0.0,-0.12,0.0
35.47342000,35473420,2,-0.15,0.39,137.6,0.015792720019817352,0.011558533646166325,0.022339049726724625,0.03973586484789848,0.0,0.0,-0.23516002297401428,0.0,0.0,-0.12,0.0
35.57340500,35573405,2,-0.15,0.39,137.6,0.01576799899339676,0.011551993899047375,0.02289259433746338,0.047817036509513855,0.0,0.0,-0.23132047057151794,0.0,0.0,-0.12,0.0
35.67340500,35673405,2,-0.15,0.39,137.6,0.015577798709273338,0.011096656322479248,0.022854367271065712,0.017791733145713806,0.0,0.0,-0.2309419810771942,0.0,0.0,-0.12,0.0
35.77340000,35773400,2,-0.16,0.39,137.59,0.015006783418357372,0.010547393001616001,0.023334873840212822,-0.008109571412205696,0.0,0.0,-0.231086865067482,0.0,0.0,-0.12,0.0
35.87340200,35873402,2,-0.16,0.39,137.58,0.016041992232203484,0.010232028551399708,0.022963043302297592,-0.003009847132489085,0.0,0.0,-0.23060669004917145,0.0,0.0,-0.11,0.0
35.97341400,35973414,2,-0.17,0.4,137.57,0.016550777480006218,0.01012596394866705,0.023289326578378677,0.01895410194993019,0.0,0.0,-0.22797542810440063,0.0,0.0,-0.11,0.0
36.07342700,36073427,2,-0.17,0.4,137.56,0.01652049832046032,0.008940353989601135,0.024910617619752884,0.04059635475277901,0.0,0.0,-0.22446095943450928,0.0,0.0,-0.11,0.0
36.17343600,36173436,2,-0.17,0.4,137.56,0.017206411808729172,0.007920470088720322,0.02504824846982956,0.03531621769070625,0.0,0.0,-0.22173674404621124,0.0,0.0,-0.11,0.0
36.27347300,36273473,2,-0.17,0.4,137.56,0.017882101237773895,0.008053625002503395,0.025990193709731102,0.02134796977043152,0.0,0.0,-0.21998341381549835,0.0,0.0,-0.11,0.0
36.37343400,36373434,2,-0.17,0.4,137.55,0.018642215058207512,0.007547135930508375,0.026156384497880936,0.0035221304278820753,0.0,0.0,-0.21964021027088165,0.0,0.0,-0.11,0.0
36.47339000,36473390,2,-0.17,0.41000000000000003,137.55,0.02024945057928562,0.007043099030852318,0.026674320921301842,0.006121685728430748,0.0,0.0,-0.21809910237789154,0.0,0.0,-0.11,0.0
36.57340100,36573401,2,-0.17,0.41000000000000003,137.55,0.020678715780377388,0.005564241204410791,0.027128618210554123,0.008354563266038895,0.0,0.0,-0.2174413502216339,0.0,0.0,-0.11,0.0
36.67339100,36673391,2,-0.18,0.41000000000000003,137.55,0.020732413977384567,0.0049119251780211926,0.026589257642626762,-0.014981964603066444,0.0,0.0,-0.21906337141990662,0.0,0.0,-0.11,0.0
36.77341300,36773413,2,-0.18,0.41000000000000003,137.55,0.020987899973988533,0.0037330398336052895,0.027169566601514816,-0.035213571041822433,0.0,0.0,-0.22201961278915405,0.0,0.0,-0.11,0.0
36.87341400,36873414,2,-0.18,0.41000000000000003,137.55,0.021394550800323486,0.003305991180241108,0.028033694252371788,-0.04167052358388901,0.0,0.0,-0.22526997327804565,0.0,0.0,-0.11,0.0
36.97343600,36973436,2,-0.18,0.41000000000000003,137.54,0.021819233894348145,0.003510585753247142,0.028481248766183853,-0.012369147501885891,0.0,0.0,-0.2247939258813858,0.0,0.0,-0.11,0.0
37.07342900,37073429,2,-0.19,0.41000000000000003,137.55,0.02180994302034378,0.0039674811996519566,0.029063887894153595,0.02842825837433338,0.0,0.0,-0.22229471802711487,0.0,0.0,-0.11,0.0
37.17346600,37173466,2,-0.19,0.41000000000000003,137.54,0.022180086001753807,0.0043622092343866825,0.029118219390511513,0.03602295368909836,0.0,0.0,-0.21982762217521667,0.0,0.0,-0.11,0.0
37.27342400,37273424,2,-0.18,0.41000000000000003,137.53,0.02192023955285549,0.004797938745468855,0.030183494091033936,0.04022844880819321,0.0,0.0,-0.21638792753219604,0.0,0.0,-0.11,0.0
37.37339000,37373390,2,-0.18,0.41000000000000003,137.51,0.022583454847335815,0.004368853755295277,0.032328635454177856,0.052423205226659775,0.0,0.0,-0.21166568994522095,0.0,0.0,-0.1,0.0
37.47339000,37473390,2,-0.18,0.41000000000000003,137.5,0.022559382021427155,0.004320373293012381,0.03374863415956497,0.055718790739774704,0.0,0.0,-0.20690099895000458,0.0,0.0,-0.1,0.0
37.57339200,37573392,2,-0.19,0.41000000000000003,137.5,0.023130765184760094,0.004210705403238535,0.034140728414058685,0.05039406567811966,0.0,0.0,-0.20231521129608154,0.0,0.0,-0.1,0.0
37.67342700,37673427,2,-0.18,0.42,137.49,0.023255495354533195,0.004134222865104675,0.03537995368242264,0.04824278876185417,0.0,0.0,-0.19769492745399475,0.0,0.0,-0.1,0.0
37.77341100,37773411,2,-0.18,0.42,137.48,0.02306600846350193,0.00446246238425374,0.0371120385825634,0.0388401560485363,0.0,0.0,-0.19424040615558624,0.0,0.0,-0.1,0.0
37.87339200,37873392,2,-0.18,0.41000000000000003,137.48,0.023089483380317688,0.004815822001546621,0.0374109223484993,0.022629499435424805,0.0,0.0,-0.1918526291847229,0.0,0.0,-0.1,0.0
37.97344900,37973449,2,-0.18,0.41000000000000003,137.48,0.02369879186153412,0.004192676395177841,0.0390959233045578,0.013629942201077938,0.0,0.0,-0.19010630249977112,0.0,0.0,-0.1,0.0
38.07346200,38073462,2,-0.18,0.41000000000000003,137.47,0.024618277326226234,0.003798156278207898,0.04000221937894821,0.011567842215299606,0.0,0.0,-0.18844914436340332,0.0,0.0,-0.1,0.0
38.17342400,38173424,2,-0.18,0.41000000000000003,137.46,0.024677187204360962,0.003642302704975009,0.04051238298416138,0.0075194272212684155,0.0,0.0,-0.18748638033866882,0.0,0.0,-0.1,0.0
38.27339800,38273398,2,-0.18,0.42,137.46,0.024527017027139664,0.004026811569929123,0.04006669297814369,-0.008616674691438675,0.0,0.0,-0.1883043497800827,0.0,0.0,-0.1,0.0
38.37338900,38373389,2,-0.18,0.41000000000000003,137.46,0.024244526401162148,0.004968634806573391,0.039471834897994995,-0.02491012215614319,0.0,0.0,-0.19026288390159607,0.0,0.0,-0.1,0.0
38.47339000,38473390,2,-0.18,0.41000000000000003,137.46,0.024225344881415367,0.005336812697350979,0.04030001536011696,-0.0018869828199967742,0.0,0.0,-0.188691645860672,0.0,0.0,-0.1,0.0
38.57342100,38573421,2,-0.19,0.41000000000000003,137.46,0.0242074616253376,0.005800075363367796,0.04074101895093918,0.016693115234375,0.0,0.0,-0.1876787543296814,0.0,0.0,-0.1,0.0
38.67340200,38673402,2,-0.19,0.42,137.45000000000002,0.02315923385322094,0.006183571182191372,0.0409015528857708,0.0264719370752573,0.0,0.0,-0.1848091036081314,0.0,0.0,-0.1,0.0
38.77343200,38773432,2,-0.19,0.42,137.44,0.023209815844893456,0.006145033519715071,0.04182270169258118,0.05552523955702782,0.0,0.0,-0.17929355800151825,0.0,0.0,-0.1,0.0
38.87344200,38873442,2,-0.19,0.42,137.44,0.02437792718410492,0.0060395728796720505,0.0416635163128376,0.06487676501274109,0.0,0.0,-0.17407406866550446,0.0,0.0,-0.09,0.0
38.97346500,38973465,2,-0.19,0.42,137.43,0.02487490326166153,0.006719527766108513,0.04245151951909065,0.0712929219007492,0.0,0.0,-0.16725370287895203,0.0,0.0,-0.09,0.0
39.07342000,39073420,2,-0.2,0.43,137.42000000000002,0.02567528374493122,0.007426796946674585,0.04505002498626709,0.07602237910032272,0.0,0.0,-0.1607598066329956,0.0,0.0,-0.09,0.0
39.17339200,39173392,2,-0.2,0.42,137.42000000000002,0.02546474151313305,0.007173400837928057,0.04640942066907883,0.05692606046795845,0.0,0.0,-0.15604819357395172,0.0,0.0,-0.09,0.0
39.27339400,39273394,2,-0.19,0.42,137.42000000000002,0.02552046999335289,0.006676723714917898,0.046793870627880096,0.03350580111145973,0.0,0.0,-0.15271705389022827,0.0,0.0,-0.09,0.0
39.37338900,39373389,2,-0.19,0.42,137.42000000000002,0.026569433510303497,0.0063375793397426605,0.047317054122686386,0.02634655125439167,0.0,0.0,-0.14932389557361603,0.0,0.0,-0.09,0.0
39.47341600,39473416,2,-0.19,0.43,137.42000000000002,0.027119075879454613,0.005182596389204264,0.047340065240859985,0.007235121913254261,0.0,0.0,-0.14887169003486633,0.0,0.0,-0.09,0.0
39.57341900,39573419,2,-0.18,0.43,137.42000000000002,0.02749556116759777,0.004492355044931173,0.04701793193817139,-0.013232724741101265,0.0,0.0,-0.14922840893268585,0.0,0.0,-0.09,0.0
39.67344000,39673440,2,-0.19,0.42,137.42000000000002,0.027837082743644714,0.004644588101655245,0.04724711552262306,-0.016731398180127144,0.0,0.0,-0.15005043148994446,0.0,0.0,-0.09,0.0
39.77345900,39773459,2,-0.18,0.42,137.41,0.028172768652439117,0.005079691763967276,0.04660508409142494,-0.018496064469218254,0.0,0.0,-0.15120846033096313,0.0,0.0,-0.09,0.0
39.87346900,39873469,2,-0.18,0.42,137.41,0.028565270826220512,0.004876916296780109,0.046198222786188126,-0.002867113333195448,0.0,0.0,-0.1503896862268448,0.0,0.0,-0.09,0.0
39.97342500,39973425,2,-0.18,0.41000000000000003,137.39000000000001,0.028320135548710823,0.004614322446286678,0.04668451473116875,0.011949135921895504,0.0,0.0,-0.14949697256088257,0.0,0.0,-0.09,0.0
40.07339700,40073397,2,-0.18,0.41000000000000003,137.39000000000001,0.02887849323451519,0.004177373368293047,0.04768019914627075,0.013163060881197453,0.0,0.0,-0.14850322902202606,0.0,0.0,-0.09,0.0
40.17339600,40173396,2,-0.18,0.41000000000000003,137.38,0.02984515391290188,0.0038556407671421766,0.046974070370197296,0.0015239435015246272,0.0,0.0,-0.14886464178562164,0.0,0.0,-0.09,0.0
40.27340700,40273407,2,-0.17,0.42,137.38,0.02989858388900757,0.004996715113520622,0.04667436704039574,-0.0011749911354854703,0.0,0.0,-0.1483830213546753,0.0,0.0,-0.09,0.0
40.37342200,40373422,2,-0.17,0.42,137.38,0.029829854145646095,0.0036524112801998854,0.04697175323963165,-0.008727800101041794,0.0,0.0,-0.14912277460098267,0.0,0.0,-0.09,0.0
40.47341100,40473411,2,-0.17,0.42,137.39000000000001,0.029956726357340813,0.0023306815419346094,0.04647260904312134,-0.014540486969053745,0.0,0.0,-0.14996547996997833,0.0,0.0,-0.09,0.0
40.57343900,40573439,2,-0.17,0.42,137.39000000000001,0.029820019379258156,0.0017431271262466908,0.04647480696439743,-0.01970023475587368,0.0,0.0,-0.15199507772922516,0.0,0.0,-0.09,0.0
40.67344500,40673445,2,-0.17,0.42,137.4,0.03008207678794861,0.0006986852386035025,0.04521169140934944,-0.03680787235498428,0.0,0.0,-0.15517430007457733,0.0,0.0,-0.09,0.0
40.77346600,40773466,2,-0.17,0.42,137.4,0.029897350817918777,3.188216214766726e-05,0.04444963112473488,-0.04478289559483528,0.0,0.0,-0.15903300046920776,0.0,0.0,-0.09,0.0
40.87343200,40873432,2,-0.17,0.42,137.4,0.02967691421508789,-9.734139166539535e-05,0.043921276926994324,-0.03688109666109085,0.0,0.0,-0.1617896407842636,0.0,0.0,-0.09,0.0
40.97339000,40973390,2,-0.18,0.42,137.38,0.030202819034457207,-0.0007369116647168994,0.044468529522418976,-0.017340639606118202,0.0,0.0,-0.1633259356021881,0.0,0.0,-0.09,0.0
41.07339000,41073390,2,-0.17,0.43,137.38,0.030303044244647026,-0.00045160474837757647,0.04451371729373932,0.009291937574744225,0.0,0.0,-0.16229130327701569,0.0,0.0,-0.09,0.0
41.17339400,41173394,2,-0.17,0.42,137.38,0.029679955914616585,-0.00015121234173420817,0.044091492891311646,0.02293672226369381,0.0,0.0,-0.1610870659351349,0.0,0.0,-0.09,0.0
41.27341800,41273418,2,-0.16,0.41000000000000003,137.39000000000001,0.028922049328684807,-0.00040704463026486337,0.04422994703054428,0.01736532710492611,0.0,0.0,-0.1600193977355957,0.0,0.0,-0.09,0.0
41.37340600,41373406,2,-0.16,0.42,137.39000000000001,0.027967168018221855,-0.0006290014134719968,0.04421704635024071,0.0011980655835941434,0.0,0.0,-0.1605398952960968,0.0,0.0,-0.09,0.0
41.47343800,41473438,2,-0.16,0.42,137.39000000000001,0.027397673577070236,-0.0004920349456369877,0.04324774816632271,-0.016659552231431007,0.0,0.0,-0.1618829220533371,0.0,0.0,-0.09,0.0
41.57343500,41573435,2,-0.17,0.42,137.39000000000001,0.02759217843413353,-0.00046817483962513506,0.04213476926088333,-0.0182261411100626,0.0,0.0,-0.1630825251340866,0.0,0.0,-0.09,0.0
41.67346800,41673468,2,-0.17,0.42,137.39000000000001,0.026551060378551483,-1.750456794979982e-05,0.04247567802667618,-0.009619083255529404,0.0,0.0,-0.1635720133781433,0.0,0.0,-0.08,0.0
41.77342300,41773423,2,-0.16,0.42,137.39000000000001,0.02684367634356022,-0.00040784041630104184,0.04208704084157944,0.0009300058009102941,0.0,0.0,-0.16332083940505981,0.0,0.0,-0.08,0.0
41.87339200,41873392,2,-0.16,0.42,137.39000000000001,0.026913942769169807,-0.0008491913904435933,0.04079052805900574,-0.01018128078430891,0.0,0.0,-0.16491976380348206,0.0,0.0,-0.08,0.0
41.97339500,41973395,2,-0.16,0.42,137.39000000000001,0.02568260207772255,-0.0024502358864992857,0.039952680468559265,-0.038778260350227356,0.0,0.0,-0.16875126957893372,0.0,0.0,-0.08,0.0
42.07339500,42073395,2,-0.16,0.42,137.39000000000001,0.025818543508648872,-0.0035812982823699713,0.0391906313598156,-0.05057636275887489,0.0,0.0,-0.1727461963891983,0.0,0.0,-0.08,0.0
42.17342000,42173420,2,-0.15,0.42,137.38,0.025048693642020226,-0.003401520662009716,0.03720717877149582,-0.04651806876063347,0.0,0.0,-0.1765315979719162,0.0,0.0,-0.08,0.0
42.27341000,42273410,2,-0.15,0.42,137.38,0.024909501895308495,-0.004276534076780081,0.036578740924596786,-0.04424082115292549,0.0,0.0,-0.18059782683849335,0.0,0.0,-0.08,0.0
42.37343700,42373437,2,-0.15,0.42,137.37,0.023412104696035385,-0.0048172809183597565,0.03544551506638527,-0.02466168813407421,0.0,0.0,-0.1822005808353424,0.0,0.0,-0.08,0.0
42.47343400,42473434,2,-0.15,0.42,137.37,0.02217852510511875,-0.004504984710365534,0.03399880602955818,-0.004946110304445028,0.0,0.0,-0.18320485949516296,0.0,0.0,-0.08,0.0
42.57346600,42573466,2,-0.15,0.41000000000000003,137.37,0.02156800590455532,-0.004412542097270489,0.03242846578359604,-0.00160520791541785,0.0,0.0,-0.18372058868408203,0.0,0.0,-0.08,0.0
42.67341900,42673419,2,-0.16,0.42,137.36,0.021503999829292297,-0.0044968086294829845,0.032937146723270416,0.013358261436223984,0.0,0.0,-0.1827290803194046,0.0,0.0,-0.08,0.0
42.77339000,42773390,2,-0.15,0.41000000000000003,137.36,0.02051299624145031,-0.004684148356318474,0.033380646258592606,0.029189279302954674,0.0,0.0,-0.18026112020015717,0.0,0.0,-0.08,0.0
42.87339200,42873392,2,-0.15,0.42,137.36,0.019985239952802658,-0.005199063569307327,0.03298657014966011,0.030415622517466545,0.0,0.0,-0.17817339301109314,0.0,0.0,-0.08,0.0
42.97339100,42973391,2,-0.15,0.42,137.36,0.01963825337588787,-0.005169826094061136,0.033703070133924484,0.016146881505846977,0.0,0.0,-0.17722803354263306,0.0,0.0,-0.08,0.0
43.07342100,43073421,2,-0.16,0.42,137.36,0.018950603902339935,-0.005540438462048769,0.03417085483670235,0.0019028473179787397,0.0,0.0,-0.17705373466014862,0.0,0.0,-0.08,0.0
43.17341500,43173415,2,-0.16,0.42,137.36,0.018213670700788498,-0.004657144192606211,0.032970983535051346,-0.024600325152277946,0.0,0.0,-0.17967599630355835,0.0,0.0,-0.08,0.0
43.27339300,43273393,2,-0.16,0.42,137.35,0.01794148050248623,-0.0037353970110416412,0.03196540102362633,-0.0610739067196846,0.0,0.0,-0.18524225056171417,0.0,0.0,-0.08,0.0
43.37344600,43373446,2,-0.16,0.41000000000000003,137.35,0.017197156324982643,-0.003645409131422639,0.03134934976696968,-0.06701131910085678,0.0,0.0,-0.19000554084777832,0.0,0.0,-0.08,0.0
43.47346200,43473462,2,-0.16,0.41000000000000003,137.35,0.017175467684864998,-0.0036866245791316032,0.02946258895099163,-0.05521640181541443,0.0,0.0,-0.1945974975824356,0.0,0.0,-0.08,0.0
43.57342300,43573423,2,-0.16,0.41000000000000003,137.34,0.016473591327667236,-0.002187535399571061,0.02846897952258587,-0.040059857070446014,0.0,0.0,-0.19772222638130188,0.0,0.0,-0.08,0.0
43.67339800,43673398,2,-0.15,0.41000000000000003,137.34,0.016489604488015175,-0.0023896885104477406,0.02868572808802128,-0.006929864641278982,0.0,0.0,-0.1981121450662613,0.0,0.0,-0.08,0.0
