timestamp,TimeUS,C,Q1,Q2,Q3,Q4
9.47341700,9473417,2,1.0,0.0,0.0,0.0
9.57341800,9573418,2,1.0,0.0,0.0,0.0
9.67341500,9673415,2,1.0,0.0,0.0,0.0
9.77344400,9773444,2,1.0,0.0,0.0,0.0
9.87341800,9873418,2,1.0,0.0,0.0,0.0
9.97345300,9973453,2,1.0,0.0,0.0,0.0
10.07344600,10073446,2,1.0,0.0,0.0,0.0
10.17349200,10173492,2,1.0,0.0,0.0,0.0
10.27344500,10273445,2,1.0,0.0,0.0,0.0
10.37341200,10373412,2,1.0,0.0,0.0,0.0
10.47341700,10473417,2,0.9999948143959045,-0.001237517804838717,0.0029799751937389374,-9.915979899233207e-05
10.57341600,10573416,2,0.9999948740005493,-0.001194245764054358,0.002964171813800931,-0.00015892118972260505
10.67344600,10673446,2,0.9999949932098389,-0.001227881177328527,0.0029198413249105215,-0.00019766765763051808
10.77342000,10773420,2,0.9999949932098389,-0.001218157121911645,0.0029138477984815836,-0.0002469555183779448
10.87345200,10873452,2,0.9999949932098389,-0.001255866838619113,0.002892559627071023,-0.0002698885800782591
10.97345700,10973457,2,0.9999949932098389,-0.0012550951214507222,0.0028896445874124765,-0.00030713892192579806
11.07347800,11073478,2,0.9999949336051941,-0.0012445910833775997,0.002918780315667391,-0.00032022601226344705
11.17344000,11173440,2,0.9999946355819702,-0.0012561489129438996,0.0030049746856093407,-0.0003289201995357871
11.27341800,11273418,2,0.9999946355819702,-0.0013230679323896766,0.0029763488564640284,-0.0003560700861271471
11.37342200,11373422,2,0.9999945163726807,-0.001335975481197238,0.0029945746064186096,-0.0004441080382093787
11.47341700,11473417,2,0.9999943971633911,-0.001332194427959621,0.0030415148939937353,-0.0004511622537393123
11.57344500,11573445,2,0.9999943375587463,-0.0012786139268428087,0.003068641759455204,-0.00047975819325074553
11.67342500,11673425,2,0.9999943375587463,-0.0012763238046318293,0.003085706615820527,-0.0004670262278523296
11.77344800,11773448,2,0.9999942779541016,-0.0012019812129437923,0.003135689767077565,-0.00043089326936751604
11.87344600,11873446,2,0.9999942183494568,-0.0011304253712296486,0.00316665624268353,-0.0004551198217086494
11.97348500,11973485,2,0.3698884844779968,-0.003667288925498724,0.00016659214452374727,0.929068922996521
12.07343100,12073431,2,0.3698239028453827,-0.0035161245614290237,0.00017025016131810844,0.9290952086448669
12.17341600,12173416,2,0.36970993876457214,-0.0034726217854768038,0.00020876094640698284,0.9291406869888306
12.27340900,12273409,2,0.36940133571624756,-0.0036821593530476093,0.0002385269763180986,0.929262638092041
12.37340400,12373404,2,0.3688991069793701,-0.00349363568238914,0.00027108905487693846,0.9294628500938416
12.47343600,12473436,2,0.36839184165000916,-0.0033304837998002768,0.00023565522860735655,0.9296646118164062
12.57341900,12573419,2,0.36804506182670593,-0.003344235708937049,0.00026116377557627857,0.929801881313324
12.67345500,12673455,2,0.36766868829727173,-0.00322982226498425,0.0002524427545722574,0.9299511909484863
12.77344700,12773447,2,0.3673301935195923,-0.0031827841885387897,0.00024032699002418667,0.9300851225852966
12.87348100,12873481,2,0.36709868907928467,-0.0031027495861053467,0.00030424344004131854,0.9301767945289612
12.97343500,12973435,2,0.3668779134750366,-0.003115731291472912,0.0003360506671015173,0.9302638173103333
13.07341100,13073411,2,0.3665701746940613,-0.003037953982129693,0.00030505654285661876,0.930385410785675
13.17341300,13173413,2,0.3663384020328522,-0.0030895755626261234,0.0003183920925948769,0.9304764866828918
13.27341100,13273411,2,0.36609145998954773,-0.0030878225807100534,0.00032773250131867826,0.9305737018585205
13.37343700,13373437,2,0.3658253252506256,-0.0030631697736680508,0.00036801944952458143,0.9306784272193909
13.47342700,13473427,2,0.3657183349132538,-0.003026053309440613,0.0004010572738479823,0.9307205677032471
13.57344800,13573448,2,0.3668849766254425,-0.003043403383344412,0.00045303275692276657,0.9302611947059631
13.67344600,13673446,2,0.37038612365722656,-0.0028425753116607666,0.0005283306236378849,0.9288733601570129
13.77347800,13773478,2,0.37611261010169983,-0.003005341161042452,0.0005609911167994142,0.9265689253807068
13.87343600,13873436,2,0.3836061358451843,-0.0028631193563342094,0.0006445625913329422,0.9234921336174011
13.97342200,13973422,2,0.3921720087528229,-0.002925262786448002,0.0007507684058509767,0.9198869466781616
14.07340100,14073401,2,0.40048322081565857,-0.0029287750367075205,0.0008771206485107541,0.9162989854812622
14.17340400,14173404,2,0.4069060683250427,-0.0029149577021598816,0.000974432157818228,0.9134648442268372
14.27343400,14273434,2,0.41076576709747314,-0.0030731763690710068,0.0010564663680270314,0.9117351174354553
14.37342100,14373421,2,0.412337988615036,-0.003036987269297242,0.001082459231838584,0.9110252261161804
14.47345700,14473457,2,0.4123019874095917,-0.0031051968690007925,0.0010826891520991921,0.9110413193702698
14.57345000,14573450,2,0.41121092438697815,-0.003220238024368882,0.0011632232926785946,0.911533772945404
14.67347800,14673478,2,0.409485787153244,-0.0031920105684548616,0.001176220248453319,0.9123101830482483
14.77344200,14773442,2,0.40762773156166077,-0.0032534943893551826,0.0011551287025213242,0.913141667842865
14.87340800,14873408,2,0.405804842710495,-0.0033199163153767586,0.0011524725705385208,0.9139530062675476
14.97341000,14973410,2,0.40412360429763794,-0.0033749316353350878,0.0011272255796939135,0.9146974682807922
15.07343300,15073433,2,0.4026108384132385,-0.0034056399017572403,0.001120470347814262,0.9153642058372498
15.17343800,15173438,2,0.40125203132629395,-0.0034590067807585,0.0010969126597046852,0.9159604907035828
15.27341600,15273416,2,0.3998854458332062,-0.003499849932268262,0.0010910138953477144,0.916557788848877
15.37345500,15373455,2,0.3985963761806488,-0.0035419913474470377,0.00106425816193223,0.917119026184082
15.47344900,15473449,2,0.3971576392650604,-0.0036711320281028748,0.0010856044245883822,0.9177424311637878
15.57348400,15573484,2,0.39583948254585266,-0.0036976318806409836,0.0010208658641204238,0.9183117151260376
15.67343800,15673438,2,0.3945314288139343,-0.0037592898588627577,0.0009770496981218457,0.918874204158783
15.77340300,15773403,2,0.393310546875,-0.003761454252526164,0.0009824822191148996,0.9193974733352661
15.87341900,15873419,2,0.3921285569667816,-0.0038005399983376265,0.00096977996872738,0.9199020862579346
15.97341700,15973417,2,0.3909163773059845,-0.0037997281178832054,0.0009310194873251021,0.9204179048538208
16.07343100,16073431,2,0.3896646499633789,-0.0039060688577592373,0.0009595321025699377,0.9209480285644531
16.17341900,16173419,2,0.3883424997329712,-0.0038912533782422543,0.0009851899230852723,0.9215063452720642
16.27345200,16273452,2,0.3871695399284363,-0.003932869993150234,0.00098685291595757,0.9219996333122253
16.37344400,16373444,2,0.38620609045028687,-0.0039511313661932945,0.000997693045064807,0.9224035143852234
16.47347800,16473478,2,0.3853931427001953,-0.004026093054562807,0.0009894181275740266,0.9227431416511536
16.57343900,16573439,2,0.3846075236797333,-0.004034724552184343,0.0009739536326378584,0.9230708479881287
16.67340200,16673402,2,0.3838542103767395,-0.0040670535527169704,0.0010191417532041669,0.9233841896057129
16.77340800,16773408,2,0.3830309808254242,-0.004091525916010141,0.0010675464291125536,0.9237258434295654
16.87341200,16873412,2,0.3821602463722229,-0.00407312111929059,0.0011248496593907475,0.9240863919258118
16.97343200,16973432,2,0.38133540749549866,-0.004037490580230951,0.0010989345610141754,0.9244272708892822
17.07343000,17073430,2,0.3804214298725128,-0.004037040751427412,0.0011253607226535678,0.9248037338256836
17.17345000,17173450,2,0.3794507384300232,-0.004023992922157049,0.0010995372431352735,0.9252025485038757
17.27344500,17273445,2,0.37854915857315063,-0.00402541970834136,0.001115518156439066,0.9255717396736145
17.37349800,17373498,2,0.37768393754959106,-0.003981977701187134,0.0010952989105135202,0.9259253740310669
17.47343600,17473436,2,0.3768076002597809,-0.003986496943980455,0.0011008268920704722,0.9262822866439819
17.57340400,17573404,2,0.3759991526603699,-0.003968771081417799,0.001084740273654461,0.9266108870506287
17.67341100,17673411,2,0.37513187527656555,-0.003924477845430374,0.0010585157433524728,0.9269625544548035
17.77340200,17773402,2,0.3743142783641815,-0.0038771736435592175,0.001035599852912128,0.9272932410240173
17.87343200,17873432,2,0.37347716093063354,-0.0038830426055938005,0.001008193357847631,0.9276307225227356
17.97341700,17973417,2,0.372670978307724,-0.0038968990556895733,0.0009922790341079235,0.9279548525810242
18.07344500,18073445,2,0.37180641293525696,-0.003915414214134216,0.0009183593210764229,0.9283015727996826
18.17344500,18173445,2,0.37083935737609863,-0.003925403580069542,0.0008398765348829329,0.9286883473396301
18.27347900,18273479,2,0.3699549734592438,-0.00389877799898386,0.0007769466610625386,0.9290411472320557
18.37343700,18373437,2,0.36921337246894836,-0.003929588478058577,0.0007077229092828929,0.9293360710144043
18.47340600,18473406,2,0.36860230565071106,-0.0039517744444310665,0.000643703795503825,0.9295785427093506
18.57341400,18573414,2,0.3681095838546753,-0.003926257602870464,0.0005907664308324456,0.9297739267349243
18.67340700,18673407,2,0.3676164746284485,-0.003865589387714863,0.0005573134403675795,0.929969310760498
18.77342700,18773427,2,0.36722517013549805,-0.0038108217995613813,0.0005059068207629025,0.9301241636276245
18.87342500,18873425,2,0.3667503893375397,-0.0037719847168773413,0.0005103195435367525,0.9303116202354431
18.97345700,18973457,2,0.3663320541381836,-0.003725650953128934,0.0004967444110661745,0.9304766058921814
19.07344400,19073444,2,0.3659960627555847,-0.003790052141994238,0.000435481226304546,0.9306085705757141
19.17347900,19173479,2,0.36567193269729614,-0.003782217623665929,0.00040277716470882297,0.9307360053062439
19.27343600,19273436,2,0.3653898537158966,-0.003786811139434576,0.00036739534698426723,0.9308468103408813
19.37340200,19373402,2,0.36499035358428955,-0.0037601860240101814,0.0003684083349071443,0.9310036301612854
19.47340400,19473404,2,0.3647022545337677,-0.003760487074032426,0.0003538777236826718,0.93111652135849
19.57340600,19573406,2,0.3644915521144867,-0.003749274415895343,0.0002889921597670764,0.9311990737915039
19.67343500,19673435,2,0.36418625712394714,-0.003792894771322608,0.00031726283486932516,0.9313183426856995
19.77341900,19773419,2,0.3638685345649719,-0.0038497275672852993,0.000273327314062044,0.9314423203468323
19.87345600,19873456,2,0.3636218011379242,-0.0038915378972887993,0.0002665910869836807,0.9315385222434998
19.97347200,19973472,2,0.3634204864501953,-0.0039064777083694935,0.00024284166283905506,0.931617021560669
20.07347400,20073474,2,0.36321595311164856,-0.003953462932258844,0.00023235188564285636,0.9316965937614441
20.17344400,20173444,2,0.3631143867969513,-0.00396359758451581,0.0001824197534006089,0.9317361116409302
20.27340900,20273409,2,0.3629862368106842,-0.003966204822063446,0.00021924549946561456,0.931786060333252
20.37340000,20373400,2,0.36283326148986816,-0.0039903041906654835,0.00017472991021350026,0.9318455457687378
20.47340400,20473404,2,0.36263152956962585,-0.004006239119917154,0.00013886511442251503,0.9319239854812622
20.57343900,20573439,2,0.36247459053993225,-0.003990586381405592,0.00014358405314851552,0.931985080242157
20.67344200,20673442,2,0.3622557818889618,-0.004009881056845188,9.219870844390243e-05,0.9320700764656067
20.77344500,20773445,2,0.36203765869140625,-0.0040105837397277355,9.117955778492615e-05,0.9321548342704773
20.87345000,20873450,2,0.36181190609931946,-0.004010566044598818,9.797451639315113e-05,0.9322424530982971
20.97348100,20973481,2,0.3615911900997162,-0.003984407987445593,7.712004298809916e-05,0.9323282241821289
21.07343800,21073438,2,0.3613867163658142,-0.0040533593855798244,4.648979302146472e-05,0.9324072003364563
21.17341300,21173413,2,0.36122623085975647,-0.004025366622954607,1.8021200958173722e-05,0.9324695467948914
21.27341400,21273414,2,0.36102914810180664,-0.003989637829363346,2.842829781002365e-05,0.9325460195541382
21.37341100,21373411,2,0.3609565496444702,-0.004019865766167641,4.690064088208601e-05,0.9325739741325378
21.47343000,21473430,2,0.36086779832839966,-0.003994530998170376,7.894648774708912e-07,0.932608425617218
21.57341600,21573416,2,0.3608514964580536,-0.003988748881965876,1.977609281311743e-05,0.9326147437095642
21.67345800,21673458,2,0.36085987091064453,-0.00396555382758379,9.452534141018987e-05,0.9326116442680359
21.77344300,21773443,2,0.3606968820095062,-0.003983123227953911,0.0001100343870348297,0.9326745867729187
21.87348400,21873484,2,0.36048248410224915,-0.003933651838451624,6.066971400287002e-05,0.9327576756477356
21.97345500,21973455,2,0.3603050708770752,-0.003939192276448011,0.0001108862561522983,0.9328262209892273
22.07341300,22073413,2,0.36011216044425964,-0.003892420558258891,9.033163951244205e-05,0.9329009056091309
22.17341500,22173415,2,0.3598685562610626,-0.003898987779393792,5.88931143283844e-05,0.9329948425292969
22.27342200,22273422,2,0.3595890998840332,-0.0038910715375095606,5.611571396002546e-05,0.9331026077270508
22.37343000,22373430,2,0.3594529926776886,-0.0038977910298854113,4.182522025075741e-05,0.9331550598144531
22.47341200,22473412,2,0.35934433341026306,-0.003927853889763355,6.140105688245967e-05,0.9331967830657959
22.57345100,22573451,2,0.3593154549598694,-0.003918818663805723,2.9386772439465858e-05,0.9332079291343689
22.67345500,22673455,2,0.3593422770500183,-0.0039031223859637976,4.882964731223183e-06,0.9331976771354675
22.77348500,22773485,2,0.35939010977745056,-0.0038627057801932096,1.6978947314783e-05,0.9331794381141663
22.87343400,22873434,2,0.3593752086162567,-0.0038489834405481815,2.759609969871235e-06,0.9331852197647095
22.97341000,22973410,2,0.3593558967113495,-0.003833517199382186,-1.390585475746775e-05,0.9331927299499512
23.07341000,23073410,2,0.35928577184677124,-0.0038330527022480965,-2.326863796042744e-05,0.9332197308540344
23.17341500,23173415,2,0.3591582179069519,-0.0038163012359291315,-3.3195588912349194e-05,0.9332689046859741
23.27343700,23273437,2,0.35917970538139343,-0.0038154989015311003,-2.7837264497065917e-05,0.9332606196403503
23.37343000,23373430,2,0.35927894711494446,-0.00379767082631588,-5.485669316840358e-05,0.9332224726676941
23.47344800,23473448,2,0.35946178436279297,-0.0037778629921376705,-0.00013020943151786923,0.9331521391868591
23.57344900,23573449,2,0.3596319854259491,-0.0037845110055059195,-0.00016813758702483028,0.9330865144729614
23.67348400,23673484,2,0.35979804396629333,-0.003821371588855982,-0.00021460333664435893,0.9330223798751831
23.77343200,23773432,2,0.3598513603210449,-0.003797094104811549,-0.00021753605687990785,0.9330018758773804
23.87340300,23873403,2,0.3598671555519104,-0.003824786748737097,-0.00019178994989488274,0.9329956769943237
23.97341400,23973414,2,0.3598328232765198,-0.003846881678327918,-0.00016128837887663394,0.9330088496208191
24.07340100,24073401,2,0.35972991585731506,-0.0038301427848637104,-0.00020932787447236478,0.9330486059188843
24.17343100,24173431,2,0.35957586765289307,-0.0038019067142158747,-0.00020497868536040187,0.9331080913543701
24.27342100,24273421,2,0.35949093103408813,-0.003792724572122097,-0.00014804892998654395,0.9331408739089966
24.37344500,24373445,2,0.35938698053359985,-0.0037336170207709074,-0.00020680091984104365,0.93318110704422
24.47344600,24473446,2,0.359272837638855,-0.0036858469247817993,-0.00017380625649821013,0.9332252740859985
24.57348600,24573486,2,0.35914671421051025,-0.0036954206880182028,-0.00016577684436924756,0.9332737922668457
24.67344000,24673440,2,0.35901251435279846,-0.0036474198568612337,-0.00017243478214368224,0.9333255887031555
24.77340300,24773403,2,0.35899806022644043,-0.0036835249047726393,-0.00018951531092170626,0.9333310127258301
24.87340400,24873404,2,0.3590427339076996,-0.003673009341582656,-0.00020027384744025767,0.9333138465881348
24.97340400,24973404,2,0.35903191566467285,-0.00362282688729465,-0.00017551402561366558,0.9333182573318481
25.07342600,25073426,2,0.35902607440948486,-0.0036719453055411577,-0.00022229147725738585,0.9333202838897705
25.17341800,25173418,2,0.35903283953666687,-0.0036741297226399183,-0.00023225211771205068,0.9333176612854004
25.27344900,25273449,2,0.35893625020980835,-0.0037014633417129517,-0.0002862537803594023,0.9333546757698059
25.37345900,25373459,2,0.35884907841682434,-0.00366139761172235,-0.00027694046730175614,0.933388352394104
25.47347700,25473477,2,0.35879698395729065,-0.0035968292504549026,-0.0003140578046441078,0.9334086179733276
25.57343800,25573438,2,0.35879549384117126,-0.0035803273785859346,-0.0002774955937638879,0.9334092736244202
25.67340800,25673408,2,0.35876521468162537,-0.003542623482644558,-0.00027363517438061535,0.9334210753440857
25.77340000,25773400,2,0.358780175447464,-0.003545797662809491,-0.00035625541931949556,0.9334152936935425
25.87340700,25873407,2,0.3587937653064728,-0.003553620772436261,-0.0003923641052097082,0.9334099888801575
25.97343500,25973435,2,0.3587556481361389,-0.0035428565461188555,-0.0004531947779469192,0.9334246516227722
26.07341900,26073419,2,0.3586843013763428,-0.0035555697977542877,-0.0004712557711172849,0.9334520101547241
26.17344900,26173449,2,0.35858601331710815,-0.00355663918890059,-0.0004741012817248702,0.9334897994995117
26.27345000,26273450,2,0.3584725558757782,-0.0034805764444172382,-0.0004914456512778997,0.9335336685180664
26.37348300,26373483,2,0.35833612084388733,-0.003441441338509321,-0.0004848229291383177,0.9335861802101135
26.47345000,26473450,2,0.35828959941864014,-0.003412413876503706,-0.0004237534594722092,0.9336041808128357
26.57340700,26573407,2,0.35821813344955444,-0.003404003567993641,-0.0004356383578851819,0.9336315989494324
26.67340300,26673403,2,0.35821661353111267,-0.003410159843042493,-0.00045083530130796134,0.9336321949958801
26.77340200,26773402,2,0.3582133948802948,-0.003446660004556179,-0.00037718797102570534,0.9336333274841309
26.87343300,26873433,2,0.35820531845092773,-0.0034741652198135853,-0.00037236130447126925,0.9336363077163696
26.97342500,26973425,2,0.35817012190818787,-0.0034346231259405613,-0.00035826198291033506,0.9336499571800232
27.07345600,27073456,2,0.3581498861312866,-0.003405216848477721,-0.000314832926960662,0.9336578249931335
27.17345500,27173455,2,0.35811519622802734,-0.003423852613195777,-0.0003078786830883473,0.9336710572242737
27.27347400,27273474,2,0.3580368459224701,-0.0034335670061409473,-0.0003324068966321647,0.9337010979652405
27.37343700,27373437,2,0.35805365443229675,-0.003419042332097888,-0.0003500180901028216,0.9336946606636047
27.47340200,27473402,2,0.3581319749355316,-0.0034424783661961555,-0.0003957355802413076,0.9336645603179932
27.57340600,27573406,2,0.35819727182388306,-0.0034416127018630505,-0.00039913697401061654,0.9336395263671875
27.67340600,27673406,2,0.3581882119178772,-0.0034428404178470373,-0.0004443058278411627,0.9336429238319397
27.77342700,27773427,2,0.358165979385376,-0.0034053020644932985,-0.00044130481546744704,0.9336516261100769
27.87342200,27873422,2,0.35813677310943604,-0.003406306728720665,-0.0004544024704955518,0.9336628317832947
27.97345100,27973451,2,0.35805755853652954,-0.003451758995652199,-0.0005030036554671824,0.933692991733551
28.07345900,28073459,2,0.3580327332019806,-0.003437887877225876,-0.0005421851528808475,0.9337025284767151
28.17348700,28173487,2,0.3580188453197479,-0.0034345248714089394,-0.000537848740350455,0.9337078928947449
28.27345700,28273457,2,0.35798245668411255,-0.003461744636297226,-0.0005536584067158401,0.9337217211723328
28.37340100,28373401,2,0.3579219579696655,-0.003471366362646222,-0.0005793286254629493,0.9337448477745056
28.47340300,28473403,2,0.3578329384326935,-0.0034624647814780474,-0.0005655797431245446,0.9337790012359619
28.57340900,28573409,2,0.3577580451965332,-0.003491194685921073,-0.0005091055063530803,0.9338076710700989
28.67343200,28673432,2,0.3576899468898773,-0.0034487510565668344,-0.0005313450237736106,0.9338338971138
28.77341800,28773418,2,0.3576449751853943,-0.0034810234792530537,-0.00048662672634236515,0.9338510036468506
28.87344800,28873448,2,0.3576861619949341,-0.003543904982507229,-0.00047434994485229254,0.9338350296020508
28.97346100,28973461,2,0.3577592074871063,-0.00353413843549788,-0.00048079408588819206,0.9338070750236511
29.07347700,29073477,2,0.3579038679599762,-0.003536747070029378,-0.0005296532181091607,0.9337515830993652
29.17343700,29173437,2,0.3580235540866852,-0.0035298101138323545,-0.0005141219589859247,0.933705747127533
29.27340500,29273405,2,0.35810866951942444,-0.003546789987012744,-0.0005566427716985345,0.9336730241775513
29.37340200,29373402,2,0.3581916093826294,-0.0035862138029187918,-0.0005308922845870256,0.9336410760879517
29.47340700,29473407,2,0.3583012819290161,-0.003607126884162426,-0.0005324363592080772,0.9335988759994507
29.57343700,29573437,2,0.35844993591308594,-0.0036310087889432907,-0.0004945930559188128,0.9335417747497559
29.67343100,29673431,2,0.3585597574710846,-0.003596541238948703,-0.0005161742446944118,0.9334996938705444
29.77345000,29773450,2,0.3586499094963074,-0.003611760912463069,-0.0004894172307103872,0.9334650039672852
29.87344500,29873445,2,0.35876843333244324,-0.003652167972177267,-0.00043420601286925375,0.9334193468093872
29.97348400,29973484,2,0.3589162826538086,-0.0036638916935771704,-0.0004351229581516236,0.9333624839782715
30.07342700,30073427,2,0.35897549986839294,-0.0036404654383659363,-0.0004551071033347398,0.9333397746086121
30.17339200,30173392,2,0.3590098023414612,-0.0036573896650224924,-0.0004699057317338884,0.9333264827728271
30.27340400,30273404,2,0.3590247929096222,-0.0036706565879285336,-0.0004489022248890251,0.9333207011222839
30.37340000,30373400,2,0.3590543866157532,-0.0037185740657150745,-0.0004183986457064748,0.9333091378211975
30.47341800,30473418,2,0.3591195046901703,-0.003699927357956767,-0.00037340904236771166,0.9332841634750366
30.57341400,30573414,2,0.35918593406677246,-0.003705679439008236,-0.000374150782590732,0.933258593082428
30.67343400,30673434,2,0.35929104685783386,-0.0037254581693559885,-0.000383299047825858,0.9332180619239807
30.77345500,30773455,2,0.35935643315315247,-0.003741211723536253,-0.0003928139922209084,0.933192789554596
30.87346900,30873469,2,0.3593503534793854,-0.003747575217857957,-0.00037243287079036236,0.9331951141357422
30.97342200,30973422,2,0.3593403697013855,-0.003709681797772646,-0.00040122095379047096,0.9331991076469421
31.07339400,31073394,2,0.35935986042022705,-0.0038113072514533997,-0.0003990874392911792,0.933191180229187
31.17339900,31173399,2,0.35941386222839355,-0.0038153505884110928,-0.0003676340274978429,0.9331703782081604
31.27340300,31273403,2,0.35941001772880554,-0.0037741269916296005,-0.00029578516841866076,0.9331720471382141
31.37342400,31373424,2,0.3594900667667389,-0.0037534707225859165,-0.00032508099684491754,0.93314129114151
31.47340200,31473402,2,0.3595294952392578,-0.003722411347553134,-0.0003197380865458399,0.9331262111663818
31.57343900,31573439,2,0.3595740497112274,-0.0037549862172454596,-0.00029715674463659525,0.933108925819397
31.67345800,31673458,2,0.3595390319824219,-0.003739018924534321,-0.0002704461512621492,0.9331225156784058
31.77346500,31773465,2,0.35957711935043335,-0.0036650034599006176,-0.0002663609047885984,0.9331081509590149
31.87342100,31873421,2,0.35959020256996155,-0.0036791793536394835,-0.00024208730610553175,0.9331030249595642
31.97340600,31973406,2,0.3596344292163849,-0.003712640842422843,-0.0002062776475213468,0.9330858588218689
32.07339000,32073390,2,0.35965052247047424,-0.003682834329083562,-0.00021149047825019807,0.9330797791481018
32.17339200,32173392,2,0.3597148358821869,-0.0036469432525336742,-0.00022520260245073587,0.9330551028251648
32.27342000,32273420,2,0.359739750623703,-0.003683788003399968,-0.0002617098216433078,0.9330453872680664
32.37339700,32373397,2,0.3598076105117798,-0.0036640495527535677,-0.00026521601830609143,0.9330192804336548
32.47338900,32473389,2,0.3598812520503998,-0.0037513533607125282,-0.0002841874083969742,0.932990550994873
32.57343600,32573436,2,0.3600161373615265,-0.0037930035032331944,-0.00030136332497932017,0.9329383373260498
32.67346600,32673466,2,0.3601120412349701,-0.003775011282414198,-0.000307595357298851,0.9329013824462891
32.77342000,32773420,2,0.36016350984573364,-0.003731647739186883,-0.00033590375096537173,0.9328816533088684
32.87339200,32873392,2,0.3602299988269806,-0.00375041994266212,-0.0003310984466224909,0.9328559041023254
32.97339800,32973398,2,0.36030903458595276,-0.003786080749705434,-0.00034172425512224436,0.9328252673149109
33.07338900,33073389,2,0.36037346720695496,-0.003760440507903695,-0.0003129990946035832,0.9328004717826843
33.17341800,33173418,2,0.36035239696502686,-0.003816828830167651,-0.00027003115974366665,0.9328083992004395
33.27340900,33273409,2,0.3604418933391571,-0.003875039517879486,-0.00024239535559900105,0.9327735900878906
33.37344200,33373442,2,0.36047258973121643,-0.0038092262111604214,-0.0002533268998377025,0.9327619671821594
33.47343300,33473433,2,0.3604402244091034,-0.0038432530127465725,-0.00027395738288760185,0.9327743649482727
33.57346400,33573464,2,0.36039048433303833,-0.003857133910059929,-0.0002800424408633262,0.9327934980392456
33.67343100,33673431,2,0.36039575934410095,-0.003853411180898547,-0.0002868961892090738,0.9327914714813232
33.77338900,33773389,2,0.36035823822021484,-0.00386632839217782,-0.0002927376190200448,0.9328059554100037
33.87339100,33873391,2,0.36037981510162354,-0.0038616820238530636,-0.000282434921246022,0.9327976107597351
33.97339300,33973393,2,0.3604419529438019,-0.0038325004279613495,-0.0002771677100099623,0.9327737092971802
34.07341600,34073416,2,0.3605538308620453,-0.0038262521848082542,-0.0002892910852096975,0.932730495929718
34.17340400,34173404,2,0.36070021986961365,-0.0038107128348201513,-0.00028989813290536404,0.932673990726471
34.27344200,34273442,2,0.3607700765132904,-0.00388482422567904,-0.000291771546471864,0.932646632194519
34.37342800,34373428,2,0.3608406186103821,-0.0038463077507913113,-0.00025916387676261365,0.9326195120811462
34.47346200,34473462,2,0.36093276739120483,-0.0038003644440323114,-0.00018797899247147143,0.9325841069221497
34.57343300,34573433,2,0.36097413301467896,-0.00377628393471241,-0.00015057520067784935,0.9325681924819946
34.67339500,34673395,2,0.3610062301158905,-0.0038262405432760715,-0.000167690624948591,0.9325555562973022
34.77339800,34773398,2,0.36103546619415283,-0.0037877694703638554,-0.00013348735228646547,0.9325444102287292
34.87340200,34873402,2,0.3611762225627899,-0.0037663469556719065,-6.18182384641841e-05,0.9324899911880493
34.97342100,34973421,2,0.3612818419933319,-0.0037383087910711765,-3.816403841483407e-05,0.9324491620063782
35.07339900,35073399,2,0.36145666241645813,-0.0036958670243620872,-4.21261865994893e-05,0.9323815703392029
35.17343000,35173430,2,0.36156272888183594,-0.003675267333164811,-7.714008825132623e-05,0.9323405623435974
35.27344000,35273440,2,0.36159366369247437,-0.0036982656456530094,-6.207343540154397e-05,0.932328462600708
35.37346600,35373466,2,0.3615753948688507,-0.00374466716311872,-6.104908243287355e-05,0.932335376739502
35.47342000,35473420,2,0.3615909516811371,-0.0037544164806604385,-2.7106230845674872e-05,0.9323292970657349
35.57340500,35573405,2,0.3615835905075073,-0.0037413884419947863,6.037100320099853e-06,0.9323321580886841
35.67340500,35673405,2,0.3615928292274475,-0.0037489666137844324,-1.4458487385127228e-05,0.9323285818099976
35.77340000,35773400,2,0.3616979420185089,-0.003761263797059655,-6.013716119923629e-05,0.9322877526283264
35.87340200,35873402,2,0.3617664873600006,-0.003786751301959157,-0.00011796421313192695,0.932261049747467
35.97341400,35973414,2,0.3618176281452179,-0.0038170884363353252,-0.00016279220290016383,0.9322410821914673
36.07342700,36073427,2,0.36189135909080505,-0.003855750197544694,-0.00013817886065226048,0.9322122931480408
36.17343600,36173436,2,0.3619343042373657,-0.003854985348880291,-0.00013666803715750575,0.9321956038475037
36.27347300,36273473,2,0.3619067966938019,-0.0038569781463593245,-0.00010228670726064593,0.9322062730789185
36.37343400,36373434,2,0.36195674538612366,-0.0038696443662047386,-0.00013548359856940806,0.9321868419647217
36.47339000,36473390,2,0.3620070219039917,-0.00389779987744987,-0.00014828427811153233,0.9321671724319458
36.57340100,36573401,2,0.36199238896369934,-0.003939605783671141,-0.00015007652109488845,0.9321727156639099
36.67339100,36673391,2,0.3620080053806305,-0.00395215256139636,-0.00017811762518249452,0.932166576385498
36.77341300,36773413,2,0.3620055615901947,-0.003975279629230499,-0.0002272682322654873,0.9321674108505249
36.87341400,36873414,2,0.3620045781135559,-0.003972777631133795,-0.00018512294627726078,0.9321678280830383
36.97343600,36973436,2,0.3620239198207855,-0.003949667792767286,-0.00020658985886257142,0.9321604371070862
37.07342900,37073429,2,0.36201539635658264,-0.003979526460170746,-0.00024155090795829892,0.9321635961532593
37.17346600,37173466,2,0.3620971143245697,-0.00399985583499074,-0.0002569462521933019,0.9321317672729492
37.27342400,37273424,2,0.3621765971183777,-0.003934744279831648,-0.0002227287768619135,0.9321011900901794
37.37339000,37373390,2,0.3622913658618927,-0.003985288552939892,-0.0002265165385324508,0.9320563673973083
37.47339000,37473390,2,0.36236512660980225,-0.0039651645347476006,-0.0002310455311089754,0.9320277571678162
37.57339200,37573392,2,0.36242079734802246,-0.004018804989755154,-0.00025523462682031095,0.9320058822631836
37.67342700,37673427,2,0.36247703433036804,-0.004014390986412764,-0.0001904808304971084,0.9319840669631958
37.77341100,37773411,2,0.3625118136405945,-0.004009384196251631,-0.00017763084906619042,0.9319705367088318
37.87339200,37873392,2,0.36255115270614624,-0.003982590977102518,-0.00018724988331086934,0.9319553375244141
37.97344900,37973449,2,0.3625829815864563,-0.004013105295598507,-0.0002106662723235786,0.9319428205490112
38.07346200,38073462,2,0.36265960335731506,-0.003983707167208195,-0.0001909771526698023,0.9319131374359131
38.17342400,38173424,2,0.36269253492355347,-0.0039910003542900085,-0.0001541176752652973,0.9319003224372864
38.27339800,38273398,2,0.36270418763160706,-0.004009407013654709,-0.00017794506857171655,0.9318956732749939
38.37338900,38373389,2,0.3627041280269623,-0.003993658348917961,-0.0001735439000185579,0.9318957924842834
38.47339000,38473390,2,0.36268091201782227,-0.0039908066391944885,-0.00021648540860041976,0.9319047927856445
38.57342100,38573421,2,0.36270007491111755,-0.004002914763987064,-0.0002815556654240936,0.9318972826004028
38.67340200,38673402,2,0.36276644468307495,-0.004044859204441309,-0.0002590662334114313,0.9318712949752808
38.77343200,38773432,2,0.36283716559410095,-0.0040685939602553844,-0.00025363321765325963,0.931843638420105
38.87344200,38873442,2,0.3628877103328705,-0.004045969340950251,-0.00026610729400999844,0.9318240284919739
38.97346500,38973465,2,0.362960547208786,-0.00408139917999506,-0.0002590394869912416,0.9317955374717712
39.07342000,39073420,2,0.3630182445049286,-0.004142151679843664,-0.00028327375184744596,0.931772768497467
39.17339200,39173392,2,0.3630160987377167,-0.004127861000597477,-0.0003217794874217361,0.9317736625671387
39.27339400,39273394,2,0.3630724549293518,-0.004084783606231213,-0.00024770342861302197,0.9317519068717957
39.37338900,39373389,2,0.3630790710449219,-0.00410872045904398,-0.00022801604063715786,0.9317492246627808
39.47341600,39473416,2,0.36306554079055786,-0.0041068256832659245,-0.0002025553403655067,0.9317545294761658
39.57341900,39573419,2,0.3630656599998474,-0.004099193494766951,-0.00016972233424894512,0.9317545294761658
39.67344000,39673440,2,0.3630712330341339,-0.004069404676556587,-0.00021108970395289361,0.9317524433135986
39.77345900,39773459,2,0.3631323277950287,-0.004065216984599829,-0.00018908658239524812,0.9317286610603333
39.87346900,39873469,2,0.36312538385391235,-0.004037116654217243,-0.00019273144425824285,0.9317315220832825
39.97342500,39973425,2,0.3632560074329376,-0.003998454660177231,-0.00020807333930861205,0.9316807389259338
40.07339700,40073397,2,0.3633190095424652,-0.003995458595454693,-0.00019629656162578613,0.9316562414169312
40.17339600,40173396,2,0.36336952447891235,-0.003948210272938013,-0.00017090362962335348,0.9316366910934448
40.27340700,40273407,2,0.36334654688835144,-0.004025441128760576,-0.0001046783581841737,0.9316453337669373
40.37342200,40373422,2,0.3633255362510681,-0.003980483394116163,-9.269083966501057e-05,0.9316537380218506
40.47341100,40473411,2,0.3632959723472595,-0.004020574036985636,-0.00010035573359346017,0.9316651225090027
40.57343900,40573439,2,0.36326470971107483,-0.004030907526612282,-8.756695024203509e-05,0.9316772222518921
40.67344500,40673445,2,0.3632133901119232,-0.004019729793071747,-9.000126738101244e-05,0.9316973090171814
40.77346600,40773466,2,0.3631996512413025,-0.004044789355248213,-0.00010427164670545608,0.9317025542259216
40.87343200,40873432,2,0.36321279406547546,-0.004010356497019529,-0.00011724262003554031,0.9316975474357605
40.97339000,40973390,2,0.3633389472961426,-0.004053160548210144,-0.0001275768445339054,0.9316481947898865
41.07339000,41073390,2,0.3633524775505066,-0.004050743766129017,-1.8088512661051936e-05,0.9316429495811462
41.17339400,41173394,2,0.3633596897125244,-0.00400105956941843,-4.5640514144906774e-05,0.9316403269767761
41.27341800,41273418,2,0.36332130432128906,-0.003912461455911398,-4.024657391710207e-05,0.9316557049751282
41.37340600,41373406,2,0.3632868230342865,-0.003957265987992287,-4.717851697932929e-05,0.9316689372062683
41.47343800,41473438,2,0.3633092939853668,-0.0039453813806176186,-2.186518395319581e-05,0.9316602349281311
41.57343500,41573435,2,0.363301545381546,-0.003976813517510891,-5.051519474363886e-05,0.9316630959510803
41.67346800,41673468,2,0.36328476667404175,-0.004015554673969746,-6.123867933638394e-05,0.9316694736480713
41.77342300,41773423,2,0.36328360438346863,-0.004023904912173748,-6.9621105467376765e-06,0.9316698908805847
41.87339200,41873392,2,0.3632804751396179,-0.003990450873970985,-9.946841601049528e-06,0.9316712617874146
41.97339500,41973395,2,0.36328238248825073,-0.003991101402789354,1.6248528481810354e-05,0.9316705465316772
42.07339500,42073395,2,0.3633085787296295,-0.003934372682124376,3.205690154572949e-05,0.931660532951355
42.17342000,42173420,2,0.36334019899368286,-0.003980641253292561,8.380767394555733e-05,0.9316480159759521
42.27341000,42273410,2,0.3633587062358856,-0.003958467394113541,0.00010158987424802035,0.9316409230232239
42.37343700,42373437,2,0.3634510636329651,-0.003933469764888287,6.506693898700178e-05,0.9316049814224243
42.47343400,42473434,2,0.3634752929210663,-0.00397336995229125,0.0001029580962494947,0.9315953850746155
42.57346600,42573466,2,0.3634741008281708,-0.003893741173669696,3.688916694954969e-05,0.9315961599349976
42.67341900,42673419,2,0.3634960353374481,-0.003969431389123201,3.7289548345142975e-05,0.931587278842926
42.77339000,42773390,2,0.36349061131477356,-0.003907317761331797,6.343406857922673e-05,0.931589663028717
42.87339200,42873392,2,0.36353206634521484,-0.003975945524871349,6.844844756415114e-05,0.931573212146759
42.97339100,42973391,2,0.3635227382183075,-0.003957594279199839,5.826089909533039e-05,0.9315769076347351
43.07342100,43073421,2,0.363511323928833,-0.003995629958808422,2.079572186630685e-05,0.9315811991691589
43.17341500,43173415,2,0.3635232746601105,-0.003956430125981569,1.203455394716002e-05,0.9315767288208008
43.27339300,43273393,2,0.36360493302345276,-0.003948673605918884,1.879638512036763e-05,0.9315448999404907
43.37344600,43373446,2,0.3635968267917633,-0.003923867829144001,4.9215450417250395e-06,0.9315481781959534
43.47346200,43473462,2,0.3636417090892792,-0.003908216953277588,-6.822549494245322e-06,0.9315307140350342
43.57342300,43573423,2,0.36365413665771484,-0.0038786260411143303,-1.1831462870759424e-05,0.9315259456634521
43.67339800,43673398,2,0.36367011070251465,-0.0038453172892332077,1.6191557733691297e-05,0.9315198659896851
43.77339200,43773392,2,0.36366745829582214,-0.003817004384472966,2.076972350550932e-06,0.9315209984779358
43.87339300,43873393,2,0.36364030838012695,-0.00380980153568089,-3.3560176234459504e-05,0.9315316677093506
43.97342200,43973422,2,0.36366650462150574,-0.003837588243186474,-2.1479057977558114e-05,0.9315212965011597
44.07340000,44073400,2,0.3636162579059601,-0.0038100779056549072,1.1638827345450409e-05,0.9315410256385803
44.17343700,44173437,2,0.3635781705379486,-0.0037816569674760103,5.0977807404706255e-05,0.9315560460090637
44.27344100,44273441,2,0.36359646916389465,-0.003788827685639262,4.1163701098412275e-05,0.9315488338470459
44.37346800,44373468,2,0.3636588454246521,-0.0038412774447351694,8.106455788947642e-05,0.9315242767333984
44.47342100,44473421,2,0.3636845350265503,-0.0038009188137948513,7.589819142594934e-05,0.9315143823623657
44.57340300,44573403,2,0.3637504577636719,-0.0037738389801234007,0.00013022709754295647,0.9314887523651123
44.67339300,44673393,2,0.36375540494918823,-0.0037323972210288048,9.735884668771178e-05,0.9314870238304138
44.77338900,44773389,2,0.3637612760066986,-0.003727191826328635,0.0001163404158432968,0.9314847588539124
44.87341700,44873417,2,0.36373162269592285,-0.0037061949260532856,9.143321949522942e-05,0.9314964413642883
44.97340900,44973409,2,0.3637205958366394,-0.003688613185659051,9.238107304554433e-05,0.9315007925033569
45.07343800,45073438,2,0.3637876808643341,-0.003692323574796319,0.00010099988139700145,0.9314745664596558
45.17343700,45173437,2,0.36380645632743835,-0.0036958353593945503,9.55109135247767e-05,0.9314672350883484
45.27347100,45273471,2,0.3638491928577423,-0.003670001868158579,0.00011061991972383112,0.9314506649971008
45.37342200,45373422,2,0.3638908565044403,-0.003645152784883976,0.0001325358753092587,0.9314344525337219
45.47339300,45473393,2,0.36391186714172363,-0.003693717997521162,0.0001558548683533445,0.9314260482788086
45.57339300,45573393,2,0.36391305923461914,-0.0036999231670051813,0.00019031131523661315,0.9314255714416504
45.67339500,45673395,2,0.36388352513313293,-0.003615947440266609,0.00021732143068220466,0.9314374327659607
45.77341600,45773416,2,0.3638595938682556,-0.003651468548923731,0.0001763816107995808,0.9314466118812561
45.87340200,45873402,2,0.3638640344142914,-0.0036796526983380318,0.00018143920169677585,0.9314447641372681
45.97339500,45973395,2,0.36386844515800476,-0.0036606495268642902,0.00014214236580301076,0.9314431548118591
46.07343100,46073431,2,0.36386388540267944,-0.0036645850632339716,0.0001417527673766017,0.9314448833465576
46.17346600,46173466,2,0.36382853984832764,-0.0037071832921355963,0.00013566826237365603,0.9314585328102112
46.27342800,46273428,2,0.36382409930229187,-0.00375270820222795,0.0001410136028425768,0.9314600825309753
46.37339100,46373391,2,0.3637920022010803,-0.0037875829730182886,0.0001243638980668038,0.9314724802970886
46.47339000,46473390,2,0.36381620168685913,-0.003736970480531454,0.00010223895515082404,0.9314632415771484
46.57340000,46573400,2,0.36386701464653015,-0.0037364859599620104,8.568980410927907e-05,0.9314433932304382
46.67341600,46673416,2,0.36386793851852417,-0.003761526895686984,3.7526133382925764e-05,0.9314429759979248
46.77341400,46773414,2,0.36385729908943176,-0.003755801822990179,3.048893813684117e-05,0.9314471483230591
46.87343700,46873437,2,0.3638925850391388,-0.00377978989854455,1.2697544661932625e-05,0.9314332604408264
46.97343400,46973434,2,0.3639248311519623,-0.0037828776985406876,-1.9597078789956868e-05,0.931420624256134
47.07346400,47073464,2,0.3638761043548584,-0.003761863335967064,-2.5372606614837423e-05,0.9314397573471069
47.17342400,47173424,2,0.3637988269329071,-0.0037127179093658924,-5.3878226026427e-05,0.9314701557159424
47.27339500,47273395,2,0.3637097477912903,-0.003703418420627713,-2.124593811458908e-05,0.9315049648284912
47.37339000,47373390,2,0.3636680543422699,-0.0037438450381159782,-1.824154969654046e-05,0.9315210580825806
47.47339100,47473391,2,0.36367863416671753,-0.003744991961866617,-5.050857362220995e-05,0.9315169453620911
47.57342800,47573428,2,0.36368027329444885,-0.003773493692278862,-5.174756370251998e-05,0.931516170501709
47.67340400,47673404,2,0.36365383863449097,-0.0037478534504771233,-3.723596819327213e-05,0.9315266013145447
47.77343300,47773433,2,0.3635968863964081,-0.0037538823671638966,-5.625441554002464e-05,0.9315488338470459
47.87343800,47873438,2,0.36353158950805664,-0.0037737584207206964,-7.811034447513521e-05,0.9315742254257202
47.97346900,47973469,2,0.3634794056415558,-0.0038341206964105368,-6.151713023427874e-05,0.9315943121910095
48.07341900,48073419,2,0.36346152424812317,-0.0038581930566579103,-7.238354010041803e-05,0.9316012263298035
48.17339200,48173392,2,0.363429456949234,-0.003953741397708654,-0.00013798708096146584,0.9316133260726929
48.27339700,48273397,2,0.36344239115715027,-0.003963474649935961,-0.00011584483581827953,0.931608259677887
48.37338900,48373389,2,0.36341360211372375,-0.003957056440412998,-0.00012439617421478033,0.9316194653511047
48.47341600,48473416,2,0.36342427134513855,-0.003962919116020203,-0.00013699974806513637,0.9316152930259705
48.57341100,48573411,2,0.3634456694126129,-0.003986591938883066,-0.00020237072021700442,0.9316068291664124
48.67339000,48673390,2,0.36352479457855225,-0.003985013347119093,-0.00019516050815582275,0.9315759539604187
48.77344800,48773448,2,0.363552063703537,-0.003995921928435564,-0.00017989487969316542,0.9315652847290039
48.87346800,48873468,2,0.36359483003616333,-0.003993240650743246,-0.00020113206119276583,0.9315485954284668
48.97342600,48973426,2,0.3635736405849457,-0.003917233552783728,-0.0002104477898683399,0.9315571784973145
49.07339000,49073390,2,0.36348751187324524,-0.0038986338768154383,-0.00021985036437399685,0.9315909147262573
49.17339200,49173392,2,0.36345377564430237,-0.0038739002775400877,-0.0002544622984714806,0.9316041469573975
49.27340000,49273400,2,0.36341479420661926,-0.003872944274917245,-0.0002692938141990453,0.9316193461418152
49.37341700,49373417,2,0.3633863925933838,-0.0038558009546250105,-0.0003059447626583278,0.9316304922103882
49.47340100,49473401,2,0.36341238021850586,-0.0038798635359853506,-0.00030499050626531243,0.9316202402114868
49.57344200,49573442,2,0.36343297362327576,-0.003935766872018576,-0.0002807637501973659,0.9316120147705078
49.67346300,49673463,2,0.36347898840904236,-0.0038752888794988394,-0.00029185423045419157,0.9315943121910095
49.77350000,49773500,2,0.36356431245803833,-0.0039551882073283195,-0.00032682440360076725,0.9315606355667114
49.87342600,49873426,2,0.36363485455513,-0.003981609363108873,-0.00035600579576566815,0.9315329790115356
49.97339300,49973393,2,0.36370208859443665,-0.003973032347857952,-0.0003781830018851906,0.9315067529678345
50.07339000,50073390,2,0.36371856927871704,-0.003945039119571447,-0.0003617366892285645,0.9315004348754883
50.17339600,50173396,2,0.3637031316757202,-0.0039327372796833515,-0.00036720969364978373,0.9315065145492554
50.27342300,50273423,2,0.3637045919895172,-0.00391262024641037,-0.0003977333544753492,0.9315060377120972
50.37341300,50373413,2,0.36373016238212585,-0.00392904644832015,-0.0004126566054765135,0.9314959645271301
50.47344200,50473442,2,0.36372044682502747,-0.003941595554351807,-0.0003742935077752918,0.931499719619751
50.57344100,50573441,2,0.3637133836746216,-0.003959235269576311,-0.0003609575214795768,0.9315024018287659
50.67346600,50673466,2,0.36375999450683594,-0.003936940338462591,-0.00034584756940603256,0.9314843416213989
50.77344000,50773440,2,0.36384573578834534,-0.0039644124917685986,-0.00033319403883069754,0.9314507246017456
50.87339400,50873394,2,0.36386600136756897,-0.003967123571783304,-0.0003303976554889232,0.9314427971839905
50.97340100,50973401,2,0.36392349004745483,-0.003977382089942694,-0.00034177591442130506,0.9314202666282654
51.07338900,51073389,2,0.36397871375083923,-0.003939039073884487,-0.0002814006293192506,0.931398868560791
51.17344100,51173441,2,0.36400076746940613,-0.003941823728382587,-0.0002943701983895153,0.9313902258872986
51.27340400,51273404,2,0.36406388878822327,-0.003930088598281145,-0.00026679690927267075,0.9313656687736511
51.37338900,51373389,2,0.3641106188297272,-0.0038723258767277002,-0.0003001561854034662,0.9313476085662842
51.47343500,51473435,2,0.36414778232574463,-0.0038074434269219637,-0.00032622722210362554,0.9313333630561829
51.57346600,51573466,2,0.36415186524391174,-0.003765784204006195,-0.00034335831878706813,0.9313319325447083
51.67342700,51673427,2,0.3641204833984375,-0.003745034569874406,-0.00033301085932180285,0.9313442707061768
51.77338900,51773389,2,0.36410993337631226,-0.0037170695140957832,-0.000354465504642576,0.9313485026359558
51.87339100,51873391,2,0.36410266160964966,-0.0037175787147134542,-0.00030485575553029776,0.931351363658905
51.97339500,51973395,2,0.3641052544116974,-0.0037526870146393776,-0.0002532449143473059,0.9313502311706543
52.07341600,52073416,2,0.36413002014160156,-0.003669438185170293,-0.00026835655444301665,0.9313408732414246
52.17340600,52173406,2,0.364120751619339,-0.0036548550706356764,-0.0003088693192694336,0.9313445091247559
52.27344000,52273440,2,0.3641029894351959,-0.00365215796045959,-0.0002978707489091903,0.9313514828681946
52.37343300,52373433,2,0.36411312222480774,-0.003640793263912201,-0.0003545565123204142,0.9313475489616394
52.47346500,52473465,2,0.3641085922718048,-0.0036136030685156584,-0.0003124164359178394,0.9313494563102722
52.57342800,52573428,2,0.3641737103462219,-0.0036223900970071554,-0.00029360654298216105,0.9313239455223083
52.67339300,52673393,2,0.36428332328796387,-0.0035447380505502224,-0.00033165267086587846,0.9312813878059387
52.77339000,52773390,2,0.36438360810279846,-0.003536297706887126,-0.0003634918830357492,0.9312421679496765
52.87339400,52873394,2,0.3644530773162842,-0.003581194207072258,-0.00040330240153707564,0.9312147498130798
52.97342000,52973420,2,0.36454570293426514,-0.0035331042017787695,-0.0003793748328462243,0.9311786890029907
53.07340900,53073409,2,0.36455532908439636,-0.0035193967632949352,-0.0003593925212044269,0.9311749935150146
53.17343800,53173438,2,0.3646315336227417,-0.0035211530048400164,-0.00038991650217212737,0.9311451315879822
53.27343300,53273433,2,0.36462268233299255,-0.0034959022887051105,-0.00040054271812550724,0.9311487078666687
53.37346900,53373469,2,0.36462080478668213,-0.00347925559617579,-0.0004278988635633141,0.9311494827270508
53.47342400,53473424,2,0.3646020293235779,-0.003507787361741066,-0.00039644798380322754,0.9311567544937134
53.57339400,53573394,2,0.36459872126579285,-0.0034773715306073427,-0.0004006786912214011,0.931158185005188
53.67339400,53673394,2,0.3646109402179718,-0.003498086240142584,-0.0003524582425598055,0.9311532974243164
53.77338900,53773389,2,0.36464017629623413,-0.003490747883915901,-0.0003726123250089586,0.9311419129371643
53.87341600,53873416,2,0.36469700932502747,-0.0035211758222430944,-0.00038331211544573307,0.9311195015907288
53.97342300,53973423,2,0.3647867739200592,-0.003541144309565425,-0.0003577524912543595,0.9310842752456665
54.07339000,54073390,2,0.36482539772987366,-0.0035175951197743416,-0.00036540772998705506,0.9310692548751831
54.17343300,54173433,2,0.36484137177467346,-0.003536262083798647,-0.000390627421438694,0.9310628771781921
54.27347500,54273475,2,0.36480817198753357,-0.0035535339266061783,-0.0003473194083198905,0.9310758709907532
54.37342700,54373427,2,0.36479857563972473,-0.003524737898260355,-0.00043082874617539346,0.9310796856880188
54.47339500,54473395,2,0.3647293150424957,-0.003517629113048315,-0.0004205053555779159,0.9311068654060364
54.57339400,54573394,2,0.36470964550971985,-0.0035170898772776127,-0.00038526274147443473,0.9311145544052124
54.67340700,54673407,2,0.36469072103500366,-0.003480983432382345,-0.0003433548554312438,0.9311221241950989
54.77341700,54773417,2,0.36466872692108154,-0.003454507328569889,-0.0004008678370155394,0.9311308264732361
54.87341100,54873411,2,0.3646671175956726,-0.0034339330159127712,-0.0004048574483022094,0.9311315417289734
54.97343600,54973436,2,0.3646758198738098,-0.003459366038441658,-0.00037190350121818483,0.9311280250549316
55.07346400,55073464,2,0.36467960476875305,-0.0034950918052345514,-0.00034470047103241086,0.9311264157295227
55.17346800,55173468,2,0.364690363407135,-0.003510852577164769,-0.00028354741516523063,0.9311221837997437
55.27342300,55273423,2,0.36470556259155273,-0.0034995023161172867,-0.0003081783652305603,0.9311162829399109
55.37339200,55373392,2,0.36478307843208313,-0.00351608544588089,-0.0002988289052154869,0.9310858249664307
55.47339100,55473391,2,0.36480697989463806,-0.003451199270784855,-0.00031622135429643095,0.93107670545578
55.57339300,55573393,2,0.36479735374450684,-0.0034269883763045073,-0.0002929686161223799,0.9310805797576904
55.67342800,55673428,2,0.36481353640556335,-0.0033993541728705168,-0.0002870592870749533,0.931074321269989
55.77340700,55773407,2,0.3648015558719635,-0.0033549624495208263,-0.00028650229796767235,0.9310792088508606
55.87343700,55873437,2,0.36479708552360535,-0.003331204643473029,-0.0002929305483121425,0.9310810565948486
55.97343800,55973438,2,0.3648178279399872,-0.0033366885036230087,-0.00028280229889787734,0.9310728907585144
56.07346400,56073464,2,0.36479514837265015,-0.003312250366434455,-0.0002761578653007746,0.9310818910598755
56.17342000,56173420,2,0.3647805154323578,-0.0032278187572956085,-0.0002677414158824831,0.9310879111289978
56.27339700,56273397,2,0.36479681730270386,-0.003222891828045249,-0.00031374485115520656,0.9310815334320068
56.37339900,56373399,2,0.36485815048217773,-0.0031817364506423473,-0.00034871246316470206,0.9310576319694519
56.47339100,56473391,2,0.36489546298980713,-0.003217772813513875,-0.0002968615444842726,0.9310429096221924
56.57341900,56573419,2,0.3649204671382904,-0.0031846454367041588,-0.00023075458011589944,0.931033194065094
56.67340000,56673400,2,0.3649345338344574,-0.003155396319925785,-0.00020054950437042862,0.9310278296470642
56.77339100,56773391,2,0.36493274569511414,-0.003160472260788083,-0.0001777622092049569,0.9310284852981567
56.87343500,56873435,2,0.3649260699748993,-0.003127108560875058,-0.00021120719611644745,0.9310312271118164
56.97346500,56973465,2,0.3649463653564453,-0.0030683374498039484,-0.00018889685452450067,0.9310234785079956
57.07343100,57073431,2,0.3650348484516144,-0.0031277777161449194,-0.0001353797852061689,0.930988609790802
57.17339000,57173390,2,0.36506712436676025,-0.003078125650063157,-9.326601139036939e-05,0.9309760928153992
57.27339300,57273393,2,0.3651178181171417,-0.003092184429988265,-9.71819317783229e-05,0.9309561848640442
57.37339700,57373397,2,0.36515381932258606,-0.0031154353637248278,-9.266973211197183e-05,0.9309419989585876
57.47342200,57473422,2,0.36515945196151733,-0.003197959391400218,-0.00013689369370695204,0.9309394955635071
57.57341100,57573411,2,0.3651873767375946,-0.0031993179582059383,-0.00013716753164771944,0.9309285283088684
57.67345000,57673450,2,0.36522889137268066,-0.003230313304811716,-0.00018883981101680547,0.9309121370315552
57.77343000,57773430,2,0.3651730418205261,-0.003223659237846732,-0.0001267061015823856,0.9309340715408325
57.87346400,57873464,2,0.3651674687862396,-0.003235850017517805,-0.0001783511252142489,0.9309362173080444
57.97342400,57973424,2,0.3651863932609558,-0.003255761694163084,-0.00017180803115479648,0.9309287071228027
58.07338900,58073389,2,0.3652048707008362,-0.003273792564868927,-0.00017547464813105762,0.9309213757514954
58.17339000,58173390,2,0.3651772737503052,-0.0033294600434601307,-0.0001755946286721155,0.9309320449829102
58.27339700,58273397,2,0.3651895225048065,-0.0033443947322666645,-0.0002030168252531439,0.9309271574020386
58.37341900,58373419,2,0.36520400643348694,-0.0033277322072535753,-0.000199457848793827,0.9309215545654297
58.47340800,58473408,2,0.36521708965301514,-0.0033168718218803406,-0.00025188521249219775,0.930916428565979
58.57343400,58573434,2,0.36520591378211975,-0.0033249855041503906,-0.00023811112623661757,0.9309207797050476
58.67345200,58673452,2,0.3651867210865021,-0.003309018909931183,-0.00020944650168530643,0.9309284090995789
58.77346500,58773465,2,0.3652109205722809,-0.0033542581368237734,-0.0002314711600774899,0.9309187531471252
58.87342200,58873422,2,0.3651980757713318,-0.003391495905816555,-0.00027632497949525714,0.9309236407279968
58.97340700,58973407,2,0.3651961386203766,-0.003324878867715597,-0.00024840739206410944,0.930924654006958
59.07339000,59073390,2,0.3652056157588959,-0.0033373089972883463,-0.00028199766529724,0.9309208393096924
59.17339000,59173390,2,0.3652386963367462,-0.003373417304828763,-0.00029303994961082935,0.9309077262878418
59.27341900,59273419,2,0.3652796447277069,-0.003406546777114272,-0.00031423629843629897,0.9308915734291077
59.37340700,59373407,2,0.36531367897987366,-0.003376422915607691,-0.0003366473247297108,0.9308782815933228
59.47339000,59473390,2,0.36534184217453003,-0.0033733611926436424,-0.00031405803747475147,0.9308672547340393
59.57343300,59573433,2,0.36541783809661865,-0.003348288591951132,-0.0003268861910328269,0.9308375120162964
59.67347100,59673471,2,0.36547717452049255,-0.003382593160495162,-0.000380749290343374,0.9308140873908997
59.77342100,59773421,2,0.3654569983482361,-0.0034585234243422747,-0.00039321149233728647,0.9308217167854309
59.87339700,59873397,2,0.3654554486274719,-0.0035055731423199177,-0.0004178234376013279,0.9308221340179443
59.97340800,59973408,2,0.36545899510383606,-0.003512438852339983,-0.0003897436545230448,0.9308207035064697
60.07339000,60073390,2,0.3655383586883545,-0.003464175621047616,-0.0003424373862799257,0.9307897686958313
60.17341600,60173416,2,0.36552050709724426,-0.0034987591207027435,-0.00036030373303219676,0.9307966232299805
60.27340700,60273407,2,0.3655407130718231,-0.003539574332535267,-0.0003600730560719967,0.9307885766029358
60.37343800,60373438,2,0.3656243681907654,-0.0036145320627838373,-0.000320885592373088,0.9307554364204407
60.47343400,60473434,2,0.365631103515625,-0.0036277486942708492,-0.0003506808716338128,0.930752694606781
60.57346300,60573463,2,0.36559391021728516,-0.003593762870877981,-0.00035298900911584496,0.9307674765586853
60.67342800,60673428,2,0.3656001389026642,-0.0035260547883808613,-0.000343021412845701,0.9307652711868286
60.77338900,60773389,2,0.3656500279903412,-0.003495433833450079,-0.0003925773489754647,0.9307457804679871
60.87339200,60873392,2,0.3656875491142273,-0.0034947034437209368,-0.0004415942239575088,0.9307309985160828
60.97339400,60973394,2,0.3655734360218048,-0.0034745894372463226,-0.0004808239173144102,0.9307758808135986
61.07341800,61073418,2,0.36551427841186523,-0.0034998985938727856,-0.00045158335706219077,0.9307990670204163
61.17340800,61173408,2,0.3655310273170471,-0.0034953218419104815,-0.00042333288001827896,0.930792510509491
61.27344400,61273444,2,0.3655606508255005,-0.0035069845616817474,-0.00041220130515284836,0.930780827999115
61.37344800,61373448,2,0.365597128868103,-0.0035265234764665365,-0.00039479791303165257,0.9307664036750793
61.47346200,61473462,2,0.3655996322631836,-0.0035591921769082546,-0.00036713643930852413,0.9307653307914734
61.57342300,61573423,2,0.3656044602394104,-0.003570298897102475,-0.00034546401002444327,0.9307634234428406
61.67339700,61673397,2,0.3655664026737213,-0.0035764281637966633,-0.00032867849222384393,0.9307783246040344
61.77339100,61773391,2,0.3655776083469391,-0.0035386988893151283,-0.0003309301973786205,0.9307740926742554
61.87339400,61873394,2,0.3656083941459656,-0.0035565379075706005,-0.00031475769355893135,0.9307619333267212
61.97342200,61973422,2,0.36563706398010254,-0.003532598027959466,-0.0003372943901922554,0.9307507276535034
62.07341000,62073410,2,0.3656422793865204,-0.003522136714309454,-0.0003033381362911314,0.9307487607002258
62.17339200,62173392,2,0.3656347990036011,-0.003509873989969492,-0.0003276325878687203,0.9307517409324646
62.27343900,62273439,2,0.3656020164489746,-0.0035108071751892567,-0.0003643072850536555,0.9307645559310913
62.37346500,62373465,2,0.36558350920677185,-0.0035205059684813023,-0.00032076131901703775,0.9307718276977539
62.47342000,62473420,2,0.36556917428970337,-0.0035437617916613817,-0.00032536403159610927,0.930777370929718
62.57339300,62573393,2,0.36552518606185913,-0.0035760162863880396,-0.0003465161717031151,0.9307945370674133
62.67340000,62673400,2,0.3654715120792389,-0.00353511911816895,-0.0003859295102301985,0.9308157563209534
62.77340200,62773402,2,0.3654618561267853,-0.003551885951310396,-0.0004008565447293222,0.9308194518089294
62.87343600,62873436,2,0.3654896914958954,-0.0034938501194119453,-0.00039991209632717073,0.9308087229728699
62.97340800,62973408,2,0.3655945658683777,-0.0034746190067380667,-0.0004183178534731269,0.9307676553726196
63.07343600,63073436,2,0.36560627818107605,-0.0034784080926328897,-0.0004327631613705307,0.9307630062103271
63.17344000,63173440,2,0.3656586706638336,-0.003454558551311493,-0.00044068152783438563,0.9307425022125244
63.27347000,63273470,2,0.36566731333732605,-0.003482021391391754,-0.00043963734060525894,0.9307389855384827
63.37342100,63373421,2,0.3656849265098572,-0.0035327570512890816,-0.0004834382561966777,0.9307318925857544
63.47339000,63473390,2,0.3656531870365143,-0.0035791879054158926,-0.00043002533493563533,0.9307441711425781
63.57339300,63573393,2,0.36563587188720703,-0.003545137355104089,-0.000439247494796291,0.9307511448860168
63.67339400,63673394,2,0.36563801765441895,-0.0035291402600705624,-0.0004432065470609814,0.93075031042099
63.77341600,63773416,2,0.36568957567214966,-0.0035267367493361235,-0.0004345423076301813,0.9307301044464111
63.87340500,63873405,2,0.3657134771347046,-0.003539193654432893,-0.000454650551546365,0.9307206273078918
63.97344100,63973441,2,0.3657539188861847,-0.0035150586627423763,-0.00045636252616532147,0.9307048320770264
64.07343000,64073430,2,0.36577901244163513,-0.0035233027301728725,-0.0004757615097332746,0.9306949377059937
64.17346100,64173461,2,0.36585110425949097,-0.003481852589175105,-0.0004616443475242704,0.9306667447090149
64.27342600,64273426,2,0.3658590018749237,-0.0035040404181927443,-0.0004834603751078248,0.9306635856628418
64.37338900,64373389,2,0.36590051651000977,-0.0034779999405145645,-0.00043052987894043326,0.9306473731994629
64.47339100,64473391,2,0.36588311195373535,-0.0034734385553747416,-0.0003965352661907673,0.9306542277336121
64.57340300,64573403,2,0.36585384607315063,-0.0035547385923564434,-0.0003438981657382101,0.9306654930114746
64.67342600,64673426,2,0.36582082509994507,-0.0036033294163644314,-0.0002916803932748735,0.9306782484054565
64.77339900,64773399,2,0.3658018410205841,-0.003596127964556217,-0.0003184923843946308,0.9306857585906982
64.87343100,64873431,2,0.3658444285392761,-0.0036129956133663654,-0.00029308334342204034,0.9306689500808716
64.97343600,64973436,2,0.3658810257911682,-0.0035857963375747204,-0.00032230940996669233,0.9306546449661255
65.07346400,65073464,2,0.36587288975715637,-0.003566672094166279,-0.0003871091175824404,0.9306579232215881
65.17341900,65173419,2,0.3658953607082367,-0.00359835522249341,-0.0003945667122025043,0.9306489825248718
65.27340600,65273406,2,0.3659541606903076,-0.003629291895776987,-0.00044497326598502696,0.9306256771087646
65.37340200,65373402,2,0.3659874200820923,-0.0036349354777485132,-0.0004797351430170238,0.9306125640869141
65.47339700,65473397,2,0.3660374879837036,-0.0036112708039581776,-0.000461416260804981,0.930592954158783
65.57342400,65573424,2,0.3660721480846405,-0.0036204508505761623,-0.00045064211008138955,0.9305793046951294
65.67342000,65673420,2,0.366091251373291,-0.0036265491507947445,-0.0004809133824892342,0.9305717349052429
65.77342600,65773426,2,0.3661104440689087,-0.003659508191049099,-0.00047591180191375315,0.9305641055107117
65.87343900,65873439,2,0.3661370277404785,-0.0036432361230254173,-0.0004858097527176142,0.930553674697876
65.97347500,65973475,2,0.36614298820495605,-0.0036875393707305193,-0.0004996892530471087,0.9305511713027954
66.07341900,66073419,2,0.36614763736724854,-0.00368669955059886,-0.0004795731510967016,0.9305493235588074
66.17339400,66173394,2,0.3661530315876007,-0.0036563912872225046,-0.0004528164572548121,0.9305473566055298
