timestamp,TimeUS,DesRoll,Roll,DesPitch,Pitch,DesYaw,Yaw,ErrRP,ErrYaw,AEKF
8.44625900,8446259,0.0,-0.04,0.0,0.41000000000000003,0.0,0.0,1.0,1.0,0
8.54611700,8546117,0.0,-0.04,0.0,0.41000000000000003,137.11,137.11,1.0,0.8,0
8.64618700,8646187,0.0,-0.04,0.0,0.41000000000000003,137.03,137.03,0.8,0.64,0
8.74612600,8746126,0.0,-0.04,0.0,0.41000000000000003,137.01,137.01,0.8,0.51,0
8.84614900,8846149,0.0,-0.05,0.0,0.41000000000000003,135.69,135.69,0.64,0.46,0
8.94605100,8946051,0.0,-0.06,0.0,0.4,134.76,134.76,0.64,0.41000000000000003,0
9.04598000,9045980,0.0,-0.06,0.0,0.4,134.78,134.78,0.51,0.33,0
9.14597000,9145970,0.0,-0.06,0.0,0.39,134.92000000000002,134.92000000000002,0.51,0.27,0
9.24594700,9245947,0.0,-0.06,0.0,0.39,135.09,135.09,0.4,0.22,0
9.34601400,9346014,0.0,-0.06,0.0,0.39,135.26,135.26,0.4,0.18,0
9.44623100,9446231,0.0,-0.06,0.0,0.4,135.37,135.37,0.32,0.15,0
9.54624000,9546240,0.0,-0.06,0.0,0.4,135.41,135.41,0.32,0.12,0
9.64624000,9646240,0.0,-0.05,0.0,0.4,135.59,135.59,0.26,0.1,0
9.74623100,9746231,0.0,-0.05,0.0,0.39,135.78,135.78,0.26,0.09,0
9.84617400,9846174,0.0,-0.05,0.0,0.39,135.9,135.9,0.2,0.07,0
9.94613000,9946130,0.0,-0.05,0.0,0.39,136.02,136.02,0.2,0.06,0
10.04605800,10046058,0.0,-0.05,0.0,0.39,136.16,136.16,0.16,0.06,0
10.14603900,10146039,0.0,-0.05,0.0,0.39,136.32,136.32,0.16,0.05,0
10.24607300,10246073,0.0,-0.05,0.0,0.39,136.49,136.49,0.13,0.05,0
10.34627400,10346274,0.0,-0.05,0.0,0.39,136.49,136.49,0.13,0.04,0
10.44630800,10446308,-0.05,-0.15,-0.01,0.36,359.99,0.0,0.1,0.03,3
10.54647300,10546473,-0.02,-0.15,0.0,0.36,359.99,0.0,0.1,0.03,3
10.64654100,10646541,-0.01,-0.15,0.0,0.36,359.99,0.0,0.08,0.02,3
10.74648700,10746487,0.0,-0.15,0.0,0.36,359.99,0.0,0.08,0.03,3
10.84649000,10846490,0.0,-0.14,0.0,0.36,359.99,0.0,0.06,0.02,3
10.94609200,10946092,0.0,-0.14,0.0,0.37,359.99,0.0,0.06,0.02,3
11.04611900,11046119,0.0,-0.15,0.0,0.36,359.99,0.0,0.05,0.02,3
11.14611100,11146111,0.0,-0.14,0.0,0.36,359.99,0.0,0.05,0.01,3
11.24624500,11246245,0.0,-0.14,0.0,0.36,359.99,0.0,0.04,0.01,3
11.34631400,11346314,0.0,-0.14,0.0,0.36,359.99,0.0,0.04,0.01,3
11.44648900,11446489,0.0,-0.13,0.0,0.37,359.99,0.0,0.03,0.01,3
11.54647900,11546479,0.0,-0.12,0.0,0.37,359.99,0.0,0.03,0.01,3
11.64648100,11646481,0.0,-0.12,0.0,0.38,359.99,0.0,0.02,0.04,3
11.74648100,11746481,0.0,-0.11,0.0,0.39,359.98,359.99,0.02,0.1,3
11.84610000,11846100,0.0,-0.11,0.0,0.39,359.98,359.99,0.02,0.08,3
11.94612600,11946126,0.0,-0.11,0.0,0.4,133.47,133.47,0.02,0.08,3
12.04613600,12046136,0.0,-0.1,0.0,0.4,133.68,133.68,0.01,0.07,3
12.14628200,12146282,0.0,-0.1,0.0,0.4,134.12,134.12,0.01,0.06,3
12.24630000,12246300,0.0,-0.09,0.0,0.4,134.67000000000002,134.67000000000002,0.01,0.06,3
12.34658300,12346583,0.0,-0.09,0.0,0.41000000000000003,135.21,135.21,0.01,0.05,3
12.44664400,12446644,0.0,-0.08,0.0,0.41000000000000003,135.7,135.7,0.01,0.05,3
12.54626300,12546263,0.0,-0.07,0.0,0.41000000000000003,136.09,136.09,0.01,0.04,3
12.64618900,12646189,0.0,-0.07,0.0,0.42,136.38,136.38,0.0,0.04,3
12.74619200,12746192,0.0,-0.06,0.0,0.42,136.6,136.6,0.0,0.04,3
12.84613000,12846130,0.0,-0.06,0.0,0.42,136.77,136.77,0.0,0.04,3
12.94613900,12946139,0.0,-0.06,0.0,0.42,136.9,136.9,0.0,0.03,3
13.04627900,13046279,0.0,-0.06,0.0,0.42,137.0,137.0,0.0,0.02,3
13.14628300,13146283,0.0,-0.06,0.0,0.42,137.05,137.05,0.0,0.02,3
13.24627700,13246277,0.0,-0.05,0.0,0.42,137.07,137.07,0.0,0.02,3
13.34634400,13346344,0.0,-0.05,0.0,0.41000000000000003,137.08,137.08,0.0,0.02,3
13.44624600,13446246,0.0,-0.05,0.0,0.41000000000000003,137.08,137.08,0.0,0.01,3
13.54646300,13546463,0.0,-0.05,0.0,0.42,137.09,137.09,0.0,0.01,3
13.64617700,13646177,0.0,-0.05,0.0,0.42,137.09,137.09,0.0,0.01,3
13.74613500,13746135,0.0,-0.06,0.0,0.42,137.08,137.08,0.0,0.01,3
13.84624700,13846247,0.0,-0.06,0.0,0.41000000000000003,137.07,137.07,0.0,0.01,3
13.94627600,13946276,0.0,-0.06,0.0,0.41000000000000003,137.07,137.07,0.0,0.01,3
14.04629500,14046295,0.0,-0.06,0.0,0.42,137.07,137.07,0.0,0.01,3
14.14628100,14146281,0.0,-0.06,0.0,0.42,137.09,137.09,0.0,0.01,3
14.24629000,14246290,0.0,-0.07,0.0,0.42,137.1,137.1,0.0,0.0,3
14.34629400,14346294,0.0,-0.07,0.0,0.42,137.11,137.11,0.0,0.0,3
14.44650000,14446500,0.0,-0.07,0.0,0.42,137.12,137.12,0.0,0.02,3
14.54625400,14546254,0.0,-0.07,0.0,0.42,137.08,137.08,0.0,0.09,3
14.64612900,14646129,0.0,-0.08,0.0,0.42,136.86,136.86,0.0,0.09,3
14.74613200,14746132,0.0,-0.08,0.0,0.43,136.45,136.45,0.0,0.08,3
14.84627500,14846275,0.0,-0.08,0.0,0.43,136.05,136.05,0.0,0.07,3
14.94630300,14946303,0.0,-0.08,0.0,0.42,135.74,135.74,0.0,0.07,3
15.04627000,15046270,0.0,-0.08,0.0,0.42,135.55,135.55,0.0,0.06,3
15.14627800,15146278,0.0,-0.08,0.0,0.42,135.47,135.47,0.0,0.05,3
15.24623300,15246233,0.0,-0.08,0.0,0.42,135.46,135.46,0.0,0.05,3
15.34659300,15346593,0.0,-0.08,0.0,0.42,135.49,135.49,0.0,0.04,3
15.44610100,15446101,0.0,-0.09,0.0,0.42,135.56,135.56,0.0,0.04,3
15.54611300,15546113,0.0,-0.09,0.0,0.42,135.63,135.63,0.0,0.03,3
15.64612300,15646123,0.0,-0.09,0.0,0.42,135.69,135.69,0.0,0.03,3
15.74626300,15746263,0.0,-0.09,0.0,0.42,135.75,135.75,0.0,0.03,3
15.84629500,15846295,0.0,-0.09,0.0,0.42,135.81,135.81,0.0,0.03,3
15.94629300,15946293,0.0,-0.09,0.0,0.42,135.86,135.86,0.0,0.02,3
16.04631000,16046310,0.0,-0.1,0.0,0.42,135.91,135.91,0.0,0.02,3
16.14625800,16146258,0.0,-0.1,0.0,0.42,135.95,135.95,0.0,0.02,3
16.24647500,16246475,0.0,-0.1,0.0,0.42,135.99,135.99,0.0,0.01,3
16.34624400,16346244,0.0,-0.1,0.0,0.42,136.03,136.03,0.0,0.01,3
16.44612700,16446127,0.0,-0.1,0.0,0.42,136.06,136.06,0.0,0.01,3
16.54613700,16546137,0.0,-0.1,0.0,0.42,136.08,136.08,0.0,0.01,3
16.64627100,16646271,0.0,-0.1,0.0,0.42,136.11,136.11,0.0,0.01,3
16.74630600,16746306,0.0,-0.1,0.0,0.41000000000000003,136.14000000000001,136.14000000000001,0.0,0.01,3
16.84629800,16846298,0.0,-0.1,0.0,0.42,136.19,136.19,0.0,0.01,3
16.94628700,16946287,0.0,-0.1,0.0,0.42,136.23,136.23,0.0,0.01,3
17.04627700,17046277,0.0,-0.1,0.0,0.42,136.28,136.28,0.0,0.01,3
17.14651200,17146512,0.0,-0.1,0.0,0.42,136.34,136.34,0.0,0.01,3
17.24618900,17246189,0.0,-0.1,0.0,0.42,136.4,136.4,0.0,0.01,3
17.34616000,17346160,0.0,-0.1,0.0,0.42,136.44,136.44,0.0,0.07,3
17.44612500,17446125,0.0,-0.1,0.0,0.42,136.35,136.35,0.0,0.11,3
17.54626200,17546262,0.0,-0.11,0.0,0.41000000000000003,136.03,136.03,0.0,0.1,3
17.64636200,17646362,0.0,-0.11,0.0,0.41000000000000003,135.62,135.62,0.0,0.09,3
17.74628100,17746281,0.0,-0.11,0.0,0.41000000000000003,135.28,135.28,0.0,0.08,3
17.84628900,17846289,0.0,-0.11,0.0,0.41000000000000003,135.04,135.04,0.0,0.07,3
17.94624900,17946249,0.0,-0.11,0.0,0.42,134.92000000000002,134.92000000000002,0.0,0.06,3
18.04649800,18046498,0.0,-0.12,0.0,0.42,134.88,134.88,0.0,0.05,3
18.14610100,18146101,0.0,-0.12,0.0,0.42,134.9,134.9,0.0,0.05,3
18.24611800,18246118,0.0,-0.12,0.0,0.42,134.95,134.95,0.0,0.04,3
18.34616300,18346163,0.0,-0.12,0.0,0.42,135.02,135.02,0.0,0.04,3
18.44637200,18446372,0.0,-0.12,0.0,0.42,135.09,135.09,0.0,0.03,3
18.54629900,18546299,0.0,-0.13,0.0,0.42,135.16,135.16,0.0,0.03,3
18.64628100,18646281,0.0,-0.12,0.0,0.42,135.22,135.22,0.0,0.03,3
18.74638400,18746384,0.0,-0.13,0.0,0.42,135.28,135.28,0.0,0.03,3
18.84630000,18846300,0.0,-0.12,0.0,0.43,135.35,135.35,0.0,0.03,3
18.94620800,18946208,0.0,-0.12,0.0,0.43,135.42000000000002,135.42000000000002,0.0,0.02,3
19.04621200,19046212,0.0,-0.13,0.0,0.43,135.49,135.49,0.0,0.02,3
19.14644300,19146443,0.0,-0.12,0.0,0.43,135.56,135.56,0.0,0.02,3
19.24615200,19246152,0.0,-0.12,0.0,0.43,135.64000000000001,135.64000000000001,0.0,0.02,3
19.34635400,19346354,0.0,-0.12,0.0,0.44,135.7,135.7,0.0,0.01,3
19.44629400,19446294,0.0,-0.12,0.0,0.44,135.75,135.75,0.0,0.01,3
19.54629400,19546294,0.0,-0.12,0.0,0.44,135.8,135.8,0.0,0.01,3
19.64627900,19646279,0.0,-0.11,0.0,0.44,135.85,135.85,0.0,0.01,3
19.74625700,19746257,0.0,-0.11,0.0,0.44,135.9,135.9,0.0,0.01,3
19.84620300,19846203,0.0,-0.11,0.0,0.44,135.95,135.95,0.0,0.01,3
19.94621400,19946214,0.0,-0.11,0.0,0.44,136.0,136.0,0.0,0.01,3
20.04646100,20046461,0.0,-0.11,0.0,0.44,136.04,136.04,0.0,0.01,3
20.14613900,20146139,0.0,-0.1,0.0,0.45,136.08,136.08,0.0,0.05,3
20.24627600,20246276,0.0,-0.1,0.0,0.45,136.05,136.05,0.0,0.11,3
20.34636200,20346362,0.0,-0.1,0.0,0.45,135.82,135.82,0.0,0.09,3
20.44630000,20446300,0.0,-0.1,0.0,0.45,135.48,135.48,0.0,0.08,3
20.54628700,20546287,0.0,-0.1,0.0,0.45,135.17000000000002,135.17000000000002,0.0,0.08,3
20.64628200,20646282,0.0,-0.1,0.0,0.45,134.96,134.96,0.0,0.07,3
20.74620100,20746201,0.0,-0.09,0.0,0.46,134.86,134.86,0.0,0.06,3
20.84626600,20846266,0.0,-0.09,0.0,0.46,134.83,134.83,0.0,0.05,3
20.94646500,20946465,0.0,-0.09,0.0,0.45,134.85,134.85,0.0,0.05,3
21.04614700,21046147,0.0,-0.08,0.0,0.46,134.91,134.91,0.0,0.04,3
21.14626400,21146264,0.0,-0.08,0.0,0.45,134.98,134.98,0.0,0.04,3
21.24628700,21246287,0.0,-0.08,0.0,0.45,135.05,135.05,0.0,0.03,3
21.34635500,21346355,0.0,-0.08,0.0,0.45,135.11,135.11,0.0,0.03,3
21.44631500,21446315,0.0,-0.08,0.0,0.45,135.17000000000002,135.17000000000002,0.0,0.03,3
21.54626200,21546262,0.0,-0.08,0.0,0.45,135.22,135.22,0.0,0.03,3
21.64650900,21646509,0.0,-0.08,0.0,0.45,135.26,135.26,0.0,0.02,3
21.74609400,21746094,0.0,-0.07,0.0,0.45,135.31,135.31,0.0,0.02,3
21.84616300,21846163,0.0,-0.07,0.0,0.45,135.35,135.35,0.0,0.02,3
21.94615600,21946156,0.0,-0.07,0.0,0.45,135.39000000000001,135.39000000000001,0.0,0.02,3
22.04627100,22046271,0.0,-0.07,0.0,0.45,135.43,135.43,0.0,0.02,3
22.14628800,22146288,0.0,-0.06,0.0,0.45,135.48,135.48,0.0,0.02,3
22.24627200,22246272,0.0,-0.06,0.0,0.45,135.54,135.54,0.0,0.02,3
22.34653800,22346538,0.0,-0.06,0.0,0.45,135.59,135.59,0.0,0.01,3
22.44646200,22446462,0.0,-0.05,0.0,0.46,135.64000000000001,135.64000000000001,0.0,0.01,3
22.54642800,22546428,0.0,-0.05,0.0,0.46,135.68,135.68,0.0,0.01,3
22.64641100,22646411,0.0,-0.05,0.0,0.46,135.72,135.72,0.0,0.01,3
22.74672200,22746722,0.0,-0.05,0.0,0.46,135.75,135.75,0.0,0.01,3
22.84613300,22846133,0.0,-0.05,0.0,0.46,135.77,135.77,0.0,0.0,3
22.94628700,22946287,0.0,-0.05,0.0,0.46,135.79,135.79,0.0,0.01,3
23.04630300,23046303,0.0,-0.04,0.0,0.45,135.79,135.79,0.0,0.07,3
23.14629200,23146292,0.0,-0.05,0.0,0.46,135.7,135.7,0.0,0.1,3
23.24628200,23246282,0.0,-0.04,0.0,0.46,135.47,135.47,0.0,0.09,3
23.34629800,23346298,0.0,-0.05,0.0,0.46,135.2,135.2,0.0,0.08,3
23.44619600,23446196,0.0,-0.05,0.0,0.46,134.98,134.98,0.0,0.07,3
23.54618800,23546188,0.0,-0.05,0.0,0.46,134.85,134.85,0.0,0.07,3
23.64645900,23646459,0.0,-0.05,0.0,0.46,134.79,134.79,0.0,0.06,3
23.74636600,23746366,0.0,-0.04,0.0,0.46,134.78,134.78,0.0,0.05,3
23.84668800,23846688,0.0,-0.04,0.0,0.45,134.82,134.82,0.0,0.05,3
23.94653700,23946537,0.0,-0.04,0.0,0.45,134.87,134.87,0.0,0.04,3
24.04627700,24046277,0.0,-0.04,0.0,0.45,134.92000000000002,134.92000000000002,0.0,0.04,3
24.14628600,24146286,0.0,-0.04,0.0,0.45,134.98,134.98,0.0,0.03,3
24.24625300,24246253,0.0,-0.04,0.0,0.45,135.03,135.03,0.0,0.03,3
24.34623800,24346238,0.0,-0.04,0.0,0.45,135.07,135.07,0.0,0.03,3
24.44621500,24446215,0.0,-0.04,0.0,0.44,135.11,135.11,0.0,0.03,3
24.54646400,24546464,0.0,-0.04,0.0,0.44,135.14000000000001,135.14000000000001,0.0,0.03,3
24.64636600,24646366,0.0,-0.04,0.0,0.44,135.18,135.18,0.0,0.02,3
24.74660600,24746606,0.0,-0.04,0.0,0.44,135.23,135.23,0.0,0.02,3
24.84653600,24846536,0.0,-0.04,0.0,0.44,135.28,135.28,0.0,0.02,3
24.94628300,24946283,0.0,-0.03,0.0,0.44,135.32,135.32,0.0,0.02,3
25.04637400,25046374,0.0,-0.03,0.0,0.45,135.36,135.36,0.0,0.01,3
25.14624400,25146244,0.0,-0.03,0.0,0.45,135.4,135.4,0.0,0.01,3
25.24619800,25246198,0.0,-0.02,0.0,0.44,135.43,135.43,0.0,0.01,3
25.34625000,25346250,0.0,-0.02,0.0,0.45,135.46,135.46,0.0,0.01,3
25.44644900,25446449,0.0,-0.02,0.0,0.45,135.49,135.49,0.0,0.01,3
25.54644100,25546441,0.0,-0.01,0.0,0.45,135.52,135.52,0.0,0.01,3
25.64661800,25646618,0.0,-0.01,0.0,0.45,135.55,135.55,0.0,0.01,3
25.74653200,25746532,0.0,-0.01,0.0,0.46,135.58,135.58,0.0,0.01,3
25.84627500,25846275,0.0,-0.01,0.0,0.46,135.59,135.59,0.0,0.07,3
25.94630200,25946302,0.0,-0.01,0.0,0.46,135.54,135.54,0.0,0.12,3
26.04627000,26046270,0.0,0.0,0.0,0.46,135.34,135.34,0.0,0.1,3
26.14619200,26146192,0.0,0.0,0.0,0.46,135.08,135.08,0.0,0.09,3
26.24611200,26246112,0.0,0.0,0.0,0.46,134.86,134.86,0.0,0.08,3
26.34616300,26346163,0.0,0.0,0.0,0.46,134.7,134.7,0.0,0.07,3
26.44613300,26446133,0.0,0.0,0.0,0.46,134.61,134.61,0.0,0.07,3
26.54660800,26546608,0.0,0.0,0.0,0.46,134.58,134.58,0.0,0.06,3
26.64652700,26646527,0.0,0.0,0.0,0.46,134.59,134.59,0.0,0.05,3
26.74628100,26746281,0.0,0.0,0.0,0.46,134.63,134.63,0.0,0.05,3
26.84629000,26846290,0.0,0.0,0.0,0.46,134.68,134.68,0.0,0.05,3
26.94624900,26946249,0.0,0.0,0.0,0.46,134.73,134.73,0.0,0.05,3
27.04620700,27046207,0.0,0.0,0.0,0.46,134.8,134.8,0.0,0.04,3
27.14626200,27146262,0.0,0.0,0.0,0.46,134.86,134.86,0.0,0.04,3
27.24613300,27246133,0.0,0.0,0.0,0.46,134.92000000000002,134.92000000000002,0.0,0.03,3
27.34617400,27346174,0.0,0.0,0.0,0.46,134.96,134.96,0.0,0.03,3
27.44662600,27446626,0.0,0.0,0.0,0.45,135.0,135.0,0.0,0.02,3
27.54653700,27546537,0.0,0.0,0.0,0.45,135.03,135.03,0.0,0.02,3
27.64646100,27646461,0.0,0.0,0.0,0.45,135.06,135.06,0.0,0.02,3
27.74646100,27746461,0.0,0.01,0.0,0.45,135.08,135.08,0.0,0.02,3
27.84647800,27846478,0.0,0.0,0.0,0.45,135.11,135.11,0.0,0.02,3
27.94648100,27946481,0.0,0.0,0.0,0.45,135.15,135.15,0.0,0.02,3
28.04643100,28046431,0.0,0.01,0.0,0.44,135.18,135.18,0.0,0.02,3
28.14639000,28146390,0.0,0.01,0.0,0.44,135.22,135.22,0.0,0.01,3
28.24632900,28246329,0.0,0.01,0.0,0.43,135.26,135.26,0.0,0.01,3
28.34691200,28346912,0.0,0.01,0.0,0.43,135.3,135.3,0.0,0.01,3
28.44654300,28446543,0.0,0.01,0.0,0.43,135.34,135.34,0.0,0.01,3
28.54627300,28546273,0.0,0.01,0.0,0.43,135.36,135.36,0.0,0.01,3
28.64627800,28646278,0.0,0.01,0.0,0.43,135.39000000000001,135.39000000000001,0.0,0.06,3
28.74628500,28746285,0.0,0.01,0.0,0.43,135.37,135.37,0.0,0.12,3
28.84620000,28846200,0.0,0.01,0.0,0.42,135.24,135.24,0.0,0.1,3
28.94621300,28946213,0.0,0.01,0.0,0.42,135.04,135.04,0.0,0.08,3
29.04613600,29046136,0.0,0.01,0.0,0.42,134.85,134.85,0.0,0.07,3
29.14612800,29146128,0.0,0.0,0.0,0.42,134.72,134.72,0.0,0.06,3
29.24659700,29246597,0.0,0.0,0.0,0.42,134.64000000000001,134.64000000000001,0.0,0.05,3
29.34655900,29346559,0.0,0.0,0.0,0.42,134.61,134.61,0.0,0.04,3
29.44629800,29446298,0.0,0.0,0.0,0.41000000000000003,134.62,134.62,0.0,0.03,3
29.54628600,29546286,0.0,0.0,0.0,0.41000000000000003,134.65,134.65,0.0,0.03,3
29.64624700,29646247,0.0,0.0,0.0,0.41000000000000003,134.69,134.69,0.0,0.02,3
29.74619200,29746192,0.0,0.0,0.0,0.41000000000000003,134.73,134.73,0.0,0.02,3
29.84620800,29846208,0.0,0.0,0.0,0.42,134.77,134.77,0.0,0.02,3
29.94645800,29946458,0.0,0.0,0.0,0.42,134.81,134.81,0.0,0.02,3
30.04635500,30046355,0.0,0.0,0.0,0.42,134.86,134.86,0.0,0.02,3
30.14658900,30146589,0.0,0.0,0.0,0.42,134.9,134.9,0.0,0.01,3
30.24653500,30246535,0.0,0.0,0.0,0.42,134.93,134.93,0.0,0.01,3
30.34636300,30346363,0.0,0.0,0.0,0.42,134.97,134.97,0.0,0.01,3
30.44631100,30446311,0.0,0.0,0.0,0.42,135.01,135.01,0.0,0.01,3
30.54627000,30546270,0.0,0.0,0.0,0.42,135.04,135.04,0.0,0.01,3
30.64618900,30646189,0.0,0.0,0.0,0.42,135.06,135.06,0.0,0.01,3
30.74609800,30746098,0.0,0.0,0.0,0.42,135.09,135.09,0.0,0.01,3
30.84608500,30846085,0.0,0.0,0.0,0.42,135.1,135.1,0.0,0.0,3
30.94612300,30946123,0.0,0.0,0.0,0.42,135.13,135.13,0.0,0.0,3
31.04657000,31046570,0.0,-0.01,0.0,0.43,135.14000000000001,135.14000000000001,0.0,0.01,3
31.14653600,31146536,0.0,-0.01,0.0,0.43,135.16,135.16,0.0,0.01,3
31.24628000,31246280,0.0,-0.01,0.0,0.43,135.2,135.2,0.0,0.01,3
31.34641400,31346414,0.0,-0.01,0.0,0.44,135.22,135.22,0.0,0.01,3
31.44625800,31446258,0.0,-0.01,0.0,0.44,135.25,135.25,0.0,0.02,3
31.54618900,31546189,0.0,-0.02,0.0,0.44,135.26,135.26,0.0,0.09,3
31.64620300,31646203,0.0,-0.02,0.0,0.44,135.19,135.19,0.0,0.09,3
31.74612700,31746127,0.0,-0.02,0.0,0.44,135.06,135.06,0.0,0.07,3
31.84613300,31846133,0.0,-0.02,0.0,0.45,134.92000000000002,134.92000000000002,0.0,0.06,3
31.94659300,31946593,0.0,-0.02,0.0,0.45,134.82,134.82,0.0,0.05,3
32.04652500,32046525,0.0,-0.03,0.0,0.45,134.76,134.76,0.0,0.04,3
32.14629300,32146293,0.0,-0.03,0.0,0.45,134.73,134.73,0.0,0.04,3
32.24627500,32246275,0.0,-0.03,0.0,0.45,134.74,134.74,0.0,0.03,3
32.34628200,32346282,0.0,-0.03,0.0,0.45,134.77,134.77,0.0,0.03,3
32.44619100,32446191,0.0,-0.03,0.0,0.45,134.8,134.8,0.0,0.02,3
32.54609800,32546098,0.0,-0.03,0.0,0.45,134.84,134.84,0.0,0.02,3
32.64611500,32646115,0.0,-0.03,0.0,0.45,134.88,134.88,0.0,0.02,3
32.74611800,32746118,0.0,-0.03,0.0,0.45,134.92000000000002,134.92000000000002,0.0,0.02,3
32.84627400,32846274,0.0,-0.03,0.0,0.46,134.96,134.96,0.0,0.02,3
32.94628700,32946287,0.0,-0.03,0.0,0.46,135.0,135.0,0.0,0.02,3
33.04649400,33046494,0.0,-0.03,0.0,0.46,135.03,135.03,0.0,0.02,3
33.14648300,33146483,0.0,-0.04,0.0,0.45,135.07,135.07,0.0,0.02,3
33.24624800,33246248,0.0,-0.04,0.0,0.46,135.1,135.1,0.0,0.01,3
33.34621500,33346215,0.0,-0.04,0.0,0.46,135.12,135.12,0.0,0.01,3
33.44623900,33446239,0.0,-0.04,0.0,0.47000000000000003,135.14000000000001,135.14000000000001,0.0,0.01,3
33.54612500,33546125,0.0,-0.04,0.0,0.46,135.16,135.16,0.0,0.01,3
33.64612800,33646128,0.0,-0.04,0.0,0.47000000000000003,135.18,135.18,0.0,0.01,3
33.74626700,33746267,0.0,-0.05,0.0,0.47000000000000003,135.2,135.2,0.0,0.01,3
33.84628400,33846284,0.0,-0.05,0.0,0.47000000000000003,135.23,135.23,0.0,0.01,3
33.94649000,33946490,0.0,-0.05,0.0,0.47000000000000003,135.26,135.26,0.0,0.01,3
34.04649000,34046490,0.0,-0.05,0.0,0.47000000000000003,135.28,135.28,0.0,0.01,3
34.14624200,34146242,0.0,-0.06,0.0,0.47000000000000003,135.3,135.3,0.0,0.01,3
34.24619000,34246190,0.0,-0.06,0.0,0.47000000000000003,135.32,135.32,0.0,0.01,3
34.34623000,34346230,0.0,-0.06,0.0,0.47000000000000003,135.33,135.33,0.0,0.07,3
34.44618200,34446182,0.0,-0.06,0.0,0.47000000000000003,135.31,135.31,0.0,0.12,3
34.54613100,34546131,0.0,-0.06,0.0,0.47000000000000003,135.2,135.2,0.0,0.09,3
34.64626200,34646262,0.0,-0.06,0.0,0.47000000000000003,135.04,135.04,0.0,0.08,3
34.74630500,34746305,0.0,-0.06,0.0,0.48,134.91,134.91,0.0,0.07,3
34.84649500,34846495,0.0,-0.06,0.0,0.48,134.82,134.82,0.0,0.06,3
34.94655300,34946553,0.0,-0.06,0.0,0.48,134.77,134.77,0.0,0.05,3
35.04623800,35046238,0.0,-0.05,0.0,0.48,134.76,134.76,0.0,0.04,3
35.14618900,35146189,0.0,-0.05,0.0,0.48,134.77,134.77,0.0,0.03,3
35.24610000,35246100,0.0,-0.05,0.0,0.48,134.79,134.79,0.0,0.03,3
35.34613800,35346138,0.0,-0.05,0.0,0.48,134.83,134.83,0.0,0.03,3
35.44612900,35446129,0.0,-0.05,0.0,0.48,134.86,134.86,0.0,0.03,3
35.54625700,35546257,0.0,-0.05,0.0,0.48,134.9,134.9,0.0,0.03,3
35.64630500,35646305,0.0,-0.05,0.0,0.48,134.94,134.94,0.0,0.02,3
35.74649800,35746498,0.0,-0.05,0.0,0.48,134.97,134.97,0.0,0.02,3
35.84649200,35846492,0.0,-0.05,0.0,0.48,134.99,134.99,0.0,0.02,3
35.94624300,35946243,0.0,-0.05,0.0,0.48,135.02,135.02,0.0,0.02,3
36.04618100,36046181,0.0,-0.05,0.0,0.48,135.05,135.05,0.0,0.02,3
36.14619900,36146199,0.0,-0.05,0.0,0.48,135.08,135.08,0.0,0.02,3
36.24613000,36246130,0.0,-0.04,0.0,0.48,135.1,135.1,0.0,0.02,3
36.34616800,36346168,0.0,-0.05,0.0,0.48,135.13,135.13,0.0,0.02,3
36.44628200,36446282,0.0,-0.05,0.0,0.48,135.15,135.15,0.0,0.02,3
36.54626800,36546268,0.0,-0.05,0.0,0.48,135.18,135.18,0.0,0.02,3
36.64648000,36646480,0.0,-0.05,0.0,0.48,135.2,135.2,0.0,0.01,3
36.74647600,36746476,0.0,-0.05,0.0,0.48,135.22,135.22,0.0,0.02,3
36.84648000,36846480,0.0,-0.04,0.0,0.48,135.25,135.25,0.0,0.02,3
36.94646900,36946469,0.0,-0.04,0.0,0.48,135.27,135.27,0.0,0.01,3
37.04607800,37046078,0.0,-0.04,0.0,0.48,135.28,135.28,0.0,0.01,3
37.14612400,37146124,0.0,-0.04,0.0,0.48,135.31,135.31,0.0,0.05,3
37.24612000,37246120,0.0,-0.04,0.0,0.48,135.3,135.3,0.0,0.11,3
37.34637700,37346377,0.0,-0.04,0.0,0.48,135.23,135.23,0.0,0.09,3
37.44627800,37446278,0.0,-0.04,0.0,0.48,135.11,135.11,0.0,0.08,3
37.54649200,37546492,0.0,-0.05,0.0,0.48,135.0,135.0,0.0,0.07,3
37.64661900,37646619,0.0,-0.04,0.0,0.48,134.92000000000002,134.92000000000002,0.0,0.06,3
37.74656400,37746564,0.0,-0.04,0.0,0.48,134.88,134.88,0.0,0.04,3
37.84651300,37846513,0.0,-0.05,0.0,0.49,134.86,134.86,0.0,0.04,3
37.94609800,37946098,0.0,-0.05,0.0,0.49,134.87,134.87,0.0,0.04,3
38.04612500,38046125,0.0,-0.05,0.0,0.48,134.89000000000001,134.89000000000001,0.0,0.03,3
38.14611800,38146118,0.0,-0.05,0.0,0.48,134.91,134.91,0.0,0.03,3
38.24625900,38246259,0.0,-0.05,0.0,0.48,134.94,134.94,0.0,0.03,3
38.34631300,38346313,0.0,-0.05,0.0,0.48,134.97,134.97,0.0,0.02,3
38.44648900,38446489,0.0,-0.05,0.0,0.47000000000000003,135.0,135.0,0.0,0.02,3
38.54648200,38546482,0.0,-0.05,0.0,0.47000000000000003,135.02,135.02,0.0,0.02,3
38.64649000,38646490,0.0,-0.05,0.0,0.46,135.04,135.04,0.0,0.01,3
38.74655200,38746552,0.0,-0.05,0.0,0.46,135.05,135.05,0.0,0.02,3
38.84621800,38846218,0.0,-0.05,0.0,0.46,135.06,135.06,0.0,0.02,3
38.94611700,38946117,0.0,-0.05,0.0,0.46,135.07,135.07,0.0,0.02,3
39.04613500,39046135,0.0,-0.05,0.0,0.46,135.09,135.09,0.0,0.02,3
39.14626500,39146265,0.0,-0.05,0.0,0.46,135.11,135.11,0.0,0.02,3
39.24629200,39246292,0.0,-0.05,0.0,0.46,135.13,135.13,0.0,0.02,3
39.34656700,39346567,0.0,-0.06,0.0,0.46,135.14000000000001,135.14000000000001,0.0,0.02,3
39.44655100,39446551,0.0,-0.06,0.0,0.46,135.16,135.16,0.0,0.02,3
39.54647900,39546479,0.0,-0.06,0.0,0.46,135.18,135.18,0.0,0.02,3
39.64656000,39646560,0.0,-0.06,0.0,0.45,135.21,135.21,0.0,0.02,3
39.74623400,39746234,0.0,-0.07,0.0,0.45,135.24,135.24,0.0,0.03,3
39.84611500,39846115,0.0,-0.07,0.0,0.45,135.27,135.27,0.0,0.03,3
39.94612000,39946120,0.0,-0.07,0.0,0.45,135.3,135.3,0.0,0.04,3
40.04626300,40046263,0.0,-0.07,0.0,0.45,135.31,135.31,0.0,0.1,3
40.14628100,40146281,0.0,-0.07,0.0,0.46,135.28,135.28,0.0,0.11,3
40.24627800,40246278,0.0,-0.08,0.0,0.46,135.18,135.18,0.0,0.09,3
40.34633300,40346333,0.0,-0.08,0.0,0.45,135.07,135.07,0.0,0.08,3
40.44626800,40446268,0.0,-0.08,0.0,0.45,135.0,135.0,0.0,0.07,3
40.54648900,40546489,0.0,-0.08,0.0,0.46,134.95,134.95,0.0,0.06,3
40.64608400,40646084,0.0,-0.08,0.0,0.45,134.93,134.93,0.0,0.05,3
40.74611500,40746115,0.0,-0.08,0.0,0.45,134.94,134.94,0.0,0.05,3
40.84612700,40846127,0.0,-0.09,0.0,0.45,134.96,134.96,0.0,0.04,3
40.94624900,40946249,0.0,-0.09,0.0,0.45,134.98,134.98,0.0,0.04,3
41.04630700,41046307,0.0,-0.08,0.0,0.45,135.02,135.02,0.0,0.03,3
41.14627800,41146278,0.0,-0.08,0.0,0.45,135.05,135.05,0.0,0.03,3
41.24627000,41246270,0.0,-0.08,0.0,0.45,135.07,135.07,0.0,0.03,3
41.34628500,41346285,0.0,-0.09,0.0,0.45,135.1,135.1,0.0,0.03,3
41.44653700,41446537,0.0,-0.09,0.0,0.45,135.12,135.12,0.0,0.03,3
41.54609800,41546098,0.0,-0.08,0.0,0.45,135.14000000000001,135.14000000000001,0.0,0.03,3
41.64611700,41646117,0.0,-0.08,0.0,0.45,135.16,135.16,0.0,0.03,3
41.74613900,41746139,0.0,-0.08,0.0,0.45,135.18,135.18,0.0,0.03,3
41.84626500,41846265,0.0,-0.08,0.0,0.45,135.2,135.2,0.0,0.03,3
41.94630100,41946301,0.0,-0.08,0.0,0.45,135.23,135.23,0.0,0.03,3
42.04628300,42046283,0.0,-0.08,0.0,0.45,135.25,135.25,0.0,0.03,3
42.14628500,42146285,0.0,-0.08,0.0,0.45,135.27,135.27,0.0,0.02,3
42.24624600,42246246,0.0,-0.08,0.0,0.45,135.29,135.29,0.0,0.02,3
42.34656400,42346564,0.0,-0.08,0.0,0.45,135.31,135.31,0.0,0.02,3
42.44609700,42446097,0.0,-0.08,0.0,0.45,135.33,135.33,0.0,0.02,3
42.54610100,42546101,0.0,-0.08,0.0,0.45,135.35,135.35,0.0,0.02,3
42.64610100,42646101,0.0,-0.08,0.0,0.45,135.37,135.37,0.0,0.02,3
42.74627600,42746276,0.0,-0.09,0.0,0.44,135.38,135.38,0.0,0.02,3
42.84629800,42846298,0.0,-0.09,0.0,0.45,135.4,135.4,0.0,0.08,3
42.94627400,42946274,0.0,-0.09,0.0,0.45,135.38,135.38,0.0,0.11,3
43.04628700,43046287,0.0,-0.09,0.0,0.44,135.31,135.31,0.0,0.09,3
43.14622500,43146225,0.0,-0.09,0.0,0.44,135.21,135.21,0.0,0.08,3
43.24646200,43246462,0.0,-0.09,0.0,0.44,135.12,135.12,0.0,0.07,3
43.34621600,43346216,0.0,-0.09,0.0,0.44,135.06,135.06,0.0,0.06,3
43.44611500,43446115,0.0,-0.09,0.0,0.44,135.03,135.03,0.0,0.05,3
43.54610800,43546108,0.0,-0.09,0.0,0.43,135.03,135.03,0.0,0.05,3
43.64626400,43646264,0.0,-0.08,0.0,0.43,135.04,135.04,0.0,0.04,3
43.74629000,43746290,0.0,-0.09,0.0,0.43,135.06,135.06,0.0,0.04,3
43.84628800,43846288,0.0,-0.09,0.0,0.43,135.09,135.09,0.0,0.04,3
43.94637000,43946370,0.0,-0.09,0.0,0.43,135.11,135.11,0.0,0.04,3
44.04622300,44046223,0.0,-0.09,0.0,0.44,135.15,135.15,0.0,0.04,3
44.14648000,44146480,0.0,-0.09,0.0,0.44,135.18,135.18,0.0,0.04,3
44.24608100,44246081,0.0,-0.09,0.0,0.44,135.21,135.21,0.0,0.03,3
44.34614400,44346144,0.0,-0.09,0.0,0.45,135.24,135.24,0.0,0.03,3
44.44613900,44446139,0.0,-0.09,0.0,0.45,135.26,135.26,0.0,0.03,3
44.54634900,44546349,0.0,-0.09,0.0,0.45,135.27,135.27,0.0,0.03,3
44.64629000,44646290,0.0,-0.09,0.0,0.45,135.29,135.29,0.0,0.03,3
44.74628400,44746284,0.0,-0.08,0.0,0.44,135.31,135.31,0.0,0.03,3
44.84628700,44846287,0.0,-0.09,0.0,0.44,135.32,135.32,0.0,0.02,3
44.94623900,44946239,0.0,-0.08,0.0,0.44,135.34,135.34,0.0,0.02,3
45.04618700,45046187,0.0,-0.08,0.0,0.44,135.35,135.35,0.0,0.02,3
45.14609900,45146099,0.0,-0.08,0.0,0.44,135.36,135.36,0.0,0.02,3
45.24645400,45246454,0.0,-0.08,0.0,0.44,135.37,135.37,0.0,0.02,3
45.34614200,45346142,0.0,-0.07,0.0,0.44,135.38,135.38,0.0,0.02,3
45.44627100,45446271,0.0,-0.07,0.0,0.44,135.39000000000001,135.39000000000001,0.0,0.02,3
45.54626700,45546267,0.0,-0.07,0.0,0.44,135.41,135.41,0.0,0.02,3
45.64626400,45646264,0.0,-0.07,0.0,0.44,135.42000000000002,135.42000000000002,0.0,0.06,3
45.74627200,45746272,0.0,-0.07,0.0,0.43,135.42000000000002,135.42000000000002,0.0,0.11,3
45.84625200,45846252,0.0,-0.07,0.0,0.44,135.35,135.35,0.0,0.1,3
45.94630700,45946307,0.0,-0.07,0.0,0.43,135.26,135.26,0.0,0.08,3
46.04625000,46046250,0.0,-0.07,0.0,0.44,135.17000000000002,135.17000000000002,0.0,0.07,3
46.14642500,46146425,0.0,-0.07,0.0,0.44,135.11,135.11,0.0,0.06,3
46.24612000,46246120,0.0,-0.07,0.0,0.44,135.08,135.08,0.0,0.06,3
46.34638000,46346380,0.0,-0.06,0.0,0.43,135.07,135.07,0.0,0.05,3
46.44628100,46446281,0.0,-0.06,0.0,0.43,135.07,135.07,0.0,0.05,3
46.54625500,46546255,0.0,-0.06,0.0,0.43,135.09,135.09,0.0,0.04,3
46.64626700,46646267,0.0,-0.06,0.0,0.43,135.11,135.11,0.0,0.04,3
46.74625200,46746252,0.0,-0.06,0.0,0.43,135.14000000000001,135.14000000000001,0.0,0.04,3
46.84619400,46846194,0.0,-0.06,0.0,0.43,135.16,135.16,0.0,0.03,3
46.94620400,46946204,0.0,-0.06,0.0,0.43,135.18,135.18,0.0,0.03,3
47.04672400,47046724,0.0,-0.06,0.0,0.43,135.2,135.2,0.0,0.03,3
47.14611500,47146115,0.0,-0.06,0.0,0.43,135.21,135.21,0.0,0.03,3
47.24624900,47246249,0.0,-0.06,0.0,0.43,135.22,135.22,0.0,0.03,3
47.34630800,47346308,0.0,-0.06,0.0,0.43,135.24,135.24,0.0,0.03,3
47.44628200,47446282,0.0,-0.05,0.0,0.43,135.25,135.25,0.0,0.03,3
47.54629300,47546293,0.0,-0.05,0.0,0.42,135.27,135.27,0.0,0.03,3
47.64622900,47646229,0.0,-0.06,0.0,0.42,135.29,135.29,0.0,0.03,3
47.74620700,47746207,0.0,-0.05,0.0,0.42,135.31,135.31,0.0,0.03,3
47.84609200,47846092,0.0,-0.05,0.0,0.42,135.32,135.32,0.0,0.03,3
47.94642600,47946426,0.0,-0.06,0.0,0.42,135.34,135.34,0.0,0.03,3
48.04612100,48046121,0.0,-0.05,0.0,0.42,135.36,135.36,0.0,0.03,3
48.14648300,48146483,0.0,-0.05,0.0,0.42,135.38,135.38,0.0,0.02,3
48.24646900,48246469,0.0,-0.05,0.0,0.42,135.39000000000001,135.39000000000001,0.0,0.02,3
48.34648400,48346484,0.0,-0.05,0.0,0.42,135.4,135.4,0.0,0.02,3
48.44645400,48446454,0.0,-0.05,0.0,0.42,135.42000000000002,135.42000000000002,0.0,0.03,3
48.54643300,48546433,0.0,-0.05,0.0,0.42,135.42000000000002,135.42000000000002,0.0,0.08,3
48.64643300,48646433,0.0,-0.05,0.0,0.42,135.4,135.4,0.0,0.11,3
48.74642900,48746429,0.0,-0.05,0.0,0.41000000000000003,135.33,135.33,0.0,0.09,3
48.84672500,48846725,0.0,-0.05,0.0,0.41000000000000003,135.24,135.24,0.0,0.08,3
48.94613000,48946130,0.0,-0.05,0.0,0.41000000000000003,135.17000000000002,135.17000000000002,0.0,0.07,3
49.04626400,49046264,0.0,-0.05,0.0,0.41000000000000003,135.13,135.13,0.0,0.06,3
49.14628000,49146280,0.0,-0.05,0.0,0.41000000000000003,135.11,135.11,0.0,0.05,3
49.24626600,49246266,0.0,-0.05,0.0,0.41000000000000003,135.11,135.11,0.0,0.05,3
49.34629700,49346297,0.0,-0.05,0.0,0.41000000000000003,135.12,135.12,0.0,0.05,3
49.44624300,49446243,0.0,-0.05,0.0,0.4,135.14000000000001,135.14000000000001,0.0,0.04,3
49.54619500,49546195,0.0,-0.04,0.0,0.41000000000000003,135.16,135.16,0.0,0.04,3
49.64620000,49646200,0.0,-0.04,0.0,0.41000000000000003,135.18,135.18,0.0,0.03,3
49.74643200,49746432,0.0,-0.05,0.0,0.41000000000000003,135.2,135.2,0.0,0.03,3
49.84614300,49846143,0.0,-0.05,0.0,0.41000000000000003,135.21,135.21,0.0,0.03,3
49.94624800,49946248,0.0,-0.05,0.0,0.41000000000000003,135.23,135.23,0.0,0.02,3
50.04627100,50046271,0.0,-0.05,0.0,0.41000000000000003,135.24,135.24,0.0,0.03,3
50.14628000,50146280,0.0,-0.05,0.0,0.41000000000000003,135.26,135.26,0.0,0.03,3
50.24637900,50246379,0.0,-0.05,0.0,0.42,135.27,135.27,0.0,0.03,3
50.34629300,50346293,0.0,-0.05,0.0,0.42,135.29,135.29,0.0,0.03,3
50.44621300,50446213,0.0,-0.05,0.0,0.42,135.3,135.3,0.0,0.03,3
50.54609000,50546090,0.0,-0.05,0.0,0.42,135.32,135.32,0.0,0.03,3
50.64643000,50646430,0.0,-0.05,0.0,0.42,135.34,135.34,0.0,0.03,3
50.74635800,50746358,0.0,-0.05,0.0,0.43,135.35,135.35,0.0,0.03,3
50.84663600,50846636,0.0,-0.05,0.0,0.43,135.37,135.37,0.0,0.03,3
50.94651800,50946518,0.0,-0.05,0.0,0.43,135.39000000000001,135.39000000000001,0.0,0.03,3
51.04627100,51046271,0.0,-0.05,0.0,0.43,135.4,135.4,0.0,0.02,3
51.14627900,51146279,0.0,-0.05,0.0,0.43,135.42000000000002,135.42000000000002,0.0,0.02,3
51.24623600,51246236,0.0,-0.05,0.0,0.43,135.43,135.43,0.0,0.02,3
51.34622200,51346222,0.0,-0.05,0.0,0.43,135.45,135.45,0.0,0.08,3
51.44609800,51446098,0.0,-0.05,0.0,0.43,135.43,135.43,0.0,0.11,3
51.54642300,51546423,0.0,-0.05,0.0,0.43,135.36,135.36,0.0,0.09,3
51.64636000,51646360,0.0,-0.05,0.0,0.43,135.28,135.28,0.0,0.08,3
51.74662800,51746628,0.0,-0.05,0.0,0.43,135.21,135.21,0.0,0.07,3
51.84653400,51846534,0.0,-0.05,0.0,0.42,135.16,135.16,0.0,0.06,3
51.94628500,51946285,0.0,-0.05,0.0,0.42,135.13,135.13,0.0,0.05,3
52.04628500,52046285,0.0,-0.05,0.0,0.42,135.13,135.13,0.0,0.05,3
52.14624500,52146245,0.0,-0.05,0.0,0.42,135.13,135.13,0.0,0.05,3
52.24617700,52246177,0.0,-0.05,0.0,0.42,135.15,135.15,0.0,0.04,3
52.34627200,52346272,0.0,-0.05,0.0,0.43,135.17000000000002,135.17000000000002,0.0,0.04,3
52.44643200,52446432,0.0,-0.05,0.0,0.43,135.19,135.19,0.0,0.04,3
52.54644400,52546444,0.0,-0.05,0.0,0.43,135.21,135.21,0.0,0.04,3
52.64658200,52646582,0.0,-0.05,0.0,0.42,135.23,135.23,0.0,0.03,3
52.74652000,52746520,0.0,-0.05,0.0,0.42,135.25,135.25,0.0,0.03,3
52.84627200,52846272,0.0,-0.04,0.0,0.42,135.27,135.27,0.0,0.03,3
52.94629700,52946297,0.0,-0.04,0.0,0.43,135.28,135.28,0.0,0.03,3
53.04624000,53046240,0.0,-0.05,0.0,0.42,135.29,135.29,0.0,0.03,3
53.14617700,53146177,0.0,-0.05,0.0,0.42,135.31,135.31,0.0,0.02,3
53.24609700,53246097,0.0,-0.04,0.0,0.42,135.31,135.31,0.0,0.03,3
53.34616500,53346165,0.0,-0.04,0.0,0.42,135.32,135.32,0.0,0.03,3
53.44612600,53446126,0.0,-0.04,0.0,0.42,135.33,135.33,0.0,0.03,3
53.54657500,53546575,0.0,-0.04,0.0,0.41000000000000003,135.35,135.35,0.0,0.03,3
53.64653000,53646530,0.0,-0.05,0.0,0.41000000000000003,135.37,135.37,0.0,0.03,3
53.74627800,53746278,0.0,-0.05,0.0,0.41000000000000003,135.38,135.38,0.0,0.03,3
53.84636800,53846368,0.0,-0.05,0.0,0.41000000000000003,135.4,135.39000000000001,0.0,0.02,3
53.94625100,53946251,0.0,-0.05,0.0,0.41000000000000003,135.41,135.41,0.0,0.02,3
54.04619200,54046192,0.0,-0.04,0.0,0.41000000000000003,135.42000000000002,135.42000000000002,0.0,0.02,3
54.14609600,54146096,0.0,-0.05,0.0,0.41000000000000003,135.43,135.43,0.0,0.05,3
54.24610800,54246108,0.0,-0.05,0.0,0.41000000000000003,135.42000000000002,135.42000000000002,0.0,0.11,3
54.34615400,54346154,0.0,-0.05,0.0,0.41000000000000003,135.38,135.38,0.0,0.09,3
54.44670100,54446701,0.0,-0.05,0.0,0.4,135.31,135.31,0.0,0.08,3
54.54653200,54546532,0.0,-0.05,0.0,0.4,135.25,135.25,0.0,0.07,3
54.64647500,54646475,0.0,-0.05,0.0,0.41000000000000003,135.2,135.2,0.0,0.06,3
54.74646200,54746462,0.0,-0.05,0.0,0.41000000000000003,135.17000000000002,135.17000000000002,0.0,0.05,3
54.84646500,54846465,0.0,-0.05,0.0,0.41000000000000003,135.16,135.16,0.0,0.05,3
54.94643700,54946437,0.0,-0.05,0.0,0.41000000000000003,135.16,135.16,0.0,0.04,3
55.04641000,55046410,0.0,-0.05,0.0,0.41000000000000003,135.17000000000002,135.17000000000002,0.0,0.04,3
55.14639000,55146390,0.0,-0.05,0.0,0.41000000000000003,135.18,135.18,0.0,0.03,3
55.24631700,55246317,0.0,-0.06,0.0,0.41000000000000003,135.2,135.2,0.0,0.03,3
55.34686000,55346860,0.0,-0.06,0.0,0.41000000000000003,135.22,135.22,0.0,0.03,3
55.44652700,55446527,0.0,-0.06,0.0,0.41000000000000003,135.23,135.23,0.0,0.03,3
55.54626700,55546267,0.0,-0.06,0.0,0.41000000000000003,135.25,135.25,0.0,0.03,3
55.64627100,55646271,0.0,-0.06,0.0,0.41000000000000003,135.26,135.26,0.0,0.03,3
55.74623200,55746232,0.0,-0.06,0.0,0.41000000000000003,135.28,135.28,0.0,0.03,3
55.84618600,55846186,0.0,-0.06,0.0,0.41000000000000003,135.29,135.29,0.0,0.03,3
55.94610000,55946100,0.0,-0.06,0.0,0.41000000000000003,135.3,135.3,0.0,0.02,3
56.04612500,56046125,0.0,-0.06,0.0,0.41000000000000003,135.31,135.31,0.0,0.02,3
56.14613500,56146135,0.0,-0.07,0.0,0.41000000000000003,135.32,135.32,0.0,0.02,3
56.24658100,56246581,0.0,-0.07,0.0,0.42,135.33,135.33,0.0,0.02,3
56.34655600,56346556,0.0,-0.07,0.0,0.41000000000000003,135.34,135.34,0.0,0.02,3
56.44627600,56446276,0.0,-0.07,0.0,0.41000000000000003,135.34,135.34,0.0,0.02,3
56.54636600,56546366,0.0,-0.07,0.0,0.41000000000000003,135.36,135.36,0.0,0.02,3
56.64623700,56646237,0.0,-0.07,0.0,0.41000000000000003,135.37,135.37,0.0,0.02,3
56.74617900,56746179,0.0,-0.07,0.0,0.41000000000000003,135.38,135.38,0.0,0.02,3
56.84619000,56846190,0.0,-0.07,0.0,0.41000000000000003,135.39000000000001,135.39000000000001,0.0,0.02,3
56.94611900,56946119,0.0,-0.08,0.0,0.41000000000000003,135.4,135.4,0.0,0.03,3
57.04613500,57046135,0.0,-0.08,0.0,0.41000000000000003,135.41,135.41,0.0,0.09,3
57.14626600,57146266,0.0,-0.08,0.0,0.41000000000000003,135.38,135.38,0.0,0.11,3
57.24628900,57246289,0.0,-0.08,0.0,0.41000000000000003,135.32,135.32,0.0,0.09,3
57.34656000,57346560,0.0,-0.08,0.0,0.41000000000000003,135.24,135.24,0.0,0.08,3
57.44653900,57446539,0.0,-0.08,0.0,0.41000000000000003,135.19,135.19,0.0,0.07,3
57.54622900,57546229,0.0,-0.08,0.0,0.4,135.15,135.15,0.0,0.06,3
57.64617800,57646178,0.0,-0.08,0.0,0.4,135.14000000000001,135.14000000000001,0.0,0.05,3
57.74609800,57746098,0.0,-0.08,0.0,0.4,135.13,135.13,0.0,0.04,3
57.84611500,57846115,0.0,-0.08,0.0,0.4,135.13,135.13,0.0,0.04,3
57.94613000,57946130,0.0,-0.09,0.0,0.4,135.14000000000001,135.14000000000001,0.0,0.04,3
58.04626200,58046262,0.0,-0.09,0.0,0.4,135.16,135.16,0.0,0.03,3
58.14626400,58146264,0.0,-0.09,0.0,0.4,135.17000000000002,135.17000000000002,0.0,0.03,3
58.24647200,58246472,0.0,-0.09,0.0,0.4,135.18,135.18,0.0,0.03,3
58.34656300,58346563,0.0,-0.09,0.0,0.4,135.19,135.19,0.0,0.03,3
58.44623600,58446236,0.0,-0.09,0.0,0.4,135.21,135.21,0.0,0.03,3
58.54619400,58546194,0.0,-0.09,0.0,0.4,135.22,135.22,0.0,0.03,3
58.64625100,58646251,0.0,-0.09,0.0,0.4,135.24,135.24,0.0,0.03,3
58.74612600,58746126,0.0,-0.09,0.0,0.4,135.26,135.26,0.0,0.03,3
58.84616300,58846163,0.0,-0.09,0.0,0.4,135.27,135.27,0.0,0.03,3
58.94626500,58946265,0.0,-0.09,0.0,0.4,135.29,135.29,0.0,0.03,3
59.04627600,59046276,0.0,-0.09,0.0,0.4,135.31,135.31,0.0,0.03,3
59.14646900,59146469,0.0,-0.09,0.0,0.39,135.32,135.32,0.0,0.02,3
59.24648200,59246482,0.0,-0.09,0.0,0.39,135.33,135.33,0.0,0.02,3
59.34628400,59346284,0.0,-0.09,0.0,0.39,135.34,135.34,0.0,0.02,3
59.44619200,59446192,0.0,-0.09,0.0,0.39,135.35,135.35,0.0,0.02,3
59.54620400,59546204,0.0,-0.09,0.0,0.39,135.35,135.35,0.0,0.02,3
59.64612100,59646121,0.0,-0.09,0.0,0.39,135.36,135.36,0.0,0.02,3
59.74612100,59746121,0.0,-0.09,0.0,0.39,135.37,135.37,0.0,0.02,3
59.84638000,59846380,0.0,-0.1,0.0,0.39,135.39000000000001,135.39000000000001,0.0,0.07,3
59.94629400,59946294,0.0,-0.1,0.0,0.4,135.38,135.38,0.0,0.11,3
60.04648700,60046487,0.0,-0.1,0.0,0.4,135.33,135.33,0.0,0.09,3
60.14655100,60146551,0.0,-0.1,0.0,0.4,135.27,135.27,0.0,0.08,3
60.24623100,60246231,0.0,-0.1,0.0,0.4,135.21,135.21,0.0,0.07,3
60.34622700,60346227,0.0,-0.1,0.0,0.41000000000000003,135.18,135.18,0.0,0.06,3
60.44609400,60446094,0.0,-0.1,0.0,0.41000000000000003,135.16,135.16,0.0,0.06,3
60.54612100,60546121,0.0,-0.09,0.0,0.41000000000000003,135.16,135.16,0.0,0.05,3
60.64612700,60646127,0.0,-0.09,0.0,0.41000000000000003,135.17000000000002,135.17000000000002,0.0,0.04,3
60.74625800,60746258,0.0,-0.09,0.0,0.41000000000000003,135.18,135.18,0.0,0.04,3
60.84627600,60846276,0.0,-0.09,0.0,0.41000000000000003,135.2,135.2,0.0,0.03,3
60.94648200,60946482,0.0,-0.09,0.0,0.41000000000000003,135.21,135.21,0.0,0.03,3
61.04648400,61046484,0.0,-0.09,0.0,0.41000000000000003,135.21,135.21,0.0,0.03,3
61.14624300,61146243,0.0,-0.09,0.0,0.41000000000000003,135.22,135.22,0.0,0.03,3
61.24620600,61246206,0.0,-0.09,0.0,0.41000000000000003,135.23,135.23,0.0,0.02,3
61.34624200,61346242,0.0,-0.09,0.0,0.41000000000000003,135.24,135.24,0.0,0.02,3
61.44612600,61446126,0.0,-0.09,0.0,0.41000000000000003,135.25,135.25,0.0,0.02,3
61.54612600,61546126,0.0,-0.09,0.0,0.4,135.26,135.26,0.0,0.02,3
61.64626500,61646265,0.0,-0.09,0.0,0.41000000000000003,135.27,135.27,0.0,0.02,3
61.74627700,61746277,0.0,-0.09,0.0,0.4,135.27,135.27,0.0,0.02,3
61.84654900,61846549,0.0,-0.09,0.0,0.4,135.28,135.28,0.0,0.02,3
61.94649400,61946494,0.0,-0.09,0.0,0.4,135.29,135.29,0.0,0.02,3
62.04625300,62046253,0.0,-0.09,0.0,0.4,135.3,135.3,0.0,0.02,3
62.14618800,62146188,0.0,-0.09,0.0,0.4,135.31,135.31,0.0,0.02,3
62.24609500,62246095,0.0,-0.09,0.0,0.4,135.31,135.31,0.0,0.01,3
62.34614700,62346147,0.0,-0.09,0.0,0.4,135.31,135.31,0.0,0.01,3
62.44612700,62446127,0.0,-0.09,0.0,0.4,135.32,135.32,0.0,0.02,3
62.54627300,62546273,0.0,-0.09,0.0,0.4,135.32,135.32,0.0,0.01,3
62.64628900,62646289,0.0,-0.08,0.0,0.4,135.33,135.33,0.0,0.06,3
62.74653700,62746537,0.0,-0.08,0.0,0.4,135.32,135.32,0.0,0.12,3
62.84664200,62846642,0.0,-0.08,0.0,0.4,135.27,135.27,0.0,0.1,3
62.94650100,62946501,0.0,-0.08,0.0,0.39,135.2,135.2,0.0,0.09,3
63.04646600,63046466,0.0,-0.08,0.0,0.39,135.13,135.13,0.0,0.07,3
63.14607900,63146079,0.0,-0.08,0.0,0.4,135.09,135.09,0.0,0.06,3
63.24608600,63246086,0.0,-0.08,0.0,0.4,135.06,135.06,0.0,0.05,3
63.34616400,63346164,0.0,-0.07,0.0,0.41000000000000003,135.05,135.05,0.0,0.05,3
63.44626400,63446264,0.0,-0.07,0.0,0.41000000000000003,135.05,135.05,0.0,0.04,3
63.54628900,63546289,0.0,-0.07,0.0,0.41000000000000003,135.06,135.06,0.0,0.04,3
63.64648200,63646482,0.0,-0.07,0.0,0.41000000000000003,135.06,135.06,0.0,0.03,3
63.74649700,63746497,0.0,-0.07,0.0,0.41000000000000003,135.08,135.08,0.0,0.03,3
63.84659600,63846596,0.0,-0.07,0.0,0.41000000000000003,135.09,135.09,0.0,0.03,3
63.94648400,63946484,0.0,-0.07,0.0,0.41000000000000003,135.1,135.1,0.0,0.03,3
64.04609900,64046099,0.0,-0.07,0.0,0.41000000000000003,135.11,135.11,0.0,0.03,3
64.14613000,64146130,0.0,-0.07,0.0,0.41000000000000003,135.13,135.13,0.0,0.03,3
64.24612400,64246124,0.0,-0.07,0.0,0.41000000000000003,135.14000000000001,135.14000000000001,0.0,0.03,3
64.34637300,64346373,0.0,-0.06,0.0,0.41000000000000003,135.16,135.16,0.0,0.03,3
64.44629900,64446299,0.0,-0.06,0.0,0.41000000000000003,135.17000000000002,135.17000000000002,0.0,0.02,3
64.54627900,64546279,0.0,-0.06,0.0,0.42,135.18,135.18,0.0,0.02,3
64.64627800,64646278,0.0,-0.07,0.0,0.42,135.19,135.19,0.0,0.02,3
64.74622800,64746228,0.0,-0.07,0.0,0.42,135.2,135.2,0.0,0.02,3
64.84646500,64846465,0.0,-0.06,0.0,0.42,135.21,135.21,0.0,0.02,3
64.94624500,64946245,0.0,-0.06,0.0,0.42,135.22,135.22,0.0,0.02,3
65.04612000,65046120,0.0,-0.06,0.0,0.42,135.24,135.24,0.0,0.02,3
65.14613300,65146133,0.0,-0.06,0.0,0.42,135.24,135.24,0.0,0.02,3
65.24626800,65246268,0.0,-0.07,0.0,0.42,135.25,135.25,0.0,0.02,3
65.34634500,65346345,0.0,-0.07,0.0,0.43,135.26,135.26,0.0,0.02,3
65.44629100,65446291,0.0,-0.07,0.0,0.43,135.26,135.26,0.0,0.04,3
65.54628600,65546286,0.0,-0.07,0.0,0.43,135.26,135.26,0.0,0.1,3
65.64624400,65646244,0.0,-0.07,0.0,0.43,135.23,135.23,0.0,0.11,3
65.74655500,65746555,0.0,-0.07,0.0,0.42,135.18,135.18,0.0,0.09,3
65.84616000,65846160,0.0,-0.07,0.0,0.42,135.12,135.12,0.0,0.08,3
65.94612700,65946127,0.0,-0.07,0.0,0.42,135.07,135.07,0.0,0.07,3
66.04612500,66046125,0.0,-0.07,0.0,0.42,135.04,135.04,0.0,0.06,3
66.14624800,66146248,0.0,-0.07,0.0,0.43,135.04,135.04,0.0,0.05,3
66.24629000,66246290,0.0,-0.08,0.0,0.42,135.04,135.04,0.0,0.05,3
66.34630600,66346306,0.0,-0.08,0.0,0.42,135.05,135.05,0.0,0.04,3
66.44628200,66446282,0.0,-0.08,0.0,0.43,135.06,135.06,0.0,0.03,3
66.54623200,66546232,0.0,-0.08,0.0,0.43,135.07,135.07,0.0,0.03,3
66.64646700,66646467,0.0,-0.08,0.0,0.43,135.08,135.08,0.0,0.03,3
66.74608500,66746085,0.0,-0.08,0.0,0.43,135.09,135.09,0.0,0.03,3
66.84611700,66846117,0.0,-0.08,0.0,0.42,135.09,135.09,0.0,0.03,3
66.94612400,66946124,0.0,-0.08,0.0,0.42,135.1,135.1,0.0,0.02,3
67.04625300,67046253,0.0,-0.08,0.0,0.43,135.11,135.11,0.0,0.02,3
67.14628200,67146282,0.0,-0.08,0.0,0.42,135.12,135.12,0.0,0.02,3
67.24647900,67246479,0.0,-0.09,0.0,0.43,135.13,135.13,0.0,0.02,3
67.34656000,67346560,0.0,-0.08,0.0,0.43,135.13,135.13,0.0,0.02,3
67.44647300,67446473,0.0,-0.09,0.0,0.43,135.14000000000001,135.14000000000001,0.0,0.02,3
67.54648100,67546481,0.0,-0.09,0.0,0.43,135.15,135.15,0.0,0.02,3
67.64608000,67646080,0.0,-0.09,0.0,0.43,135.16,135.16,0.0,0.02,3
67.74610700,67746107,0.0,-0.09,0.0,0.43,135.18,135.18,0.0,0.02,3
67.84612500,67846125,0.0,-0.09,0.0,0.43,135.18,135.18,0.0,0.02,3
67.94626400,67946264,0.0,-0.09,0.0,0.44,135.2,135.2,0.0,0.02,3
68.04628000,68046280,0.0,-0.1,0.0,0.44,135.21,135.21,0.0,0.02,3
68.14627700,68146277,0.0,-0.1,0.0,0.44,135.22,135.22,0.0,0.02,3
68.24627200,68246272,0.0,-0.09,0.0,0.44,135.23,135.23,0.0,0.01,3
68.34629500,68346295,0.0,-0.1,0.0,0.44,135.23,135.23,0.0,0.07,3
68.44647800,68446478,0.0,-0.09,0.0,0.45,135.22,135.22,0.0,0.11,3
68.54608400,68546084,0.0,-0.1,0.0,0.45,135.18,135.18,0.0,0.09,3
68.64611500,68646115,0.0,-0.09,0.0,0.45,135.12,135.12,0.0,0.08,3
68.74610100,68746101,0.0,-0.09,0.0,0.45,135.07,135.07,0.0,0.07,3
68.84625400,68846254,0.0,-0.09,0.0,0.45,135.03,135.03,0.0,0.06,3
68.94629400,68946294,0.0,-0.09,0.0,0.46,135.02,135.02,0.0,0.06,3
69.04626100,69046261,0.0,-0.09,0.0,0.46,135.02,135.02,0.0,0.05,3
69.14636200,69146362,0.0,-0.09,0.0,0.46,135.02,135.02,0.0,0.04,3
69.24622600,69246226,0.0,-0.09,0.0,0.46,135.04,135.04,0.0,0.04,3
69.34655800,69346558,0.0,-0.09,0.0,0.46,135.06,135.06,0.0,0.03,3
69.44608700,69446087,0.0,-0.09,0.0,0.46,135.07,135.07,0.0,0.03,3
69.54611100,69546111,0.0,-0.08,0.0,0.45,135.08,135.08,0.0,0.03,3
69.64612700,69646127,0.0,-0.08,0.0,0.45,135.09,135.09,0.0,0.03,3
69.74626500,69746265,0.0,-0.09,0.0,0.45,135.1,135.1,0.0,0.02,3
69.84629000,69846290,0.0,-0.09,0.0,0.45,135.11,135.11,0.0,0.02,3
69.94626600,69946266,0.0,-0.09,0.0,0.45,135.12,135.12,0.0,0.02,3
70.04627300,70046273,0.0,-0.09,0.0,0.45,135.13,135.13,0.0,0.02,3
70.14624200,70146242,0.0,-0.09,0.0,0.45,135.13,135.13,0.0,0.02,3
70.24620100,70246201,0.0,-0.09,0.0,0.45,135.14000000000001,135.14000000000001,0.0,0.02,3
70.34623400,70346234,0.0,-0.09,0.0,0.44,135.14000000000001,135.14000000000001,0.0,0.02,3
70.44644400,70446444,0.0,-0.09,0.0,0.44,135.15,135.15,0.0,0.02,3
70.54612400,70546124,0.0,-0.09,0.0,0.44,135.16,135.16,0.0,0.02,3
70.64626400,70646264,0.0,-0.09,0.0,0.44,135.18,135.18,0.0,0.02,3
70.74628300,70746283,0.0,-0.08,0.0,0.43,135.19,135.19,0.0,0.02,3
70.84629000,70846290,0.0,-0.08,0.0,0.43,135.2,135.2,0.0,0.02,3
70.94629300,70946293,0.0,-0.08,0.0,0.44,135.2,135.2,0.0,0.02,3
71.04625300,71046253,0.0,-0.08,0.0,0.44,135.21,135.21,0.0,0.01,3
71.14619900,71146199,0.0,-0.08,0.0,0.44,135.22,135.22,0.0,0.05,3
71.24626400,71246264,0.0,-0.08,0.0,0.44,135.21,135.21,0.0,0.1,3
71.34658800,71346588,0.0,-0.08,0.0,0.44,135.18,135.18,0.0,0.09,3
71.44612200,71446122,0.0,-0.08,0.0,0.43,135.13,135.13,0.0,0.08,3
71.54626000,71546260,0.0,-0.08,0.0,0.43,135.09,135.09,0.0,0.07,3
71.64627100,71646271,0.0,-0.08,0.0,0.43,135.05,135.05,0.0,0.06,3
71.74625900,71746259,0.0,-0.08,0.0,0.43,135.03,135.03,0.0,0.05,3
71.84629700,71846297,0.0,-0.08,0.0,0.43,135.03,135.03,0.0,0.04,3
71.94626200,71946262,0.0,-0.09,0.0,0.43,135.03,135.03,0.0,0.04,3
72.04620100,72046201,0.0,-0.08,0.0,0.43,135.04,135.04,0.0,0.04,3
72.14610400,72146104,0.0,-0.08,0.0,0.43,135.06,135.06,0.0,0.04,3
72.24641300,72246413,0.0,-0.08,0.0,0.43,135.07,135.07,0.0,0.04,3
72.34614400,72346144,0.0,-0.08,0.0,0.43,135.08,135.08,0.0,0.04,3
72.44626800,72446268,0.0,-0.08,0.0,0.43,135.1,135.1,0.0,0.03,3
72.54627500,72546275,0.0,-0.08,0.0,0.43,135.12,135.12,0.0,0.03,3
72.64626800,72646268,0.0,-0.08,0.0,0.43,135.13,135.13,0.0,0.03,3
72.74629100,72746291,0.0,-0.08,0.0,0.43,135.14000000000001,135.14000000000001,0.0,0.03,3
72.84626000,72846260,0.0,-0.08,0.0,0.43,135.15,135.15,0.0,0.03,3
72.94619700,72946197,0.0,-0.08,0.0,0.42,135.16,135.16,0.0,0.02,3
73.04609100,73046091,0.0,-0.07,0.0,0.42,135.16,135.16,0.0,0.02,3
73.14642000,73146420,0.0,-0.07,0.0,0.42,135.17000000000002,135.17000000000002,0.0,0.02,3
73.24611200,73246112,0.0,-0.07,0.0,0.41000000000000003,135.18,135.18,0.0,0.02,3
73.34660500,73346605,0.0,-0.07,0.0,0.41000000000000003,135.19,135.19,0.0,0.02,3
73.44650100,73446501,0.0,-0.06,0.0,0.41000000000000003,135.2,135.2,0.0,0.02,3
73.54647000,73546470,0.0,-0.06,0.0,0.41000000000000003,135.21,135.21,0.0,0.02,3
73.64647400,73646474,0.0,-0.06,0.0,0.41000000000000003,135.22,135.22,0.0,0.02,3
73.74646500,73746465,0.0,-0.06,0.0,0.41000000000000003,135.23,135.23,0.0,0.02,3
73.84645400,73846454,0.0,-0.05,0.0,0.41000000000000003,135.23,135.23,0.0,0.02,3
73.94640700,73946407,0.0,-0.05,0.0,0.41000000000000003,135.24,135.24,0.0,0.04,3
74.04672200,74046722,0.0,-0.05,0.0,0.41000000000000003,135.23,135.23,0.0,0.1,3
74.14635800,74146358,0.0,-0.05,0.0,0.41000000000000003,135.21,135.21,0.0,0.11,3
74.24659400,74246594,0.0,-0.05,0.0,0.41000000000000003,135.16,135.16,0.0,0.09,3
74.34655900,74346559,0.0,-0.05,0.0,0.41000000000000003,135.1,135.1,0.0,0.07,3
74.44629100,74446291,0.0,-0.05,0.0,0.41000000000000003,135.06,135.06,0.0,0.06,3
74.54628700,74546287,0.0,-0.04,0.0,0.41000000000000003,135.03,135.03,0.0,0.06,3
74.64623000,74646230,0.0,-0.04,0.0,0.41000000000000003,135.02,135.02,0.0,0.05,3
74.74619400,74746194,0.0,-0.04,0.0,0.41000000000000003,135.02,135.02,0.0,0.04,3
74.84623300,74846233,0.0,-0.04,0.0,0.41000000000000003,135.02,135.02,0.0,0.04,3
74.94642900,74946429,0.0,-0.03,0.0,0.41000000000000003,135.03,135.03,0.0,0.04,3
75.04645200,75046452,0.0,-0.03,0.0,0.41000000000000003,135.04,135.04,0.0,0.04,3
75.14663100,75146631,0.0,-0.03,0.0,0.41000000000000003,135.06,135.06,0.0,0.03,3
75.24651900,75246519,0.0,-0.03,0.0,0.41000000000000003,135.07,135.07,0.0,0.03,3
75.34630200,75346302,0.0,-0.03,0.0,0.41000000000000003,135.08,135.08,0.0,0.03,3
75.44638500,75446385,0.0,-0.03,0.0,0.42,135.09,135.09,0.0,0.03,3
75.54624800,75546248,0.0,-0.03,0.0,0.42,135.09,135.09,0.0,0.03,3
75.64618300,75646183,0.0,-0.03,0.0,0.42,135.1,135.1,0.0,0.02,3
75.74610000,75746100,0.0,-0.03,0.0,0.42,135.11,135.11,0.0,0.02,3
75.84641600,75846416,0.0,-0.03,0.0,0.41000000000000003,135.12,135.12,0.0,0.03,3
75.94643200,75946432,0.0,-0.04,0.0,0.41000000000000003,135.13,135.13,0.0,0.03,3
76.04659700,76046597,0.0,-0.04,0.0,0.41000000000000003,135.14000000000001,135.14000000000001,0.0,0.02,3
76.14654000,76146540,0.0,-0.04,0.0,0.41000000000000003,135.15,135.15,0.0,0.02,3
76.24629000,76246290,0.0,-0.03,0.0,0.41000000000000003,135.16,135.16,0.0,0.02,3
76.34637500,76346375,0.0,-0.03,0.0,0.41000000000000003,135.16,135.16,0.0,0.02,3
76.44626400,76446264,0.0,-0.03,0.0,0.41000000000000003,135.17000000000002,135.17000000000002,0.0,0.02,3
76.54619200,76546192,0.0,-0.03,0.0,0.41000000000000003,135.18,135.18,0.0,0.02,3
76.64620200,76646202,0.0,-0.03,0.0,0.41000000000000003,135.19,135.19,0.0,0.02,3
76.74641300,76746413,0.0,-0.03,0.0,0.4,135.2,135.2,0.0,0.02,3
76.84644600,76846446,0.0,-0.03,0.0,0.41000000000000003,135.21,135.21,0.0,0.07,3
76.94658900,76946589,0.0,-0.03,0.0,0.41000000000000003,135.2,135.2,0.0,0.12,3
77.04652900,77046529,0.0,-0.04,0.0,0.41000000000000003,135.16,135.16,0.0,0.1,3
77.14627300,77146273,0.0,-0.03,0.0,0.41000000000000003,135.11,135.11,0.0,0.08,3
77.24627500,77246275,0.0,-0.03,0.0,0.41000000000000003,135.06,135.06,0.0,0.07,3
77.34627400,77346274,0.0,-0.04,0.0,0.41000000000000003,135.02,135.02,0.0,0.06,3
77.44619800,77446198,0.0,-0.03,0.0,0.41000000000000003,135.01,135.01,0.0,0.05,3
77.54624400,77546244,0.0,-0.04,0.0,0.41000000000000003,135.0,135.0,0.0,0.04,3
77.64613400,77646134,0.0,-0.04,0.0,0.41000000000000003,135.01,135.01,0.0,0.04,3
77.74613100,77746131,0.0,-0.04,0.0,0.41000000000000003,135.01,135.01,0.0,0.04,3
77.84661500,77846615,0.0,-0.04,0.0,0.42,135.03,135.03,0.0,0.03,3
77.94652400,77946524,0.0,-0.04,0.0,0.42,135.04,135.04,0.0,0.03,3
78.04627800,78046278,0.0,-0.04,0.0,0.42,135.05,135.05,0.0,0.03,3
78.14629400,78146294,0.0,-0.04,0.0,0.42,135.05,135.05,0.0,0.02,3
78.24624300,78246243,0.0,-0.04,0.0,0.42,135.06,135.06,0.0,0.02,3
78.34621800,78346218,0.0,-0.04,0.0,0.42,135.06,135.06,0.0,0.02,3
78.44616200,78446162,0.0,-0.04,0.0,0.42,135.07,135.07,0.0,0.02,3
78.54612400,78546124,0.0,-0.04,0.0,0.43,135.07,135.07,0.0,0.03,3
78.64613300,78646133,0.0,-0.04,0.0,0.43,135.08,135.08,0.0,0.02,3
78.74660200,78746602,0.0,-0.04,0.0,0.43,135.09,135.09,0.0,0.02,3
78.84654900,78846549,0.0,-0.04,0.0,0.44,135.1,135.1,0.0,0.02,3
78.94629000,78946290,0.0,-0.04,0.0,0.44,135.11,135.11,0.0,0.02,3
79.04629200,79046292,0.0,-0.04,0.0,0.44,135.11,135.11,0.0,0.02,3
79.14623600,79146236,0.0,-0.04,0.0,0.44,135.12,135.12,0.0,0.02,3
79.24619900,79246199,0.0,-0.04,0.0,0.44,135.13,135.13,0.0,0.01,3
79.34621500,79346215,0.0,-0.04,0.0,0.44,135.13,135.13,0.0,0.01,3
79.44611900,79446119,0.0,-0.04,0.0,0.44,135.14000000000001,135.14000000000001,0.0,0.01,3
79.54613100,79546131,0.0,-0.04,0.0,0.44,135.14000000000001,135.14000000000001,0.0,0.01,3
79.64661400,79646614,0.0,-0.05,0.0,0.44,135.15,135.15,0.0,0.06,3
79.74652700,79746527,0.0,-0.05,0.0,0.44,135.14000000000001,135.14000000000001,0.0,0.11,3
79.84626500,79846265,0.0,-0.05,0.0,0.44,135.1,135.1,0.0,0.1,3
79.94628300,79946283,0.0,-0.05,0.0,0.44,135.04,135.04,0.0,0.08,3
80.04623400,80046234,0.0,-0.05,0.0,0.44,135.0,135.0,0.0,0.07,3
80.14618700,80146187,0.0,-0.05,0.0,0.45,134.96,134.96,0.0,0.06,3
80.24618400,80246184,0.0,-0.05,0.0,0.45,134.94,134.94,0.0,0.05,3
80.34616500,80346165,0.0,-0.06,0.0,0.45,134.93,134.93,0.0,0.05,3
80.44613300,80446133,0.0,-0.06,0.0,0.46,134.93,134.93,0.0,0.04,3
80.54660200,80546602,0.0,-0.06,0.0,0.45,134.93,134.93,0.0,0.04,3
80.64653200,80646532,0.0,-0.06,0.0,0.45,134.94,134.94,0.0,0.03,3
80.74626900,80746269,0.0,-0.06,0.0,0.45,134.95,134.95,0.0,0.03,3
80.84629700,80846297,0.0,-0.07,0.0,0.45,134.96,134.96,0.0,0.03,3
80.94625000,80946250,0.0,-0.07,0.0,0.45,134.97,134.97,0.0,0.03,3
81.04621200,81046212,0.0,-0.07,0.0,0.44,134.98,134.98,0.0,0.03,3
81.14610100,81146101,0.0,-0.08,0.0,0.44,134.99,134.99,0.0,0.03,3
81.24612800,81246128,0.0,-0.09,0.0,0.46,134.99,134.99,0.0,0.03,3
81.34616200,81346162,0.0,-0.09,0.0,0.46,135.01,135.01,0.0,0.03,3
81.44627400,81446274,0.0,-0.1,0.0,0.49,135.02,135.02,0.0,0.03,3
81.54629900,81546299,0.0,-0.09,0.0,0.48,135.03,135.03,0.0,0.03,3
81.64627800,81646278,0.0,-0.09,0.0,0.47000000000000003,135.04,135.04,0.0,0.02,3
81.74663500,81746635,0.0,-0.09,0.0,0.47000000000000003,135.05,135.05,0.0,0.02,3
81.84649300,81846493,0.0,-0.09,0.0,0.48,135.06,135.06,0.0,0.03,3
81.94649500,81946495,0.0,-0.09,0.0,0.48,135.07,135.07,0.0,0.03,3
82.04645800,82046458,0.0,-0.09,0.0,0.48,135.07,135.07,0.0,0.02,3
82.14642700,82146427,0.0,-0.09,0.0,0.48,135.08,135.08,0.0,0.02,3
82.24636500,82246365,0.0,-0.08,0.0,0.47000000000000003,135.09,135.09,0.0,0.02,3
82.34662100,82346621,0.0,-0.09,0.0,0.48,135.11,135.11,0.0,0.02,3
82.44652800,82446528,0.0,-0.09,0.0,0.48,135.12,135.12,0.0,0.05,3
82.54674000,82546740,0.0,-0.08,0.0,0.48,135.12,135.12,0.0,0.1,3
82.64675300,82646753,0.0,-0.08,0.0,0.48,135.1,135.1,0.0,0.15,3
82.74649100,82746491,0.0,-0.08,0.0,0.48,135.04,135.04,0.0,0.18,3
82.84656200,82846562,0.0,-0.07,0.0,0.45,134.97,134.97,0.0,0.21,3
82.94648900,82946489,0.0,-0.07,0.0,0.46,134.87,134.87,0.0,0.2,3
83.04642000,83046420,0.0,-0.07,0.0,0.46,134.76,134.76,0.0,0.16,3
83.14635500,83146355,0.0,-0.07,0.0,0.45,134.67000000000002,134.67000000000002,0.0,0.14,3
83.24658600,83246586,0.0,-0.08,0.0,0.46,134.61,134.61,0.0,0.12,3
83.34656700,83346567,0.0,-0.07,0.0,0.46,134.58,134.58,0.0,0.1,3
83.44674200,83446742,0.0,-0.07,0.0,0.46,134.57,134.57,0.0,0.09,3
83.54674000,83546740,0.0,-0.07,0.0,0.47000000000000003,134.57,134.57,0.0,0.08,3
83.64648200,83646482,0.0,-0.07,0.0,0.46,134.58,134.58,0.0,0.07,3
83.74649300,83746493,0.0,-0.07,0.0,0.47000000000000003,134.6,134.6,0.0,0.06,3
83.84666100,83846661,0.0,-0.07,0.0,0.47000000000000003,134.62,134.62,0.0,0.05,3
83.94641500,83946415,0.0,-0.07,0.0,0.47000000000000003,134.64000000000001,134.64000000000001,0.0,0.05,3
84.04635500,84046355,0.0,-0.07,0.0,0.47000000000000003,134.65,134.65,0.0,0.05,3
84.14665300,84146653,0.0,-0.06,0.0,0.47000000000000003,134.67000000000002,134.67000000000002,0.0,0.04,3
84.24653400,84246534,0.0,-0.06,0.0,0.47000000000000003,134.68,134.68,0.0,0.04,3
84.34636100,84346361,0.0,-0.06,0.0,0.47000000000000003,134.69,134.69,0.0,0.03,3
84.44628200,84446282,0.0,-0.06,0.0,0.48,134.69,134.69,0.0,0.03,3
84.54625900,84546259,0.0,-0.06,0.0,0.48,134.7,134.7,0.0,0.03,3
84.64619400,84646194,0.0,-0.06,0.0,0.48,134.71,134.71,0.0,0.03,3
84.74616400,84746164,0.0,-0.06,0.0,0.48,134.72,134.72,0.0,0.03,3
84.84612200,84846122,0.0,-0.06,0.0,0.48,134.72,134.72,0.0,0.03,3
84.94612900,84946129,0.0,-0.06,0.0,0.48,134.73,134.73,0.0,0.03,3
85.04625500,85046255,0.0,-0.05,0.0,0.48,134.74,134.74,0.0,0.03,3
85.14624900,85146249,0.0,-0.05,0.0,0.48,134.75,134.75,0.0,0.02,3
85.24648900,85246489,0.0,-0.05,0.0,0.48,134.76,134.76,0.0,0.03,3
85.34657800,85346578,0.0,-0.05,0.0,0.48,134.76,134.76,0.0,0.03,3
85.44623700,85446237,0.0,-0.04,0.0,0.48,134.77,134.77,0.0,0.03,3
85.54618800,85546188,0.0,-0.05,0.0,0.48,134.78,134.78,0.0,0.03,3
85.64619400,85646194,0.0,-0.05,0.0,0.49,134.79,134.79,0.0,0.03,3
85.74612700,85746127,0.0,-0.05,0.0,0.48,134.8,134.8,0.0,0.03,3
85.84612800,85846128,0.0,-0.05,0.0,0.48,134.8,134.8,0.0,0.02,3
85.94635700,85946357,0.0,-0.05,0.0,0.48,134.81,134.81,0.0,0.02,3
86.04628800,86046288,0.0,-0.04,0.0,0.49,134.83,134.83,0.0,0.02,3
86.14649000,86146490,0.0,-0.05,0.0,0.48,134.84,134.84,0.0,0.02,3
86.24649700,86246497,0.0,-0.05,0.0,0.48,134.85,134.85,0.0,0.02,3
86.34629100,86346291,0.0,-0.05,0.0,0.49,134.85,134.85,0.0,0.02,3
86.44619700,86446197,0.0,-0.05,0.0,0.49,134.86,134.86,0.0,0.02,3
86.54621700,86546217,0.0,-0.06,0.0,0.49,134.87,134.87,0.0,0.02,3
86.64614600,86646146,0.0,-0.06,0.0,0.49,134.87,134.87,0.0,0.02,3
86.74613600,86746136,0.0,-0.06,0.0,0.49,134.88,134.88,0.0,0.01,3
86.84636800,86846368,0.0,-0.06,0.0,0.49,134.89000000000001,134.89000000000001,0.0,0.01,3
86.94631200,86946312,0.0,-0.06,0.0,0.49,134.89000000000001,134.89000000000001,0.0,0.02,3
87.04654600,87046546,0.0,-0.06,0.0,0.49,134.89000000000001,134.89000000000001,0.0,0.01,3
87.14654700,87146547,0.0,-0.06,0.0,0.48,134.9,134.9,0.0,0.01,3
87.24647900,87246479,0.0,-0.06,0.0,0.48,134.9,134.9,0.0,0.02,3
87.34656300,87346563,0.0,-0.06,0.0,0.48,134.91,134.91,0.0,0.02,3
87.44609400,87446094,0.0,-0.06,0.0,0.48,134.92000000000002,134.92000000000002,0.0,0.02,3
87.54612300,87546123,0.0,-0.06,0.0,0.48,134.93,134.93,0.0,0.02,3
87.64612800,87646128,0.0,-0.06,0.0,0.48,134.94,134.94,0.0,0.02,3
87.74626100,87746261,0.0,-0.06,0.0,0.48,134.95,134.95,0.0,0.02,3
87.84635700,87846357,0.0,-0.06,0.0,0.48,134.96,134.96,0.0,0.03,3
87.94649300,87946493,0.0,-0.06,0.0,0.48,134.97,134.97,0.0,0.03,3
88.04664300,88046643,0.0,-0.06,0.0,0.48,134.99,134.99,0.0,0.02,3
88.14648300,88146483,0.0,-0.06,0.0,0.48,135.0,135.0,0.0,0.02,3
88.24645400,88246454,0.0,-0.07,0.0,0.48,135.01,135.01,0.0,0.02,3
88.34621700,88346217,0.0,-0.07,0.0,0.48,135.02,135.02,0.0,0.02,3
88.44613600,88446136,0.0,-0.07,0.0,0.48,135.02,135.02,0.0,0.02,3
88.54612400,88546124,0.0,-0.07,0.0,0.48,135.03,135.03,0.0,0.02,3
88.64626400,88646264,0.0,-0.07,0.0,0.48,135.04,135.04,0.0,0.02,3
88.74629000,88746290,0.0,-0.06,0.0,0.48,135.04,135.04,0.0,0.02,3
88.84636300,88846363,0.0,-0.06,0.0,0.48,135.05,135.05,0.0,0.01,3
88.94629200,88946292,0.0,-0.06,0.0,0.48,135.05,135.05,0.0,0.01,3
89.04623900,89046239,0.0,-0.06,0.0,0.48,135.06,135.06,0.0,0.01,3
89.14645300,89146453,0.0,-0.06,0.0,0.48,135.07,135.07,0.0,0.02,3
89.24608700,89246087,0.0,-0.06,0.0,0.48,135.07,135.07,0.0,0.01,3
89.34613900,89346139,0.0,-0.06,0.0,0.48,135.08,135.08,0.0,0.01,3
89.44613000,89446130,0.0,-0.06,0.0,0.48,135.09,135.09,0.0,0.02,3
89.54636100,89546361,0.0,-0.06,0.0,0.48,135.09,135.09,0.0,0.02,3
89.64628800,89646288,0.0,-0.06,0.0,0.48,135.11,135.11,0.0,0.02,3
89.74628700,89746287,0.0,-0.06,0.0,0.48,135.12,135.12,0.0,0.01,3
89.84629600,89846296,0.0,-0.06,0.0,0.48,135.12,135.12,0.0,0.01,3
89.94624100,89946241,0.0,-0.06,0.0,0.48,135.13,135.13,0.0,0.01,3
90.04644900,90046449,0.0,-0.06,0.0,0.48,135.14000000000001,135.14000000000001,0.0,0.01,3
90.14623200,90146232,0.0,-0.06,0.0,0.47000000000000003,135.14000000000001,135.14000000000001,0.0,0.01,3
90.24612500,90246125,0.0,-0.06,0.0,0.47000000000000003,135.15,135.15,0.0,0.01,3
90.34615300,90346153,0.0,-0.07,0.0,0.47000000000000003,135.16,135.16,0.0,0.01,3
90.44626000,90446260,0.0,-0.07,0.0,0.47000000000000003,135.16,135.16,0.0,0.02,3
90.54628500,90546285,0.0,-0.07,0.0,0.47000000000000003,135.17000000000002,135.17000000000002,0.0,0.01,3
90.64628700,90646287,0.0,-0.08,0.0,0.47000000000000003,135.18,135.18,0.0,0.01,3
90.74628000,90746280,0.0,-0.08,0.0,0.46,135.18,135.18,0.0,0.01,3
90.84648900,90846489,0.0,-0.08,0.0,0.47000000000000003,135.19,135.19,0.0,0.01,3
90.94647900,90946479,0.0,-0.08,0.0,0.46,135.19,135.19,0.0,0.01,3
91.04609200,91046092,0.0,-0.08,0.0,0.46,135.2,135.2,0.0,0.01,3
91.14611500,91146115,0.0,-0.08,0.0,0.46,135.21,135.21,0.0,0.01,3
91.24612200,91246122,0.0,-0.08,0.0,0.45,135.21,135.21,0.0,0.01,3
91.34633000,91346330,0.0,-0.08,0.0,0.45,135.22,135.22,0.0,0.01,3
91.44629300,91446293,0.0,-0.08,0.0,0.45,135.24,135.24,0.0,0.01,3
91.54627900,91546279,0.0,-0.09,0.0,0.45,135.24,135.24,0.0,0.01,3
91.64626800,91646268,0.0,-0.09,0.0,0.45,135.25,135.25,0.0,0.01,3
91.74622800,91746228,0.0,-0.09,0.0,0.45,135.26,135.26,0.0,0.01,3
91.84649700,91846497,0.0,-0.08,0.0,0.45,135.27,135.27,0.0,0.01,3
91.94609800,91946098,0.0,-0.09,0.0,0.45,135.27,135.27,0.0,0.01,3
92.04608200,92046082,0.0,-0.09,0.08,0.45,135.28,135.28,0.0,0.01,3
92.14615300,92146153,0.0,-0.1,2.68,0.46,135.28,135.28,0.0,0.01,3
92.24626800,92246268,0.0,-0.1,6.11,0.46,135.28,135.29,0.0,0.01,3
92.34634900,92346349,0.0,-0.1,6.11,0.46,135.26,135.29,0.0,0.01,3
92.44629200,92446292,0.15,-0.09,5.45,0.46,135.25,135.3,0.0,0.01,3
92.54627600,92546276,1.77,-0.1,3.15,0.46,135.23,135.3,0.0,0.01,3
92.64624700,92646247,5.47,-0.1,1.61,0.47000000000000003,135.22,135.31,0.0,0.01,3
92.74647000,92746470,7.29,-0.1,1.31,0.47000000000000003,135.25,135.32,0.0,0.01,3
92.84610300,92846103,6.04,-0.1,3.98,0.46,135.28,135.33,0.0,0.01,3
92.94612000,92946120,3.16,-0.1,6.29,0.47000000000000003,135.31,135.33,0.0,0.01,3
93.04612700,93046127,1.61,-0.1,5.0200000000000005,0.47000000000000003,135.31,135.34,0.0,0.01,3
93.14626400,93146264,0.8200000000000001,-0.1,2.56,0.47000000000000003,135.29,135.34,0.0,0.01,3
93.24630000,93246300,0.42,-0.1,1.31,0.47000000000000003,135.31,135.35,0.0,0.0,3
93.34631200,93346312,0.21,-0.1,0.66,0.47000000000000003,135.34,135.35,0.0,0.01,3
93.44628600,93446286,0.11,-0.1,0.34,0.47000000000000003,135.36,135.36,0.0,0.01,3
93.54626100,93546261,0.05,-0.1,0.17,0.47000000000000003,135.37,135.37,0.0,0.01,3
93.64646600,93646466,0.02,-0.11,0.08,0.46,135.37,135.37,0.0,0.01,3
93.74609800,93746098,0.01,-0.11,0.04,0.46,135.38,135.38,0.0,0.01,3
93.84612600,93846126,0.0,-0.11,0.02,0.46,135.39000000000001,135.39000000000001,0.0,0.01,3
93.94613100,93946131,0.0,-0.11,0.01,0.46,135.39000000000001,135.39000000000001,0.0,0.01,3
94.04625700,94046257,0.0,-0.11,0.0,0.46,135.39000000000001,135.39000000000001,0.0,0.01,3
94.14628300,94146283,0.0,-0.11,0.0,0.45,135.4,135.4,0.0,0.01,3
94.24626900,94246269,0.0,-0.11,0.0,0.45,135.41,135.41,0.0,0.01,3
