timestamp,TimeUS,C,Roll,Pitch,Yaw,VN,VE,VD,dPD,PN,PE,PD,GX,GY,GZ,OH
9.44574900,9445749,2,0.0,0.0,0.0,0.0,0.0,0.0,0.0,0.0,0.0,0.0,0.0,0.0,0.0,0.0
9.54571500,9545715,2,0.0,0.0,0.0,0.0,0.0,0.0,0.0,0.0,0.0,0.0,0.0,0.0,0.0,0.0
9.64573700,9645737,2,0.0,0.0,0.0,0.0,0.0,0.0,0.0,0.0,0.0,0.0,0.0,0.0,0.0,0.0
9.74567300,9745673,2,0.0,0.0,0.0,0.0,0.0,0.0,0.0,0.0,0.0,0.0,0.0,0.0,0.0,0.0
9.84569800,9845698,2,0.0,0.0,0.0,0.0,0.0,0.0,0.0,0.0,0.0,0.0,0.0,0.0,0.0,0.0
9.94567300,9945673,2,0.0,0.0,0.0,0.0,0.0,0.0,0.0,0.0,0.0,0.0,0.0,0.0,0.0,0.0
10.04567900,10045679,2,0.0,0.0,0.0,0.0,0.0,0.0,0.0,0.0,0.0,0.0,0.0,0.0,0.0,0.0
10.14567500,10145675,2,0.0,0.0,0.0,0.0,0.0,0.0,0.0,0.0,0.0,0.0,0.0,0.0,0.0,0.0
10.24573300,10245733,2,0.0,0.0,0.0,0.0,0.0,0.0,0.0,0.0,0.0,0.0,0.0,0.0,0.0,0.0
10.34575000,10345750,2,0.0,0.0,0.0,0.0,0.0,0.0,0.0,0.0,0.0,0.0,0.0,0.0,0.0,0.0
10.44571700,10445717,2,-0.06,0.38,0.0,0.0008842955576255918,8.500163858116139e-06,0.014512991532683372,0.0030733265448361635,0.0,0.0,0.0005199747974984348,0.0,0.0,0.0,0.0
10.54572100,10545721,2,-0.05,0.39,0.0,0.0016152483876794577,-0.00014197509153746068,0.05560383200645447,0.029940150678157806,0.0,0.0,0.0042527527548372746,0.0,0.0,0.0,0.0
10.64567500,10645675,2,-0.06,0.39,0.01,0.003396463580429554,0.00042041801498271525,0.10137580335140228,-0.45266076922416687,0.0,0.0,-0.05135105177760124,0.0,0.0,0.0,0.0
10.74569900,10745699,2,-0.06,0.4,0.01,0.0045364550314843655,0.0014000413939356804,0.13301189243793488,-0.7205524444580078,0.0,0.0,-0.10742245614528656,0.0,0.0,0.0,0.0
10.84567700,10845677,2,-0.07,0.4,0.0,0.0055021787993609905,0.0012654844904318452,0.1547328382730484,-0.5232445597648621,0.0,0.0,-0.14366017282009125,0.0,0.0,0.0,0.0
10.94566700,10945667,2,-0.07,0.41000000000000003,0.0,0.005936725996434689,0.0007837543962523341,0.1692531853914261,-0.23463140428066254,0.0,0.0,-0.16248324513435364,0.0,0.0,0.0,0.0
11.04567600,11045676,2,-0.07,0.41000000000000003,359.99,0.005945475772023201,0.0006083906628191471,0.17781631648540497,-0.05525459721684456,0.0,0.0,-0.1717861443758011,0.0,0.0,0.0,0.0
11.14572800,11145728,2,-0.08,0.41000000000000003,0.0,0.006147047039121389,-4.459910996956751e-05,0.1833597719669342,0.041752561926841736,0.0,0.0,-0.17297886312007904,0.0,0.0,0.0,0.0
11.24573800,11245738,2,-0.08,0.42,0.0,0.0055879089049994946,-0.00022232391347642988,0.18669572472572327,0.10060817003250122,0.0,0.0,-0.1687689870595932,0.0,0.0,0.0,0.0
11.34570800,11345708,2,-0.09,0.42,0.0,0.004654827993363142,0.0008347496623173356,0.18827250599861145,0.08589209616184235,0.0,0.0,-0.16598883271217346,0.0,0.0,0.0,0.0
11.44573200,11445732,2,-0.09,0.43,0.0,0.0039024800062179565,0.001103066373616457,0.18532812595367432,0.002448014449328184,0.0,0.0,-0.16913717985153198,0.0,0.0,0.0,0.0
11.54570800,11545708,2,-0.09,0.44,0.0,0.0025539363268762827,0.0003431440272834152,0.18170836567878723,-0.03674830123782158,0.0,0.0,-0.17159326374530792,0.0,0.0,0.0,0.0
11.64567500,11645675,2,-0.09,0.44,0.01,0.001055452972650528,-0.000113822148705367,0.17877745628356934,0.0044265808537602425,0.0,0.0,-0.16964948177337646,0.0,0.0,0.0,0.0
11.74567500,11745675,2,-0.09,0.45,0.01,-0.00028097006725147367,-0.00034866525675170124,0.1746264100074768,0.026976682245731354,0.0,0.0,-0.16765861213207245,0.0,0.0,0.0,0.0
11.84567300,11845673,2,-0.09,0.46,0.02,-0.0020888668950647116,-0.0007056553149595857,0.17059585452079773,0.030062025412917137,0.0,0.0,-0.16496850550174713,0.0,0.0,0.0,0.0
11.94566900,11945669,2,-0.1,0.46,133.45,-0.0028077370952814817,-0.0008280221372842789,0.16658209264278412,0.03270060569047928,0.0,0.0,-0.16227774322032928,0.0,0.0,0.0,0.0
12.04574100,12045741,2,-0.09,0.45,133.64000000000001,-0.0024566894862800837,-0.0012151391711086035,0.1578710377216339,-0.023156018927693367,0.0,0.0,-0.1660667359828949,0.0,0.0,0.0,0.0
12.14573700,12145737,2,-0.09,0.46,134.08,-0.0018146414076909423,-0.003031638916581869,0.14872564375400543,-0.08661089092493057,0.0,0.0,-0.17351974546909332,0.0,0.0,0.0,0.0
12.24569300,12245693,2,-0.09,0.47000000000000003,134.62,-0.0017402657540515065,-0.003865177044644952,0.14018230140209198,-0.07920131087303162,0.0,0.0,-0.17909201979637146,0.0,0.0,0.0,0.0
12.34572700,12345727,2,-0.08,0.48,135.17000000000002,-0.0010179515229538083,-0.005883309058845043,0.13331615924835205,-0.05826490372419357,0.0,0.0,-0.18394717574119568,0.0,0.0,-0.01,0.0
12.44571300,12445713,2,-0.08,0.49,135.66,-0.0002662083425093442,-0.006730089895427227,0.1283828318119049,-0.024474022909998894,0.0,0.0,-0.1851305216550827,0.0,0.0,-0.01,0.0
12.54566300,12545663,2,-0.08,0.5,136.06,0.0016256808303296566,-0.00869468692690134,0.12371425330638885,0.022899271920323372,0.0,0.0,-0.18314439058303833,0.0,0.0,-0.01,0.0
12.64566600,12645666,2,-0.08,0.51,136.36,0.0031886647921055555,-0.009238025173544884,0.1201368197798729,0.03958674147725105,0.0,0.0,-0.18061178922653198,0.0,0.0,-0.01,0.0
12.74567600,12745676,2,-0.08,0.51,136.58,0.00421671848744154,-0.010283657349646091,0.11579198390245438,0.034921642392873764,0.0,0.0,-0.17817683517932892,0.0,0.0,-0.02,0.0
12.84567200,12845672,2,-0.08,0.51,136.75,0.005751388613134623,-0.01096956804394722,0.11182096600532532,0.02923458069562912,0.0,0.0,-0.17573785781860352,0.0,0.0,-0.03,0.0
12.94571600,12945716,2,-0.09,0.51,136.89000000000001,0.006699678022414446,-0.010978665202856064,0.10758378356695175,0.020018110051751137,0.0,0.0,-0.17410515248775482,0.0,0.0,-0.03,0.0
13.04574300,13045743,2,-0.09,0.5,136.98,0.007862027734518051,-0.012707128189504147,0.10068950057029724,-0.03147052228450775,0.0,0.0,-0.1785757839679718,0.0,0.0,-0.03,0.0
13.14568900,13145689,2,-0.09,0.5,137.04,0.008319752290844917,-0.012711286544799805,0.09257233142852783,-0.07930489629507065,0.0,0.0,-0.18506355583667755,0.0,0.0,-0.03,0.0
13.24572300,13245723,2,-0.09,0.51,137.06,0.008898760192096233,-0.012266285717487335,0.08684196323156357,-0.06173901632428169,0.0,0.0,-0.188547283411026,0.0,0.0,-0.03,0.0
13.34568300,13345683,2,-0.09,0.5,137.08,0.008668163791298866,-0.011885312385857105,0.0807856023311615,-0.04743931442499161,0.0,0.0,-0.19343650341033936,0.0,0.0,-0.03,0.0
13.44566800,13445668,2,-0.1,0.5,137.08,0.008754348382353783,-0.011253757402300835,0.07390972971916199,-0.06898951530456543,0.0,0.0,-0.19996076822280884,0.0,0.0,-0.03,0.0
13.54566500,13545665,2,-0.1,0.49,137.1,0.00983853917568922,-0.01022170577198267,0.06454410403966904,-0.10362298041582108,0.0,0.0,-0.21041394770145416,0.0,0.01,-0.03,0.0
13.64566500,13645665,2,-0.1,0.48,137.1,0.009580575861036777,-0.008840656839311123,0.05566632002592087,-0.12734417617321014,0.0,0.0,-0.22143426537513733,0.0,0.01,-0.03,0.0
13.74566600,13745666,2,-0.11,0.47000000000000003,137.09,0.010083036497235298,-0.007931056432425976,0.04942593723535538,-0.08991041779518127,0.0,0.0,-0.22803890705108643,0.0,0.01,-0.03,0.0
13.84573700,13845737,2,-0.11,0.46,137.08,0.009916072711348534,-0.006717231590300798,0.045111823827028275,-0.024422740563750267,0.0,0.0,-0.22982469201087952,0.0,0.01,-0.03,0.0
13.94573600,13945736,2,-0.11,0.45,137.08,0.009799078106880188,-0.005299890413880348,0.041798122227191925,0.008625791408121586,0.0,0.0,-0.2306588888168335,0.0,0.02,-0.03,0.0
14.04569600,14045696,2,-0.12,0.44,137.09,0.009321684017777443,-0.003887614468112588,0.039615217596292496,0.02092919312417507,0.0,0.0,-0.22982606291770935,0.0,0.02,-0.04,0.0
14.14573200,14145732,2,-0.12,0.44,137.11,0.009127108380198479,-0.0021580825559794903,0.03717513754963875,0.0213462021201849,0.0,0.0,-0.22919613122940063,0.0,0.02,-0.04,0.0
14.24566700,14245667,2,-0.12,0.43,137.13,0.008058887906372547,-7.425579678965732e-05,0.03385083004832268,0.013505978509783745,0.0,0.0,-0.22851945459842682,0.0,0.02,-0.03,0.0
14.34568900,14345689,2,-0.12,0.43,137.14000000000001,0.007367021404206753,0.0016903303330764174,0.02804279327392578,-0.030304303392767906,0.0,0.0,-0.23307839035987854,0.0,0.02,-0.03,0.0
14.44567000,14445670,2,-0.12,0.43,137.14000000000001,0.006592388730496168,0.0026291573885828257,0.021668236702680588,-0.06438783556222916,0.0,0.0,-0.2381390929222107,0.0,0.02,-0.03,0.0
14.54566600,14545666,2,-0.12,0.42,137.11,0.005845105275511742,0.0033336724154651165,0.015011269599199295,-0.09356563538312912,0.0,0.0,-0.24720017611980438,0.0,0.02,0.0,0.0
14.64567300,14645673,2,-0.12,0.4,136.89000000000001,0.006156493443995714,0.003905149642378092,0.006484908517450094,-0.1274375021457672,0.0,0.0,-0.2583683729171753,0.0,0.03,0.21,0.0
14.74572100,14745721,2,-0.11,0.4,136.49,0.004649854730814695,0.005253903567790985,0.00036356018972583115,-0.11320654302835464,0.0,0.0,-0.26731348037719727,0.0,0.03,0.27,0.0
14.84573800,14845738,2,-0.11,0.39,136.08,0.003884468227624893,0.006020713597536087,-0.0066805253736674786,-0.11017818003892899,0.0,0.0,-0.2783244252204895,0.0,0.03,0.25,0.0
14.94569400,14945694,2,-0.1,0.39,135.77,0.00315044610761106,0.006451085675507784,-0.015060538426041603,-0.13366930186748505,0.0,0.0,-0.29134076833724976,0.0,0.03,0.24,0.0
15.04572800,15045728,2,-0.1,0.38,135.58,0.002337339334189892,0.006082658655941486,-0.020316297188401222,-0.10957042127847672,0.0,0.0,-0.30028432607650757,0.0,0.03,0.22,0.0
15.14569600,15145696,2,-0.1,0.38,135.49,0.001619099173694849,0.006232715677469969,-0.026225382462143898,-0.08819711208343506,0.0,0.0,-0.3096960484981537,0.0,0.03,0.2,0.0
15.24566200,15245662,2,-0.09,0.38,135.49,0.00037883993354626,0.0059240590780973434,-0.033424895256757736,-0.10555814951658249,0.0,0.0,-0.32096585631370544,0.0,0.03,0.19,0.0
15.34567300,15345673,2,-0.1,0.39,135.52,-0.00014114362420514226,0.006291057448834181,-0.038113776594400406,-0.09866826981306076,0.0,0.0,-0.3299645185470581,0.0,0.03,0.18,0.0
15.44566800,15445668,2,-0.1,0.39,135.59,-0.000297394028166309,0.006112728267908096,-0.04524504765868187,-0.11538680642843246,0.0,0.0,-0.3427357077598572,0.0,0.03,0.17,0.0
15.54566400,15545664,2,-0.09,0.39,135.66,-0.0016657578526064754,0.006037516985088587,-0.05168212577700615,-0.12466305494308472,0.0,0.0,-0.3538685441017151,-0.01,0.03,0.15,0.0
15.64572100,15645721,2,-0.09,0.39,135.73,-0.0022899762261658907,0.005855187773704529,-0.05692216753959656,-0.10230740159749985,0.0,0.0,-0.363598495721817,-0.01,0.03,0.14,0.0
15.74573500,15745735,2,-0.08,0.39,135.79,-0.0031906398944556713,0.00503504928201437,-0.061181116849184036,-0.09915228188037872,0.0,0.0,-0.374042272567749,-0.01,0.03,0.13,0.0
15.84569600,15845696,2,-0.09,0.4,135.85,-0.003557040588930249,0.004492232110351324,-0.06552844494581223,-0.10398297011852264,0.0,0.0,-0.3845759928226471,-0.01,0.03,0.12,0.0
15.94572100,15945721,2,-0.08,0.4,135.91,-0.0040476880967617035,0.004211746156215668,-0.06677650660276413,-0.061812978237867355,0.0,0.0,-0.3894992768764496,-0.01,0.02,0.1,0.0
16.04569500,16045695,2,-0.08,0.4,135.96,-0.004228296689689159,0.0031079701147973537,-0.06787203252315521,-0.02902742475271225,0.0,0.0,-0.3939744532108307,-0.01,0.02,0.1,0.0
16.14566600,16145666,2,-0.08,0.41000000000000003,136.0,-0.003807285102084279,0.00248549273237586,-0.06490766257047653,0.015525490045547485,0.0,0.0,-0.39240917563438416,-0.01,0.02,0.08,0.0
16.24566400,16245664,2,-0.08,0.41000000000000003,136.03,-0.0036442545242607594,0.001126889605075121,-0.06364279985427856,0.03329659625887871,0.0,0.0,-0.3919861912727356,-0.01,0.02,0.08,0.0
16.34566900,16345669,2,-0.08,0.41000000000000003,136.07,-0.0032098114024847746,-0.00039096790715120733,-0.06363648921251297,-0.003248743247240782,0.0,0.0,-0.39432093501091003,-0.01,0.02,0.07,0.0
16.44566800,16445668,2,-0.09,0.41000000000000003,136.1,-0.002680062083527446,-0.001487314817495644,-0.0664433166384697,-0.05454334244132042,0.0,0.0,-0.40052923560142517,-0.01,0.02,0.06,0.0
16.54572400,16545724,2,-0.09,0.42,136.13,-0.0025328469928354025,-0.0016657805535942316,-0.07009802758693695,-0.0937662422657013,0.0,0.0,-0.4089092016220093,-0.01,0.02,0.06,0.0
16.64573400,16645734,2,-0.1,0.41000000000000003,136.15,-0.0018992756959050894,-0.0013793522957712412,-0.07235758006572723,-0.09346634894609451,0.0,0.0,-0.41630008816719055,-0.01,0.02,0.05,0.0
16.74570000,16745700,2,-0.1,0.41000000000000003,136.18,-0.0017155947862192988,-0.0011683584889397025,-0.07110858708620071,-0.03956936299800873,0.0,0.0,-0.4181786775588989,-0.01,0.02,0.04,0.0
16.84572300,16845723,2,-0.1,0.41000000000000003,136.22,-0.001685815746895969,-0.0005153834936209023,-0.07100099325180054,-0.002538568340241909,0.0,0.0,-0.4195769727230072,-0.01,0.02,0.02,0.0
16.94569200,16945692,2,-0.1,0.41000000000000003,136.27,-0.001161476830020547,0.0006596773164346814,-0.07122714072465897,-0.012386111542582512,0.0,0.0,-0.42232546210289,-0.01,0.02,0.01,0.0
17.04566700,17045667,2,-0.1,0.41000000000000003,136.32,6.564141949638724e-05,0.0016166120767593384,-0.07463406771421432,-0.053729891777038574,0.0,0.0,-0.42892220616340637,-0.01,0.02,0.0,0.0
17.14566200,17145662,2,-0.11,0.41000000000000003,136.38,0.00017120462143793702,0.002528246957808733,-0.07428301870822906,-0.03157242760062218,0.0,0.0,-0.4296267628669739,-0.01,0.02,-0.01,0.0
17.24566900,17245669,2,-0.1,0.41000000000000003,136.44,0.0009554625721648335,0.003820457961410284,-0.07221168279647827,0.012040765956044197,0.0,0.0,-0.4293038845062256,-0.01,0.02,-0.01,0.0
17.34567700,17345677,2,-0.1,0.41000000000000003,136.48,0.0002917040546890348,0.004533696454018354,-0.06987237930297852,0.02773645706474781,0.0,0.0,-0.42743024230003357,-0.01,0.02,-0.01,0.0
17.44571900,17445719,2,-0.1,0.41000000000000003,136.4,0.0008527806494385004,0.004902388900518417,-0.06759772449731827,0.023522874340415,0.0,0.0,-0.4267320930957794,-0.01,0.02,0.16,0.0
17.54573800,17545738,2,-0.1,0.41000000000000003,136.09,0.0008115124073810875,0.005471247714012861,-0.06294221431016922,0.06408443301916122,0.0,0.0,-0.4191412627696991,-0.01,0.02,0.32,0.0
17.64569500,17645695,2,-0.11,0.42,135.67000000000002,0.001821023877710104,0.005691323895007372,-0.05743348225951195,0.11761647462844849,0.0,0.0,-0.4090253412723541,-0.01,0.02,0.31,0.0
17.74572100,17745721,2,-0.11,0.41000000000000003,135.32,0.0018198348116129637,0.006078316830098629,-0.05258374661207199,0.11330459266901016,0.0,0.0,-0.40038982033729553,-0.01,0.02,0.29,0.0
17.84566900,17845669,2,-0.11,0.41000000000000003,135.07,0.002195252338424325,0.006002758163958788,-0.05057535320520401,0.05842380225658417,0.0,0.0,-0.39681100845336914,-0.01,0.02,0.27,0.0
17.94567000,17945670,2,-0.11,0.42,134.95,0.002055008662864566,0.00706188939511776,-0.050543516874313354,0.0087474649772048,0.0,0.0,-0.39538705348968506,-0.01,0.02,0.26,0.0
18.04567000,18045670,2,-0.11,0.42,134.91,0.003817100776359439,0.006999404169619083,-0.046868596225976944,0.03334403783082962,0.0,0.0,-0.38963082432746887,-0.01,0.02,0.24,0.0
18.14566700,18145667,2,-0.12,0.43,134.93,0.004220459144562483,0.0060828919522464275,-0.04778916388750076,0.005334570538252592,0.0,0.0,-0.3909895718097687,-0.01,0.02,0.24,0.0
18.24566900,18245669,2,-0.12,0.43,134.98,0.004103367682546377,0.005249852314591408,-0.04703998565673828,-0.020593171939253807,0.0,0.0,-0.3911619484424591,-0.01,0.02,0.22,0.0
18.34573000,18345730,2,-0.13,0.42,135.05,0.004477587528526783,0.004752749111503363,-0.04559871926903725,-0.0011483182897791266,0.0,0.0,-0.3902794420719147,-0.01,0.02,0.2,0.0
18.44575100,18445751,2,-0.12,0.42,135.13,0.004976412281394005,0.003808380803093314,-0.044460479170084,-0.003425187896937132,0.0,0.0,-0.3908051550388336,-0.01,0.02,0.19,0.0
18.54568600,18545686,2,-0.11,0.42,135.2,0.0049474104307591915,0.0037751412019133568,-0.04470103234052658,-0.02156900055706501,0.0,0.0,-0.3929953873157501,-0.01,0.02,0.18,0.0
18.64571900,18645719,2,-0.11,0.42,135.26,0.005139605142176151,0.0033006377052515745,-0.04237435385584831,-0.0033131996169686317,0.0,0.0,-0.3918691873550415,-0.01,0.02,0.17,0.0
18.74567300,18745673,2,-0.1,0.42,135.33,0.004820988513529301,0.0024632534477859735,-0.040255144238471985,0.010062610730528831,0.0,0.0,-0.39165276288986206,-0.01,0.02,0.15,0.0
18.84566500,18845665,2,-0.1,0.42,135.39000000000001,0.004374114330857992,0.0020544042345136404,-0.039513472467660904,-0.014536679722368717,0.0,0.0,-0.393923819065094,-0.01,0.02,0.14,0.0
18.94567000,18945670,2,-0.1,0.41000000000000003,135.47,0.0035080460365861654,0.0012468206696212292,-0.039370473474264145,-0.026961494237184525,0.0,0.0,-0.39596444368362427,-0.01,0.02,0.12,0.0
19.04567600,19045676,2,-0.1,0.41000000000000003,135.53,0.003576784860342741,0.0010303969029337168,-0.03965207561850548,-0.031293835490942,0.0,0.0,-0.3988580107688904,-0.01,0.02,0.11,0.0
19.14566400,19145664,2,-0.1,0.41000000000000003,135.61,0.0032796624582260847,0.0002864188572857529,-0.0389990359544754,-0.00474797748029232,0.0,0.0,-0.39796513319015503,-0.01,0.02,0.09,0.0
19.24573600,19245736,2,-0.11,0.42,135.68,0.0032703345641493797,-0.00039020960684865713,-0.03745046630501747,0.027374066412448883,0.0,0.0,-0.3957862854003906,-0.01,0.02,0.08,0.0
19.34573800,19345738,2,-0.11,0.41000000000000003,135.74,0.0029323496855795383,-0.0007837932789698243,-0.036400776356458664,0.009213785640895367,0.0,0.0,-0.3966730535030365,-0.01,0.02,0.08,0.0
19.44570400,19445704,2,-0.11,0.41000000000000003,135.79,0.0029853922314941883,-0.0009991037659347057,-0.03574920818209648,-0.031984709203243256,0.0,0.0,-0.4004499614238739,-0.01,0.02,0.07,0.0
19.54572200,19545722,2,-0.11,0.41000000000000003,135.84,0.003258876036852598,-0.0011604343308135867,-0.035652194172143936,-0.048441190272569656,0.0,0.0,-0.40420764684677124,-0.01,0.02,0.06,0.0
19.64566400,19645664,2,-0.11,0.42,135.89000000000001,0.0034056908916682005,-0.002462443895637989,-0.03677896037697792,-0.06358716636896133,0.0,0.0,-0.41029366850852966,-0.01,0.02,0.05,0.0
19.74566600,19745666,2,-0.11,0.41000000000000003,135.94,0.0032264848705381155,-0.0028207532595843077,-0.03671016916632652,-0.0722065418958664,0.0,0.0,-0.4164552688598633,-0.01,0.02,0.04,0.0
19.84566800,19845668,2,-0.11,0.41000000000000003,135.99,0.003145575989037752,-0.004161983262747526,-0.037923917174339294,-0.06858079135417938,0.0,0.0,-0.42251598834991455,-0.01,0.02,0.04,0.0
19.94568500,19945685,2,-0.11,0.41000000000000003,136.03,0.003112995997071266,-0.004641809035092592,-0.03795995935797691,-0.058266207575798035,0.0,0.0,-0.42776644229888916,-0.01,0.02,0.03,0.0
20.04567800,20045678,2,-0.11,0.4,136.07,0.00402523297816515,-0.0048987106420099735,-0.04049313813447952,-0.08617698401212692,0.0,0.0,-0.43738019466400146,-0.01,0.02,0.02,0.0
20.14573500,20145735,2,-0.11,0.41000000000000003,136.12,0.004350660368800163,-0.004826436284929514,-0.04273195192217827,-0.07782374322414398,0.0,0.0,-0.44286608695983887,-0.01,0.02,0.01,0.0
20.24573300,20245733,2,-0.12,0.4,136.08,0.004669061861932278,-0.0030103963799774647,-0.0436302050948143,-0.048541244119405746,0.0,0.0,-0.447905033826828,-0.01,0.02,0.1,0.0
20.34571100,20345711,2,-0.12,0.4,135.86,0.003870145184919238,-0.0015155457658693194,-0.043180033564567566,-0.032874107360839844,0.0,0.0,-0.45132794976234436,-0.01,0.02,0.23,0.0
20.44572800,20445728,2,-0.12,0.4,135.52,0.004373875912278891,-0.0015883727464824915,-0.04266304522752762,-0.012828946113586426,0.0,0.0,-0.4531375467777252,-0.01,0.02,0.23,0.0
20.54569200,20545692,2,-0.12,0.39,135.21,0.0045088790357112885,-0.0004771677777171135,-0.04164103791117668,0.0114089734852314,0.0,0.0,-0.45245349407196045,-0.01,0.02,0.22,0.0
20.64566400,20645664,2,-0.13,0.39,134.99,0.0054694730788469315,0.0010003801435232162,-0.03961792215704918,0.042442020028829575,0.0,0.0,-0.4489823877811432,-0.01,0.02,0.2,0.0
20.74567000,20745670,2,-0.13,0.4,134.89000000000001,0.005559029057621956,0.002239864319562912,-0.03761093690991402,0.053918417543172836,0.0,0.0,-0.4452769458293915,-0.01,0.02,0.19,0.0
20.84566600,20845666,2,-0.14,0.4,134.86,0.006160554476082325,0.0026020766235888004,-0.03548862412571907,0.036477230489254,0.0,0.0,-0.4432796537876129,-0.01,0.02,0.18,0.0
20.94566500,20945665,2,-0.13,0.39,134.88,0.005741249304264784,0.0021585042122751474,-0.032854024320840836,0.025386424735188484,0.0,0.0,-0.44098445773124695,-0.01,0.02,0.17,0.0
21.04573900,21045739,2,-0.13,0.4,134.94,0.005817490164190531,0.00248297699727118,-0.030826304107904434,0.03063916601240635,0.0,0.0,-0.43786272406578064,-0.01,0.02,0.16,0.0
21.14573600,21145736,2,-0.13,0.4,135.02,0.006537795998156071,0.0022519449703395367,-0.028133103623986244,0.04665111377835274,0.0,0.0,-0.432995080947876,-0.01,0.02,0.15,0.0
21.24569700,21245697,2,-0.14,0.41000000000000003,135.09,0.006928235292434692,0.001991255208849907,-0.026583639904856682,0.01772465743124485,0.0,0.0,-0.43317148089408875,-0.01,0.02,0.14,0.0
21.34572800,21345728,2,-0.14,0.41000000000000003,135.16,0.007184164598584175,0.0024240599013864994,-0.024595046415925026,0.008358287625014782,0.0,0.0,-0.4307185411453247,-0.01,0.02,0.14,0.0
21.44566900,21445669,2,-0.15,0.41000000000000003,135.21,0.007665405049920082,0.0030883613508194685,-0.0214517954736948,0.05569501593708992,0.0,0.0,-0.4241337478160858,-0.01,0.02,0.13,0.0
21.54566300,21545663,2,-0.15,0.41000000000000003,135.25,0.008468895219266415,0.003303111996501684,-0.01799667812883854,0.07653260976076126,0.0,0.0,-0.417849600315094,-0.01,0.02,0.12,0.0
21.64566400,21645664,2,-0.15,0.41000000000000003,135.3,0.009082087315618992,0.00426487997174263,-0.01573987863957882,0.07419820874929428,0.0,0.0,-0.41126781702041626,-0.01,0.02,0.11,0.0
21.74566500,21745665,2,-0.15,0.4,135.35,0.010212245397269726,0.00496438005939126,-0.010682689025998116,0.10180598497390747,0.0,0.0,-0.40103477239608765,-0.01,0.02,0.1,0.0
21.84567400,21845674,2,-0.15,0.4,135.39000000000001,0.01080300658941269,0.005532793700695038,-0.005944435019046068,0.1276443898677826,0.0,0.0,-0.38962382078170776,-0.01,0.02,0.1,0.0
21.94573200,21945732,2,-0.15,0.4,135.43,0.01132254209369421,0.006348391529172659,-0.0026640440337359905,0.11068356782197952,0.0,0.0,-0.3804958760738373,-0.01,0.02,0.09,0.0
22.04574000,22045740,2,-0.15,0.4,135.47,0.011086037382483482,0.006909515243023634,-0.0006300052627921104,0.07462092489004135,0.0,0.0,-0.3737727999687195,-0.01,0.02,0.08,0.0
22.14570700,22145707,2,-0.15,0.41000000000000003,135.53,0.012006904929876328,0.0069811600260436535,0.002252928912639618,0.06783831864595413,0.0,0.0,-0.36604416370391846,-0.01,0.02,0.07,0.0
22.24571900,22245719,2,-0.15,0.41000000000000003,135.59,0.012616802006959915,0.006885964889079332,0.0046364120207726955,0.06383540481328964,0.0,0.0,-0.3597538471221924,-0.01,0.02,0.07,0.0
22.34567100,22345671,2,-0.14,0.41000000000000003,135.64000000000001,0.012757240794599056,0.007352426182478666,0.0058213938027620316,0.04162326827645302,0.0,0.0,-0.3553840219974518,-0.01,0.02,0.06,0.0
22.44566900,22445669,2,-0.14,0.4,135.69,0.012757442891597748,0.008205120451748371,0.008038115687668324,0.034067850559949875,0.0,0.0,-0.35110169649124146,-0.01,0.02,0.05,0.0
22.54566300,22545663,2,-0.14,0.4,135.74,0.012531647458672523,0.008851024322211742,0.010214576497673988,0.044373106211423874,0.0,0.0,-0.34582749009132385,-0.01,0.02,0.05,0.0
22.64566400,22645664,2,-0.15,0.4,135.78,0.011975454166531563,0.009275838732719421,0.011082380078732967,0.02853287383913994,0.0,0.0,-0.3437902331352234,-0.01,0.02,0.04,0.0
22.74567900,22745679,2,-0.15,0.39,135.82,0.012160440906882286,0.010600876063108444,0.010958697646856308,0.0041019488126039505,0.0,0.0,-0.3426823318004608,-0.01,0.02,0.04,0.0
22.84573800,22845738,2,-0.15,0.39,135.84,0.0123291602358222,0.010754948481917381,0.010907883755862713,-0.009063935838639736,0.0,0.0,-0.3429020345211029,-0.01,0.02,0.04,0.0
22.94574700,22945747,2,-0.15,0.39,135.86,0.012642479501664639,0.011895369738340378,0.010752548463642597,-0.02299761213362217,0.0,0.0,-0.34441128373146057,-0.01,0.02,0.04,0.0
23.04569600,23045696,2,-0.15,0.4,135.86,0.011808319017291069,0.012715381570160389,0.00985835213214159,-0.05561111122369766,0.0,0.0,-0.34967362880706787,-0.01,0.02,0.05,0.0
23.14572200,23145722,2,-0.15,0.39,135.75,0.011303283274173737,0.012655122205615044,0.007493150886148214,-0.09531385451555252,0.0,0.0,-0.35782814025878906,-0.02,0.02,0.12,0.0
23.24569400,23245694,2,-0.14,0.38,135.51,0.011514260433614254,0.012414143420755863,0.005577927455306053,-0.09028388559818268,0.0,0.0,-0.36455366015434265,-0.02,0.02,0.17,0.0
23.34566700,23345667,2,-0.14,0.37,135.25,0.01167647261172533,0.011764428578317165,0.005429190583527088,-0.06339648365974426,0.0,0.0,-0.37000951170921326,-0.02,0.02,0.17,0.0
23.44566700,23445667,2,-0.14,0.37,135.05,0.01125834509730339,0.011142976582050323,0.005846209358423948,-0.0378890186548233,0.0,0.0,-0.37354883551597595,-0.02,0.02,0.16,0.0
23.54567000,23545670,2,-0.14,0.37,134.92000000000002,0.01090916246175766,0.011274585500359535,0.0034760641865432262,-0.03836265206336975,0.0,0.0,-0.3784099519252777,-0.02,0.02,0.15,0.0
23.64566600,23645666,2,-0.14,0.37,134.86,0.010183418169617653,0.011736377142369747,0.002286513801664114,-0.05566404014825821,0.0,0.0,-0.38409698009490967,-0.02,0.02,0.14,0.0
23.74571700,23745717,2,-0.14,0.37,134.86,0.009818694554269314,0.012820367701351643,0.0012554622953757644,-0.05295728147029877,0.0,0.0,-0.3889966905117035,-0.02,0.02,0.13,0.0
23.84574000,23845740,2,-0.13,0.36,134.89000000000001,0.009230163879692554,0.012192195281386375,0.0017663076287135482,-0.015348657965660095,0.0,0.0,-0.3896736204624176,-0.02,0.02,0.13,0.0
23.94569400,23945694,2,-0.13,0.37,134.94,0.009253114461898804,0.011830855160951614,0.0016992214368656278,0.009859367273747921,0.0,0.0,-0.39006155729293823,-0.02,0.02,0.13,0.0
24.04572200,24045722,2,-0.13,0.37,135.0,0.009077928960323334,0.012474839575588703,0.0013535235775634646,-0.0017743376083672047,0.0,0.0,-0.39129164814949036,-0.02,0.02,0.12,0.0
24.14566700,24145667,2,-0.14,0.37,135.06,0.008289453573524952,0.012650866061449051,0.0027115908451378345,0.0116916224360466,0.0,0.0,-0.3900623023509979,-0.02,0.02,0.11,0.0
24.24566300,24245663,2,-0.14,0.37,135.11,0.007951516658067703,0.013462814502418041,0.002714488422498107,0.011442522518336773,0.0,0.0,-0.39008039236068726,-0.02,0.02,0.11,0.0
24.34566900,24345669,2,-0.14,0.37,135.15,0.007836421951651573,0.01351888570934534,0.002588797127828002,-0.006002255715429783,0.0,0.0,-0.39082613587379456,-0.02,0.02,0.11,0.0
24.44568200,24445682,2,-0.14,0.37,135.19,0.007280509453266859,0.013074228540062904,0.0027498884592205286,0.006034373305737972,0.0,0.0,-0.3897131085395813,-0.02,0.02,0.1,0.0
24.54566400,24545664,2,-0.14,0.37,135.22,0.006437515839934349,0.013761978596448898,0.003761818865314126,0.01319197192788124,0.0,0.0,-0.38897666335105896,-0.02,0.02,0.09,0.0
24.64572500,24645725,2,-0.14,0.37,135.26,0.006225799676030874,0.013633422553539276,0.004045320209115744,0.018229199573397636,0.0,0.0,-0.3870254456996918,-0.02,0.02,0.09,0.0
24.74574800,24745748,2,-0.14,0.37,135.3,0.006243900861591101,0.013857867568731308,0.004075977485626936,0.02192486822605133,0.0,0.0,-0.38547247648239136,-0.02,0.02,0.08,0.0
24.84569500,24845695,2,-0.14,0.37,135.35,0.005613022018224001,0.013203629292547703,0.004278440959751606,0.00855683721601963,0.0,0.0,-0.3849259316921234,-0.02,0.02,0.07,0.0
24.94572600,24945726,2,-0.14,0.37,135.39000000000001,0.005441158078610897,0.012859434820711613,0.004175405018031597,-0.019398175179958344,0.0,0.0,-0.38728511333465576,-0.02,0.02,0.07,0.0
25.04567200,25045672,2,-0.13,0.37,135.43,0.005688053090125322,0.013184858486056328,0.004146744031459093,-0.028655467554926872,0.0,0.0,-0.38879290223121643,-0.02,0.02,0.07,0.0
25.14567000,25145670,2,-0.14,0.37,135.47,0.00560440169647336,0.012841064482927322,0.005097577814012766,0.008321662433445454,0.0,0.0,-0.3869214653968811,-0.02,0.02,0.06,0.0
25.24567300,25245673,2,-0.14,0.37,135.49,0.0051934015937149525,0.012289213947951794,0.004559055902063847,0.023077255114912987,0.0,0.0,-0.38548219203948975,-0.02,0.02,0.06,0.0
25.34567300,25345673,2,-0.14,0.38,135.52,0.005074115004390478,0.012806213460862637,0.0048637534491717815,0.01570575311779976,0.0,0.0,-0.38440605998039246,-0.02,0.02,0.06,0.0
25.44566700,25445667,2,-0.14,0.38,135.55,0.004232141654938459,0.013087612576782703,0.004717028234153986,0.0069106933660805225,0.0,0.0,-0.38411417603492737,-0.02,0.02,0.05,0.0
25.54572500,25545725,2,-0.13,0.37,135.59,0.0031662508845329285,0.012945862486958504,0.003836150048300624,0.001796402269974351,0.0,0.0,-0.38364845514297485,-0.02,0.02,0.05,0.0
25.64573500,25645735,2,-0.13,0.37,135.63,0.002384559251368046,0.012159033678472042,0.0045064096339046955,0.020575586706399918,0.0,0.0,-0.38113442063331604,-0.02,0.02,0.04,0.0
25.74570200,25745702,2,-0.13,0.38,135.65,0.002580456668511033,0.011165428906679153,0.005312934052199125,0.021243831142783165,0.0,0.0,-0.380019873380661,-0.02,0.02,0.04,0.0
25.84572600,25845726,2,-0.13,0.38,135.67000000000002,0.002355172298848629,0.011075185611844063,0.004663380328565836,-0.007680005859583616,0.0,0.0,-0.38112330436706543,-0.02,0.02,0.04,0.0
25.94566900,25945669,2,-0.13,0.39,135.61,0.001383833005093038,0.010973178781569004,0.004364045802503824,-0.026968540623784065,0.0,0.0,-0.3832632601261139,-0.02,0.02,0.09,0.0
26.04566700,26045667,2,-0.13,0.39,135.41,0.002144287573173642,0.011071044951677322,0.003975069150328636,-0.0396144725382328,0.0,0.0,-0.38657432794570923,-0.02,0.02,0.15,0.0
26.14566700,26145667,2,-0.13,0.38,135.15,0.002570065436884761,0.010057111270725727,0.004091760143637657,-0.029610097408294678,0.0,0.0,-0.3882773220539093,-0.02,0.02,0.15,0.0
26.24566800,26245668,2,-0.13,0.38,134.92000000000002,0.0022057408932596445,0.009831199422478676,0.00421954644843936,-0.025932196527719498,0.0,0.0,-0.39133408665657043,-0.02,0.02,0.14,0.0
26.34567100,26345671,2,-0.13,0.38,134.76,0.0032647070474922657,0.009049893356859684,0.005186875816434622,-0.02589466981589794,0.0,0.0,-0.39321449398994446,-0.02,0.02,0.14,0.0
26.44573100,26445731,2,-0.14,0.39,134.66,0.0029274695552885532,0.00854917336255312,0.005673774518072605,-0.006084972061216831,0.0,0.0,-0.39376333355903625,-0.02,0.02,0.13,0.0
26.54573400,26545734,2,-0.14,0.38,134.64000000000001,0.003511150600388646,0.008349384181201458,0.0074338167905807495,0.009146095253527164,0.0,0.0,-0.3930645287036896,-0.02,0.02,0.13,0.0
26.64568700,26645687,2,-0.13,0.37,134.66,0.0028880639001727104,0.0084531856700778,0.008387687616050243,0.014644265174865723,0.0,0.0,-0.39242619276046753,-0.02,0.02,0.12,0.0
26.74572600,26745726,2,-0.13,0.37,134.71,0.002853900194168091,0.008791085332632065,0.009069572202861309,0.01592543162405491,0.0,0.0,-0.39098265767097473,-0.02,0.02,0.12,0.0
26.84567000,26845670,2,-0.14,0.37,134.75,0.003354006912559271,0.007296142168343067,0.011027324013411999,0.0015799400862306356,0.0,0.0,-0.39206159114837646,-0.02,0.02,0.11,0.0
26.94567300,26945673,2,-0.13,0.37,134.81,0.0031551490537822247,0.007283831015229225,0.011256936006247997,-0.011840462684631348,0.0,0.0,-0.3923470079898834,-0.02,0.02,0.1,0.0
27.04566600,27045666,2,-0.13,0.37,134.87,0.004335323814302683,0.007007682230323553,0.013165691867470741,-0.0008137357071973383,0.0,0.0,-0.39243796467781067,-0.02,0.02,0.1,0.0
27.14566700,27145667,2,-0.13,0.37,134.93,0.0033761360682547092,0.006900201551616192,0.012768415734171867,-0.021526021882891655,0.0,0.0,-0.3949492275714874,-0.02,0.02,0.09,0.0
27.24567500,27245675,2,-0.13,0.37,135.0,0.0025020339526236057,0.006880404427647591,0.012880027294158936,-0.016350124031305313,0.0,0.0,-0.3953309953212738,-0.02,0.02,0.09,0.0
27.34573200,27345732,2,-0.13,0.37,135.05,0.002518518129363656,0.007410728372633457,0.012055550701916218,0.003756278194487095,0.0,0.0,-0.3947306275367737,-0.02,0.02,0.09,0.0
27.44574000,27445740,2,-0.13,0.37,135.08,0.002562943147495389,0.008334483951330185,0.012788021937012672,0.02145605906844139,0.0,0.0,-0.3926669657230377,-0.02,0.02,0.08,0.0
27.54569600,27545696,2,-0.13,0.36,135.11,0.0021321165841072798,0.008400224149227142,0.013515747152268887,0.03095940500497818,0.0,0.0,-0.3902927339076996,-0.02,0.02,0.08,0.0
27.64572000,27645720,2,-0.13,0.36,135.15,0.002410039771348238,0.009737054817378521,0.014882205054163933,0.04343211278319359,0.0,0.0,-0.3860330283641815,-0.02,0.02,0.07,0.0
27.74567200,27745672,2,-0.14,0.35000000000000003,135.18,0.0013566719135269523,0.010872072540223598,0.014177532866597176,0.047561611980199814,0.0,0.0,-0.3821782171726227,-0.02,0.02,0.07,0.0
27.84566700,27845667,2,-0.13,0.35000000000000003,135.21,0.0008271810365840793,0.010921732522547245,0.015344553627073765,0.04665190726518631,0.0,0.0,-0.3778541684150696,-0.02,0.02,0.07,0.0
27.94566400,27945664,2,-0.13,0.35000000000000003,135.24,0.0011977946851402521,0.010563196614384651,0.015785906463861465,0.03869234025478363,0.0,0.0,-0.37470543384552,-0.02,0.02,0.06,0.0
28.04566600,28045666,2,-0.14,0.34,135.27,0.0008086792659014463,0.010662869550287724,0.016967326402664185,0.03540799021720886,0.0,0.0,-0.3708779215812683,-0.02,0.02,0.06,0.0
28.14566600,28145666,2,-0.13,0.34,135.32,0.0017074047354981303,0.01136219222098589,0.018691696226596832,0.03850436955690384,0.0,0.0,-0.36720407009124756,-0.02,0.02,0.05,0.0
28.24572100,28245721,2,-0.13,0.34,135.35,0.0016209163004532456,0.011781401000916958,0.019859973341226578,0.016608217731118202,0.0,0.0,-0.36629801988601685,-0.02,0.02,0.05,0.0
28.34574500,28345745,2,-0.13,0.34,135.39000000000001,0.0008287994423881173,0.011911272071301937,0.02050076425075531,-0.014453129842877388,0.0,0.0,-0.3675510585308075,-0.02,0.02,0.05,0.0
28.44569900,28445699,2,-0.12,0.34,135.43,0.0001383827766403556,0.010780364274978638,0.02191256172955036,-0.0015091364039108157,0.0,0.0,-0.3657160997390747,-0.02,0.02,0.05,0.0
28.54571800,28545718,2,-0.13,0.34,135.45,-0.00041874105227179825,0.010808225721120834,0.022364238277077675,0.01847674325108528,0.0,0.0,-0.3637942969799042,-0.02,0.02,0.04,0.0
28.64566600,28645666,2,-0.13,0.34,135.48,-0.0007286798791028559,0.01158718578517437,0.023401107639074326,0.01684396155178547,0.0,0.0,-0.36233606934547424,-0.02,0.02,0.04,0.0
28.74567000,28745670,2,-0.12,0.34,135.46,-0.0004221197450533509,0.01203118171542883,0.023516066372394562,-0.0014253419358283281,0.0,0.0,-0.3628863990306854,-0.02,0.02,0.07,0.0
28.84566800,28845668,2,-0.12,0.34,135.32,0.0002819808723870665,0.011401557363569736,0.022999800741672516,-0.043177466839551926,0.0,0.0,-0.3671475052833557,-0.02,0.02,0.11,0.0
28.94568400,28945684,2,-0.13,0.35000000000000003,135.12,0.00044255523243919015,0.010944736190140247,0.022249162197113037,-0.059333436191082,0.0,0.0,-0.371408075094223,-0.02,0.02,0.11,0.0
29.04567200,29045672,2,-0.13,0.35000000000000003,134.93,-4.2586765630403534e-05,0.01085232850164175,0.02224336378276348,-0.040727321058511734,0.0,0.0,-0.37426409125328064,-0.02,0.02,0.11,0.0
29.14571900,29145719,2,-0.13,0.35000000000000003,134.8,0.0009137356537394226,0.010133870877325535,0.021739467978477478,-0.026766367256641388,0.0,0.0,-0.3767671585083008,-0.02,0.02,0.1,0.0
29.24574100,29245741,2,-0.12,0.35000000000000003,134.73,0.0010844292119145393,0.009365847334265709,0.02212231233716011,-0.01856156811118126,0.0,0.0,-0.3786371052265167,-0.02,0.02,0.1,0.0
29.34569200,29345692,2,-0.13,0.35000000000000003,134.71,0.0005420436500571668,0.009113735519349575,0.02178894728422165,-0.018559522926807404,0.0,0.0,-0.38084596395492554,-0.02,0.02,0.1,0.0
29.44572300,29445723,2,-0.13,0.36,134.72,0.00017073504568543285,0.0085132522508502,0.02169456146657467,-0.007742943242192268,0.0,0.0,-0.3812062442302704,-0.02,0.02,0.09,0.0
29.54570200,29545702,2,-0.13,0.36,134.76,-0.00020589918131008744,0.00858724769204855,0.02280002273619175,0.015258955769240856,0.0,0.0,-0.38004425168037415,-0.02,0.02,0.09,0.0
29.64566400,29645664,2,-0.14,0.35000000000000003,134.8,-0.0003357557288836688,0.008373496122658253,0.02391495555639267,0.0293610617518425,0.0,0.0,-0.37771478295326233,-0.02,0.02,0.09,0.0
29.74567100,29745671,2,-0.13,0.35000000000000003,134.85,-0.0009803244611248374,0.00810734648257494,0.024870257824659348,0.030191892758011818,0.0,0.0,-0.37567028403282166,-0.02,0.02,0.09,0.0
29.84567300,29845673,2,-0.13,0.36,134.89000000000001,-0.0013863954227417707,0.009037245064973831,0.02370605617761612,-0.00047968715080060065,0.0,0.0,-0.3766801357269287,-0.02,0.02,0.08,0.0
29.94566400,29945664,2,-0.13,0.36,134.93,-0.0014399035135284066,0.009213660843670368,0.02368098869919777,-0.03585735335946083,0.0,0.0,-0.379869669675827,-0.02,0.02,0.08,0.0
30.04571100,30045711,2,-0.14,0.36,134.97,-0.0004969493602402508,0.010465613566339016,0.024670856073498726,-0.03524570167064667,0.0,0.0,-0.3819172978401184,-0.02,0.02,0.07,0.0
30.14572700,30145727,2,-0.14,0.37,135.01,-0.00034899334423244,0.010857384651899338,0.023566899821162224,-0.017344405874609947,0.0,0.0,-0.3828824758529663,-0.02,0.02,0.07,0.0
30.24568800,30245688,2,-0.14,0.37,135.05,0.0004026819078717381,0.011532342992722988,0.02269436977803707,-0.022400813177227974,0.0,0.0,-0.38559117913246155,-0.02,0.02,0.07,0.0
30.34571400,30345714,2,-0.15,0.37,135.08,0.000603829394094646,0.012311059981584549,0.0223025344312191,-0.02593243308365345,0.0,0.0,-0.38746678829193115,-0.02,0.02,0.06,0.0
30.44566200,30445662,2,-0.15,0.37,135.13,0.0011120443232357502,0.013409262523055077,0.022544624283909798,-0.002587456488981843,0.0,0.0,-0.3872719407081604,-0.02,0.02,0.06,0.0
30.54565200,30545652,2,-0.15,0.37,135.15,0.0014589603524655104,0.014415736310184002,0.021857209503650665,0.016116783022880554,0.0,0.0,-0.38596224784851074,-0.02,0.02,0.06,0.0
30.64565500,30645655,2,-0.16,0.37,135.18,0.0020336599554866552,0.01603022962808609,0.02069234475493431,0.025843560695648193,0.0,0.0,-0.38391590118408203,-0.02,0.02,0.06,0.0
30.74565700,30745657,2,-0.16,0.36,135.2,0.0025645988062024117,0.015630146488547325,0.02068643644452095,0.024278942495584488,0.0,0.0,-0.38238897919654846,-0.02,0.02,0.06,0.0
30.84565700,30845657,2,-0.16,0.36,135.22,0.0024272974114865065,0.015682032331824303,0.02075672522187233,0.013566435314714909,0.0,0.0,-0.38144925236701965,-0.02,0.02,0.05,0.0
30.94571100,30945711,2,-0.17,0.36,135.24,0.003033049637451768,0.01519669871777296,0.021903065964579582,0.02102305181324482,0.0,0.0,-0.37899065017700195,-0.02,0.02,0.05,0.0
31.04572500,31045725,2,-0.16,0.36,135.26,0.0028102591168135405,0.015992149710655212,0.022701388224959373,0.02823607809841633,0.0,0.0,-0.37669920921325684,-0.02,0.02,0.05,0.0
31.14569900,31145699,2,-0.16,0.36,135.28,0.003294417867437005,0.016954857856035233,0.022735020145773888,0.016484307125210762,0.0,0.0,-0.3754243850708008,-0.02,0.02,0.05,0.0
31.24571200,31245712,2,-0.16,0.36,135.31,0.002704678336158395,0.017073053866624832,0.022811822593212128,-0.010577283799648285,0.0,0.0,-0.37698668241500854,-0.02,0.02,0.04,0.0
31.34566700,31345667,2,-0.16,0.36,135.34,0.0031023253686726093,0.017774369567632675,0.0216367207467556,-0.026870375499129295,0.0,0.0,-0.3784109055995941,-0.02,0.02,0.04,0.0
31.44565900,31445659,2,-0.16,0.35000000000000003,135.36,0.00347039382904768,0.01855291798710823,0.02092619426548481,-0.0282595194876194,0.0,0.0,-0.38079699873924255,-0.02,0.02,0.04,0.0
31.54565700,31545657,2,-0.16,0.35000000000000003,135.36,0.00285755330696702,0.018572188913822174,0.02036621980369091,-0.026610568165779114,0.0,0.0,-0.3824295103549957,-0.02,0.02,0.05,0.0
31.64567400,31645674,2,-0.16,0.35000000000000003,135.3,0.002913684118539095,0.018144167959690094,0.019643543288111687,-0.021796535700559616,0.0,0.0,-0.38461288809776306,-0.02,0.02,0.08,0.0
31.74565900,31745659,2,-0.16,0.35000000000000003,135.16,0.002895698882639408,0.017809338867664337,0.019346633926033974,-0.028363047167658806,0.0,0.0,-0.3872091770172119,-0.02,0.02,0.09,0.0
31.84572100,31845721,2,-0.16,0.35000000000000003,135.02,0.001998523250222206,0.018093617632985115,0.018745679408311844,-0.024419955909252167,0.0,0.0,-0.3892759680747986,-0.02,0.02,0.08,0.0
31.94572300,31945723,2,-0.16,0.35000000000000003,134.91,0.00249401549808681,0.01742984913289547,0.017659436911344528,-0.014215078204870224,0.0,0.0,-0.3904390037059784,-0.02,0.02,0.08,0.0
32.04568400,32045684,2,-0.16,0.35000000000000003,134.85,0.0022181596141308546,0.01711973361670971,0.01759939454495907,-0.00994845014065504,0.0,0.0,-0.3918207585811615,-0.02,0.02,0.08,0.0
32.14572000,32145720,2,-0.16,0.35000000000000003,134.83,0.0020900191739201546,0.018536901101469994,0.017907587811350822,-0.019806478172540665,0.0,0.0,-0.39417457580566406,-0.02,0.02,0.08,0.0
32.24568300,32245683,2,-0.16,0.36,134.84,0.002847708063200116,0.018907887861132622,0.018343254923820496,-0.004083055071532726,0.0,0.0,-0.39359569549560547,-0.02,0.02,0.07,0.0
32.34565500,32345655,2,-0.16,0.36,134.86,0.0033665387891232967,0.0195726677775383,0.01907799206674099,0.03232249990105629,0.0,0.0,-0.39064913988113403,-0.02,0.02,0.07,0.0
32.44565800,32445658,2,-0.16,0.36,134.9,0.003448665142059326,0.019014980643987656,0.020185112953186035,0.03268169239163399,0.0,0.0,-0.38891738653182983,-0.02,0.02,0.07,0.0
32.54565700,32545657,2,-0.16,0.36,134.95,0.0036916909739375114,0.019594620913267136,0.02108657918870449,0.010524109937250614,0.0,0.0,-0.38854914903640747,-0.02,0.02,0.06,0.0
32.64565200,32645652,2,-0.16,0.36,134.99,0.004065996035933495,0.01962260715663433,0.021547067910432816,0.0005599862197414041,0.0,0.0,-0.38821113109588623,-0.02,0.02,0.06,0.0
32.74571000,32745710,2,-0.16,0.36,135.03,0.0044815125875175,0.019723879173398018,0.022788142785429955,-8.28917691251263e-05,0.0,0.0,-0.3880501985549927,-0.02,0.02,0.06,0.0
32.84573900,32845739,2,-0.16,0.37,135.07,0.005622528027743101,0.019058257341384888,0.02410304732620716,-0.0024469876661896706,0.0,0.0,-0.3881620168685913,-0.02,0.02,0.06,0.0
32.94569000,32945690,2,-0.16,0.37,135.1,0.00577786797657609,0.019088365137577057,0.02454080432653427,0.0005258457968011498,0.0,0.0,-0.3877086639404297,-0.02,0.02,0.05,0.0
33.04571000,33045710,2,-0.16,0.36,135.14000000000001,0.006755128502845764,0.018559349700808525,0.024411959573626518,0.0032014523167163134,0.0,0.0,-0.38742563128471375,-0.02,0.02,0.05,0.0
33.14568900,33145689,2,-0.16,0.36,135.17000000000002,0.007015264593064785,0.018771545961499214,0.024652210995554924,-0.003039471572265029,0.0,0.0,-0.3878359794616699,-0.02,0.02,0.05,0.0
33.24565100,33245651,2,-0.16,0.37,135.2,0.006742849480360746,0.019257355481386185,0.025535333901643753,0.0007582831312902272,0.0,0.0,-0.3873072862625122,-0.02,0.02,0.05,0.0
33.34565500,33345655,2,-0.16,0.37,135.23,0.007159673608839512,0.019415954127907753,0.02558492124080658,-0.0026129239704459906,0.0,0.0,-0.38800448179244995,-0.02,0.02,0.05,0.0
33.44566000,33445660,2,-0.16,0.38,135.25,0.007367812562733889,0.019603269174695015,0.026597028598189354,-0.012924020178616047,0.0,0.0,-0.388972669839859,-0.02,0.02,0.04,0.0
33.54565900,33545659,2,-0.15,0.38,135.28,0.007125465665012598,0.01948682591319084,0.02605087123811245,-0.012917229905724525,0.0,0.0,-0.38993391394615173,-0.02,0.02,0.04,0.0
33.64570400,33645704,2,-0.15,0.38,135.3,0.0065146517008543015,0.01905030570924282,0.0264176856726408,-0.012154914438724518,0.0,0.0,-0.3909092843532562,-0.02,0.02,0.04,0.0
33.74572500,33745725,2,-0.15,0.38,135.32,0.006489754654467106,0.018021469935774803,0.026824025437235832,-0.0038945490960031748,0.0,0.0,-0.39098259806632996,-0.02,0.02,0.04,0.0
33.84569100,33845691,2,-0.15,0.39,135.34,0.00649205083027482,0.01747080497443676,0.02696952223777771,0.006675392389297485,0.0,0.0,-0.39034855365753174,-0.02,0.02,0.04,0.0
33.94571000,33945710,2,-0.15,0.39,135.36,0.00670723058283329,0.016301702708005905,0.027271294966340065,0.019407913088798523,0.0,0.0,-0.388403058052063,-0.02,0.02,0.03,0.0
34.04566600,34045666,2,-0.14,0.39,135.38,0.007529657334089279,0.015480401925742626,0.02821495197713375,0.023411976173520088,0.0,0.0,-0.3868739604949951,-0.02,0.02,0.03,0.0
34.14566600,34145666,2,-0.14,0.39,135.4,0.007326413411647081,0.014674339443445206,0.029315395280718803,0.023943651467561722,0.0,0.0,-0.38455188274383545,-0.02,0.02,0.03,0.0
34.24565100,34245651,2,-0.15,0.39,135.42000000000002,0.008146590553224087,0.014314920641481876,0.02990276925265789,0.01368609257042408,0.0,0.0,-0.38403967022895813,-0.03,0.02,0.03,0.0
34.34566300,34345663,2,-0.14,0.39,135.43,0.008308283053338528,0.01314099133014679,0.03023499995470047,-0.00025415836717002094,0.0,0.0,-0.3835586607456207,-0.03,0.02,0.03,0.0
34.44570500,34445705,2,-0.14,0.39,135.41,0.01014139037579298,0.012353784404695034,0.03034674935042858,0.011075691320002079,0.0,0.0,-0.38191744685173035,-0.03,0.02,0.05,0.0
34.54571600,34545716,2,-0.14,0.39,135.29,0.010088615119457245,0.011763504706323147,0.031389862298965454,0.022058675065636635,0.0,0.0,-0.3797706663608551,-0.03,0.02,0.07,0.0
34.64572300,34645723,2,-0.15,0.4,135.14000000000001,0.010647326707839966,0.010544154793024063,0.03299235925078392,0.032771363854408264,0.0,0.0,-0.37666043639183044,-0.03,0.02,0.07,0.0
34.74568800,34745688,2,-0.15,0.4,135.01,0.010959402658045292,0.009176487103104591,0.03416796028614044,0.04682130366563797,0.0,0.0,-0.37219181656837463,-0.03,0.02,0.07,0.0
34.84571900,34845719,2,-0.15,0.4,134.93,0.011678150855004787,0.008245655335485935,0.03600132092833519,0.06024225056171417,0.0,0.0,-0.36666399240493774,-0.03,0.02,0.07,0.0
34.94565400,34945654,2,-0.15,0.41000000000000003,134.89000000000001,0.01131423469632864,0.006802387535572052,0.03728219121694565,0.06175141781568527,0.0,0.0,-0.36131376028060913,-0.03,0.02,0.06,0.0
35.04565900,35045659,2,-0.15,0.41000000000000003,134.88,0.011762174777686596,0.006472231354564428,0.03908492624759674,0.054792821407318115,0.0,0.0,-0.3563168942928314,-0.03,0.02,0.06,0.0
35.14565100,35145651,2,-0.15,0.41000000000000003,134.89000000000001,0.012483015656471252,0.005378700327128172,0.040149904787540436,0.04821166768670082,0.0,0.0,-0.35167214274406433,-0.03,0.02,0.06,0.0
35.24565700,35245657,2,-0.15,0.4,134.91,0.012687345035374165,0.004088066518306732,0.04066308215260506,0.026816215366125107,0.0,0.0,-0.34942010045051575,-0.03,0.02,0.06,0.0
35.34566100,35345661,2,-0.15,0.4,134.94,0.012944825924932957,0.003534670453518629,0.04081408306956291,0.003595283953472972,0.0,0.0,-0.3483891189098358,-0.03,0.02,0.06,0.0
35.44571400,35445714,2,-0.15,0.4,134.98,0.013308009132742882,0.003184219356626272,0.041329920291900635,0.002743352670222521,0.0,0.0,-0.3471299111843109,-0.03,0.02,0.05,0.0
35.54572600,35545726,2,-0.15,0.4,135.01,0.013498318381607533,0.0023496232461184263,0.0412239134311676,0.009421944618225098,0.0,0.0,-0.34556955099105835,-0.03,0.02,0.05,0.0
35.64568200,35645682,2,-0.15,0.4,135.04,0.012985073029994965,0.002376976190134883,0.04102068021893501,0.0021023221779614687,0.0,0.0,-0.3455004096031189,-0.03,0.02,0.05,0.0
35.74571000,35745710,2,-0.15,0.4,135.08,0.012506373226642609,0.002386657753959298,0.04072184860706329,-0.01625501923263073,0.0,0.0,-0.34681570529937744,-0.03,0.02,0.05,0.0
35.84568700,35845687,2,-0.15,0.39,135.11,0.012806850485503674,0.0025441963225603104,0.03916796296834946,-0.015134915709495544,0.0,0.0,-0.3472108840942383,-0.03,0.02,0.05,0.0
35.94565100,35945651,2,-0.14,0.39,135.14000000000001,0.012648973613977432,0.0018472729716449976,0.04143766686320305,0.011163320392370224,0.0,0.0,-0.3455241620540619,-0.03,0.02,0.04,0.0
36.04565400,36045654,2,-0.14,0.39,135.17000000000002,0.01337557565420866,0.0006902389577589929,0.04127798229455948,0.029570285230875015,0.0,0.0,-0.34288692474365234,-0.03,0.02,0.04,0.0
36.14566100,36145661,2,-0.15,0.39,135.19,0.013992206193506718,0.0009618428885005414,0.04174059256911278,0.027223853394389153,0.0,0.0,-0.3410242199897766,-0.03,0.02,0.04,0.0
36.24565100,36245651,2,-0.15,0.39,135.22,0.013883526436984539,0.0006612241268157959,0.04265672340989113,0.017273031175136566,0.0,0.0,-0.33959898352622986,-0.03,0.02,0.04,0.0
36.34571400,36345714,2,-0.15,0.39,135.24,0.014285936020314693,-0.00010072875011246651,0.043384868651628494,0.014337966218590736,0.0,0.0,-0.33805984258651733,-0.03,0.02,0.04,0.0
36.44573400,36445734,2,-0.15,0.39,135.27,0.014698706567287445,-0.0007121623493731022,0.043655771762132645,0.01175750233232975,0.0,0.0,-0.33691978454589844,-0.03,0.02,0.04,0.0
36.54568100,36545681,2,-0.14,0.39,135.3,0.015301759354770184,-0.001055890112183988,0.04340213164687157,0.003953330684453249,0.0,0.0,-0.3364276587963104,-0.03,0.02,0.04,0.0
36.64572000,36645720,2,-0.15,0.39,135.32,0.015342027880251408,-0.00047996826469898224,0.04308401048183441,-0.0047693015076220036,0.0,0.0,-0.33666759729385376,-0.03,0.02,0.03,0.0
36.74566100,36745661,2,-0.14,0.4,135.34,0.015365737490355968,-0.0006704662228003144,0.0431370809674263,-0.005810262635350227,0.0,0.0,-0.3367151618003845,-0.03,0.02,0.03,0.0
36.84565500,36845655,2,-0.14,0.4,135.36,0.015186167322099209,-0.00031323666917160153,0.04386734962463379,0.003499838523566723,0.0,0.0,-0.3359734117984772,-0.03,0.02,0.03,0.0
36.94565200,36945652,2,-0.14,0.39,135.37,0.015292343683540821,-0.001202363520860672,0.04359260946512222,0.010905109345912933,0.0,0.0,-0.33483362197875977,-0.03,0.02,0.03,0.0
37.04565400,37045654,2,-0.14,0.39,135.39000000000001,0.015107045881450176,-0.0027162039186805487,0.044035058468580246,0.008079764433205128,0.0,0.0,-0.3343536853790283,-0.03,0.02,0.03,0.0
37.14565200,37145652,2,-0.14,0.39,135.41,0.014466063119471073,-0.002707971492782235,0.043877940624952316,0.0009800192201510072,0.0,0.0,-0.3341749608516693,-0.03,0.02,0.03,0.0
37.24571400,37245714,2,-0.14,0.39,135.41,0.01353158988058567,-0.002773539163172245,0.04367128014564514,-0.01152546051889658,0.0,0.0,-0.33548951148986816,-0.03,0.02,0.04,0.0
37.34573400,37345734,2,-0.13,0.39,135.33,0.013078641146421432,-0.0034307846799492836,0.041896432638168335,-0.04229440167546272,0.0,0.0,-0.3397066593170166,-0.03,0.02,0.06,0.0
37.44568200,37445682,2,-0.14,0.4,135.21,0.01400274969637394,-0.003953321371227503,0.041168078780174255,-0.048359811305999756,0.0,0.0,-0.3428482413291931,-0.03,0.02,0.06,0.0
37.54571100,37545711,2,-0.13,0.39,135.1,0.014247818849980831,-0.004393855109810829,0.04074949398636818,-0.017858074977993965,0.0,0.0,-0.3435923159122467,-0.03,0.02,0.06,0.0
37.64565400,37645654,2,-0.13,0.39,135.01,0.014308217912912369,-0.003745174966752529,0.04065447300672531,0.00819220207631588,0.0,0.0,-0.34288591146469116,-0.03,0.02,0.05,0.0
37.74565800,37745658,2,-0.12,0.39,134.97,0.013829058036208153,-0.00337930116802454,0.040627434849739075,0.014600053429603577,0.0,0.0,-0.34229326248168945,-0.03,0.02,0.05,0.0
37.84565600,37845656,2,-0.12,0.39,134.96,0.013486465439200401,-0.003961592447012663,0.03885267302393913,-0.0025600148364901543,0.0,0.0,-0.3432562053203583,-0.03,0.02,0.05,0.0
37.94565700,37945657,2,-0.12,0.39,134.97,0.01350119523704052,-0.0029027536511421204,0.0379609651863575,-0.022802064195275307,0.0,0.0,-0.34549680352211,-0.03,0.02,0.05,0.0
38.04565900,38045659,2,-0.12,0.39,134.99,0.012575572356581688,-0.0025661734398454428,0.036228377372026443,-0.03227546811103821,0.0,0.0,-0.3480689525604248,-0.03,0.02,0.05,0.0
38.14570900,38145709,2,-0.12,0.39,135.02,0.011560201644897461,-0.0026229533832520247,0.035976916551589966,-0.02045605145394802,0.0,0.0,-0.3492697775363922,-0.03,0.02,0.05,0.0
38.24572300,38245723,2,-0.11,0.4,135.05,0.01193240936845541,-0.003050441388040781,0.03554206341505051,-0.005670792423188686,0.0,0.0,-0.34985384345054626,-0.03,0.02,0.05,0.0
38.34568400,38345684,2,-0.11,0.4,135.08,0.011142042465507984,-0.002564184833317995,0.035873621702194214,0.012103998102247715,0.0,0.0,-0.348429799079895,-0.03,0.02,0.04,0.0
38.44571600,38445716,2,-0.11,0.4,135.1,0.010489050298929214,-0.002022553002461791,0.03609693795442581,0.030132265761494637,0.0,0.0,-0.34611809253692627,-0.03,0.02,0.04,0.0
38.54565600,38545656,2,-0.12,0.4,135.12,0.010307627730071545,-0.0015164111973717809,0.035212192684412,0.02152407169342041,0.0,0.0,-0.3449605107307434,-0.03,0.02,0.04,0.0
38.64565200,38645652,2,-0.12,0.41000000000000003,135.14000000000001,0.009683125652372837,-0.0009407933102920651,0.03597334399819374,0.005220154765993357,0.0,0.0,-0.34477660059928894,-0.03,0.02,0.04,0.0
38.74566200,38745662,2,-0.11,0.41000000000000003,135.15,0.009412773884832859,-0.0009019618737511337,0.03526092320680618,-0.007421750109642744,0.0,0.0,-0.3452947437763214,-0.03,0.02,0.04,0.0
38.84567700,38845677,2,-0.11,0.41000000000000003,135.17000000000002,0.008691214956343174,-0.0008198594441637397,0.034316811710596085,-0.009560742415487766,0.0,0.0,-0.3456028699874878,-0.03,0.02,0.04,0.0
38.94565300,38945653,2,-0.11,0.4,135.18,0.008472809568047523,-0.00176359957549721,0.035045601427555084,-0.0019058517646044493,0.0,0.0,-0.34550970792770386,-0.03,0.02,0.04,0.0
39.04572500,39045725,2,-0.11,0.4,135.19,0.007057875860482454,-0.0021026604808866978,0.03513742610812187,0.001194871962070465,0.0,0.0,-0.3454110622406006,-0.03,0.02,0.04,0.0
39.14573000,39145730,2,-0.11,0.41000000000000003,135.21,0.006259813904762268,-0.002704381011426449,0.03479553014039993,0.004042372107505798,0.0,0.0,-0.3449071943759918,-0.03,0.02,0.04,0.0
39.24568100,39245681,2,-0.11,0.41000000000000003,135.22,0.006001424044370651,-0.003114915918558836,0.03472935035824776,0.007744981907308102,0.0,0.0,-0.3442549705505371,-0.03,0.02,0.03,0.0
39.34571200,39345712,2,-0.1,0.41000000000000003,135.24,0.006360326427966356,-0.0035132537595927715,0.0343518927693367,-0.0013118833303451538,0.0,0.0,-0.34476444125175476,-0.03,0.02,0.03,0.0
39.44566900,39445669,2,-0.1,0.41000000000000003,135.25,0.006656358949840069,-0.003230542875826359,0.03351042419672012,-0.016920987516641617,0.0,0.0,-0.34628888964653015,-0.03,0.02,0.03,0.0
39.54565300,39545653,2,-0.11,0.41000000000000003,135.27,0.006096635479480028,-0.003291074186563492,0.031818076968193054,-0.025952264666557312,0.0,0.0,-0.34833022952079773,-0.03,0.02,0.03,0.0
39.64565500,39645655,2,-0.11,0.41000000000000003,135.29,0.006179819814860821,-0.002918894635513425,0.030642177909612656,-0.030258968472480774,0.0,0.0,-0.350829541683197,-0.03,0.02,0.03,0.0
39.74566100,39745661,2,-0.11,0.41000000000000003,135.32,0.0052949427627027035,-0.0036223726347088814,0.030730782076716423,-0.02809036336839199,0.0,0.0,-0.35309651494026184,-0.03,0.02,0.03,0.0
39.84566000,39845660,2,-0.11,0.4,135.34,0.0053789811208844185,-0.003163187764585018,0.030671067535877228,-0.013155818916857243,0.0,0.0,-0.3538557291030884,-0.03,0.02,0.03,0.0
39.94570400,39945704,2,-0.1,0.41000000000000003,135.37,0.006103415507823229,-0.004346163012087345,0.031494706869125366,0.002907839138060808,0.0,0.0,-0.35379523038864136,-0.03,0.02,0.02,0.0
40.04572800,40045728,2,-0.1,0.42,135.38,0.005539399106055498,-0.004065888933837414,0.030614037066698074,-0.0018092560349032283,0.0,0.0,-0.35464122891426086,-0.03,0.02,0.03,0.0
40.14568100,40145681,2,-0.1,0.42,135.34,0.0063931578770279884,-0.0047773034311831,0.03035353496670723,-0.0024124975316226482,0.0,0.0,-0.35463741421699524,-0.03,0.02,0.04,0.0
40.24570800,40245708,2,-0.1,0.42,135.24,0.006333034485578537,-0.005075893830507994,0.029692262411117554,-0.013783070258796215,0.0,0.0,-0.35687756538391113,-0.03,0.02,0.05,0.0
40.34569100,40345691,2,-0.1,0.41000000000000003,135.14000000000001,0.007057020906358957,-0.004820242989808321,0.028530506417155266,-0.041307393461465836,0.0,0.0,-0.36064261198043823,-0.03,0.02,0.05,0.0
40.44566000,40445660,2,-0.1,0.41000000000000003,135.06,0.007439773995429277,-0.00511545455083251,0.027843371033668518,-0.030301127582788467,0.0,0.0,-0.36224374175071716,-0.03,0.02,0.05,0.0
40.54565200,40545652,2,-0.1,0.41000000000000003,135.01,0.007280947174876928,-0.005925176199525595,0.028433091938495636,-0.007647925056517124,0.0,0.0,-0.3629802465438843,-0.03,0.02,0.04,0.0
40.64565800,40645658,2,-0.1,0.41000000000000003,134.99,0.007161074783653021,-0.006175275892019272,0.028740055859088898,0.017325803637504578,0.0,0.0,-0.3609139323234558,-0.03,0.02,0.04,0.0
40.74565800,40745658,2,-0.1,0.41000000000000003,135.0,0.007092573679983616,-0.006625994108617306,0.028879588469862938,0.035692036151885986,0.0,0.0,-0.35849729180336,-0.03,0.02,0.04,0.0
40.84570800,40845708,2,-0.1,0.41000000000000003,135.02,0.007509367540478706,-0.007443223614245653,0.02910110354423523,0.022816605865955353,0.0,0.0,-0.3572162985801697,-0.03,0.02,0.04,0.0
40.94572600,40945726,2,-0.09,0.4,135.04,0.00637022964656353,-0.007410197053104639,0.02812545746564865,-0.0023446548730134964,0.0,0.0,-0.35808974504470825,-0.03,0.02,0.04,0.0
41.04569100,41045691,2,-0.09,0.4,135.07,0.006291726604104042,-0.007817903533577919,0.02829357422888279,-0.021562933921813965,0.0,0.0,-0.35969939827919006,-0.03,0.02,0.04,0.0
41.14571100,41145711,2,-0.09,0.4,135.1,0.005745778325945139,-0.0075373537838459015,0.02831820771098137,-0.020534366369247437,0.0,0.0,-0.36095622181892395,-0.03,0.02,0.04,0.0
41.24565400,41245654,2,-0.09,0.41000000000000003,135.13,0.005559660494327545,-0.008958949707448483,0.027415050193667412,-0.024000845849514008,0.0,0.0,-0.36316829919815063,-0.03,0.02,0.04,0.0
41.34566400,41345664,2,-0.08,0.41000000000000003,135.15,0.005614999681711197,-0.010250662453472614,0.02652083896100521,-0.03290687873959541,0.0,0.0,-0.3659876883029938,-0.03,0.02,0.04,0.0
41.44565400,41445654,2,-0.09,0.42,135.17000000000002,0.005713609978556633,-0.011287432163953781,0.025899117812514305,-0.030193209648132324,0.0,0.0,-0.36835977435112,-0.03,0.02,0.03,0.0
41.54566400,41545664,2,-0.09,0.41000000000000003,135.19,0.006065350491553545,-0.011924175545573235,0.025560526177287102,-0.02366030216217041,0.0,0.0,-0.37044981122016907,-0.03,0.02,0.03,0.0
41.64565600,41645656,2,-0.09,0.41000000000000003,135.22,0.006143160630017519,-0.011977060697972775,0.024536216631531715,-0.012739271856844425,0.0,0.0,-0.3713599443435669,-0.03,0.02,0.03,0.0
41.74573400,41745734,2,-0.09,0.41000000000000003,135.24,0.0053743780590593815,-0.012034915387630463,0.024202773347496986,-0.017041295766830444,0.0,0.0,-0.37391766905784607,-0.03,0.02,0.03,0.0
41.84572800,41845728,2,-0.09,0.4,135.26,0.004794655833393335,-0.012457016855478287,0.023165985941886902,-0.025608334690332413,0.0,0.0,-0.3759622573852539,-0.03,0.02,0.03,0.0
41.94569600,41945696,2,-0.09,0.4,135.28,0.00480022095143795,-0.012016622349619865,0.0216586384922266,-0.02320878393948078,0.0,0.0,-0.3783377707004547,-0.03,0.02,0.03,0.0
42.04572200,42045722,2,-0.09,0.4,135.3,0.003772822441533208,-0.01118453685194254,0.020724814385175705,-0.028290117159485817,0.0,0.0,-0.3809531033039093,-0.03,0.02,0.03,0.0
42.14568900,42145689,2,-0.08,0.39,135.32,0.002982293488457799,-0.011593836359679699,0.0200126264244318,-0.030304063111543655,0.0,0.0,-0.383902370929718,-0.03,0.02,0.03,0.0
42.24565100,42245651,2,-0.08,0.39,135.34,0.0027442574501037598,-0.011086934246122837,0.020368507131934166,-0.009518062695860863,0.0,0.0,-0.3838959038257599,-0.03,0.02,0.02,0.0
42.34565900,42345659,2,-0.08,0.38,135.36,0.0022108801640570164,-0.010860223323106766,0.020356345921754837,0.02459626831114292,0.0,0.0,-0.38181421160697937,-0.03,0.02,0.02,0.0
42.44566600,42445666,2,-0.09,0.38,135.37,0.0011498195817694068,-0.01020568236708641,0.019443346187472343,0.029830260202288628,0.0,0.0,-0.37993550300598145,-0.03,0.02,0.02,0.0
42.54565200,42545652,2,-0.09,0.38,135.4,0.0004964099498465657,-0.00932143721729517,0.019697437062859535,0.01811591349542141,0.0,0.0,-0.3790457248687744,-0.03,0.02,0.02,0.0
42.64570800,42645708,2,-0.09,0.38,135.42000000000002,-0.00038177892565727234,-0.008743517100811005,0.019077565521001816,0.010393655858933926,0.0,0.0,-0.37796035408973694,-0.03,0.02,0.02,0.0
42.74574200,42745742,2,-0.1,0.38,135.43,-0.0010534378234297037,-0.00820142962038517,0.020562708377838135,0.009767765179276466,0.0,0.0,-0.3772035539150238,-0.03,0.02,0.02,0.0
42.84570200,42845702,2,-0.09,0.37,135.45,-0.0011634138645604253,-0.009013114497065544,0.019756769761443138,0.0029298411682248116,0.0,0.0,-0.37680211663246155,-0.03,0.02,0.02,0.0
42.94571000,42945710,2,-0.09,0.37,135.42000000000002,-0.0019527110271155834,-0.008677423931658268,0.019983673468232155,0.003802969353273511,0.0,0.0,-0.376163512468338,-0.03,0.02,0.03,0.0
43.04565900,43045659,2,-0.09,0.37,135.35,-0.0020830724388360977,-0.008194084279239178,0.020490728318691254,0.00991934072226286,0.0,0.0,-0.3750368654727936,-0.03,0.02,0.04,0.0
43.14565000,43145650,2,-0.09,0.36,135.25,-0.0020733491983264685,-0.007784119341522455,0.02029351331293583,0.00850133690983057,0.0,0.0,-0.37444838881492615,-0.03,0.02,0.04,0.0
43.24565200,43245652,2,-0.09,0.36,135.16,-0.002912209602072835,-0.007505582179874182,0.020373471081256866,-0.00350619712844491,0.0,0.0,-0.3749643862247467,-0.03,0.02,0.04,0.0
43.34567200,43345672,2,-0.09,0.36,135.1,-0.003269386710599065,-0.006644925102591515,0.02082839421927929,-0.018100054934620857,0.0,0.0,-0.37665683031082153,-0.03,0.02,0.04,0.0
43.44566200,43445662,2,-0.09,0.37,135.08,-0.003051245352253318,-0.0070523470640182495,0.020731432363390923,-0.021059952676296234,0.0,0.0,-0.377977192401886,-0.03,0.02,0.04,0.0
