timestamp,TimeUS,C,Q1,Q2,Q3,Q4
9.44574900,9445749,2,1.0,0.0,0.0,0.0
9.54571500,9545715,2,1.0,0.0,0.0,0.0
9.64573700,9645737,2,1.0,0.0,0.0,0.0
9.74567300,9745673,2,1.0,0.0,0.0,0.0
9.84569800,9845698,2,1.0,0.0,0.0,0.0
9.94567300,9945673,2,1.0,0.0,0.0,0.0
10.04567900,10045679,2,1.0,0.0,0.0,0.0
10.14567500,10145675,2,1.0,0.0,0.0,0.0
10.24573300,10245733,2,1.0,0.0,0.0,0.0
10.34575000,10345750,2,1.0,0.0,0.0,0.0
10.44571700,10445717,2,0.9999940991401672,-0.0005295610171742737,0.003398558124899864,2.0428751668077894e-05
10.54572100,10545721,2,0.9999938607215881,-0.0004996104398742318,0.0034589467104524374,7.653163629584014e-05
10.64567500,10645675,2,0.9999938607215881,-0.0005311311688274145,0.0034547019749879837,0.00010655677760951221
10.74569900,10745699,2,0.9999937415122986,-0.0005833291215822101,0.003495926735922694,9.632422734284773e-05
10.84567700,10845677,2,0.9999935626983643,-0.0006250839214771986,0.003525498555973172,5.822895764140412e-05
10.94566700,10945667,2,0.9999933242797852,-0.0006417486583814025,0.0035900918301194906,3.678763459902257e-05
11.04567600,11045676,2,0.9999932050704956,-0.0006528643425554037,0.003633897751569748,-1.3455334737955127e-05
11.14572800,11145728,2,0.999993085861206,-0.0007044890662655234,0.0036555153783410788,4.294066457077861e-05
11.24573800,11245738,2,0.9999929070472717,-0.0007390583050437272,0.003696566680446267,2.2500220438814722e-05
11.34570800,11345708,2,0.9999927878379822,-0.0007861437043175101,0.003708753501996398,8.698544843355194e-05
11.44573200,11445732,2,0.9999924302101135,-0.0007900791824795306,0.003814735682681203,7.69838661653921e-05
11.54570800,11545708,2,0.9999922513961792,-0.0008571923244744539,0.003841794328764081,7.990302401594818e-05
11.64567500,11645675,2,0.9999920725822449,-0.000835647399071604,0.0038928354624658823,9.515610145172104e-05
11.74567500,11745675,2,0.9999918341636658,-0.0008333701407536864,0.003945800941437483,0.00015595836157444865
11.84567300,11845673,2,0.9999915361404419,-0.0008376271580345929,0.004022502806037664,0.00018594540597405285
11.94566900,11945669,2,0.39512985944747925,-0.004042147658765316,0.0007859230390749872,0.9186160564422607
12.04574100,12045741,2,0.39354759454727173,-0.0040032388642430305,0.0008147096959874034,0.9192951917648315
12.14573700,12145737,2,0.39002129435539246,-0.004095292650163174,0.0008290805271826684,0.9207963347434998
12.24569300,12245693,2,0.3857194781303406,-0.004121754784137011,0.000860408938024193,0.9226065278053284
12.34572700,12345727,2,0.3813032805919647,-0.004234448075294495,0.0009164309012703598,0.9244398474693298
12.44571300,12445713,2,0.37732502818107605,-0.004320533946156502,0.0009382168645970523,0.9260703325271606
12.54566300,12545663,2,0.37409430742263794,-0.004371590446680784,0.0009477022686041892,0.9273799061775208
12.64566600,12645666,2,0.3716842830181122,-0.0044140564277768135,0.0009655422763898969,0.928348183631897
12.74567600,12745676,2,0.3698681592941284,-0.004417295567691326,0.0009457605774514377,0.9290732741355896
12.84567200,12845672,2,0.3684774339199066,-0.004430440720170736,0.0009145067888312042,0.9296256899833679
12.94571600,12945716,2,0.36735376715660095,-0.004453696310520172,0.0008758536423556507,0.9300702214241028
13.04574300,13045743,2,0.36658260226249695,-0.004457596689462662,0.0008258246234618127,0.9303744435310364
13.14568900,13145689,2,0.36611008644104004,-0.004443644545972347,0.0008361204527318478,0.9305605888366699
13.24572300,13245723,2,0.36595839262008667,-0.004453446250408888,0.0008413138566538692,0.9306201934814453
13.34568300,13345683,2,0.36582162976264954,-0.004443424288183451,0.0008219665032811463,0.9306740164756775
13.44566800,13445668,2,0.3657914698123932,-0.00441219424828887,0.0007556011551059783,0.9306860566139221
13.54566500,13545665,2,0.3656724691390991,-0.004379502963274717,0.0007320327567867935,0.9307330250740051
13.64566500,13645665,2,0.3656443655490875,-0.004252210259437561,0.0006733546033501625,0.9307447075843811
13.74566600,13745666,2,0.36569011211395264,-0.004208963364362717,0.0006080786697566509,0.930726945400238
13.84573700,13845737,2,0.36577728390693665,-0.004153253044933081,0.0005498737446032465,0.9306929707527161
13.94573600,13945736,2,0.3657962381839752,-0.004112962167710066,0.0005077580572105944,0.9306857585906982
14.04569600,14045696,2,0.36570534110069275,-0.004030360374599695,0.00045541225699707866,0.9307218790054321
14.14573200,14145732,2,0.36555975675582886,-0.003993665333837271,0.00039221355109475553,0.930779218673706
14.24566700,14245667,2,0.3654128909111023,-0.00397068914026022,0.00037669457378797233,0.9308369755744934
14.34568900,14345689,2,0.36533647775650024,-0.003929945174604654,0.0003562967467587441,0.9308671951293945
14.44567000,14445670,2,0.36528801918029785,-0.00389330112375319,0.00037665374111384153,0.9308863282203674
14.54566600,14545666,2,0.3655276596546173,-0.0038185513112694025,0.0003271313908044249,0.9307925701141357
14.64567300,14645673,2,0.36731287837028503,-0.0037145093083381653,0.0003135893784929067,0.9300899505615234
14.74572100,14745721,2,0.37059128284454346,-0.0036606129724532366,0.0003489723021630198,0.9287887811660767
14.84573800,14845738,2,0.373875230550766,-0.003610210260376334,0.0003516901342663914,0.927471935749054
14.94569400,14945694,2,0.3764173686504364,-0.003535103052854538,0.0004480820207390934,0.926443338394165
15.04572800,15045728,2,0.37797218561172485,-0.0034840372391045094,0.0004462915239855647,0.9258102774620056
15.14569600,15145696,2,0.3786605894565582,-0.003422684967517853,0.0004411403788253665,0.9255291819572449
15.24566200,15245662,2,0.3787032961845398,-0.00346768437884748,0.0004891223507001996,0.9255115389823914
15.34567300,15345673,2,0.37840694189071655,-0.003510998096317053,0.00047616311348974705,0.9256325364112854
15.44566800,15445668,2,0.37786251306533813,-0.0034823266323655844,0.00047469165292568505,0.9258550405502319
15.54566400,15545664,2,0.3773224353790283,-0.0034865657798945904,0.0005239482852630317,0.9260752201080322
15.64572100,15645721,2,0.37677085399627686,-0.0035238286945968866,0.0005666990182362497,0.9262996315956116
15.74573500,15745735,2,0.3762422800064087,-0.003506964771077037,0.0005816850461997092,0.9265145063400269
15.84569600,15845696,2,0.375780314207077,-0.003547565545886755,0.0005788290873169899,0.9267017841339111
15.94572100,15945721,2,0.3753102719783783,-0.003573563415557146,0.0006003044545650482,0.9268921613693237
16.04569500,16045695,2,0.37490594387054443,-0.003549987217411399,0.000628954207058996,0.927055835723877
16.14566600,16145666,2,0.37458503246307373,-0.0035928431898355484,0.0006589272525161505,0.9271853566169739
16.24566400,16245664,2,0.3742869794368744,-0.0036215269938111305,0.0006452954839915037,0.9273056387901306
16.34566900,16345669,2,0.3739912509918213,-0.0036413869820535183,0.000622267194557935,0.9274248480796814
16.44566800,16445668,2,0.3737390637397766,-0.0036549484357237816,0.0005774645251221955,0.9275265336036682
16.54572400,16545724,2,0.37354776263237,-0.0037184790708124638,0.0005810355651192367,0.9276033043861389
16.64573400,16645734,2,0.37335678935050964,-0.0036984914913773537,0.0005396327469497919,0.9276803135871887
16.74570000,16745700,2,0.37307870388031006,-0.003691639518365264,0.000518572109285742,0.9277921915054321
16.84572300,16845723,2,0.3727650046348572,-0.0036724365781992674,0.0004949118010699749,0.9279183745384216
16.94569200,16945692,2,0.3723665773868561,-0.003680754918605089,0.000489627243950963,0.928078293800354
17.04566700,17045667,2,0.3719581365585327,-0.0037105765659362078,0.0004925747634842992,0.9282419681549072
17.14566200,17145662,2,0.3714461326599121,-0.0037054596468806267,0.0004434295988176018,0.9284470081329346
17.24566900,17245669,2,0.3710024058818817,-0.0036840522661805153,0.0004893524455837905,0.9286244511604309
17.34567700,17345677,2,0.37066197395324707,-0.003742585191503167,0.0004744883917737752,0.9287601709365845
17.44571900,17445719,2,0.37132060527801514,-0.0037218136712908745,0.0005182989407330751,0.9284971356391907
17.54573800,17545738,2,0.3738413453102112,-0.0037015085108578205,0.0005273760762065649,0.9274851083755493
17.64569500,17645695,2,0.3772183656692505,-0.003768478985875845,0.0004935549222864211,0.9261165261268616
17.74572100,17745721,2,0.3800773620605469,-0.003710801713168621,0.00044794162386097014,0.9249471426010132
17.84566900,17845669,2,0.3820358216762543,-0.003758972277864814,0.00043768485193140805,0.9241397976875305
17.94567000,17945670,2,0.38303568959236145,-0.0037961076013743877,0.00045622323523275554,0.9237256050109863
18.04567000,18045670,2,0.38333719968795776,-0.0038622603751719,0.0004799714661203325,0.9236002564430237
18.14566700,18145667,2,0.3831835687160492,-0.003927952144294977,0.0004583180707413703,0.9236637353897095
18.24566900,18245669,2,0.38278260827064514,-0.0038983779959380627,0.0004140642413403839,0.9238301515579224
18.34573000,18345730,2,0.38220924139022827,-0.0038783287163823843,0.0003628910635598004,0.9240676164627075
18.44575100,18445751,2,0.3815555274486542,-0.003835381241515279,0.00038045516703277826,0.9243378639221191
18.54568600,18545686,2,0.3810115456581116,-0.003782452316954732,0.0004515663313213736,0.9245624542236328
18.64571900,18645719,2,0.38052430748939514,-0.003807405009865761,0.0005087365861982107,0.9247629642486572
18.74567300,18745673,2,0.38000622391700745,-0.0037564155645668507,0.0005129094352014363,0.9249761700630188
18.84566500,18845665,2,0.37947478890419006,-0.0037731442134827375,0.0005336987669579685,0.9251942038536072
18.94567000,18945670,2,0.37887758016586304,-0.0037222218234091997,0.0005245805950835347,0.925439178943634
19.04567600,19045676,2,0.37832537293434143,-0.003720520529896021,0.0005411147722043097,0.925665020942688
19.14566400,19145664,2,0.37773141264915466,-0.003738714149221778,0.0004901736392639577,0.925907552242279
19.24573600,19245736,2,0.37714526057243347,-0.0037827230989933014,0.00048076972598209977,0.9261462688446045
19.34573800,19345738,2,0.37666112184524536,-0.003737775608897209,0.0004385364009067416,0.9263435006141663
19.44570400,19445704,2,0.3762219250202179,-0.0037451712414622307,0.0004514092579483986,0.926521897315979
19.54572200,19545722,2,0.37581512331962585,-0.0037655585911124945,0.00046356106759049,0.9266868829727173
19.64566400,19645664,2,0.375470370054245,-0.0037681132089346647,0.0004613082855939865,0.9268265962600708
19.74566600,19745666,2,0.3750413954257965,-0.0037565992679446936,0.00041207150206901133,0.9270003437995911
19.84566800,19845668,2,0.37465059757232666,-0.0037137202452868223,0.0003822256112471223,0.927158534526825
19.94568500,19945685,2,0.37430357933044434,-0.0037227272987365723,0.00037844065809622407,0.9272986650466919
20.04567800,20045678,2,0.37396737933158875,-0.00367937539704144,0.00039019837277010083,0.927434504032135
20.14573500,20145735,2,0.37359458208084106,-0.0037237422075122595,0.00038704165490344167,0.9275845289230347
20.24573300,20245733,2,0.37387412786483765,-0.003705481765791774,0.00029616808751598,0.9274719953536987
20.34571100,20345711,2,0.3756873905658722,-0.0036748864222317934,0.00027510643121786416,0.9267390966415405
20.44572800,20445728,2,0.3784278333187103,-0.003676614025607705,0.0002857409417629242,0.9256234765052795
20.54569200,20545692,2,0.38098010420799255,-0.0036536254920065403,0.00028021982870996,0.9245759844779968
20.64566400,20645664,2,0.3826824426651001,-0.0036508014891296625,0.0002348093403270468,0.923872709274292
20.74567000,20745670,2,0.3835484981536865,-0.0037191936280578375,0.0002235415595350787,0.9235132336616516
20.84566600,20845666,2,0.3838007152080536,-0.0037098166067153215,0.000202168186660856,0.9234084486961365
20.94566500,20945665,2,0.38360595703125,-0.0036842660047113895,0.0002213218540418893,0.923489511013031
21.04573900,21045739,2,0.38310837745666504,-0.003739106934517622,0.0002665808133315295,0.9236958026885986
21.14573600,21145736,2,0.38244569301605225,-0.003740138141438365,0.0002286821836605668,0.9239703416824341
21.24569700,21245697,2,0.38189297914505005,-0.0037960766348987818,0.00023043340479489416,0.9241987466812134
21.34572800,21345728,2,0.38137972354888916,-0.0037945739459246397,0.00019056715245824307,0.9244106411933899
21.44566900,21445669,2,0.38095444440841675,-0.003845619736239314,0.000162422627909109,0.9245858192443848
21.54566300,21545663,2,0.3806205987930298,-0.003836462739855051,0.00014787940017413348,0.9247233271598816
21.64566400,21645664,2,0.3802042603492737,-0.0038265311159193516,0.0001197235396830365,0.9248946309089661
21.74566500,21745665,2,0.3798474967479706,-0.0037868896033614874,0.00010682577703846619,0.9250413775444031
21.84567400,21845674,2,0.3794978857040405,-0.003798131598159671,7.705090683884919e-05,0.9251847863197327
21.94573200,21945732,2,0.3791756331920624,-0.0037848125211894512,8.183637692127377e-05,0.9253169894218445
22.04574000,22045740,2,0.378807932138443,-0.0037948002573102713,7.830299000488594e-05,0.9254675507545471
22.14570700,22145707,2,0.3783378005027771,-0.0038348520174622536,0.00011064975115004927,0.9256596565246582
22.24571900,22245719,2,0.3779102861881256,-0.0038343665655702353,0.00012733059702441096,0.9258342981338501
22.34567100,22345671,2,0.3774990737438202,-0.0038378078024834394,0.00015171838458627462,0.9260019659996033
22.44566900,22445669,2,0.37707510590553284,-0.0037986545357853174,0.00014891827595420182,0.9261748790740967
22.54566300,22545663,2,0.3766500651836395,-0.003777098376303911,0.00014923936396371573,0.9263479113578796
22.64566400,22645664,2,0.3763209283351898,-0.003766395850107074,6.374667282216251e-05,0.9264817237854004
22.74567900,22745679,2,0.376054584980011,-0.003703224239870906,6.3886764110066e-05,0.926590085029602
22.84573800,22845738,2,0.37588632106781006,-0.0036868543829768896,7.98045948613435e-05,0.9266584515571594
22.94574700,22945747,2,0.3757016956806183,-0.003743263427168131,4.446399543667212e-05,0.9267330765724182
23.04569600,23045696,2,0.37567973136901855,-0.0037634107284247875,6.605763337574899e-05,0.926741898059845
23.14572200,23145722,2,0.3765852153301239,-0.003696796949952841,5.219560262048617e-05,0.926374614238739
23.24569400,23245694,2,0.3785112798213959,-0.0036101536825299263,7.630534673808143e-05,0.9255896210670471
23.34566700,23345667,2,0.38058292865753174,-0.0035471515730023384,8.42460649437271e-05,0.9247400164604187
23.44566700,23445667,2,0.3822723925113678,-0.0035072285681962967,9.870583016891032e-05,0.9240429997444153
23.54567000,23545670,2,0.38332003355026245,-0.003506755456328392,5.20699868502561e-05,0.9236088991165161
23.64566600,23645666,2,0.3837682604789734,-0.003470609663054347,8.132898801704869e-05,0.9234229326248169
23.74571700,23745717,2,0.383762925863266,-0.003465852001681924,9.65859871939756e-05,0.9234251379966736
23.84574000,23845740,2,0.3834861218929291,-0.003422904759645462,0.0001273998204851523,0.9235402941703796
23.94569400,23945694,2,0.3831019103527069,-0.0034776951652020216,0.00014081325207371265,0.9236994981765747
24.04572200,24045722,2,0.3826219439506531,-0.0035096334759145975,0.00014372981968335807,0.9238983392715454
24.14566700,24145667,2,0.3821888864040375,-0.003511941060423851,0.00010134426702279598,0.924077570438385
24.24566300,24245663,2,0.3817598521709442,-0.00352628156542778,9.576521551935002e-05,0.924254834651947
24.34566900,24345669,2,0.3814564049243927,-0.003497523721307516,5.6494303862564266e-05,0.9243801832199097
24.44568200,24445682,2,0.3811183273792267,-0.003488529473543167,0.00010118752106791362,0.9245196580886841
24.54566400,24545664,2,0.3808605968952179,-0.003484799060970545,9.411181235918775e-05,0.9246258735656738
24.64572500,24645725,2,0.38057106733322144,-0.0035010487772524357,9.837029210757464e-05,0.9247450232505798
24.74574800,24745748,2,0.38019734621047974,-0.0035114758647978306,7.05141355865635e-05,0.9248987436294556
24.84569500,24845695,2,0.37981727719306946,-0.0035454831086099148,7.718643610132858e-05,0.9250547289848328
24.94572600,24945726,2,0.37945544719696045,-0.0035160155966877937,7.70823608036153e-05,0.9252033233642578
25.04567200,25045672,2,0.37916791439056396,-0.0035162128042429686,0.0001244824379682541,0.9253212213516235
25.14567000,25145670,2,0.3788755536079407,-0.0035141296684741974,9.270507871406153e-05,0.9254409670829773
25.24567300,25245673,2,0.37865161895751953,-0.003491561859846115,0.00010569159348960966,0.9255326986312866
25.34567300,25345673,2,0.3784293532371521,-0.0035490416921675205,0.00010871170525206253,0.92562335729599
25.44566700,25445667,2,0.378158837556839,-0.0035437855403870344,9.707597928354517e-05,0.9257339239120483
25.54572500,25545725,2,0.37786948680877686,-0.003513725707307458,0.00014488081797026098,0.9258521795272827
25.64573500,25645735,2,0.377590149641037,-0.0034881464671343565,0.00015946784697007388,0.9259662628173828
25.74570200,25745702,2,0.37736776471138,-0.0035215280950069427,0.0002012957411352545,0.9260567426681519
25.84572600,25845726,2,0.3772040605545044,-0.003576406044885516,0.0001694205275271088,0.9261232614517212
25.94566900,25945669,2,0.3776994049549103,-0.0036340670194476843,0.0001765772612998262,0.9259211421012878
26.04566700,26045667,2,0.3793179392814636,-0.0036227034870535135,0.0001735858095344156,0.9252592921257019
26.14566700,26145667,2,0.38145479559898376,-0.003600764786824584,0.00017391867004334927,0.9243804812431335
26.24566800,26245668,2,0.38330236077308655,-0.0035755913704633713,0.00018530040688347071,0.9236159920692444
26.34567100,26345671,2,0.38458260893821716,-0.0036021762061864138,0.00019705785962287337,0.9230835437774658
26.44573100,26445731,2,0.38534966111183167,-0.0036266876850277185,0.00017539149848744273,0.922763466835022
26.54573400,26545734,2,0.3855457007884979,-0.003567715408280492,0.0001432168501196429,0.9226818084716797
26.64568700,26645687,2,0.38536906242370605,-0.003494861302897334,0.00015786726726219058,0.9227558970451355
26.74572600,26745726,2,0.38501212000846863,-0.003473814809694886,0.0001288728672079742,0.9229049682617188
26.84567000,26845670,2,0.38465362787246704,-0.0035127431619912386,0.0001259906857740134,0.9230542778968811
26.94567300,26945673,2,0.3841930031776428,-0.003460531821474433,0.00012252939632162452,0.9232463240623474
27.04566600,27045666,2,0.3836948573589325,-0.0034626806154847145,0.00013088523701298982,0.9234534502029419
27.14566700,27145667,2,0.3831970691680908,-0.003494113218039274,0.0001649984042160213,0.9236599802970886
27.24567500,27245675,2,0.38267672061920166,-0.003449477721005678,0.0001169825773104094,0.9238758683204651
27.34573200,27345732,2,0.3822535574436188,-0.003472097683697939,0.00012114916899008676,0.9240509271621704
27.44574000,27445740,2,0.38195258378982544,-0.0034520598128437996,0.00013259371917229146,0.9241754412651062
27.54569600,27545696,2,0.38172873854637146,-0.003374881576746702,9.200340718962252e-05,0.9242682456970215
27.64572000,27645720,2,0.38146480917930603,-0.0033799975644797087,0.00012124307249905542,0.9243772029876709
27.74567200,27745672,2,0.381187379360199,-0.0033639222383499146,6.395945092663169e-05,0.9244917035102844
27.84566700,27845667,2,0.3809421956539154,-0.003332112915813923,7.272986840689555e-05,0.9245928525924683
27.94566400,27945664,2,0.3806628882884979,-0.003335936227813363,7.777738210279495e-05,0.92470782995224
28.04566600,28045666,2,0.38042187690734863,-0.003276515519246459,1.6805801351438276e-05,0.9248072504997253
28.14566600,28145666,2,0.3800949454307556,-0.0032231458462774754,3.162037319270894e-05,0.9249418377876282
28.24572100,28245721,2,0.3797796368598938,-0.0032506061252206564,5.807438719784841e-05,0.9250712394714355
28.34574500,28345745,2,0.3794894814491272,-0.003214164637029171,8.04183873697184e-05,0.9251904487609863
28.44569900,28445699,2,0.3791883587837219,-0.003218451514840126,0.00010791828390210867,0.9253138899803162
28.54571800,28545718,2,0.3789757490158081,-0.003238905454054475,7.049334089970216e-05,0.9254009127616882
28.64566600,28645666,2,0.37877386808395386,-0.0032177066896110773,8.247116056736559e-05,0.9254836440086365
28.74567000,28745670,2,0.3789300322532654,-0.0032261002343147993,9.555679571349174e-05,0.9254196882247925
28.84566800,28845668,2,0.38007158041000366,-0.003232590388506651,0.00010337025742046535,0.924951434135437
28.94568400,28945684,2,0.38167983293533325,-0.003288320964202285,0.00011900592653546482,0.9242887496948242
29.04567200,29045672,2,0.3831988275051117,-0.0032683887984603643,0.00010169838787987828,0.9236600995063782
29.14571900,29145719,2,0.3842220902442932,-0.003323419950902462,0.0001515109761385247,0.9232347011566162
29.24574100,29245741,2,0.3848002851009369,-0.0033071127254515886,0.00015002477448433638,0.9229938983917236
29.34569200,29345692,2,0.38494569063186646,-0.003310383530333638,0.00013424080680124462,0.9229332804679871
29.44572300,29445723,2,0.3848896920681,-0.0033794657792896032,0.00011961716518271714,0.9229564070701599
29.54570200,29545702,2,0.3845900297164917,-0.0033874050714075565,0.00010036962339654565,0.9230812788009644
29.64566400,29645664,2,0.38423702120780945,-0.0033580639865249395,5.392915045376867e-05,0.92322838306427
29.74567100,29745671,2,0.38385093212127686,-0.0033577652648091316,0.00010006767115555704,0.9233889579772949
29.84567300,29845673,2,0.3835386633872986,-0.0033803973346948624,0.00014448602451011539,0.9235185980796814
29.94566400,29945664,2,0.38323837518692017,-0.0034067470114678144,0.00010323566675651819,0.923643171787262
30.04571100,30045711,2,0.3828873932361603,-0.0034570784773677588,6.485843186965212e-05,0.9237885475158691
30.14572700,30145727,2,0.38252896070480347,-0.003487994894385338,6.423263403121382e-05,0.9239369034767151
30.24568800,30245688,2,0.3822215497493744,-0.0035014532040804625,7.508024282287806e-05,0.9240640997886658
30.34571400,30345714,2,0.38195332884788513,-0.003503308165818453,-3.7160232295718743e-06,0.924174964427948
30.44566200,30445662,2,0.38162001967430115,-0.0035218894481658936,-7.695049134781584e-06,0.9243125915527344
30.54565200,30545652,2,0.38140445947647095,-0.003539219731464982,-2.9920685847173445e-05,0.9244014620780945
30.64565500,30645655,2,0.3811851143836975,-0.0035390667617321014,-9.876155672827736e-05,0.9244919419288635
30.74565700,30745657,2,0.3810262382030487,-0.003525331849232316,-8.145313040586188e-05,0.9245575070381165
30.84565700,30845657,2,0.3808731436729431,-0.003489280352368951,-0.00012944219633936882,0.9246206879615784
30.94571100,30945711,2,0.38074028491973877,-0.0035057668574154377,-0.00017043716798070818,0.9246753454208374
31.04572500,31045725,2,0.38057318329811096,-0.003466593800112605,-0.00014610389189328998,0.9247443079948425
31.14569900,31145699,2,0.38040444254875183,-0.003477538237348199,-0.00012188814434921369,0.9248136878013611
31.24571200,31245712,2,0.3801632225513458,-0.003486510133370757,-0.00014046973956283182,0.9249128103256226
31.34566700,31345667,2,0.37992486357688904,-0.003503606654703617,-0.00012234771565999836,0.9250107407569885
31.44565900,31445659,2,0.3797079026699066,-0.0034410341177135706,-0.00012102224718546495,0.9251000285148621
31.54565700,31545657,2,0.379695326089859,-0.003412407822906971,-0.00014698351151309907,0.9251052737236023
31.64567400,31645674,2,0.38025563955307007,-0.0034107074607163668,-0.00015555936261080205,0.9248751401901245
31.74565900,31745659,2,0.38137099146842957,-0.0034296060912311077,-0.00017082599515561014,0.9244157075881958
31.84572100,31845721,2,0.3825136125087738,-0.0034325250890105963,-0.00017809438577387482,0.9239434599876404
31.94572300,31945723,2,0.383327454328537,-0.0034227233845740557,-0.00017458900401834399,0.9236061573028564
32.04568400,32045684,2,0.38385120034217834,-0.003409354016184807,-0.00013931392459198833,0.923388659954071
32.14572000,32145720,2,0.38401782512664795,-0.003424430964514613,-0.00011107741738669574,0.9233193397521973
32.24568300,32245683,2,0.3839423656463623,-0.0034617616329342127,-9.747800504555926e-05,0.9233505725860596
32.34565500,32345655,2,0.3837570548057556,-0.0034899611491709948,-0.00012811226770281792,0.9234275221824646
32.44565800,32445658,2,0.3834160566329956,-0.0034790332429111004,-0.00010770095832413062,0.9235691428184509
32.54565700,32545657,2,0.38302919268608093,-0.003499056212604046,-9.628359111957252e-05,0.9237295985221863
32.64565200,32645652,2,0.3827038109302521,-0.003461285727098584,-0.00014017170178703964,0.9238646030426025
32.74571000,32745710,2,0.38238847255706787,-0.0035160358529537916,-0.0001395785075146705,0.9239949584007263
32.84573900,32845739,2,0.3820835053920746,-0.0035506479907780886,-0.00012888535275124013,0.9241209626197815
32.94569000,32945690,2,0.3818034529685974,-0.003527379594743252,-8.136814722092822e-05,0.9242367744445801
33.04571000,33045710,2,0.38150814175605774,-0.003520270576700568,-9.920646698446944e-05,0.9243587851524353
33.14568900,33145689,2,0.38124585151672363,-0.003519158810377121,-8.373554010177031e-05,0.9244669675827026
33.24565100,33245651,2,0.38099342584609985,-0.0035840030759572983,-5.4449843446491286e-05,0.9245707988739014
33.34565500,33345655,2,0.38074424862861633,-0.003562147496268153,-5.8793750213226303e-05,0.9246734976768494
33.44566000,33445660,2,0.3805968463420868,-0.0036136372946202755,-2.599712388473563e-05,0.9247339963912964
33.54565900,33545659,2,0.380397230386734,-0.0035894245374947786,1.5236620129144285e-05,0.9248162508010864
33.64570400,33645704,2,0.3802337050437927,-0.0035793352872133255,3.9157082937890664e-05,0.9248834848403931
33.74572500,33745725,2,0.38006144762039185,-0.003655608743429184,4.513034218689427e-05,0.9249539971351624
33.84569100,33845691,2,0.37988153100013733,-0.003670021193102002,6.143637438071892e-05,0.9250278472900391
33.94571000,33945710,2,0.37972259521484375,-0.0036582613829523325,7.760352309560403e-05,0.9250931739807129
34.04566600,34045666,2,0.37957414984703064,-0.003644011216238141,0.00010585613927105442,0.9251541495323181
34.14566600,34145666,2,0.37941378355026245,-0.00368199753575027,0.0001231200440088287,0.9252197742462158
34.24565100,34245651,2,0.3792319595813751,-0.0037087411619722843,9.061546006705612e-05,0.9252942204475403
34.34566300,34345663,2,0.3791285455226898,-0.0037092063575983047,0.00011107399768661708,0.9253365993499756
34.44570500,34445705,2,0.37935975193977356,-0.003684220602735877,0.00014587122132070363,0.9252418875694275
34.54571600,34545716,2,0.38028469681739807,-0.0037003939505666494,0.00013095332542434335,0.9248620867729187
34.64572300,34645723,2,0.38147231936454773,-0.0037743826396763325,0.0001375824213027954,0.9243725538253784
34.74568800,34745688,2,0.38252347707748413,-0.0038093989714980125,0.00011776257451856509,0.9239379167556763
34.84571900,34845719,2,0.38316795229911804,-0.0038065516855567694,0.00014360295608639717,0.9236708283424377
34.94565400,34945654,2,0.38355281949043274,-0.0038338780868798494,0.0001539721415610984,0.9235109686851501
35.04565900,35045659,2,0.38362917304039,-0.0038214644882827997,0.00016151121235452592,0.9234793186187744
35.14565100,35145651,2,0.38354921340942383,-0.0038299134466797113,0.0001327677018707618,0.9235125184059143
35.24565700,35245657,2,0.38333991169929504,-0.0038060208316892385,8.973204967333004e-05,0.9235994815826416
35.34566100,35345661,2,0.3830800950527191,-0.003822935279458761,8.581207657698542e-05,0.9237071871757507
35.44571400,35445714,2,0.3828372657299042,-0.0037932211998850107,6.203412340255454e-05,0.9238079786300659
35.54572600,35545726,2,0.3825892508029938,-0.0037731823977082968,9.394079097546637e-05,0.9239108562469482
35.64568200,35645682,2,0.38231876492500305,-0.0037778024561703205,0.00014567282050848007,0.9240227341651917
35.74571000,35745710,2,0.3819892108440399,-0.0037408419884741306,0.00011988026381004602,0.9241592288017273
35.84568700,35845687,2,0.38171839714050293,-0.0036698433104902506,6.331325857900083e-05,0.9242714047431946
35.94565100,35945651,2,0.38147294521331787,-0.0037065448705106974,0.0001208396497531794,0.9243725538253784
36.04565400,36045654,2,0.3812890350818634,-0.003695466322824359,0.00013676422531716526,0.9244484901428223
36.14566100,36145661,2,0.38107991218566895,-0.0037055397406220436,9.257270721718669e-05,0.9245346784591675
36.24565100,36245651,2,0.38085564970970154,-0.0037402608431875706,5.6889239203883335e-05,0.9246269464492798
36.34571400,36345714,2,0.380679190158844,-0.0037350638303905725,8.360457286471501e-05,0.924699604511261
36.44573400,36445734,2,0.3804541826248169,-0.0037051858380436897,0.00010736032709246501,0.9247923493385315
36.54568100,36545681,2,0.3802463710308075,-0.003704613773152232,0.00013176415814086795,0.9248778223991394
36.64572000,36645720,2,0.3800620138645172,-0.0037228043656796217,9.394991502631456e-05,0.9249535202980042
36.74566100,36745661,2,0.37989622354507446,-0.0037369546480476856,0.00013794655387755483,0.9250215291976929
36.84565500,36845655,2,0.37976035475730896,-0.003732814686372876,0.00013473817671183497,0.9250773787498474
36.94565200,36945652,2,0.37961944937705994,-0.0036744102835655212,0.00016770747606642544,0.9251354336738586
37.04565400,37045654,2,0.37947261333465576,-0.003683820366859436,0.00016188021982088685,0.9251956343650818
37.14565200,37145652,2,0.3793216645717621,-0.003624448785558343,0.0001576587528688833,0.9252577424049377
37.24571400,37245714,2,0.3793557286262512,-0.0036453362554311752,0.0001392393751302734,0.9252437353134155
37.34573400,37345734,2,0.37997448444366455,-0.003656660672277212,0.00018212207942269742,0.9249897003173828
37.44568200,37445682,2,0.38092920184135437,-0.0037220946978777647,0.00020665851479861885,0.9245966672897339
37.54571100,37545711,2,0.3818679451942444,-0.0036831055767834187,0.00022442080080509186,0.9242095351219177
37.64565400,37645654,2,0.3825327754020691,-0.0036537563428282738,0.000272895471425727,0.9239346385002136
37.74565800,37745658,2,0.38285309076309204,-0.0036554939579218626,0.00028819753788411617,0.9238019585609436
37.84565600,37845656,2,0.38295844197273254,-0.003601831616833806,0.0002895586076192558,0.9237585067749023
37.94565700,37945657,2,0.382890522480011,-0.0035674129612743855,0.00030240826890803874,0.9237867593765259
38.04565900,38045659,2,0.38268569111824036,-0.003613179549574852,0.0003416782710701227,0.9238714575767517
38.14570900,38145709,2,0.38247236609458923,-0.003585162339732051,0.00034861970925703645,0.9239599108695984
38.24572300,38245723,2,0.38224244117736816,-0.0036294818855822086,0.0003789528564084321,0.9240548610687256
38.34568400,38345684,2,0.3819996416568756,-0.0036557649727910757,0.00038659325218759477,0.9241551756858826
38.44571600,38445716,2,0.3817930519580841,-0.0036846427246928215,0.00039624914643354714,0.9242404103279114
38.54565600,38545656,2,0.381651908159256,-0.003691593185067177,0.0003866604820359498,0.9242987036705017
38.64565200,38645652,2,0.3815215826034546,-0.0037495214492082596,0.00039190062670968473,0.92435222864151
38.74566200,38745662,2,0.38141196966171265,-0.00373445195145905,0.00042688034591265023,0.9243975281715393
38.84567700,38845677,2,0.38129982352256775,-0.0037064983043819666,0.00043496661237441003,0.9244439005851746
38.94565300,38945653,2,0.3812144696712494,-0.003679781686514616,0.0004329368530306965,0.9244791865348816
39.04572500,39045725,2,0.381100058555603,-0.003645830089226365,0.00045232215779833496,0.9245265126228333
39.14573000,39145730,2,0.38097310066223145,-0.0037077157758176327,0.0004568801959976554,0.9245785474777222
39.24568100,39245681,2,0.38085684180259705,-0.003726266324520111,0.0004925985122099519,0.924626350402832
39.34571200,39345712,2,0.3807155191898346,-0.003720994805917144,0.0005231800023466349,0.9246845841407776
39.44566900,39445669,2,0.38059014081954956,-0.0037087774835526943,0.0005347524420358241,0.9247362613677979
39.54565300,39545653,2,0.38043710589408875,-0.003713008249178529,0.00047592679038643837,0.9247992038726807
39.64565500,39645655,2,0.3802589178085327,-0.0037489004898816347,0.0004551515157800168,0.9248723387718201
39.74566100,39745661,2,0.3800944685935974,-0.0037217391654849052,0.00044137993245385587,0.9249400496482849
39.84566000,39845660,2,0.3798978924751282,-0.0036706854589283466,0.00046378662227652967,0.9250210523605347
39.94570400,39945704,2,0.3796374499797821,-0.003692096332088113,0.0005133816157467663,0.9251278638839722
40.04572800,40045728,2,0.3795720040798187,-0.0037341951392591,0.0005602238234132528,0.9251545071601868
40.14568100,40145681,2,0.37993311882019043,-0.0037661215756088495,0.0005913625936955214,0.925006091594696
40.24570800,40245708,2,0.3806760907173157,-0.0037499633617699146,0.0005718807224184275,0.9247006773948669
40.34569100,40345691,2,0.38147956132888794,-0.0037309464532881975,0.0005655477871187031,0.9243695735931396
40.44566000,40445660,2,0.3821312189102173,-0.00372095569036901,0.0005483342101797462,0.924100399017334
40.54565200,40545652,2,0.3825567066669464,-0.0037039986345916986,0.0005636836285702884,0.923924446105957
40.64565800,40645658,2,0.3826943635940552,-0.0037011366803199053,0.0005521149141713977,0.923867404460907
40.74565800,40745658,2,0.3826683461666107,-0.00368322036229074,0.0005479770479723811,0.9238782525062561
40.84570800,40845708,2,0.38251546025276184,-0.003663277020677924,0.0005168584175407887,0.9239416718482971
40.94572600,40945726,2,0.3823027014732361,-0.00363137642852962,0.0005650257808156312,0.9240298271179199
41.04569100,41045691,2,0.38205498456954956,-0.003573767840862274,0.0005769587587565184,0.9241325259208679
41.14571100,41145711,2,0.38182517886161804,-0.0035839234478771687,0.0006254248437471688,0.9242274165153503
41.24565400,41245654,2,0.3815954625606537,-0.0036432514898478985,0.0006516966968774796,0.9243220090866089
41.34566400,41345664,2,0.3814208209514618,-0.0036320406943559647,0.0006533450214192271,0.9243941307067871
41.44565400,41445654,2,0.3812510073184967,-0.003706449642777443,0.0006436433177441359,0.9244639277458191
41.54566400,41545664,2,0.3811027705669403,-0.0037021476309746504,0.000630222144536674,0.9245250821113586
41.64565600,41645656,2,0.38088443875312805,-0.0036518394481390715,0.0005776715115644038,0.9246152639389038
41.74573400,41745734,2,0.38074156641960144,-0.0036349527072161436,0.000598960614297539,0.9246741533279419
41.84572800,41845728,2,0.3805653750896454,-0.0036158598959445953,0.0006054660771042109,0.9247467517852783
41.94569600,41945696,2,0.3803933262825012,-0.0035731473471969366,0.0005772458971478045,0.9248177409172058
42.04572200,42045722,2,0.38018712401390076,-0.003550037508830428,0.0005922959535382688,0.924902617931366
42.14568900,42145689,2,0.3800605237483978,-0.0034765456803143024,0.0005874631460756063,0.924954891204834
42.24565100,42245651,2,0.37989383935928345,-0.003448986681178212,0.0005723010399378836,0.9250234961509705
42.34565900,42345659,2,0.379745751619339,-0.003415108658373356,0.0005785065004602075,0.9250844120979309
42.44566600,42445666,2,0.37961336970329285,-0.0034029807429760695,0.0005301423370838165,0.9251388311386108
42.54565200,42545652,2,0.3794138729572296,-0.0034413503017276525,0.0005454299389384687,0.9252204895019531
42.64570800,42645708,2,0.37928420305252075,-0.003440401516854763,0.0005393974133767188,0.9252736568450928
42.74574200,42745742,2,0.37915125489234924,-0.0034299057442694902,0.0004469234263524413,0.925328254699707
42.84570200,42845702,2,0.3790470063686371,-0.003390568308532238,0.0004468263650778681,0.9253711104393005
42.94571000,42945710,2,0.3792126774787903,-0.0033811728935688734,0.0004611639305949211,0.9253032207489014
43.04565900,43045659,2,0.379822701215744,-0.003351333551108837,0.0004586603899952024,0.9250531196594238
43.14565000,43145650,2,0.38064995408058167,-0.0032975070644170046,0.0004437278548721224,0.9247131943702698
43.24565200,43245652,2,0.3813527226448059,-0.003273006761446595,0.00044644283480010927,0.9244236946105957
43.34567200,43345672,2,0.38181209564208984,-0.003264800878241658,0.00042439400567673147,0.9242340922355652
43.44566200,43445662,2,0.38200777769088745,-0.003326179226860404,0.0004732771194539964,0.9241530299186707
43.54570700,43545707,2,0.3820638656616211,-0.0033223037607967854,0.00048135421820916235,0.924129843711853
43.64572600,43645726,2,0.38197004795074463,-0.0033414852805435658,0.0004852273559663445,0.9241685271263123
43.74569000,43745690,2,0.38176098465919495,-0.0033035872038453817,0.00042913711513392627,0.9242550730705261
43.84571600,43845716,2,0.38153550028800964,-0.0033098405692726374,0.00041241414146497846,0.9243481755256653
43.94565600,43945656,2,0.38134703040122986,-0.0033157928846776485,0.00042493309592828155,0.9244258999824524
44.04565400,44045654,2,0.3811138868331909,-0.0032900867518037558,0.0004111963207833469,0.9245221614837646
44.14565500,44145655,2,0.38082441687583923,-0.00327686732634902,0.00034637097269296646,0.924641489982605
44.24565200,44245652,2,0.3805936574935913,-0.0032780193723738194,0.0003216349286958575,0.924736499786377
44.34566500,44345665,2,0.3803682029247284,-0.0033401763066649437,0.0002982712467201054,0.9248290657997131
44.44572300,44445723,2,0.38020625710487366,-0.00335508375428617,0.0003023867611773312,0.9248955845832825
44.54572600,44545726,2,0.3800552785396576,-0.0032874189782887697,0.00028805440524592996,0.9249578714370728
44.64568100,44645681,2,0.3799388110637665,-0.003347568679600954,0.00026830629212781787,0.9250054955482483
44.74571400,44745714,2,0.3798273205757141,-0.003343368647620082,0.00029662734596058726,0.9250513315200806
44.84568300,44845683,2,0.3796904981136322,-0.003354098880663514,0.0002592450473457575,0.925107479095459
44.94565400,44945654,2,0.37956926226615906,-0.0033416044898331165,0.0002385919215157628,0.9251572489738464
45.04565800,45045658,2,0.37946540117263794,-0.0034534214064478874,0.0002576356055215001,0.9251994490623474
45.14565200,45145652,2,0.3793657720088959,-0.003478870028629899,0.00021050994109828025,0.9252402186393738
45.24566300,45245663,2,0.3793078660964966,-0.0035466975532472134,0.00020157704420853406,0.9252637028694153
45.34570700,45345707,2,0.3791918158531189,-0.0035361202899366617,0.00020455590856727213,0.9253113269805908
45.44572600,45445726,2,0.3791014850139618,-0.003567488631233573,0.00013842400221619755,0.9253482222557068
45.54567600,45545676,2,0.37897738814353943,-0.003591337241232395,0.00015818617248442024,0.9253989458084106
45.64570900,45645709,2,0.37889331579208374,-0.0035787285305559635,0.00015486906340811402,0.9254334568977356
45.74568500,45745685,2,0.37897899746894836,-0.0035544014535844326,0.0001561295212013647,0.9253984093666077
45.84565900,45845659,2,0.37952038645744324,-0.0035621626302599907,0.00014335174637380987,0.9251765012741089
45.94566000,45945660,2,0.3803146183490753,-0.003595346352085471,0.000117888928798493,0.9248501658439636
46.04566400,46045664,2,0.38109707832336426,-0.0036484033335000277,0.00011655575508484617,0.9245278239250183
46.14565500,46145655,2,0.3816218674182892,-0.003647321369498968,8.019946108106524e-05,0.9243113398551941
46.24570900,46245709,2,0.3819219470024109,-0.003586061531677842,8.664936467539519e-05,0.9241876006126404
46.34573400,46345734,2,0.38196811079978943,-0.0035578401293605566,0.00010540284711169079,0.9241686463356018
46.44568900,46445689,2,0.38187962770462036,-0.0035433147568255663,7.87450626376085e-05,0.9242052435874939
46.54571400,46545714,2,0.38175901770591736,-0.003534287214279175,1.1543267646629829e-05,0.9242551326751709
46.64565400,46645654,2,0.38153231143951416,-0.003526701359078288,-7.4796657827391755e-06,0.924348771572113
46.74565600,46745656,2,0.3813018202781677,-0.003552763257175684,7.504719405915239e-07,0.924443781375885
46.84565200,46845652,2,0.3810938894748688,-0.0035611793864518404,-2.4016737370402552e-05,0.924529492855072
46.94565700,46945657,2,0.3809148967266083,-0.003509638598188758,1.921956027217675e-05,0.9246034622192383
47.04565600,47045656,2,0.3808271288871765,-0.0035232212394475937,4.074681783095002e-05,0.9246395230293274
47.14571700,47145717,2,0.38072654604911804,-0.0034880898892879486,3.8085447158664465e-05,0.9246810674667358
47.24572600,47245726,2,0.3805999159812927,-0.003493605414405465,8.507745951646939e-05,0.9247332215309143
47.34568900,47345689,2,0.38046911358833313,-0.003454898949712515,0.00010684010339900851,0.924787163734436
47.44571900,47445719,2,0.38034874200820923,-0.003423353424295783,0.00010234851652057841,0.9248368144035339
47.54565800,47545658,2,0.38020771741867065,-0.00344292726367712,7.634745998075232e-05,0.9248946905136108
47.64565300,47645653,2,0.3800356686115265,-0.0035090853925794363,8.300224726554006e-05,0.9249651432037354
47.74565400,47745654,2,0.37988582253456116,-0.0035465825349092484,5.476037404150702e-05,0.9250265955924988
47.84565900,47845659,2,0.3797299861907959,-0.003569367341697216,5.737107858294621e-05,0.925090491771698
47.94565300,47945653,2,0.3795936107635498,-0.003564503975212574,3.166725946357474e-05,0.9251464605331421
48.04571500,48045715,2,0.3795013427734375,-0.0035917398054152727,4.641870418709004e-06,0.9251841902732849
48.14572900,48145729,2,0.37939807772636414,-0.0036405206192284822,2.9840442948625423e-05,0.9252263903617859
48.24567500,48245675,2,0.37928348779678345,-0.003705869195982814,8.203660399885848e-06,0.9252731204032898
48.34571500,48345715,2,0.3791353404521942,-0.003707346273586154,3.3377855288563296e-05,0.9253337979316711
48.44566300,48445663,2,0.378994882106781,-0.003735168371349573,5.462623084895313e-05,0.9253912568092346
48.54565100,48545651,2,0.37891438603401184,-0.003662312403321266,5.940279515925795e-05,0.9254244565963745
48.64565400,48645654,2,0.3791091740131378,-0.003644895274192095,6.127666711108759e-05,0.9253447651863098
48.74566900,48745669,2,0.3796294033527374,-0.0036803078837692738,6.23741652816534e-05,0.9251313209533691
48.84565700,48845657,2,0.380293607711792,-0.00369094661436975,6.72954338369891e-05,0.9248584508895874
48.94571100,48945711,2,0.38084903359413147,-0.0037231980822980404,0.00013749745266977698,0.9246297478675842
49.04572800,49045728,2,0.3812255859375,-0.0038015975151211023,0.0001873965229606256,0.9244742393493652
49.14568400,49145684,2,0.3814058005809784,-0.0038155948277562857,0.00022349746723193675,0.9243997931480408
49.24571100,49245711,2,0.38142862915992737,-0.00379961053840816,0.0002560170250944793,0.924390435218811
49.34566100,49345661,2,0.38132965564727783,-0.0037771339993923903,0.0002827138814609498,0.9244313836097717
49.44565900,49445659,2,0.38116365671157837,-0.003817839315161109,0.000316723802825436,0.9244996309280396
49.54566100,49545661,2,0.380998432636261,-0.003843110054731369,0.0003627585247159004,0.9245676398277283
49.64565700,49645657,2,0.3808586597442627,-0.003918283618986607,0.00037192946183495224,0.9246248602867126
49.74566300,49745663,2,0.3807045519351959,-0.004010269418358803,0.000352761970134452,0.9246879816055298
49.84572700,49845727,2,0.38057971000671387,-0.004022655542939901,0.0003612786822486669,0.9247393012046814
49.94572300,49945723,2,0.3804920017719269,-0.004057395271956921,0.00031266131554730237,0.924775242805481
50.04567900,50045679,2,0.3803936541080475,-0.004045253619551659,0.0002803225943353027,0.9248157739639282
50.14571500,50145715,2,0.38033339381217957,-0.004060821607708931,0.00027304585091769695,0.92484050989151
50.24567200,50245672,2,0.38024428486824036,-0.0040594120509922504,0.0002673343406058848,0.9248771667480469
50.34565700,50345657,2,0.38017457723617554,-0.004081238526850939,0.00022790969524066895,0.9249057173728943
50.44566000,50445660,2,0.38003480434417725,-0.004117562901228666,0.00021295153419487178,0.9249629974365234
50.54565100,50545651,2,0.3798980712890625,-0.004116693511605263,0.0002777994959615171,0.9250191450119019
50.64566700,50645667,2,0.37974274158477783,-0.004101125989109278,0.00035315947025083005,0.9250829815864563
50.74570700,50745707,2,0.37958255410194397,-0.0042013730853796005,0.0003771875344682485,0.9251482486724854
50.84572600,50845726,2,0.3794773817062378,-0.004190882667899132,0.0003747130685951561,0.9251914620399475
50.94568300,50945683,2,0.37933507561683655,-0.004192187450826168,0.0004193885251879692,0.9252497553825378
51.04571200,51045712,2,0.3791770040988922,-0.004217965994030237,0.0003844544698949903,0.9253144860267639
51.14565700,51145657,2,0.37909314036369324,-0.004211246035993099,0.0003556571318767965,0.9253488779067993
51.24565300,51245653,2,0.37901702523231506,-0.004170119296759367,0.0003394219384063035,0.9253802299499512
51.34565700,51345657,2,0.37891843914985657,-0.0041821724735200405,0.0002889214374590665,0.9254205822944641
51.44565600,51445656,2,0.3790931701660156,-0.004224756266921759,0.00030790080199949443,0.9253488183021545
51.54567300,51545673,2,0.37963342666625977,-0.004207221325486898,0.000284689711406827,0.925127387046814
51.64572400,51645724,2,0.3802645206451416,-0.004248352721333504,0.00034472442348487675,0.9248679280281067
51.74572500,51745725,2,0.3807951509952545,-0.004236588254570961,0.00031213712645694613,0.9246496558189392
51.84569800,51845698,2,0.38116106390953064,-0.004262656904757023,0.0003041784802917391,0.9244987964630127
51.94571100,51945711,2,0.38137492537498474,-0.004252176731824875,0.00030957136186771095,0.9244106411933899
52.04565500,52045655,2,0.38146841526031494,-0.004189042840152979,0.00031664216658100486,0.9243723154067993
52.14565800,52145658,2,0.3813554048538208,-0.004179046023637056,0.00031869838130660355,0.9244189858436584
52.24565200,52245652,2,0.3812110126018524,-0.004192708060145378,0.00031888732337392867,0.9244784712791443
52.34565600,52345656,2,0.381064236164093,-0.004182043485343456,0.0003264985862188041,0.9245390295982361
52.44567400,52445674,2,0.38088569045066833,-0.004182480275630951,0.00027352329925633967,0.9246126413345337
52.54572300,52545723,2,0.38065844774246216,-0.0042485082522034645,0.0002768597914837301,0.9247059226036072
52.64572600,52645726,2,0.3804641664028168,-0.004267732612788677,0.0002986776235047728,0.9247857928276062
52.74568800,52745688,2,0.3803296983242035,-0.004287395626306534,0.00026629239437170327,0.9248409867286682
52.84571300,52845713,2,0.3801802396774292,-0.004328567534685135,0.00029227332561276853,0.9249022603034973
52.94565800,52945658,2,0.38011306524276733,-0.004278518725186586,0.00029400954372249544,0.9249300956726074
53.04565800,53045658,2,0.3799389898777008,-0.004290031269192696,0.00030386881553567946,0.9250015616416931
53.14565400,53145654,2,0.37985026836395264,-0.004319544415920973,0.00027214715373702347,0.9250378608703613
53.24565700,53245657,2,0.3797348737716675,-0.004341378808021545,0.00028831494273617864,0.9250851273536682
53.34566500,53345665,2,0.3797021508216858,-0.004352995194494724,0.0002785822143778205,0.9250985383987427
53.44570900,53445709,2,0.3795938193798065,-0.004349068738520145,0.00019481536583043635,0.9251430034637451
53.54572900,53545729,2,0.3794599175453186,-0.004357634577900171,0.0001555460476083681,0.9251978993415833
53.64569500,53645695,2,0.3793681263923645,-0.004382061772048473,0.00014669793017674237,0.9252354502677917
53.74571200,53745712,2,0.37924548983573914,-0.004372425843030214,0.00014456016651820391,0.9252857565879822
53.84566200,53845662,2,0.3791041672229767,-0.004369416739791632,0.00011949156760238111,0.9253436923027039
53.94566400,53945664,2,0.3789578974246979,-0.004441716708242893,0.00013603158004116267,0.9254032373428345
54.04565400,54045654,2,0.3788476288318634,-0.004381854087114334,0.00010441424819873646,0.9254486560821533
54.14565700,54145657,2,0.37876370549201965,-0.004386443179100752,8.832674939185381e-05,0.925482988357544
54.24565700,54245657,2,0.3788098394870758,-0.004371741320937872,6.21196668362245e-05,0.9254642128944397
54.34571600,54345716,2,0.37918761372566223,-0.004401362966746092,6.160610791994259e-05,0.9253093600273132
54.44572900,54445729,2,0.379788875579834,-0.004379413090646267,7.42906704545021e-05,0.9250628352165222
54.54569400,54545694,2,0.3803170919418335,-0.0043078698217868805,8.79760627867654e-05,0.9248461127281189
54.64571600,54645716,2,0.3807235062122345,-0.004279391840100288,0.00016168791626114398,0.9246789813041687
54.74565900,54745659,2,0.38088586926460266,-0.004303642548620701,0.00015270737640094012,0.9246120452880859
54.84565600,54845656,2,0.3809998035430908,-0.004262697417289019,0.00023184997553471476,0.9245652556419373
54.94565100,54945651,2,0.3809932768344879,-0.004297408275306225,0.00028605959960259497,0.9245677590370178
55.04566000,55045660,2,0.3809233009815216,-0.004265253432095051,0.0002875720674637705,0.9245967268943787
55.14566000,55145660,2,0.3808089792728424,-0.0042339819483459,0.00031576838227920234,0.9246439933776855
55.24571200,55245712,2,0.38062784075737,-0.004239656031131744,0.0002975793613586575,0.9247185587882996
55.34573100,55345731,2,0.38049063086509705,-0.004285284783691168,0.00027227806276641786,0.9247748255729675
55.44568200,55445682,2,0.38032805919647217,-0.004304032772779465,0.00024329996085725725,0.924841582775116
55.54571400,55545714,2,0.3801889419555664,-0.004279787186533213,0.0002714846923481673,0.9248989224433899
55.64565700,55645657,2,0.3800428807735443,-0.004282214213162661,0.00028006880893372,0.9249589443206787
55.74565400,55745654,2,0.3799646496772766,-0.004288866650313139,0.0002592266828287393,0.9249910116195679
55.84565700,55845657,2,0.37984541058540344,-0.0042709303088486195,0.00027849627076648176,0.925040066242218
55.94565300,55945653,2,0.37973231077194214,-0.004260568879544735,0.00024898850824683905,0.9250865578651428
56.04565400,56045654,2,0.3796836733818054,-0.004258046392351389,0.0002684087958186865,0.9251065254211426
56.14570900,56145709,2,0.379641592502594,-0.0041964128613471985,0.00024539747391827404,0.9251241087913513
56.24572600,56245726,2,0.37957820296287537,-0.004207440186291933,0.0002804402611218393,0.9251500368118286
56.34568400,56345684,2,0.3795568346977234,-0.004223091062158346,0.0002713041612878442,0.9251587390899658
56.44572000,56445720,2,0.3794795870780945,-0.004240377340465784,0.0002505391603335738,0.9251903295516968
56.54565800,56545658,2,0.37937691807746887,-0.004255427047610283,0.000208738973014988,0.9252324104309082
56.64565600,56645656,2,0.3792799115180969,-0.004221324343234301,0.0002501865092199296,0.9252723455429077
56.74565500,56745655,2,0.3791775703430176,-0.004152396693825722,0.0002623962063807994,0.9253146052360535
56.84566000,56845660,2,0.3790721297264099,-0.004142411518841982,0.00024406185548286885,0.9253578186035156
56.94565200,56945652,2,0.37894561886787415,-0.004138392861932516,0.0002697463205549866,0.9254096746444702
57.04572800,57045728,2,0.3789387345314026,-0.004135708790272474,0.0002719220647122711,0.9254124760627747
57.14572500,57145725,2,0.3791755735874176,-0.004168547224253416,0.00028040839242748916,0.9253153204917908
57.24568900,57245689,2,0.3797106444835663,-0.004175820853561163,0.00033704403904266655,0.925095796585083
57.34571000,57345710,2,0.3802676796913147,-0.004114509094506502,0.00033951207296922803,0.9248672723770142
57.44565800,57445658,2,0.3807312846183777,-0.004138220101594925,0.0003381434653420001,0.9246764183044434
57.54566000,57545660,2,0.38100698590278625,-0.004099131096154451,0.0003676814667414874,0.9245629906654358
57.64565200,57645652,2,0.3811497092247009,-0.004046216607093811,0.000351023772964254,0.9245043992996216
57.74565700,57745657,2,0.3811655640602112,-0.004049645271152258,0.000358996243448928,0.9244978427886963
57.84565600,57845656,2,0.381114661693573,-0.004046163521707058,0.0003606773680076003,0.9245188236236572
57.94569800,57945698,2,0.38100314140319824,-0.004071508534252644,0.00038082091487012804,0.9245647192001343
58.04572500,58045725,2,0.3808648884296417,-0.00403279485180974,0.0003891447267960757,0.9246218204498291
58.14568200,58145682,2,0.3807034492492676,-0.0040211728774011135,0.00045299631892703474,0.9246883392333984
58.24571200,58245712,2,0.38055482506752014,-0.004047995898872614,0.0004308924835640937,0.9247493743896484
58.34565800,58345658,2,0.38043463230133057,-0.004060439299792051,0.0004073107265867293,0.9247987866401672
58.44566000,58445660,2,0.38033896684646606,-0.004057097248733044,0.00040002461173571646,0.9248381853103638
58.54565600,58545656,2,0.3802652657032013,-0.004020848777145147,0.000370876892702654,0.924868643283844
58.64566100,58645661,2,0.38016605377197266,-0.0039988853968679905,0.00031911666155792773,0.9249095320701599
58.74566100,58745661,2,0.38004955649375916,-0.003998864907771349,0.00029576136148534715,0.9249574542045593
58.84571100,58845711,2,0.3799273371696472,-0.004008585121482611,0.00030647951643913984,0.9250075817108154
58.94572800,58945728,2,0.3798098564147949,-0.003935540094971657,0.0002912892960011959,0.9250561594963074
59.04568500,59045685,2,0.3796704113483429,-0.00392684293910861,0.0002666392829269171,0.9251134395599365
59.14571100,59145711,2,0.37952888011932373,-0.0038434569723904133,0.00031542294891551137,0.9251718521118164
59.24565400,59245654,2,0.3794459402561188,-0.0038293064571917057,0.0003000608121510595,0.9252059459686279
59.34565800,59345658,2,0.37941205501556396,-0.0037623343523591757,0.000273724552243948,0.9252201318740845
59.44565400,59445654,2,0.3793899714946747,-0.0036815241910517216,0.00023868458811193705,0.9252294898033142
59.54566900,59545669,2,0.37935665249824524,-0.003679621731862426,0.00022293513757176697,0.9252431988716125
59.64565100,59645651,2,0.3793412446975708,-0.003681298578158021,0.00017142425349447876,0.9252495169639587
59.74571200,59745712,2,0.379244863986969,-0.0036471616476774216,0.0001500063663115725,0.9252891540527344
59.84574300,59845743,2,0.3791867196559906,-0.0036447145976126194,0.00018109371012542397,0.9253129959106445
59.94568400,59945684,2,0.3792857527732849,-0.003625772427767515,0.00023126177256926894,0.9252724647521973
60.04571000,60045710,2,0.37970200181007385,-0.0036075140815228224,0.000228630262427032,0.9251018166542053
60.14566200,60145662,2,0.38019245862960815,-0.0036256196908652782,0.0002522860304452479,0.924900233745575
60.24565400,60245654,2,0.38060277700424194,-0.0036125602200627327,0.0003028583014383912,0.9247315526008606
60.34565200,60345652,2,0.3808545470237732,-0.003543086815625429,0.0003434226964600384,0.9246280789375305
60.44566000,60445660,2,0.3808971047401428,-0.003562877420336008,0.00033084690221585333,0.9246104955673218
60.54566200,60545662,2,0.38089728355407715,-0.003589547937735915,0.0003263061516918242,0.9246103167533875
60.64570200,60645702,2,0.38081324100494385,-0.0035824868828058243,0.0003177107428200543,0.9246450066566467
60.74572500,60745725,2,0.38069280982017517,-0.003576260292902589,0.00032519595697522163,0.9246945977210999
60.84568100,60845681,2,0.3805646598339081,-0.0036098379641771317,0.00034488236997276545,0.9247472286224365
60.94571300,60945713,2,0.38038086891174316,-0.00359737197868526,0.0003415276587475091,0.9248228669166565
61.04566100,61045661,2,0.3802168667316437,-0.00359846418723464,0.0003470904484856874,0.9248902797698975
61.14566400,61145664,2,0.38011181354522705,-0.003629591315984726,0.0003461184969637543,0.9249333739280701
61.24565200,61245652,2,0.38002443313598633,-0.0036360598169267178,0.0003396476386114955,0.9249692559242249
61.34566300,61345663,2,0.37996694445610046,-0.0036253321450203657,0.0002998420677613467,0.9249929189682007
61.44565600,61445656,2,0.37989282608032227,-0.0036324963439255953,0.00027001526905223727,0.9250233173370361
61.54571900,61545719,2,0.37980350852012634,-0.003671015379950404,0.0002682961639948189,0.9250598549842834
61.64572800,61645728,2,0.37969139218330383,-0.0036957997363060713,0.0002631268580444157,0.9251058101654053
61.74568300,61745683,2,0.3796156644821167,-0.003735125996172428,0.00023996163508854806,0.9251367449760437
61.84572100,61845721,2,0.3795274496078491,-0.0037643504329025745,0.0002711462730076164,0.9251728057861328
61.94565700,61945657,2,0.3794536292552948,-0.003760943654924631,0.00023260457965079695,0.9252030849456787
62.04565500,62045655,2,0.37936481833457947,-0.0037826092448085546,0.00021389244648162276,0.9252393841743469
62.14565800,62145658,2,0.37924450635910034,-0.003781023435294628,0.0001870318956207484,0.925288736820221
62.24565300,62245653,2,0.3791489601135254,-0.0038641225546598434,0.000189427868463099,0.9253275394439697
62.34565900,62345659,2,0.3791148066520691,-0.0038652915973216295,0.000211117701837793,0.9253415465354919
62.44572400,62445724,2,0.3790672719478607,-0.003849215805530548,0.00022899016039445996,0.9253610968589783
62.54572800,62545728,2,0.37902045249938965,-0.0038866735994815826,0.00024514240794815123,0.9253801107406616
62.64568800,62645688,2,0.37896814942359924,-0.003926616627722979,0.00025395883130840957,0.9254013299942017
62.74571400,62745714,2,0.3790457546710968,-0.004008657764643431,0.00022214245109353215,0.9253692030906677
62.84565700,62845657,2,0.37945282459259033,-0.0039689186960458755,0.00022250243637245148,0.9252025485038757
62.94565300,62945653,2,0.3800205588340759,-0.00395974051207304,0.0002221059548901394,0.9249695539474487
63.04565400,63045654,2,0.3805600106716156,-0.003945177886635065,0.0001840590120991692,0.9247478246688843
63.14565500,63145655,2,0.3809088468551636,-0.003994199447333813,0.0001282559533137828,0.9246039390563965
63.24565400,63245654,2,0.38117527961730957,-0.0040109604597091675,0.00012891090591438115,0.9244940876960754
63.34570500,63345705,2,0.38130176067352295,-0.003999069333076477,0.00013502022193279117,0.9244419932365417
63.44572600,63445726,2,0.3812949061393738,-0.0039937156252563,0.00013739037967752665,0.9244447946548462
63.54569600,63545696,2,0.3812115788459778,-0.003963124006986618,0.00013564153050538152,0.9244793057441711
63.64570700,63645707,2,0.3810994625091553,-0.003911071922630072,0.0001667523174546659,0.9245257377624512
63.74566000,63745660,2,0.38094186782836914,-0.003935486543923616,0.0001514222240075469,0.9245905876159668
63.84566500,63845665,2,0.38080671429634094,-0.003953353967517614,0.00018086220370605588,0.9246461987495422
63.94566000,63945660,2,0.3806839883327484,-0.003926453180611134,0.00013971087173558772,0.9246968626976013
64.04566300,64045663,2,0.3806110620498657,-0.003931391052901745,0.00016405429050792009,0.9247268438339233
64.14566200,64145662,2,0.38053005933761597,-0.003932553343474865,0.00016462737403344363,0.9247601628303528
64.24571000,64245710,2,0.38041943311691284,-0.003896181471645832,0.0002077575190924108,0.9248058199882507
64.34573100,64345731,2,0.38031652569770813,-0.0038354797288775444,0.00017816155741456896,0.9248484373092651
64.44570200,64445702,2,0.3801727294921875,-0.0038410830311477184,0.00023003910609986633,0.9249075055122375
64.54571200,64545712,2,0.38005658984184265,-0.003818948520347476,0.00025150482542812824,0.9249553084373474
64.64565700,64645657,2,0.38000428676605225,-0.0038055197801440954,0.0003060080052819103,0.9249768257141113
64.74566000,64745660,2,0.3798764646053314,-0.0037900160532444715,0.00034157568006776273,0.9250293970108032
64.84565700,64845657,2,0.3797663152217865,-0.0038119007367640734,0.0003556754090823233,0.9250745177268982
64.94565700,64945657,2,0.3797130584716797,-0.0038322526961565018,0.0003568638931028545,0.925096333026886
65.04565400,65045654,2,0.3796101212501526,-0.0038330606184899807,0.00035218216362409294,0.925138533115387
65.14571700,65145717,2,0.3795347213745117,-0.0038429484702646732,0.0003555678704287857,0.9251694679260254
65.24572400,65245724,2,0.37946629524230957,-0.0038825904484838247,0.00029792505665682256,0.9251973628997803
65.34568600,65345686,2,0.37941446900367737,-0.003844662569463253,0.0003273999900557101,0.9252187609672546
65.44571100,65445711,2,0.3793337941169739,-0.003806342137977481,0.00031532274442724884,0.9252520203590393
65.54566100,65545661,2,0.37929531931877136,-0.003828557673841715,0.00026831772993318737,0.9252676963806152
65.64565200,65645652,2,0.37952131032943726,-0.003863428020849824,0.0002674923453014344,0.9251748919487
65.74566600,65745666,2,0.3799436390399933,-0.0039009193424135447,0.00023927351867314428,0.9250013828277588
65.84566600,65845666,2,0.38044440746307373,-0.003945526201277971,0.00024478865088894963,0.9247953295707703
65.94565200,65945652,2,0.3807888627052307,-0.003931604791432619,0.0002410013257758692,0.9246536493301392
66.04570600,66045706,2,0.38095393776893616,-0.003955134190618992,0.0002341603540116921,0.9245855212211609
66.14573200,66145732,2,0.3810168504714966,-0.003984576556831598,0.0002599184517748654,0.924559473991394
66.24568800,66245688,2,0.38101205229759216,-0.003966319840401411,0.00024595530703663826,0.9245615601539612
66.34571600,66345716,2,0.38089266419410706,-0.0039571188390254974,0.0002060320693999529,0.9246107935905457
66.44568900,66445689,2,0.3807736337184906,-0.0039528110064566135,0.00021649777772836387,0.924659788608551
