timestamp,TimeUS,C,Q1,Q2,Q3,Q4
157.11437100,157114371,2,-0.2672392725944519,0.0019327066838741302,-0.024609962478280067,0.9633139371871948
157.21432900,157214329,2,-0.26727816462516785,0.0019277308601886034,-0.024373291060328484,0.9633091688156128
157.31434000,157314340,2,-0.2673301696777344,0.0018297926289960742,-0.024046652019023895,0.9633031487464905
157.41433100,157414331,2,-0.26735690236091614,0.0017292086267843843,-0.02371772937476635,0.9633041024208069
157.51432800,157514328,2,-0.26740965247154236,0.001713221543468535,-0.02335195802152157,0.9632983803749084
157.61437000,157614370,2,-0.2674552798271179,0.0016255436930805445,-0.023032883182168007,0.9632935523986816
157.71438400,157714384,2,-0.26746389269828796,0.0015582478372380137,-0.022606268525123596,0.963301420211792
157.81439800,157814398,2,-0.26738062500953674,0.0014477072982117534,-0.022236080840229988,0.9633333086967468
157.91441600,157914416,2,-0.2673986554145813,0.0013522218214347959,-0.02180522494018078,0.963338315486908
158.01436100,158014361,2,-0.26737841963768005,0.0012111649848520756,-0.02142513357102871,0.963352620601654
158.11432800,158114328,2,-0.2673487365245819,0.0010436342563480139,-0.0210406556725502,0.9633695483207703
158.21433500,158214335,2,-0.267418771982193,0.0009378658724017441,-0.020582236349582672,0.9633601307868958
158.31433700,158314337,2,-0.2673987150192261,0.0008109156042337418,-0.020128121599555016,0.9633753895759583
158.41432900,158414329,2,-0.2674076557159424,0.0006929179071448743,-0.019678667187690735,0.9633823037147522
158.51435200,158514352,2,-0.2673492133617401,0.0005453784833662212,-0.01924254558980465,0.9634073972702026
158.61437000,158614370,2,-0.26725029945373535,0.0003914370608981699,-0.018776051700115204,0.9634441137313843
158.71437500,158714375,2,-0.2671717405319214,0.00024026127357501537,-0.018322160467505455,0.963474690914154
158.81440600,158814406,2,-0.26711010932922363,0.00011256335710640997,-0.017803339287638664,0.963501513004303
158.91435700,158914357,2,-0.2669956386089325,-8.329403499374166e-05,-0.01732540689408779,0.9635419845581055
159.01433200,159014332,2,-0.2668900489807129,-0.00018280730000697076,-0.016808340325951576,0.9635803699493408
159.11434200,159114342,2,-0.26675280928611755,-0.0002968416956719011,-0.01629781536757946,0.9636270999908447
159.21432700,159214327,2,-0.2666466236114502,-0.00037646456621587276,-0.015811584889888763,0.9636645913124084
159.31433500,159314335,2,-0.2665601670742035,-0.0004874127043876797,-0.015268965624272823,0.9636971950531006
159.41435800,159414358,2,-0.26644203066825867,-0.00058978539891541,-0.014731601811945438,0.963738203048706
159.51437200,159514372,2,-0.26635482907295227,-0.0007811266696080565,-0.014192466624081135,0.9637702107429504
159.61438300,159614383,2,-0.2662079334259033,-0.0009424642194062471,-0.013702676631510258,0.9638177752494812
159.71441300,159714413,2,-0.2660523056983948,-0.0010557755595073104,-0.013203032314777374,0.9638676047325134
159.81435900,159814359,2,-0.2658860385417938,-0.001182664418593049,-0.012693075463175774,0.9639201760292053
159.91433400,159914334,2,-0.2657475769519806,-0.0012806752929463983,-0.012184102088212967,0.9639648199081421
160.01434600,160014346,2,-0.2655816376209259,-0.001374223968014121,-0.011705650947988033,0.964016318321228
160.11433500,160114335,2,-0.265473335981369,-0.0015215968014672399,-0.011227048002183437,0.9640516042709351
160.21432900,160214329,2,-0.2653532922267914,-0.0016218282980844378,-0.010710240341722965,0.9640904068946838
160.31436300,160314363,2,-0.2651847302913666,-0.0017499929526820779,-0.010233118198812008,0.9641417264938354
160.41437400,160414374,2,-0.26503288745880127,-0.001882163342088461,-0.009742509573698044,0.9641883373260498
160.51437900,160514379,2,-0.26489272713661194,-0.0019774162210524082,-0.009270907379686832,0.9642313122749329
160.61441900,160614419,2,-0.2647863030433655,-0.002087448025122285,-0.008751950226724148,0.9642651081085205
160.71436500,160714365,2,-0.264692097902298,-0.002167751081287861,-0.00827502366155386,0.9642950296401978
160.81432700,160814327,2,-0.264573872089386,-0.002260473556816578,-0.007815659046173096,0.9643310904502869
160.91434400,160914344,2,-0.2644374370574951,-0.0023850728757679462,-0.007375769317150116,0.9643716812133789
161.01434200,161014342,2,-0.26425841450691223,-0.0024592415429651737,-0.006956873461604118,0.964423656463623
161.11433300,161114333,2,-0.26411059498786926,-0.0025831032544374466,-0.0064764018170535564,0.9644672274589539
161.21435300,161214353,2,-0.26393795013427734,-0.002706238767132163,-0.00603932561352849,0.9645169377326965
161.31438200,161314382,2,-0.2637611925601959,-0.002822512062266469,-0.00561546441167593,0.9645675420761108
161.41438100,161414381,2,-0.26357486844062805,-0.00288911210373044,-0.005171270575374365,0.9646207690238953
161.51442500,161514425,2,-0.2633947432041168,-0.002913832664489746,-0.004698335193097591,0.9646722674369812
161.61436500,161614365,2,-0.2632223069667816,-0.0030073043890297413,-0.004338249564170837,0.9647207856178284
161.71434600,161714346,2,-0.2630457282066345,-0.0030828150920569897,-0.003920223563909531,0.964770495891571
161.81434400,161814344,2,-0.2629029154777527,-0.0030792509205639362,-0.003546930616721511,0.964810848236084
161.91433300,161914333,2,-0.26275208592414856,-0.0031007693614810705,-0.0031299267429858446,0.9648533463478088
162.01433200,162014332,2,-0.26260215044021606,-0.0031288773752748966,-0.0027968704234808683,0.9648950695991516
162.11435100,162114351,2,-0.2623826861381531,-0.003154265694320202,-0.0024647419340908527,0.9649555683135986
162.21438100,162214381,2,-0.26218944787979126,-0.0032133387867361307,-0.0021128272637724876,0.9650087356567383
162.31438000,162314380,2,-0.2619863450527191,-0.003264056518673897,-0.001764207729138434,0.9650644659996033
162.41442200,162414422,2,-0.2617180645465851,-0.0032928013242781162,-0.0014098581159487367,0.9651377201080322
162.51437300,162514373,2,-0.26151108741760254,-0.00333394599147141,-0.0010919084306806326,0.9651941061019897
162.61433800,162614338,2,-0.2613069415092468,-0.003336999099701643,-0.000782655319198966,0.9652496576309204
162.71434100,162714341,2,-0.2610713541507721,-0.0034041053149849176,-0.0005340079078450799,0.9653133749961853
162.81433900,162814339,2,-0.2607983946800232,-0.0034460914321243763,-0.00021342768741305918,0.9653871059417725
162.91432900,162914329,2,-0.2605433166027069,-0.0034864393528550863,3.861318691633642e-05,0.9654558897018433
163.01434800,163014348,2,-0.26031309366226196,-0.0035348220262676477,0.0002874982019420713,0.9655177593231201
163.11437600,163114376,2,-0.2600466012954712,-0.003597474191337824,0.00053154316265136,0.9655892252922058
163.21437500,163214375,2,-0.2598262429237366,-0.0036268963012844324,0.0007786102942191064,0.9656482338905334
163.31442100,163314421,2,-0.25960221886634827,-0.003600164083763957,0.001011077081784606,0.9657083749771118
163.41436400,163414364,2,-0.25938233733177185,-0.0036088749766349792,0.0012710799928754568,0.9657671451568604
163.51433200,163514332,2,-0.25913816690444946,-0.0036251433193683624,0.001502581755630672,0.9658322930335999
163.61432800,163614328,2,-0.25885987281799316,-0.003628597827628255,0.0016739199636504054,0.9659066200256348
163.71433500,163714335,2,-0.25864705443382263,-0.003653360065072775,0.0018174301367253065,0.9659633040428162
163.81432800,163814328,2,-0.25838539004325867,-0.0036904083099216223,0.0020056080538779497,0.9660328030586243
163.91434500,163914345,2,-0.2581263780593872,-0.0036917885299772024,0.002175122033804655,0.9661016464233398
164.01437600,164014376,2,-0.2578960359096527,-0.0037040715105831623,0.00231636012904346,0.9661628007888794
164.11437700,164114377,2,-0.257654070854187,-0.003682196605950594,0.0024747150018811226,0.9662270545959473
164.21441400,164214414,2,-0.2574009597301483,-0.003697459353134036,0.0026349311228841543,0.96629399061203
164.31436000,164314360,2,-0.2571355402469635,-0.0037433297839015722,0.0027905183378607035,0.9663640856742859
164.41433900,164414339,2,-0.25685954093933105,-0.0037384869065135717,0.0028825225308537483,0.9664372205734253
164.51432900,164514329,2,-0.2566831707954407,-0.0037881461903452873,0.003007793566212058,0.966483473777771
164.61433700,164614337,2,-0.25646159052848816,-0.0037881776224821806,0.0030801603570580482,0.9665420651435852
164.71433000,164714330,2,-0.25622689723968506,-0.0038012685254216194,0.003171853255480528,0.9666039943695068
164.81435000,164814350,2,-0.25605133175849915,-0.003837278578430414,0.0032140829134732485,0.9666502475738525
164.91437800,164914378,2,-0.2557765543460846,-0.0038747694343328476,0.003296284470707178,0.9667225480079651
165.01437500,165014375,2,-0.2555570602416992,-0.0038852121215313673,0.003362197196111083,0.9667803049087524
165.11441900,165114419,2,-0.25529536604881287,-0.0038508970756083727,0.0034709335304796696,0.9668492078781128
165.21435700,165214357,2,-0.2550789415836334,-0.0038967691361904144,0.0035232871305197477,0.966905951499939
165.31433200,165314332,2,-0.2548521161079407,-0.0038842717185616493,0.00350994523614645,0.9669658541679382
165.41433500,165414335,2,-0.25462770462036133,-0.003860055934637785,0.0035590853076428175,0.9670249223709106
165.51432900,165514329,2,-0.25443366169929504,-0.0038957383949309587,0.0036058728583157063,0.9670756459236145
165.61432700,165614327,2,-0.25420862436294556,-0.0038735573180019855,0.0036498457193374634,0.9671347737312317
165.71434800,165714348,2,-0.2539772689342499,-0.003835845272988081,0.0037036037538200617,0.9671955108642578
165.81437600,165814376,2,-0.2537684142589569,-0.003842676989734173,0.0037274418864399195,0.9672501683235168
165.91437400,165914374,2,-0.2535867691040039,-0.0038356762379407883,0.0037060582544654608,0.9672979116439819
166.01441300,166014413,2,-0.2534085512161255,-0.0037908172234892845,0.0037529543042182922,0.9673446416854858
166.11435900,166114359,2,-0.25324398279190063,-0.0037849030923098326,0.00373003794811666,0.967387855052948
166.21432700,166214327,2,-0.25307947397232056,-0.003824268700554967,0.0037745898589491844,0.967430591583252
166.31433100,166314331,2,-0.2529265582561493,-0.0038210053462535143,0.0037719428073614836,0.9674705862998962
166.41433000,166414330,2,-0.25274980068206787,-0.0038458574563264847,0.0038116592913866043,0.9675165414810181
166.51432900,166514329,2,-0.25256866216659546,-0.003895357483997941,0.0038061533123254776,0.9675636291503906
166.61435200,166614352,2,-0.2524101734161377,-0.003916713874787092,0.003836075309664011,0.9676048159599304
166.71437500,166714375,2,-0.2522159516811371,-0.003888079198077321,0.003879779251292348,0.9676553606987
166.81438000,166814380,2,-0.25200212001800537,-0.003901941468939185,0.0038469198625534773,0.9677111506462097
166.91441500,166914415,2,-0.25177714228630066,-0.003899463452398777,0.003876381553709507,0.9677696228027344
167.01436100,167014361,2,-0.25162267684936523,-0.0039100078865885735,0.003850470297038555,0.9678098559379578
167.11433200,167114332,2,-0.2514224648475647,-0.003906882833689451,0.003825874999165535,0.9678620100021362
167.21432800,167214328,2,-0.2512282133102417,-0.00392081867903471,0.0038021972868591547,0.967912495136261
167.31433100,167314331,2,-0.25109538435935974,-0.003928727004677057,0.0038311302196234465,0.9679467678070068
167.41433400,167414334,2,-0.2509092390537262,-0.0039621382020413876,0.003864134894683957,0.9679948091506958
167.51434900,167514349,2,-0.2507687211036682,-0.003904474899172783,0.0038554840721189976,0.9680314660072327
167.61437000,167614370,2,-0.25064048171043396,-0.003876171773299575,0.003824740881100297,0.9680649042129517
167.71438200,167714382,2,-0.2505163848400116,-0.0038641435094177723,0.003862510435283184,0.9680969715118408
167.81442200,167814422,2,-0.25034472346305847,-0.003862834768369794,0.0037990191485732794,0.9681416153907776
167.91435800,167914358,2,-0.2502085864543915,-0.0038701100274920464,0.0037866104394197464,0.9681768417358398
168.01433100,168014331,2,-0.2500147819519043,-0.003899592673406005,0.0037957329768687487,0.9682267308235168
168.11432700,168114327,2,-0.2497818022966385,-0.0039000194519758224,0.003772106021642685,0.96828693151474
168.21432700,168214327,2,-0.24962133169174194,-0.0039133639074862,0.0037530481349676847,0.9683283567428589
168.31433000,168314330,2,-0.2495463490486145,-0.0039369771257042885,0.0036742440424859524,0.9683479070663452
168.41435800,168414358,2,-0.2494344860315323,-0.003941985312849283,0.0036708118859678507,0.9683766961097717
168.51437500,168514375,2,-0.2493201494216919,-0.003951482940465212,0.0036103916354477406,0.9684063196182251
168.61438400,168614384,2,-0.24927207827568054,-0.003950083162635565,0.0035765983629971743,0.9684188365936279
168.71440200,168714402,2,-0.24916265904903412,-0.0039821285754442215,0.003545984858646989,0.9684469699859619
168.81436200,168814362,2,-0.24907125532627106,-0.004011232405900955,0.0035190205089747906,0.9684704542160034
168.91432900,168914329,2,-0.24891115725040436,-0.0039415485225617886,0.003466421039775014,0.9685121178627014
169.01433200,169014332,2,-0.248775914311409,-0.003942359704524279,0.0034431456588208675,0.9685469269752502
169.11433500,169114335,2,-0.2486463040113449,-0.0039960178546607494,0.0033744655083864927,0.9685802459716797
169.21432800,169214328,2,-0.24848979711532593,-0.003990111872553825,0.0033343350514769554,0.9686205387115479
169.31435500,169314355,2,-0.24840950965881348,-0.003940499387681484,0.0033036761451512575,0.968641459941864
169.41438200,169414382,2,-0.24823015928268433,-0.003982268273830414,0.0033048742916435003,0.9686872363090515
169.51438300,169514383,2,-0.24808979034423828,-0.00402175122871995,0.0033228376414626837,0.9687229990959167
169.61442800,169614428,2,-0.24792127311229706,-0.004012309014797211,0.0033392440527677536,0.9687660932540894
169.71436600,169714366,2,-0.24779841303825378,-0.004031932447105646,0.0034013057593256235,0.9687972664833069
169.81433200,169814332,2,-0.24768546223640442,-0.004066447727382183,0.003464097622781992,0.9688257575035095
169.91433100,169914331,2,-0.2475442737340927,-0.004097237251698971,0.0035096644423902035,0.9688615798950195
170.01433300,170014333,2,-0.24745064973831177,-0.004155774135142565,0.003576859598979354,0.9688850045204163
170.11433400,170114334,2,-0.24732832610607147,-0.004210035316646099,0.003617544425651431,0.9689158201217651
170.21434800,170214348,2,-0.24727195501327515,-0.004245113115757704,0.0037126680836081505,0.9689297080039978
170.31437400,170314374,2,-0.24719318747520447,-0.004281569272279739,0.0038105228450149298,0.9689492583274841
170.41439700,170414397,2,-0.24701768159866333,-0.004311373457312584,0.00393012585118413,0.9689934253692627
170.51441100,170514411,2,-0.24687036871910095,-0.0043076337315142155,0.004022363573312759,0.9690306186676025
170.61435900,170614359,2,-0.24674487113952637,-0.004358707927167416,0.004100237041711807,0.9690619707107544
170.71433300,170714333,2,-0.24659591913223267,-0.004379441495984793,0.004163104109466076,0.9690995216369629
170.81433300,170814333,2,-0.2464115172624588,-0.004397913347929716,0.004223674535751343,0.9691461324691772
170.91433000,170914330,2,-0.246230810880661,-0.004461245611310005,0.004313343670219183,0.9691913723945618
171.01433500,171014335,2,-0.24607452750205994,-0.004420410376042128,0.004356649704277515,0.9692310094833374
171.11435100,171114351,2,-0.24592924118041992,-0.004417647607624531,0.004449478350579739,0.9692674875259399
171.21437400,171214374,2,-0.24584507942199707,-0.004444768652319908,0.004500845447182655,0.9692884683609009
171.31439400,171314394,2,-0.24566881358623505,-0.00449550524353981,0.004608180373907089,0.9693324565887451
171.41443700,171414437,2,-0.24554936587810516,-0.00446905754506588,0.004702568054199219,0.9693623781204224
171.51436300,171514363,2,-0.24535083770751953,-0.004447057377547026,0.00483088381588459,0.969412088394165
171.61433100,171614331,2,-0.2451934963464737,-0.004485761746764183,0.004912409000098705,0.9694513082504272
171.71433900,171714339,2,-0.2451077252626419,-0.00442135613411665,0.0050277104601264,0.9694727063179016
171.81433200,171814332,2,-0.2449941635131836,-0.004462090786546469,0.005042714532464743,0.9695011973381042
171.91433300,171914333,2,-0.24488019943237305,-0.004446201026439667,0.005172655452042818,0.9695293307304382
172.01436200,172014362,2,-0.2447555810213089,-0.004477489273995161,0.0052074287086725235,0.9695605039596558
172.11438100,172114381,2,-0.2446114867925644,-0.004478656221181154,0.005307217128574848,0.9695963263511658
172.21439200,172214392,2,-0.24442657828330994,-0.004510859493166208,0.0053881327621638775,0.9696423411369324
172.31441400,172314414,2,-0.24427348375320435,-0.004551365505903959,0.005445473361760378,0.9696804285049438
172.41436800,172414368,2,-0.24410922825336456,-0.004589124582707882,0.005502397660166025,0.969721257686615
172.51433400,172514334,2,-0.24388936161994934,-0.004576003644615412,0.005575261544436216,0.9697762131690979
172.61433200,172614332,2,-0.24373871088027954,-0.004573719576001167,0.005641681142151356,0.9698137640953064
172.71433500,172714335,2,-0.24353957176208496,-0.00460378872230649,0.005694983527064323,0.9698632955551147
172.81433600,172814336,2,-0.24334657192230225,-0.004672570154070854,0.005747100804001093,0.9699110984802246
172.91436000,172914360,2,-0.2432066947221756,-0.004691288806498051,0.005784809123724699,0.9699459075927734
173.01437800,173014378,2,-0.24307845532894135,-0.00470054941251874,0.00584746478125453,0.969977617263794
173.11439400,173114394,2,-0.24291613698005676,-0.0047494396567344666,0.005959124304354191,0.9700173735618591
173.21440400,173214404,2,-0.2427622675895691,-0.004739203955978155,0.006075332406908274,0.9700552225112915
173.31437100,173314371,2,-0.2425798624753952,-0.004698064178228378,0.006192714441567659,0.9701002836227417
173.41433900,173414339,2,-0.24244418740272522,-0.00469138054177165,0.006280837580561638,0.9701336622238159
173.51434000,173514340,2,-0.2423096001148224,-0.004715966992080212,0.006247372832149267,0.9701673984527588
173.61433700,173614337,2,-0.24214813113212585,-0.00468070525676012,0.0061720856465399265,0.9702083468437195
173.71434000,173714340,2,-0.2420237958431244,-0.004647722467780113,0.006013442762196064,0.9702405333518982
173.81434200,173814342,2,-0.2419152706861496,-0.0045844134874641895,0.0059669301845133305,0.970268189907074
173.91437600,173914376,2,-0.24171234667301178,-0.004587087314575911,0.0059163570404052734,0.9703190922737122
174.01438200,174014382,2,-0.2415132224559784,-0.004577042069286108,0.005967892240732908,0.9703683853149414
174.11440400,174114404,2,-0.24132761359214783,-0.004554395098239183,0.006046294700354338,0.9704141616821289
174.21435700,174214357,2,-0.24118243157863617,-0.004582785069942474,0.0061477902345359325,0.9704495072364807
174.31433200,174314332,2,-0.24104848504066467,-0.004626413807272911,0.006223122123628855,0.9704821109771729
174.41434100,174414341,2,-0.2409115880727768,-0.004649005830287933,0.006317405495792627,0.9705153703689575
174.51433600,174514336,2,-0.2407972514629364,-0.004681055899709463,0.006385331507772207,0.9705431461334229
174.61432800,174614328,2,-0.24070286750793457,-0.004720333497971296,0.006447592284530401,0.9705659747123718
174.71436700,174714367,2,-0.2405564934015274,-0.004732533823698759,0.006523482967168093,0.9706016778945923
174.81437900,174814379,2,-0.2404203563928604,-0.004754417575895786,0.0065963068045675755,0.9706348180770874
174.91437400,174914374,2,-0.24028854072093964,-0.00478999363258481,0.0066786217503249645,0.9706667065620422
175.01441300,175014413,2,-0.2401520013809204,-0.0048293787986040115,0.006773482076823711,0.970699667930603
175.11437800,175114378,2,-0.24003088474273682,-0.004857832100242376,0.006857223808765411,0.970728874206543
175.21433600,175214336,2,-0.2399282455444336,-0.00488381227478385,0.0069035752676427364,0.9707537889480591
175.31435300,175314353,2,-0.23979966342449188,-0.004902369808405638,0.006930788978934288,0.9707852602005005
175.41434400,175414344,2,-0.23965869843959808,-0.004878962878137827,0.006986473221331835,0.9708198308944702
175.51433000,175514330,2,-0.23950430750846863,-0.004922814667224884,0.007038865704089403,0.9708573222160339
175.61434100,175614341,2,-0.23941288888454437,-0.0048964438028633595,0.007042589597404003,0.9708799719810486
175.71438500,175714385,2,-0.2392541468143463,-0.004927380941808224,0.007090906612575054,0.970918595790863
175.81438200,175814382,2,-0.23910453915596008,-0.004960545338690281,0.007069456856697798,0.9709554314613342
175.91441000,175914410,2,-0.23900790512561798,-0.004924967419356108,0.007087052799761295,0.9709792733192444
176.01437900,176014379,2,-0.2389015257358551,-0.00490292813628912,0.007069967221468687,0.9710056781768799
176.11432800,176114328,2,-0.23879095911979675,-0.0049114953726530075,0.007058081682771444,0.9710329174995422
176.21433800,176214338,2,-0.23866897821426392,-0.004928582813590765,0.006995611358433962,0.9710632562637329
176.31433900,176314339,2,-0.2385535091161728,-0.004952613264322281,0.006908264011144638,0.971092164516449
176.41433200,176414332,2,-0.23839540779590607,-0.004920687526464462,0.006846949458122253,0.9711315631866455
176.51434900,176514349,2,-0.2382528930902481,-0.004898988641798496,0.006730427499860525,0.9711674451828003
176.61437400,176614374,2,-0.23816609382629395,-0.004903987515717745,0.006596092600375414,0.9711896777153015
176.71437700,176714377,2,-0.23803997039794922,-0.004823531489819288,0.006485970690846443,0.9712217450141907
176.81442300,176814423,2,-0.23789796233177185,-0.004759496543556452,0.0063505819998681545,0.971257746219635
176.91437100,176914371,2,-0.23773448169231415,-0.004711507819592953,0.0062119243666529655,0.97129887342453
177.01433300,177014333,2,-0.23763598501682281,-0.004679938778281212,0.0060068038292229176,0.9713244438171387
177.11433300,177114333,2,-0.23753167688846588,-0.004594255238771439,0.005865775514394045,0.9713512063026428
177.21433300,177214333,2,-0.23745854198932648,-0.004545276984572411,0.005771562922745943,0.9713699221611023
177.31433100,177314331,2,-0.2373449206352234,-0.00454550189897418,0.005535692907869816,0.9713990092277527
177.41436200,177414362,2,-0.2373340129852295,-0.004473581910133362,0.005340748466551304,0.9714031219482422
177.51437300,177514373,2,-0.23726420104503632,-0.004392791539430618,0.005131111945956945,0.9714216589927673
177.61437600,177614376,2,-0.23716303706169128,-0.004366185050457716,0.004934098105877638,0.9714475274085999
177.71441300,177714413,2,-0.23713195323944092,-0.004312041215598583,0.00472654215991497,0.9714564085006714
177.81435800,177814358,2,-0.23707234859466553,-0.004215112887322903,0.0045157540589571,0.9714723825454712
177.91433200,177914332,2,-0.2369706928730011,-0.004169290419667959,0.0042997389100492,0.9714983105659485
178.01434700,178014347,2,-0.2369135469198227,-0.004084296990185976,0.004057358484715223,0.9715136885643005
178.11432700,178114327,2,-0.2368215024471283,-0.004042280837893486,0.003895901143550873,0.9715369343757629
178.21432800,178214328,2,-0.236744225025177,-0.003979012370109558,0.003701318521052599,0.9715567827224731
178.31434900,178314349,2,-0.23663972318172455,-0.0039093028753995895,0.0035179771948605776,0.9715832471847534
178.41437400,178414374,2,-0.23652619123458862,-0.0038604987785220146,0.0033493186347186565,0.9716116786003113
178.51437800,178514378,2,-0.23645617067813873,-0.00382121279835701,0.003167124465107918,0.9716295003890991
178.61439900,178614399,2,-0.23638556897640228,-0.0037604477256536484,0.003020291915163398,0.9716473817825317
178.71436000,178714360,2,-0.23629246652126312,-0.003735586069524288,0.00283558270893991,0.9716706871986389
178.81433900,178814339,2,-0.23623670637607574,-0.003675258019939065,0.002678048564121127,0.9716848731040955
178.91432800,178914328,2,-0.23613287508487701,-0.003696001134812832,0.002525240182876587,0.9717104434967041
179.01433100,179014331,2,-0.2360386848449707,-0.0036065480671823025,0.002361385617405176,0.9717341065406799
179.11433200,179114332,2,-0.23598770797252655,-0.003565853927284479,0.0022195063065737486,0.9717469811439514
179.21434300,179214343,2,-0.23587915301322937,-0.0035179469268769026,0.0020925826393067837,0.9717738032341003
179.31437900,179314379,2,-0.23581768572330475,-0.0035199541598558426,0.001971454592421651,0.9717889428138733
179.41437900,179414379,2,-0.23576034605503082,-0.003465937450528145,0.0018819080432876945,0.9718032479286194
179.51441400,179514414,2,-0.2357063740491867,-0.0034214050974696875,0.0017585154855623841,0.9718167185783386
179.61435700,179614357,2,-0.2356826514005661,-0.0033891545608639717,0.0016208388842642307,0.9718227982521057
179.71433500,179714335,2,-0.2356409877538681,-0.0033603718038648367,0.0015396767994388938,0.9718331694602966
179.81432800,179814328,2,-0.23556014895439148,-0.003383021568879485,0.00147432298399508,0.9718527793884277
179.91432800,179914328,2,-0.23550376296043396,-0.0033453560899943113,0.0013870388502255082,0.9718666672706604
180.01433200,180014332,2,-0.23545658588409424,-0.0033016277011483908,0.0012952941469848156,0.9718784093856812
180.11435100,180114351,2,-0.2354467213153839,-0.0033427951857447624,0.0012311260215938091,0.9718807339668274
180.21437600,180214376,2,-0.23539727926254272,-0.0032483506947755814,0.0011349510168656707,0.9718931317329407
180.31437300,180314373,2,-0.23538832366466522,-0.0032600006088614464,0.001030706218443811,0.9718953967094421
180.41441800,180414418,2,-0.23537996411323547,-0.003242004429921508,0.0009861800353974104,0.971897542476654
180.51436600,180514366,2,-0.23533396422863007,-0.0032203251030296087,0.000894194352440536,0.9719088077545166
180.61432700,180614327,2,-0.23525919020175934,-0.003197132609784603,0.0008297900203615427,0.9719270467758179
180.71433000,180714330,2,-0.23522111773490906,-0.003140295622870326,0.0007848161621950567,0.9719364643096924
180.81433300,180814333,2,-0.23513391613960266,-0.003143724286928773,0.0007478484767489135,0.9719576239585876
180.91432700,180914327,2,-0.2350497990846634,-0.0031474607530981302,0.0006358068203553557,0.9719780087471008
181.01435000,181014350,2,-0.23503369092941284,-0.003145189955830574,0.000618574908003211,0.971981942653656
181.11438000,181114380,2,-0.23496727645397186,-0.0031326317694038153,0.0006099122110754251,0.9719980359077454
181.21437600,181214376,2,-0.23492483794689178,-0.0031124784145504236,0.0005187619826756418,0.9720084071159363
181.31441600,181314416,2,-0.23491819202899933,-0.0031142381485551596,0.00045864577987231314,0.97201007604599
181.41436400,181414364,2,-0.2348889410495758,-0.003134232247248292,0.00046294488129206,0.9720170497894287
181.51433200,181514332,2,-0.2348368912935257,-0.0031839022412896156,0.00042978316196240485,0.9720295071601868
181.61432800,181614328,2,-0.23484399914741516,-0.0031951649580150843,0.00043970224214717746,0.9720277190208435
181.71433400,181714334,2,-0.23484590649604797,-0.0031928212847560644,0.00038351811235770583,0.9720273017883301
181.81432900,181814329,2,-0.23476816713809967,-0.003170197829604149,0.00034189486177638173,0.9720461368560791
181.91434200,181914342,2,-0.23471707105636597,-0.003162108827382326,0.000327268207911402,0.9720585346221924
182.01437500,182014375,2,-0.23474836349487305,-0.003154764184728265,0.0002940394333563745,0.9720510244369507
182.11437000,182114370,2,-0.2347681075334549,-0.00310881738550961,0.00030168757075443864,0.9720463752746582
182.21442000,182214420,2,-0.23474250733852386,-0.0030743207316845655,0.00029277749126777053,0.9720526933670044
182.31436500,182314365,2,-0.23470713198184967,-0.0030961495358496904,0.00029221305157989264,0.9720611572265625
182.41433100,182414331,2,-0.23463840782642365,-0.0030642433557659388,0.0002980743593070656,0.9720778465270996
182.51433400,182514334,2,-0.23458975553512573,-0.0030433274805545807,0.00028462521731853485,0.9720896482467651
182.61432800,182614328,2,-0.23455026745796204,-0.003020238596946001,0.0002238934102933854,0.972099244594574
182.71433100,182714331,2,-0.2345210611820221,-0.0029451954178512096,0.00017756210581865162,0.9721065759658813
182.81434700,182814347,2,-0.23446021974086761,-0.0029885161202400923,0.0001470777060603723,0.9721211194992065
182.91437100,182914371,2,-0.23437891900539398,-0.0030038736294955015,0.0001090925870812498,0.9721406698226929
183.01438300,183014383,2,-0.23425613343715668,-0.002964738989248872,0.00010358516738051549,0.9721704125404358
183.11442800,183114428,2,-0.23419614136219025,-0.002969617722555995,4.676694516092539e-05,0.9721848368644714
183.21435700,183214357,2,-0.23416009545326233,-0.002972626592963934,3.2145155273610726e-05,0.9721934795379639
183.31433000,183314330,2,-0.23414118587970734,-0.0029824962839484215,1.158470786322141e-05,0.9721980094909668
183.41433400,183414334,2,-0.23413170874118805,-0.0029818129260092974,2.4015060262172483e-05,0.972200334072113
183.51433200,183514332,2,-0.23415116965770721,-0.0029558443930000067,2.761442374321632e-06,0.9721956849098206
183.61432800,183614328,2,-0.23414044082164764,-0.0029708079528063536,-2.692196358111687e-05,0.9721982479095459
183.71435500,183714355,2,-0.2341003566980362,-0.0029719157610088587,-6.410230707842857e-05,0.9722079038619995
183.81437400,183814374,2,-0.2340380698442459,-0.0029772717971354723,-9.430501813767478e-05,0.9722228646278381
183.91438700,183914387,2,-0.23397541046142578,-0.00296935997903347,-0.00010015672887675464,0.9722380042076111
184.01442300,184014423,2,-0.23395602405071259,-0.0030130513478070498,-0.00011835538316518068,0.9722424745559692
184.11436200,184114362,2,-0.23387473821640015,-0.003014970337972045,-7.637639646418393e-05,0.9722620844841003
184.21433400,184214334,2,-0.23382504284381866,-0.0030316603370010853,-3.179999112035148e-05,0.9722739458084106
184.31433100,184314331,2,-0.23371180891990662,-0.0030251049902290106,-3.6971308873035014e-05,0.972301185131073
184.41433100,184414331,2,-0.23363745212554932,-0.0030907706823199987,-7.930739957373589e-05,0.9723188877105713
184.51433700,184514337,2,-0.2335377037525177,-0.0031175322365015745,-0.00011045971041312441,0.9723427295684814
184.61434800,184614348,2,-0.2334635853767395,-0.0030683320946991444,-0.0001374402636429295,0.9723606705665588
184.71437400,184714374,2,-0.23334099352359772,-0.0030911490321159363,-0.00017739448230713606,0.9723900556564331
184.81439700,184814397,2,-0.23323053121566772,-0.0031496298033744097,-0.00020713501726277173,0.972416341304779
184.91441500,184914415,2,-0.23315197229385376,-0.00318021303974092,-0.00020248504006303847,0.9724351167678833
185.01440000,185014400,2,-0.2331305891275406,-0.0032204659655690193,-0.00020531767222564667,0.9724400639533997
185.11433200,185114332,2,-0.2331005483865738,-0.0032413534354418516,-0.00027808977756649256,0.9724472165107727
185.21433600,185214336,2,-0.23315934836864471,-0.003199236700311303,-0.00033471747883595526,0.9724332094192505
185.31433100,185314331,2,-0.23309578001499176,-0.0032164587173610926,-0.0003273919865023345,0.9724484086036682
185.41433300,185414333,2,-0.23305273056030273,-0.0032385175582021475,-0.0003569625550881028,0.9724586606025696
185.51434700,185514347,2,-0.2330572009086609,-0.0032343463972210884,-0.0003659806097857654,0.9724575877189636
185.61437100,185614371,2,-0.23300498723983765,-0.003235980635508895,-0.00040435531991533935,0.9724700450897217
185.71439400,185714394,2,-0.23293761909008026,-0.0032728000078350306,-0.00043820077553391457,0.9724860787391663
185.81442000,185814420,2,-0.23289722204208374,-0.0032536000944674015,-0.00043148253462277353,0.9724957942962646
185.91435700,185914357,2,-0.2328387349843979,-0.0032821421045809984,-0.0004292663652449846,0.9725097417831421
186.01433700,186014337,2,-0.23279006779193878,-0.003250116715207696,-0.0004602345870807767,0.9725214838981628
186.11432900,186114329,2,-0.23276162147521973,-0.003282395424321294,-0.00040543029899708927,0.9725282192230225
186.21432900,186214329,2,-0.23272469639778137,-0.003311644308269024,-0.00042469281470403075,0.9725369215011597
186.31432900,186314329,2,-0.23267462849617004,-0.0033612188417464495,-0.00042202655458822846,0.9725487232208252
186.41436600,186414366,2,-0.23257620632648468,-0.0034047304652631283,-0.00038268553907983005,0.9725721478462219
186.51438000,186514380,2,-0.23253028094768524,-0.0034223347902297974,-0.0003657484194263816,0.9725830554962158
186.61438200,186614382,2,-0.23254889249801636,-0.0034325355663895607,-0.00038480840157717466,0.9725785851478577
186.71440400,186714404,2,-0.2325640171766281,-0.0034612182062119246,-0.00040047295624390244,0.9725748300552368
186.81437300,186814373,2,-0.23255284130573273,-0.0034687062725424767,-0.0004224562144372612,0.9725775122642517
186.91432900,186914329,2,-0.23255480825901031,-0.003476446494460106,-0.00041543616680428386,0.9725769758224487
187.01433200,187014332,2,-0.2324947565793991,-0.0035203758161514997,-0.00042724539525806904,0.9725911617279053
187.11433000,187114330,2,-0.23249289393424988,-0.0035515739582479,-0.0004185331054031849,0.9725915193557739
187.21432800,187214328,2,-0.2324264496564865,-0.0035585835576057434,-0.0004150425083935261,0.9726073741912842
187.31435700,187314357,2,-0.23233620822429657,-0.0035723026376217604,-0.00038751985994167626,0.9726288914680481
187.41437600,187414376,2,-0.23227010667324066,-0.003577440045773983,-0.00044455169700086117,0.9726446270942688
187.51438100,187514381,2,-0.23226341605186462,-0.0035517055075615644,-0.0004108603170607239,0.9726463556289673
187.61440600,187614406,2,-0.23221954703330994,-0.00354262487962842,-0.00041972569306381047,0.9726568460464478
187.71436100,187714361,2,-0.23218785226345062,-0.0035967754665762186,-0.00043964042561128736,0.9726642370223999
187.81432700,187814327,2,-0.23211416602134705,-0.0035772148985415697,-0.000442765187472105,0.9726818799972534
187.91432900,187914329,2,-0.23206032812595367,-0.0035333179403096437,-0.00041684939060360193,0.9726948738098145
188.01433000,188014330,2,-0.2319478839635849,-0.0035429024137556553,-0.00044928689021617174,0.9727216362953186
188.11432900,188114329,2,-0.2319505661725998,-0.003538734745234251,-0.0004128828877583146,0.9727210402488708
188.21435400,188214354,2,-0.2319183200597763,-0.003500225255265832,-0.0003981964255217463,0.9727289080619812
188.31437200,188314372,2,-0.23188874125480652,-0.003536102594807744,-0.00040607608389109373,0.9727358222007751
188.41438500,188414385,2,-0.2318892478942871,-0.0034869727678596973,-0.0003717535000760108,0.9727358818054199
188.51441900,188514419,2,-0.23182867467403412,-0.003445663023740053,-0.0004190043837297708,0.9727504253387451
188.61435600,188614356,2,-0.23178443312644958,-0.003417197847738862,-0.00041673160740174353,0.9727610945701599
188.71433100,188714331,2,-0.2316901683807373,-0.0033807503059506416,-0.0004310319491196424,0.9727836847305298
188.81433100,188814331,2,-0.2316863089799881,-0.003345408709719777,-0.00043208012357354164,0.972784698009491
188.91432700,188914327,2,-0.23163965344429016,-0.003348578466102481,-0.00045878233504481614,0.9727957844734192
189.01433100,189014331,2,-0.23159785568714142,-0.003376159118488431,-0.0004731298249680549,0.9728056192398071
189.11435600,189114356,2,-0.2315848171710968,-0.003363854018971324,-0.00044532533502206206,0.9728087782859802
189.21437100,189214371,2,-0.23151516914367676,-0.003359387628734112,-0.00043450170778669417,0.9728254079818726
189.31438100,189314381,2,-0.23147831857204437,-0.0033436885569244623,-0.0004665277083404362,0.9728342294692993
189.41441500,189414415,2,-0.2314203828573227,-0.003328740131109953,-0.0004535854095593095,0.9728480577468872
189.51436300,189514363,2,-0.23135675489902496,-0.0033461146522313356,-0.00045784111716784537,0.9728631377220154
189.61432700,189614327,2,-0.23128965497016907,-0.0033407206647098064,-0.00045382199459709227,0.9728791117668152
189.71433100,189714331,2,-0.23125392198562622,-0.0033711781725287437,-0.0004460264462977648,0.9728874564170837
189.81432900,189814329,2,-0.23123155534267426,-0.003349457634612918,-0.00045063570723868906,0.9728928804397583
189.91432800,189914328,2,-0.2311701774597168,-0.0033091031946241856,-0.0004609551979228854,0.9729076027870178
190.01435600,190014356,2,-0.23115821182727814,-0.0032510540913790464,-0.0004749535000883043,0.9729106426239014
190.11437400,190114374,2,-0.23113368451595306,-0.003205374348908663,-0.0004928018897771835,0.9729166030883789
190.21438000,190214380,2,-0.23112018406391144,-0.003153594210743904,-0.000502319831866771,0.9729199409484863
190.31441400,190314414,2,-0.2310696542263031,-0.0031045263167470694,-0.0005247592926025391,0.9729321002960205
190.41436000,190414360,2,-0.2310609519481659,-0.0030701281502842903,-0.000583070854190737,0.9729342460632324
190.51433200,190514332,2,-0.23106016218662262,-0.0030995120760053396,-0.0005287668318487704,0.972934365272522
190.61432900,190614329,2,-0.231068953871727,-0.003046101424843073,-0.0005448385491035879,0.9729324579238892
190.71433000,190714330,2,-0.2310900092124939,-0.0030497240368276834,-0.0005465909489430487,0.972927451133728
190.81433900,190814339,2,-0.2310759723186493,-0.003063199808821082,-0.0005739980260841548,0.9729307293891907
190.91435000,190914350,2,-0.23099979758262634,-0.0030067134648561478,-0.0005716469022445381,0.9729489684104919
191.01437800,191014378,2,-0.23092475533485413,-0.0030031597707420588,-0.0005385290714912117,0.9729668498039246
191.11439500,191114395,2,-0.23086023330688477,-0.0029734622221440077,-0.0005184244364500046,0.9729822278022766
191.21440200,191214402,2,-0.2308415323495865,-0.002970469417050481,-0.00048574904212728143,0.9729866981506348
191.31436600,191314366,2,-0.23083710670471191,-0.0029952656477689743,-0.0005184894544072449,0.9729876518249512
191.41433500,191414335,2,-0.23078519105911255,-0.003057809779420495,-0.00048632759717293084,0.9729998111724854
191.51433100,191514331,2,-0.23075732588768005,-0.0030524025205522776,-0.0004699065175373107,0.9730064272880554
191.61433000,191614330,2,-0.23069114983081818,-0.0030360540840774775,-0.0004381538019515574,0.9730221629142761
191.71433400,191714334,2,-0.23067910969257355,-0.003039443166926503,-0.00039964282768778503,0.9730250239372253
191.81436500,191814365,2,-0.23062743246555328,-0.0030355791095644236,-0.00037740799598395824,0.9730373024940491
191.91437400,191914374,2,-0.23057936131954193,-0.003070959122851491,-0.00039652889245189726,0.9730485677719116
192.01438100,192014381,2,-0.23050783574581146,-0.0031212770845741034,-0.00031848569051362574,0.9730654358863831
192.11442300,192114423,2,-0.23048485815525055,-0.0030812339391559362,-0.0003286260471213609,0.9730709791183472
192.21436200,192214362,2,-0.23044157028198242,-0.0030569154769182205,-0.00028636507340706885,0.9730813503265381
192.31433700,192314337,2,-0.23047655820846558,-0.0030367872677743435,-0.00031084512011148036,0.9730730652809143
192.41433400,192414334,2,-0.23049002885818481,-0.00299487030133605,-0.00028660919633693993,0.9730700254440308
192.51433500,192514335,2,-0.23046721518039703,-0.003029557876288891,-0.00020441904780454934,0.9730753302574158
192.61433000,192614330,2,-0.2304176688194275,-0.003018156858161092,-0.00017695316637400538,0.9730871319770813
192.71435600,192714356,2,-0.23038014769554138,-0.0030471899081021547,-0.00017316023877356201,0.9730958938598633
192.81438200,192814382,2,-0.2302878051996231,-0.0030629571992903948,-0.00015552251716144383,0.9731177091598511
192.91437800,192914378,2,-0.23029425740242004,-0.003067708807066083,-0.00010786336497403681,0.9731162190437317
193.01441700,193014417,2,-0.2302011251449585,-0.0030360380187630653,-7.74535583332181e-05,0.9731383323669434
193.11437200,193114372,2,-0.23017580807209015,-0.003106385935097933,-6.0485333960969e-05,0.9731441140174866
193.21433200,193214332,2,-0.23017558455467224,-0.003108696546405554,-6.57318378216587e-05,0.9731441736221313
193.31433200,193314332,2,-0.2300684005022049,-0.0031397826969623566,-6.776300142519176e-05,0.9731693863868713
193.41434600,193414346,2,-0.2300686240196228,-0.0031255315989255905,-4.941079532727599e-05,0.9731693863868713
193.51433300,193514333,2,-0.23000653088092804,-0.003179945284500718,-4.799224188900553e-05,0.9731838703155518
193.61435600,193614356,2,-0.22995206713676453,-0.0031869285739958286,-3.756274963961914e-05,0.9731967449188232
193.71437800,193714378,2,-0.2298838347196579,-0.003255074145272374,-6.667012348771095e-05,0.9732126593589783
193.81439200,193814392,2,-0.22989654541015625,-0.0032024101819843054,-3.7222987884888425e-05,0.973209798336029
193.91441800,193914418,2,-0.2298768311738968,-0.0032813854049891233,-3.9266447856789455e-05,0.9732142090797424
194.01437400,194014374,2,-0.22986485064029694,-0.0032863246742635965,1.039561425386637e-06,0.9732170104980469
194.11434100,194114341,2,-0.2298237532377243,-0.003287422237917781,4.171068576397374e-05,0.9732267260551453
194.21433200,194214332,2,-0.22980277240276337,-0.0033551640808582306,1.1160836038470734e-05,0.9732314348220825
194.31433200,194314332,2,-0.2298162430524826,-0.0033363255206495523,6.376642431860091e-06,0.9732283353805542
194.41433900,194414339,2,-0.22977928817272186,-0.003299986943602562,4.865661685471423e-05,0.973237156867981
194.51436000,194514360,2,-0.22967079281806946,-0.0032938243821263313,2.4178567400667816e-05,0.9732627868652344
194.61437200,194614372,2,-0.22964969277381897,-0.0033421157859265804,4.5828746806364506e-05,0.9732676148414612
194.71437800,194714378,2,-0.2296549379825592,-0.003305137623101473,3.390133861103095e-05,0.9732664823532104
194.81442200,194814422,2,-0.2296099215745926,-0.003291941015049815,3.554009890649468e-05,0.9732771515846252
194.91436500,194914365,2,-0.2295794039964676,-0.003214363008737564,-2.98618233500747e-05,0.9732846021652222
195.01433200,195014332,2,-0.22948947548866272,-0.0032082488760352135,2.676992835404235e-06,0.973305881023407
195.11433600,195114336,2,-0.2294708490371704,-0.0031864196062088013,-2.4603908968856558e-05,0.9733102917671204
195.21432700,195214327,2,-0.2294631451368332,-0.00318117905408144,-1.0198903510172386e-05,0.9733121395111084
195.31432800,195314328,2,-0.22946445643901825,-0.0030982643365859985,1.7675746448730933e-06,0.9733121395111084
195.41435800,195414358,2,-0.22946082055568695,-0.0031002520117908716,5.7812267186818644e-05,0.9733129739761353
195.51437300,195514373,2,-0.22945959866046906,-0.003054381813853979,4.9632100854068995e-05,0.9733133912086487
195.61437700,195614377,2,-0.22941386699676514,-0.0030916607938706875,3.093314080615528e-05,0.9733240604400635
195.71442400,195714424,2,-0.2293412834405899,-0.0030834595672786236,5.6621935073053464e-05,0.973341166973114
195.81436100,195814361,2,-0.22929269075393677,-0.0030833296477794647,3.9121929148677737e-05,0.9733526110649109
195.91439600,195914396,2,-0.22925551235675812,-0.003056580200791359,3.9665286749368533e-05,0.9733614921569824
196.01434400,196014344,2,-0.22921410202980042,-0.0030961851589381695,9.489986405242234e-05,0.9733710885047913
196.11434800,196114348,2,-0.22919058799743652,-0.0030481303110718727,8.703396451892331e-05,0.9733768105506897
196.21432600,196214326,2,-0.22917981445789337,-0.003090441692620516,0.00014486879808828235,0.9733791947364807
196.31435900,196314359,2,-0.2291390746831894,-0.0030951639637351036,0.0002113795926561579,0.9733887314796448
196.41439400,196414394,2,-0.22911493480205536,-0.0030422229319810867,0.00022071314742788672,0.9733945727348328
196.51439200,196514392,2,-0.2290949821472168,-0.0030075639951974154,0.0002633132680784911,0.9733994007110596
196.61442000,196614420,2,-0.22908884286880493,-0.0029469674918800592,0.00033682581852190197,0.9734010100364685
196.71435900,196714359,2,-0.22906187176704407,-0.002921284409239888,0.0003395690000616014,0.9734074473381042
196.81433300,196814333,2,-0.22904348373413086,-0.002940000267699361,0.0004090855363756418,0.9734116792678833
196.91433900,196914339,2,-0.22899070382118225,-0.0029559978283941746,0.00041994472849182785,0.9734240174293518
197.01433700,197014337,2,-0.2289692610502243,-0.0030003590509295464,0.0004302545276004821,0.9734289646148682
197.11433600,197114336,2,-0.22894081473350525,-0.0030205484945327044,0.00042570140794850886,0.9734355807304382
197.21434700,197214347,2,-0.22890613973140717,-0.002943412633612752,0.0004249420599080622,0.9734439849853516
197.31437900,197314379,2,-0.22887258231639862,-0.0029456354677677155,0.00043789763003587723,0.9734518527984619
197.41440000,197414400,2,-0.22881180047988892,-0.003024765057489276,0.00046031136298552155,0.9734658598899841
197.51442400,197514424,2,-0.22881948947906494,-0.0030248453840613365,0.00046910395030863583,0.9734640717506409
197.61435700,197614357,2,-0.2287825047969818,-0.0030080119613558054,0.00043774559162557125,0.9734728336334229
197.71433000,197714330,2,-0.22875665128231049,-0.0030649700202047825,0.000398247386328876,0.9734787344932556
197.81434600,197814346,2,-0.22877293825149536,-0.003053458407521248,0.00035965695860795677,0.9734749794006348
197.91432700,197914327,2,-0.22874155640602112,-0.00304856663569808,0.0003254266921430826,0.9734823703765869
198.01433200,198014332,2,-0.22873219847679138,-0.0030867471359670162,0.0003074931155424565,0.973484456539154
198.11435100,198114351,2,-0.22873659431934357,-0.0030706319957971573,0.00030927674379199743,0.9734834432601929
198.21437300,198214373,2,-0.22878386080265045,-0.0030854204669594765,0.0002530669153202325,0.9734722971916199
198.31438900,198314389,2,-0.22882919013500214,-0.003071483923122287,0.0002166353224311024,0.9734617471694946
198.41442400,198414424,2,-0.22880908846855164,-0.0031072760466486216,0.00021186382218729705,0.9734663367271423
198.51437300,198514373,2,-0.22876565158367157,-0.0031067656818777323,0.00018115129205398262,0.9734765291213989
198.61433800,198614338,2,-0.22872380912303925,-0.003111264668405056,0.0001412356796208769,0.9734863638877869
198.71433900,198714339,2,-0.2287127673625946,-0.0030499319545924664,6.444136670324951e-05,0.9734891653060913
198.81433200,198814332,2,-0.22868715226650238,-0.00307217868976295,5.802886880701408e-05,0.9734951257705688
198.91433200,198914332,2,-0.22867430746555328,-0.0031179869547486305,-1.4483087397820782e-05,0.9734979867935181
199.01434900,199014349,2,-0.22873230278491974,-0.0031003975309431553,-0.0001125477283494547,0.9734843969345093
199.11438400,199114384,2,-0.2287321537733078,-0.0031047300435602665,-0.00015575122961308807,0.973484456539154
199.21438700,199214387,2,-0.22872483730316162,-0.0031349281780421734,-0.00019985124527011067,0.973486065864563
199.31442900,199314429,2,-0.2287597507238388,-0.003076974768191576,-0.0002855838683899492,0.9734780192375183
199.41437900,199414379,2,-0.22879208624362946,-0.0030528090428560972,-0.00037116484600119293,0.9734704494476318
199.51433700,199514337,2,-0.22879105806350708,-0.0030796248465776443,-0.00048508759937249124,0.9734705686569214
199.61434100,199614341,2,-0.2288006693124771,-0.003045853925868869,-0.0005509912734851241,0.9734683632850647
199.71432900,199714329,2,-0.2287895530462265,-0.003059019800275564,-0.0005645355558954179,0.97347092628479
199.81432700,199814327,2,-0.22882872819900513,-0.0029988347087055445,-0.0006082053296267986,0.9734618663787842
199.91435200,199914352,2,-0.22882044315338135,-0.002935673575848341,-0.0006516144494526088,0.9734640121459961
200.01437900,200014379,2,-0.22880764305591583,-0.0029974014032632113,-0.0006728108855895698,0.9734668135643005
200.11439100,200114391,2,-0.22885622084140778,-0.0029976405203342438,-0.000701851153280586,0.9734553694725037
200.21443100,200214431,2,-0.2288287729024887,-0.0029171016067266464,-0.0007415247382596135,0.9734620451927185
200.31436800,200314368,2,-0.22885815799236298,-0.002955066505819559,-0.000767211546190083,0.973455011844635
200.41433900,200414339,2,-0.22885946929454803,-0.002930432092398405,-0.0008404417312704027,0.9734547138214111
200.51434400,200514344,2,-0.22881826758384705,-0.0028992625884711742,-0.0008875395287759602,0.9734644293785095
200.61432700,200614327,2,-0.2288399338722229,-0.002895555691793561,-0.0009823594009503722,0.9734592437744141
200.71433000,200714330,2,-0.2288283258676529,-0.0028664201963692904,-0.001052726642228663,0.9734619855880737
200.81436400,200814364,2,-0.22882266342639923,-0.002830298850312829,-0.0011018271325156093,0.9734634160995483
200.91437300,200914373,2,-0.22886574268341064,-0.0027995449490845203,-0.0011688938830047846,0.9734532833099365
201.01437600,201014376,2,-0.2288782000541687,-0.0027937544509768486,-0.0012821207055822015,0.973450243473053
201.11440600,201114406,2,-0.22890301048755646,-0.0027573828119784594,-0.001297180773690343,0.9734444618225098
201.21436200,201214362,2,-0.22894777357578278,-0.0027651891577988863,-0.0013567996211349964,0.9734338521957397
201.31432800,201314328,2,-0.22893066704273224,-0.002796707209199667,-0.0013974786270409822,0.9734377264976501
201.41433400,201414334,2,-0.22902388870716095,-0.0027501920703798532,-0.0013891597045585513,0.9734159111976624
201.51432900,201514329,2,-0.2291092574596405,-0.00271687563508749,-0.0013960469514131546,0.9733959436416626
201.61432900,201614329,2,-0.22913947701454163,-0.002802235772833228,-0.0014136821264401078,0.9733885526657104
201.71435400,201714354,2,-0.22920680046081543,-0.0027141289319843054,-0.0014619333669543266,0.9733728766441345
201.81437800,201814378,2,-0.2291637510061264,-0.002900367835536599,-0.0015270799631252885,0.9733823537826538
201.91437200,201914372,2,-0.22920560836791992,-0.002754603046923876,-0.0015175867592915893,0.9733729362487793
202.01441200,202014412,2,-0.22929833829402924,-0.0027826076839119196,-0.001521215308457613,0.973351001739502
202.11436600,202114366,2,-0.22925347089767456,-0.0028068837709724903,-0.0015835018130019307,0.9733614325523376
202.21432800,202214328,2,-0.2292976826429367,-0.0026890693698078394,-0.001587444101460278,0.9733513593673706
202.31432900,202314329,2,-0.2293194979429245,-0.0027029020711779594,-0.0016179169761016965,0.9733461141586304
202.41433100,202414331,2,-0.22927109897136688,-0.0025292772334069014,-0.0015569902025163174,0.9733580946922302
202.51433200,202514332,2,-0.22927436232566833,-0.002736735623329878,-0.0016531245782971382,0.9733566045761108
202.61434000,202614340,2,-0.22931699454784393,-0.002564940368756652,-0.0016958771739155054,0.9733469486236572
202.71437200,202714372,2,-0.22934265434741974,-0.002539738081395626,-0.001686057192273438,0.9733409881591797
202.81438300,202814383,2,-0.22931425273418427,-0.002526636701077223,-0.0017479697708040476,0.9733476042747498
202.91440100,202914401,2,-0.22932305932044983,-0.002491563791409135,-0.0017379014752805233,0.9733456373214722
203.01436300,203014363,2,-0.22935889661312103,-0.002595912665128708,-0.0018575488356873393,0.9733366966247559
203.11433400,203114334,2,-0.22941048443317413,-0.0025638050865381956,-0.0018079441506415606,0.973324716091156
203.21432600,203214326,2,-0.2293933480978012,-0.002669442677870393,-0.0018541848985478282,0.9733283519744873
203.31432700,203314327,2,-0.2295254021883011,-0.00259011541493237,-0.0018418622203171253,0.9732974767684937
203.41433300,203414333,2,-0.2294108271598816,-0.0025838289875537157,-0.001855810172855854,0.9733244776725769
203.51435900,203514359,2,-0.2294798493385315,-0.0026130240876227617,-0.0018368742894381285,0.9733081459999084
203.61437100,203614371,2,-0.22938568890094757,-0.0026784325018525124,-0.0019112672889605165,0.973330020904541
203.71437500,203714375,2,-0.22938679158687592,-0.0027611413970589638,-0.0019227284938097,0.9733295440673828
203.81441700,203814417,2,-0.22952724993228912,-0.0026925415731966496,-0.001985530834645033,0.9732964634895325
203.91435600,203914356,2,-0.22930185496807098,-0.0027770409360527992,-0.002043543616309762,0.9733492732048035
204.01433800,204014338,2,-0.22942671179771423,-0.002473460277542472,-0.0019549569115042686,0.9733208417892456
204.11433600,204114336,2,-0.22946470975875854,-0.00274293078109622,-0.002084193052724004,0.9733108878135681
204.21432700,204214327,2,-0.22949998080730438,-0.0025709124747663736,-0.002062921179458499,0.9733030796051025
204.31432800,204314328,2,-0.22944144904613495,-0.0026748646050691605,-0.0021115397103130817,0.973316490650177
204.41435200,204414352,2,-0.22948125004768372,-0.00270270393230021,-0.002120991935953498,0.9733070135116577
204.51437800,204514378,2,-0.2295374721288681,-0.0027652836870402098,-0.002131254179403186,0.9732935428619385
204.61437200,204614372,2,-0.22956155240535736,-0.0027658254839479923,-0.0021079247817397118,0.9732879400253296
204.71441700,204714417,2,-0.22962933778762817,-0.0027743263635784388,-0.002125662285834551,0.973271906375885
204.81437900,204814379,2,-0.22965215146541595,-0.0027941223233938217,-0.0021020208951085806,0.9732664823532104
204.91433700,204914337,2,-0.2296382188796997,-0.002887630369514227,-0.0021200962364673615,0.9732694625854492
205.01434600,205014346,2,-0.22963684797286987,-0.002939758589491248,-0.002133144997060299,0.9732695817947388
205.11434500,205114345,2,-0.22965799272060394,-0.0030159021262079477,-0.0021900569554418325,0.9732642769813538
205.21433900,205214339,2,-0.2296483814716339,-0.002964119194075465,-0.0022241242695599794,0.9732666015625
205.31435000,205314350,2,-0.2295915186405182,-0.003051545238122344,-0.00223166192881763,0.9732797145843506
205.41438200,205414382,2,-0.2296416312456131,-0.0029235617257654667,-0.0021829050965607166,0.9732683897018433
205.51438600,205514386,2,-0.22964069247245789,-0.0030514958780258894,-0.002205015392974019,0.9732682108879089
205.61441900,205614419,2,-0.22967450320720673,-0.0030124997720122337,-0.0022040402982383966,0.9732603430747986
205.71437300,205714373,2,-0.22967709600925446,-0.003035120666027069,-0.0022011573892086744,0.973259687423706
