timestamp,TimeUS,C,Roll,Pitch,Yaw,VN,VE,VD,dPD,PN,PE,PD,GX,GY,GZ,OH
157.11437100,157114371,2,-2.77,0.54,210.99,-0.40249595046043396,0.7713903784751892,0.016309283673763275,0.044360607862472534,0.0,0.0,2.2687830924987793,-0.2,0.12,0.04,0.0
157.21432900,157214329,2,-2.75,0.53,211.0,-0.4115748405456543,0.7886185646057129,0.017602143809199333,0.027154864743351936,0.0,0.0,2.271383047103882,-0.2,0.12,0.04,0.0
157.31434000,157314340,2,-2.71,0.53,211.0,-0.4182071089744568,0.8034670948982239,0.017258191481232643,-0.01362584251910448,0.0,0.0,2.270353317260742,-0.2,0.12,0.04,0.0
157.41433100,157414331,2,-2.67,0.53,211.01,-0.4230293333530426,0.8168375492095947,0.01685851253569126,-0.03359941765666008,0.0,0.0,2.2685744762420654,-0.2,0.12,0.04,0.0
157.51432800,157514328,2,-2.63,0.52,211.01,-0.4296085834503174,0.8269872665405273,0.01635017991065979,-0.01963724195957184,0.0,0.0,2.2681052684783936,-0.2,0.12,0.04,0.0
157.61437000,157614370,2,-2.59,0.52,211.02,-0.4339291453361511,0.8345245122909546,0.015999484807252884,0.005330923479050398,0.0,0.0,2.2692723274230957,-0.21,0.12,0.04,0.0
157.71438400,157714384,2,-2.54,0.52,211.02,-0.4360443651676178,0.8411012887954712,0.017167726531624794,0.032479651272296906,0.0,0.0,2.2724287509918213,-0.21,0.12,0.04,0.0
157.81439800,157814398,2,-2.49,0.52,211.01,-0.437144935131073,0.8448214530944824,0.01717241108417511,0.03242732957005501,0.0,0.0,2.274413824081421,-0.21,0.12,0.04,0.0
157.91441600,157914416,2,-2.44,0.51,211.01,-0.43719273805618286,0.8473623394966125,0.017111068591475487,-0.017901450395584106,0.0,0.0,2.271394968032837,-0.21,0.12,0.04,0.0
158.01436100,158014361,2,-2.4,0.52,211.01,-0.4357363283634186,0.8468430638313293,0.016542969271540642,-0.07511870563030243,0.0,0.0,2.264761447906494,-0.22,0.12,0.04,0.0
158.11432800,158114328,2,-2.35,0.52,211.0,-0.4340316355228424,0.8458349704742432,0.01515734102576971,-0.09276801347732544,0.0,0.0,2.257687568664551,-0.22,0.12,0.04,0.0
158.21433500,158214335,2,-2.3000000000000003,0.52,211.01,-0.4307626187801361,0.8430287837982178,0.01308722235262394,-0.08780982345342636,0.0,0.0,2.250579595565796,-0.22,0.12,0.04,0.0
158.31433700,158314337,2,-2.24,0.52,211.01,-0.42692553997039795,0.8384603261947632,0.011600046418607235,-0.08797401189804077,0.0,0.0,2.2425711154937744,-0.22,0.12,0.04,0.0
158.41432900,158414329,2,-2.19,0.52,211.01,-0.42155686020851135,0.8319342732429504,0.010504730977118015,-0.07430379092693329,0.0,0.0,2.2362937927246094,-0.23,0.12,0.04,0.0
158.51435200,158514352,2,-2.14,0.52,211.0,-0.4152568578720093,0.8242009282112122,0.009437482804059982,-0.060430921614170074,0.0,0.0,2.229591131210327,-0.23,0.12,0.04,0.0
158.61437000,158614370,2,-2.08,0.53,210.99,-0.4089914560317993,0.8149598240852356,0.007167666219174862,-0.07748372852802277,0.0,0.0,2.221585273742676,-0.23,0.12,0.04,0.0
158.71437500,158714375,2,-2.0300000000000002,0.53,210.98000000000002,-0.40301916003227234,0.8045781850814819,0.005929756443947554,-0.08172666281461716,0.0,0.0,2.213989019393921,-0.23,0.12,0.04,0.0
158.81440600,158814406,2,-1.96,0.53,210.98000000000002,-0.395106703042984,0.791832447052002,0.003949139732867479,-0.07554034888744354,0.0,0.0,2.206850051879883,-0.24,0.12,0.04,0.0
158.91435700,158914357,2,-1.9100000000000001,0.53,210.96,-0.3873694837093353,0.778469443321228,0.0009730550227686763,-0.07756469398736954,0.0,0.0,2.199052095413208,-0.24,0.12,0.04,0.0
159.01433200,159014332,2,-1.85,0.53,210.95000000000002,-0.37801018357276917,0.764302134513855,-0.0008014466147869825,-0.08245591074228287,0.0,0.0,2.190938949584961,-0.24,0.12,0.04,0.0
159.11434200,159114342,2,-1.79,0.53,210.93,-0.3688082993030548,0.7489238381385803,-0.0021968602668493986,-0.076497882604599,0.0,0.0,2.183443307876587,-0.25,0.12,0.04,0.0
159.21432700,159214327,2,-1.73,0.52,210.92000000000002,-0.3591417074203491,0.7333084940910339,-0.0034332943614572287,-0.06612015515565872,0.0,0.0,2.1770145893096924,-0.25,0.12,0.04,0.0
159.31433500,159314335,2,-1.67,0.52,210.91,-0.34903934597969055,0.7166012525558472,-0.006612743251025677,-0.07087442278862,0.0,0.0,2.169410467147827,-0.25,0.12,0.04,0.0
159.41435800,159414358,2,-1.6,0.51,210.9,-0.33845439553260803,0.699368417263031,-0.008091570809483528,-0.08688199520111084,0.0,0.0,2.1605682373046875,-0.25,0.12,0.04,0.0
159.51437200,159514372,2,-1.54,0.51,210.89000000000001,-0.3284013867378235,0.6807894110679626,-0.011072498746216297,-0.10900837182998657,0.0,0.0,2.1496658325195312,-0.26,0.12,0.04,0.0
159.61438300,159614383,2,-1.48,0.52,210.87,-0.31750163435935974,0.6622432470321655,-0.014349119737744331,-0.10701142251491547,0.0,0.0,2.140545606613159,-0.26,0.12,0.04,0.0
159.71441300,159714413,2,-1.42,0.51,210.85,-0.30770614743232727,0.6436185836791992,-0.017585663124918938,-0.10717635601758957,0.0,0.0,2.129544496536255,-0.26,0.12,0.04,0.0
159.81435900,159814359,2,-1.36,0.51,210.83,-0.29883503913879395,0.6286107301712036,-0.020368589088320732,-0.13972483575344086,0.0,0.0,2.1164848804473877,-0.26,0.12,0.04,0.0
159.91433400,159914334,2,-1.3,0.51,210.81,-0.2867320775985718,0.608343243598938,-0.0243124570697546,-0.1576383262872696,0.0,0.0,2.10211181640625,-0.27,0.12,0.04,0.0
160.01434600,160014346,2,-1.25,0.5,210.79,-0.27414098381996155,0.5880178809165955,-0.026131104677915573,-0.12453313916921616,0.0,0.0,2.091132402420044,-0.27,0.12,0.04,0.0
160.11433500,160114335,2,-1.19,0.5,210.78,-0.2620142698287964,0.5658413767814636,-0.028457382693886757,-0.09771622717380524,0.0,0.0,2.080981492996216,-0.27,0.12,0.04,0.0
160.21432900,160214329,2,-1.1300000000000001,0.5,210.77,-0.251008003950119,0.5441481471061707,-0.031233886256814003,-0.1179434135556221,0.0,0.0,2.068157196044922,-0.28,0.12,0.04,0.0
160.31436300,160314363,2,-1.07,0.5,210.75,-0.23987849056720734,0.5233159065246582,-0.034037746489048004,-0.13493283092975616,0.0,0.0,2.0551486015319824,-0.28,0.12,0.04,0.0
160.41437400,160414374,2,-1.01,0.5,210.73000000000002,-0.22780734300613403,0.5017628073692322,-0.03635788336396217,-0.11307796090841293,0.0,0.0,2.044731855392456,-0.28,0.12,0.04,0.0
160.51437900,160514379,2,-0.96,0.49,210.71,-0.2149547040462494,0.48015928268432617,-0.03816768899559975,-0.08678290992975235,0.0,0.0,2.03582501411438,-0.28,0.12,0.04,0.0
160.61441900,160614419,2,-0.9,0.49,210.70000000000002,-0.20239318907260895,0.45841357111930847,-0.039793554693460464,-0.0766749233007431,0.0,0.0,2.0272765159606934,-0.28,0.12,0.04,0.0
160.71436500,160714365,2,-0.84,0.49,210.69,-0.1908491551876068,0.43652036786079407,-0.040779516100883484,-0.0687682032585144,0.0,0.0,2.0199642181396484,-0.29,0.12,0.04,0.0
160.81432700,160814327,2,-0.79,0.48,210.68,-0.17781996726989746,0.41336870193481445,-0.04030218720436096,-0.05322561413049698,0.0,0.0,2.0141260623931885,-0.29,0.12,0.04,0.0
160.91434400,160914344,2,-0.74,0.48,210.66,-0.16539767384529114,0.3908761441707611,-0.04083044454455376,-0.05071866512298584,0.0,0.0,2.0081326961517334,-0.29,0.12,0.05,0.0
161.01434200,161014342,2,-0.6900000000000001,0.48,210.64000000000001,-0.1541045904159546,0.36920008063316345,-0.04139130190014839,-0.04250755161046982,0.0,0.0,2.003798484802246,-0.29,0.12,0.05,0.0
161.11433300,161114333,2,-0.63,0.48,210.62,-0.14348626136779785,0.34802594780921936,-0.04126494750380516,0.004811789840459824,0.0,0.0,2.0044918060302734,-0.3,0.12,0.05,0.0
161.21435300,161214353,2,-0.58,0.48,210.6,-0.13242772221565247,0.32647621631622314,-0.04173161834478378,0.038219258189201355,0.0,0.0,2.006673574447632,-0.3,0.12,0.05,0.0
161.31438200,161314382,2,-0.53,0.48,210.58,-0.12135274708271027,0.3045186698436737,-0.04141261428594589,0.02999899908900261,0.0,0.0,2.007734775543213,-0.3,0.12,0.05,0.0
161.41438100,161414381,2,-0.48,0.47000000000000003,210.56,-0.11065851897001266,0.2831258177757263,-0.04211992770433426,0.010858656838536263,0.0,0.0,2.0079257488250732,-0.3,0.12,0.05,0.0
161.51442500,161514425,2,-0.43,0.46,210.54,-0.100496307015419,0.2626108229160309,-0.042099107056856155,-0.006992897018790245,0.0,0.0,2.0068440437316895,-0.3,0.12,0.05,0.0
161.61436500,161614365,2,-0.38,0.46,210.52,-0.08981405943632126,0.24156564474105835,-0.04320180043578148,-0.030451010912656784,0.0,0.0,2.0038273334503174,-0.3,0.12,0.05,0.0
161.71434600,161714346,2,-0.34,0.45,210.5,-0.07926427572965622,0.22088874876499176,-0.0442391075193882,-0.06117396429181099,0.0,0.0,1.9980210065841675,-0.31,0.13,0.05,0.0
161.81434400,161814344,2,-0.29,0.44,210.48000000000002,-0.06956595182418823,0.2010561227798462,-0.0453207790851593,-0.06094048544764519,0.0,0.0,1.9939320087432861,-0.31,0.13,0.05,0.0
161.91433300,161914333,2,-0.25,0.43,210.46,-0.05958933010697365,0.18118292093276978,-0.04470212757587433,-0.03760428726673126,0.0,0.0,1.9905081987380981,-0.31,0.13,0.05,0.0
162.01433200,162014332,2,-0.21,0.43,210.44,-0.04987145587801933,0.16230349242687225,-0.04522339999675751,-0.025773558765649796,0.0,0.0,1.988153338432312,-0.31,0.13,0.05,0.0
162.11435100,162114351,2,-0.17,0.42,210.42000000000002,-0.04096389189362526,0.14343255758285522,-0.04600758105516434,-0.017391586676239967,0.0,0.0,1.9859066009521484,-0.31,0.13,0.05,0.0
162.21438100,162214381,2,-0.13,0.41000000000000003,210.39000000000001,-0.03311658278107643,0.12503370642662048,-0.04657116159796715,-0.0321475975215435,0.0,0.0,1.9819624423980713,-0.31,0.13,0.05,0.0
162.31438000,162314380,2,-0.09,0.41000000000000003,210.37,-0.0249312836676836,0.10715635120868683,-0.047765932977199554,-0.04636337608098984,0.0,0.0,1.9776561260223389,-0.31,0.13,0.05,0.0
162.41442200,162414422,2,-0.05,0.4,210.34,-0.017596282064914703,0.08937813341617584,-0.04780806601047516,-0.03302304446697235,0.0,0.0,1.975088119506836,-0.32,0.13,0.05,0.0
162.51437300,162514373,2,-0.02,0.4,210.31,-0.009707336314022541,0.07160113751888275,-0.04720626398921013,-0.0022633217740803957,0.0,0.0,1.9750410318374634,-0.32,0.13,0.05,0.0
162.61433800,162614338,2,0.01,0.39,210.29,-0.002189156599342823,0.0550219751894474,-0.04573756456375122,0.022656045854091644,0.0,0.0,1.9764115810394287,-0.32,0.13,0.06,0.0
162.71434100,162714341,2,0.04,0.39,210.26,0.004647021647542715,0.038371745496988297,-0.044286180287599564,0.029604636132717133,0.0,0.0,1.978178858757019,-0.32,0.13,0.06,0.0
162.81433900,162814339,2,0.07,0.38,210.23000000000002,0.011827745474874973,0.02251889929175377,-0.043030496686697006,0.012452718801796436,0.0,0.0,1.978032112121582,-0.32,0.13,0.06,0.0
162.91432900,162914329,2,0.1,0.38,210.20000000000002,0.018604224547743797,0.007138266693800688,-0.04186687245965004,0.007951105013489723,0.0,0.0,1.9793033599853516,-0.32,0.13,0.06,0.0
163.01434800,163014348,2,0.13,0.38,210.17000000000002,0.024753553792834282,-0.0080990856513381,-0.04107252135872841,0.027540195733308792,0.0,0.0,1.9822050333023071,-0.32,0.13,0.06,0.0
163.11437600,163114376,2,0.16,0.38,210.14000000000001,0.03040139190852642,-0.022178713232278824,-0.04001747444272041,0.02493915893137455,0.0,0.0,1.9836654663085938,-0.32,0.13,0.06,0.0
163.21437500,163214375,2,0.19,0.37,210.12,0.03532765060663223,-0.035752296447753906,-0.03860798478126526,0.010597067885100842,0.0,0.0,1.9845980405807495,-0.32,0.13,0.06,0.0
163.31442100,163314421,2,0.21,0.36,210.09,0.040668513625860214,-0.04838404059410095,-0.038942545652389526,-0.01574021391570568,0.0,0.0,1.9824435710906982,-0.32,0.13,0.06,0.0
163.41436400,163414364,2,0.24,0.36,210.06,0.04522809758782387,-0.06103016808629036,-0.04011448472738266,-0.04329407215118408,0.0,0.0,1.9789085388183594,-0.32,0.13,0.06,0.0
163.51433200,163514332,2,0.27,0.35000000000000003,210.03,0.0495380200445652,-0.07392807304859161,-0.04056188836693764,-0.04990926757454872,0.0,0.0,1.9749499559402466,-0.32,0.13,0.06,0.0
163.61432800,163614328,2,0.29,0.35000000000000003,210.0,0.05450445041060448,-0.08572571724653244,-0.04047132283449173,-0.028876742348074913,0.0,0.0,1.9734728336334229,-0.32,0.13,0.06,0.0
163.71433500,163714335,2,0.3,0.35000000000000003,209.98000000000002,0.059359073638916016,-0.09600920230150223,-0.04019954800605774,-0.004726517479866743,0.0,0.0,1.9729524850845337,-0.32,0.13,0.06,0.0
163.81432800,163814328,2,0.33,0.34,209.94,0.06276760250329971,-0.10658236593008041,-0.03908044472336769,0.00880199670791626,0.0,0.0,1.9733742475509644,-0.32,0.13,0.06,0.0
163.91434500,163914345,2,0.35000000000000003,0.34,209.91,0.06624045968055725,-0.11676186323165894,-0.03933160752058029,-0.017272645607590675,0.0,0.0,1.9700716733932495,-0.32,0.13,0.06,0.0
164.01437600,164014376,2,0.36,0.34,209.89000000000001,0.06983452290296555,-0.12554070353507996,-0.03961652144789696,-0.022601617500185966,0.0,0.0,1.96909761428833,-0.32,0.13,0.06,0.0
164.11437700,164114377,2,0.38,0.33,209.86,0.07302043586969376,-0.1350948065519333,-0.0393432080745697,-0.01025816984474659,0.0,0.0,1.967880129814148,-0.32,0.13,0.07,0.0
164.21441400,164214414,2,0.4,0.33,209.83,0.07582452148199081,-0.14355067908763885,-0.038830846548080444,-0.014349976554512978,0.0,0.0,1.966249942779541,-0.32,0.13,0.07,0.0
164.31436000,164314360,2,0.41000000000000003,0.33,209.8,0.07910070568323135,-0.15244735777378082,-0.038911476731300354,-0.024775579571723938,0.0,0.0,1.9635307788848877,-0.32,0.13,0.07,0.0
164.41433900,164414339,2,0.42,0.32,209.76,0.08217103034257889,-0.1595364511013031,-0.03857792913913727,-0.022190287709236145,0.0,0.0,1.9619433879852295,-0.32,0.13,0.07,0.0
164.51432900,164514329,2,0.44,0.33,209.74,0.08442007750272751,-0.16719849407672882,-0.03834586590528488,-0.02090318500995636,0.0,0.0,1.9595916271209717,-0.32,0.13,0.07,0.0
164.61433700,164614337,2,0.45,0.32,209.72,0.08677880465984344,-0.17396724224090576,-0.038198210299015045,-0.02645181305706501,0.0,0.0,1.957018494606018,-0.32,0.13,0.07,0.0
164.71433000,164714330,2,0.46,0.32,209.69,0.08808048814535141,-0.1798866242170334,-0.036490265280008316,0.010765885934233665,0.0,0.0,1.959233283996582,-0.32,0.13,0.07,0.0
164.81435000,164814350,2,0.46,0.33,209.67000000000002,0.08996225893497467,-0.18599390983581543,-0.03485143184661865,0.07312150299549103,0.0,0.0,1.966233730316162,-0.32,0.13,0.07,0.0
164.91437800,164914378,2,0.47000000000000003,0.33,209.64000000000001,0.09087999910116196,-0.1911185383796692,-0.03333915397524834,0.07400666177272797,0.0,0.0,1.9705487489700317,-0.32,0.13,0.07,0.0
165.01437500,165014375,2,0.48,0.33,209.61,0.09119561314582825,-0.1955631673336029,-0.033523935824632645,0.011957447975873947,0.0,0.0,1.9696747064590454,-0.32,0.13,0.07,0.0
165.11441900,165114419,2,0.49,0.32,209.58,0.09202267229557037,-0.19992075860500336,-0.03316187486052513,-0.03211639076471329,0.0,0.0,1.9672353267669678,-0.32,0.13,0.07,0.0
165.21435700,165214357,2,0.5,0.32,209.55,0.09422633051872253,-0.20322197675704956,-0.03338969126343727,-0.03835370019078255,0.0,0.0,1.964914321899414,-0.32,0.13,0.07,0.0
165.31433200,165314332,2,0.5,0.32,209.53,0.09292884916067123,-0.2095300555229187,-0.03521547466516495,-0.028226258233189583,0.0,0.0,1.9633517265319824,-0.32,0.13,0.07,0.0
165.41433500,165414335,2,0.5,0.32,209.5,0.09529632329940796,-0.21156123280525208,-0.03576946631073952,-0.028854118660092354,0.0,0.0,1.9604674577713013,-0.32,0.13,0.07,0.0
165.51432900,165514329,2,0.51,0.32,209.48000000000002,0.0928717777132988,-0.21261481940746307,-0.035372134298086166,-0.020414428785443306,0.0,0.0,1.9591450691223145,-0.32,0.13,0.07,0.0
165.61432700,165614327,2,0.51,0.32,209.45000000000002,0.09385618567466736,-0.2145880162715912,-0.03564881533384323,0.003867842722684145,0.0,0.0,1.9597021341323853,-0.32,0.13,0.07,0.0
165.71434800,165714348,2,0.52,0.31,209.42000000000002,0.0952640250325203,-0.21708805859088898,-0.035685569047927856,0.036744434386491776,0.0,0.0,1.9634004831314087,-0.32,0.13,0.08,0.0
165.81437600,165814376,2,0.52,0.31,209.4,0.09421315044164658,-0.21985900402069092,-0.03390912711620331,0.06636743247509003,0.0,0.0,1.968977928161621,-0.32,0.13,0.08,0.0
165.91437400,165914374,2,0.52,0.31,209.38,0.0944497287273407,-0.22052527964115143,-0.03374360501766205,0.050546057522296906,0.0,0.0,1.9717762470245361,-0.32,0.13,0.08,0.0
166.01441300,166014413,2,0.52,0.31,209.36,0.09525268524885178,-0.22148987650871277,-0.03333992511034012,0.019463829696178436,0.0,0.0,1.973185658454895,-0.32,0.13,0.08,0.0
166.11435900,166114359,2,0.52,0.31,209.34,0.09330438822507858,-0.22277142107486725,-0.03257833793759346,0.0052596633322536945,0.0,0.0,1.9739670753479004,-0.32,0.13,0.08,0.0
166.21432700,166214327,2,0.52,0.31,209.32,0.09252003580331802,-0.2237941026687622,-0.03237871080636978,-0.013738758862018585,0.0,0.0,1.9726425409317017,-0.32,0.13,0.08,0.0
166.31433100,166314331,2,0.52,0.31,209.3,0.093304842710495,-0.2235279679298401,-0.033762358129024506,-0.025470225140452385,0.0,0.0,1.9710626602172852,-0.32,0.13,0.08,0.0
166.41433000,166414330,2,0.53,0.31,209.28,0.09144733846187592,-0.22415398061275482,-0.034800659865140915,-0.0367242805659771,0.0,0.0,1.9676709175109863,-0.32,0.13,0.08,0.0
166.51432900,166514329,2,0.53,0.32,209.26,0.09255034476518631,-0.22510074079036713,-0.034871309995651245,-0.03714117035269737,0.0,0.0,1.9649800062179565,-0.32,0.13,0.08,0.0
166.61435200,166614352,2,0.53,0.32,209.24,0.09359844028949738,-0.22504714131355286,-0.034157175570726395,-0.02509743720293045,0.0,0.0,1.9629379510879517,-0.32,0.13,0.08,0.0
166.71437500,166714375,2,0.54,0.31,209.21,0.0923987627029419,-0.22532124817371368,-0.034048691391944885,-0.015425791963934898,0.0,0.0,1.9615412950515747,-0.32,0.13,0.08,0.0
166.81438000,166814380,2,0.53,0.32,209.19,0.0933089554309845,-0.22551728785037994,-0.03355390578508377,-0.028211066499352455,0.0,0.0,1.9578473567962646,-0.32,0.13,0.08,0.0
166.91441500,166914415,2,0.54,0.32,209.16,0.09448834508657455,-0.22529049217700958,-0.03450099006295204,-0.053771622478961945,0.0,0.0,1.9525924921035767,-0.31,0.13,0.08,0.0
167.01436100,167014361,2,0.53,0.32,209.14000000000001,0.09395958483219147,-0.22449013590812683,-0.035669319331645966,-0.05479368194937706,0.0,0.0,1.9482464790344238,-0.31,0.13,0.08,0.0
167.11433200,167114332,2,0.53,0.32,209.12,0.09380380809307098,-0.22326797246932983,-0.036116890609264374,-0.04239673167467117,0.0,0.0,1.9444631338119507,-0.31,0.13,0.08,0.0
167.21432800,167214328,2,0.53,0.32,209.1,0.09396278113126755,-0.22351983189582825,-0.035434264689683914,-0.031402844935655594,0.0,0.0,1.9413405656814575,-0.31,0.13,0.08,0.0
167.31433100,167314331,2,0.53,0.32,209.08,0.09293398261070251,-0.22218692302703857,-0.035921335220336914,-0.03668683394789696,0.0,0.0,1.9371159076690674,-0.31,0.13,0.08,0.0
167.41433400,167414334,2,0.54,0.32,209.06,0.0930560752749443,-0.2206425964832306,-0.03694891929626465,-0.04207521304488182,0.0,0.0,1.9331426620483398,-0.31,0.13,0.08,0.0
167.51434900,167514349,2,0.53,0.32,209.04,0.09200435131788254,-0.21980801224708557,-0.0378248393535614,-0.043899644166231155,0.0,0.0,1.928695559501648,-0.31,0.13,0.08,0.0
167.61437000,167614370,2,0.53,0.32,209.03,0.0915527492761612,-0.21909479796886444,-0.03864668309688568,-0.05440125614404678,0.0,0.0,1.9232027530670166,-0.31,0.13,0.08,0.0
167.71438200,167714382,2,0.53,0.31,209.01,0.09060795605182648,-0.21796126663684845,-0.04005688428878784,-0.06868688017129898,0.0,0.0,1.9165174961090088,-0.31,0.13,0.08,0.0
167.81442200,167814422,2,0.53,0.31,208.99,0.09029515832662582,-0.21584665775299072,-0.04113924130797386,-0.07531221956014633,0.0,0.0,1.9096009731292725,-0.31,0.13,0.08,0.0
167.91435800,167914358,2,0.53,0.32,208.98000000000002,0.08930051326751709,-0.2139938622713089,-0.0428745336830616,-0.0644044578075409,0.0,0.0,1.9040364027023315,-0.31,0.13,0.08,0.0
168.01433100,168014331,2,0.53,0.32,208.95000000000002,0.08827706426382065,-0.21275699138641357,-0.045179374516010284,-0.07782275229692459,0.0,0.0,1.8953083753585815,-0.31,0.13,0.09,0.0
168.11432700,168114327,2,0.53,0.32,208.93,0.08817171305418015,-0.21186870336532593,-0.04559462144970894,-0.0756845623254776,0.0,0.0,1.8891732692718506,-0.31,0.13,0.09,0.0
168.21432700,168214327,2,0.52,0.32,208.91,0.08831605315208435,-0.20988737046718597,-0.046705782413482666,-0.04284653440117836,0.0,0.0,1.8853094577789307,-0.3,0.13,0.09,0.0
168.31433000,168314330,2,0.52,0.33,208.9,0.08764467388391495,-0.20728090405464172,-0.047335412353277206,-0.026805933564901352,0.0,0.0,1.8818656206130981,-0.3,0.13,0.09,0.0
168.41435800,168414358,2,0.52,0.33,208.89000000000001,0.08818452060222626,-0.20759767293930054,-0.04809116572141647,-0.03990474343299866,0.0,0.0,1.8766838312149048,-0.3,0.13,0.09,0.0
168.51437500,168514375,2,0.51,0.33,208.87,0.0877058357000351,-0.20567990839481354,-0.048933349549770355,-0.06013236567378044,0.0,0.0,1.8705382347106934,-0.3,0.13,0.09,0.0
168.61438400,168614384,2,0.5,0.33,208.87,0.08730431646108627,-0.2036464661359787,-0.050055552273988724,-0.056200649589300156,0.0,0.0,1.8655720949172974,-0.3,0.13,0.09,0.0
168.71440200,168714402,2,0.5,0.34,208.85,0.0868154838681221,-0.20127341151237488,-0.04969463124871254,-0.05309884995222092,0.0,0.0,1.8599977493286133,-0.3,0.13,0.09,0.0
168.81436200,168814362,2,0.5,0.34,208.84,0.08595851063728333,-0.19913974404335022,-0.04992275685071945,-0.05113932490348816,0.0,0.0,1.855109691619873,-0.3,0.13,0.09,0.0
168.91432900,168914329,2,0.49,0.33,208.82,0.08489648252725601,-0.1972106695175171,-0.04925694316625595,-0.017601201310753822,0.0,0.0,1.853682279586792,-0.3,0.13,0.09,0.0
169.01433200,169014332,2,0.49,0.33,208.81,0.0839921310544014,-0.194815531373024,-0.049106959253549576,0.003222170751541853,0.0,0.0,1.8528897762298584,-0.3,0.13,0.09,0.0
169.11433500,169114335,2,0.48,0.34,208.79,0.08260482549667358,-0.19325518608093262,-0.04914247617125511,-0.007344747893512249,0.0,0.0,1.8511371612548828,-0.3,0.13,0.09,0.0
169.21432800,169214328,2,0.48,0.34,208.77,0.08233040571212769,-0.19080090522766113,-0.04938376322388649,-0.006556332111358643,0.0,0.0,1.8504526615142822,-0.3,0.13,0.09,0.0
169.31435500,169314355,2,0.47000000000000003,0.34,208.76,0.08255060762166977,-0.19111399352550507,-0.0483064278960228,-4.181958198547363,0.0,0.0,1.345781683921814,-0.3,0.13,0.09,0.0
169.41438200,169414382,2,0.48,0.34,208.74,0.08279913663864136,-0.19349095225334167,-0.04887351393699646,-6.391761302947998,0.0,0.0,0.8601770997047424,-0.3,0.13,0.09,0.0
169.51438300,169514383,2,0.48,0.35000000000000003,208.73000000000002,0.08538518100976944,-0.1986234337091446,-0.04769762605428696,-4.645892143249512,0.0,0.0,0.5273883938789368,-0.3,0.13,0.09,0.0
169.61442800,169614428,2,0.48,0.35000000000000003,208.71,0.087748222053051,-0.20497219264507294,-0.04652179777622223,-2.640298366546631,0.0,0.0,0.29962724447250366,-0.3,0.13,0.09,0.0
169.71436600,169714366,2,0.49,0.35000000000000003,208.69,0.09172496944665909,-0.21150344610214233,-0.04565673694014549,-1.3510339260101318,0.0,0.0,0.14427325129508972,-0.3,0.13,0.09,0.0
169.81433200,169814332,2,0.5,0.35000000000000003,208.68,0.09400170296430588,-0.21853719651699066,-0.04529816657304764,-0.65740966796875,0.0,0.0,0.03864402696490288,-0.3,0.13,0.09,0.0
169.91433100,169914331,2,0.5,0.35000000000000003,208.66,0.09814117103815079,-0.22677239775657654,-0.04518521949648857,-0.3128567934036255,0.0,0.0,-0.03218496963381767,-0.3,0.13,0.09,0.0
170.01433300,170014333,2,0.51,0.35000000000000003,208.65,0.10206952691078186,-0.2360163927078247,-0.04509909078478813,-0.1441134214401245,0.0,0.0,-0.0791495144367218,-0.3,0.13,0.09,0.0
170.11433400,170114334,2,0.52,0.36,208.64000000000001,0.10621485114097595,-0.2454175502061844,-0.04511866718530655,-0.05632506310939789,0.0,0.0,-0.10944525897502899,-0.3,0.13,0.09,0.0
170.21434800,170214348,2,0.53,0.36,208.63,0.11090951412916183,-0.2542954087257385,-0.04368881508708,-0.0018216843018308282,0.0,0.0,-0.12749850749969482,-0.3,0.13,0.09,0.0
170.31437400,170314374,2,0.54,0.36,208.62,0.11660435050725937,-0.26357197761535645,-0.043083202093839645,0.023397818207740784,0.0,0.0,-0.138286292552948,-0.3,0.13,0.09,0.0
170.41439700,170414397,2,0.55,0.36,208.6,0.12086324393749237,-0.2734422981739044,-0.04198968783020973,0.029617512598633766,0.0,0.0,-0.14435544610023499,-0.3,0.13,0.09,0.0
170.51441100,170514411,2,0.56,0.36,208.58,0.12677164375782013,-0.2832089960575104,-0.04176020622253418,0.03521774709224701,0.0,0.0,-0.14682871103286743,-0.3,0.13,0.09,0.0
170.61435900,170614359,2,0.5700000000000001,0.36,208.57,0.13210219144821167,-0.2931152582168579,-0.041020262986421585,0.03521285206079483,0.0,0.0,-0.14760722219944,-0.3,0.13,0.09,0.0
170.71433300,170714333,2,0.58,0.36,208.55,0.13737232983112335,-0.3033917248249054,-0.04111113026738167,0.02974967658519745,0.0,0.0,-0.14732320606708527,-0.3,0.13,0.09,0.0
170.81433300,170814333,2,0.59,0.36,208.53,0.14221519231796265,-0.3136480748653412,-0.04081985354423523,0.03445427492260933,0.0,0.0,-0.14540207386016846,-0.3,0.13,0.09,0.0
170.91433000,170914330,2,0.6,0.37,208.51,0.14794231951236725,-0.32364532351493835,-0.04023274779319763,0.028639253228902817,0.0,0.0,-0.14420779049396515,-0.3,0.13,0.09,0.0
171.01433500,171014335,2,0.6,0.36,208.49,0.154258593916893,-0.3335849344730377,-0.0391555055975914,0.01564740017056465,0.0,0.0,-0.14326296746730804,-0.3,0.13,0.09,0.0
171.11435100,171114351,2,0.61,0.36,208.47,0.1595158576965332,-0.343728244304657,-0.03874548524618149,0.020191891118884087,0.0,0.0,-0.1412138193845749,-0.3,0.13,0.09,0.0
171.21437400,171214374,2,0.62,0.36,208.46,0.16500578820705414,-0.35384702682495117,-0.038240205496549606,0.035790517926216125,0.0,0.0,-0.1377122402191162,-0.3,0.13,0.09,0.0
171.31439400,171314394,2,0.63,0.36,208.44,0.17059138417243958,-0.36437538266181946,-0.037913937121629715,0.046869587153196335,0.0,0.0,-0.13364732265472412,-0.3,0.13,0.09,0.0
171.41443700,171414437,2,0.64,0.36,208.43,0.17559704184532166,-0.37443432211875916,-0.03760967776179314,0.04144451022148132,0.0,0.0,-0.13029885292053223,-0.3,0.13,0.09,0.0
171.51436300,171514363,2,0.66,0.35000000000000003,208.4,0.18161512911319733,-0.38361307978630066,-0.037279464304447174,0.0384378656744957,0.0,0.0,-0.12656055390834808,-0.3,0.13,0.09,0.0
171.61433100,171614331,2,0.67,0.36,208.38,0.18686778843402863,-0.3937855064868927,-0.03593946620821953,0.04839629679918289,0.0,0.0,-0.12182646989822388,-0.3,0.13,0.1,0.0
171.71433900,171714339,2,0.68,0.34,208.37,0.1920766681432724,-0.4035482406616211,-0.03381567820906639,0.058359961956739426,0.0,0.0,-0.1161511242389679,-0.3,0.13,0.1,0.0
171.81433200,171814332,2,0.68,0.35000000000000003,208.36,0.19724731147289276,-0.41331058740615845,-0.03259938582777977,0.062375687062740326,0.0,0.0,-0.11055473238229752,-0.3,0.13,0.1,0.0
171.91433300,171914333,2,0.6900000000000001,0.34,208.35,0.20228311419487,-0.42224210500717163,-0.0313587561249733,0.05541054531931877,0.0,0.0,-0.10555199533700943,-0.3,0.13,0.1,0.0
172.01436200,172014362,2,0.7000000000000001,0.35000000000000003,208.33,0.20745040476322174,-0.430696040391922,-0.030644772574305534,0.04446515813469887,0.0,0.0,-0.10132233798503876,-0.3,0.13,0.1,0.0
172.11438100,172114381,2,0.71,0.34,208.32,0.21187599003314972,-0.4395456314086914,-0.03142419084906578,0.03991742059588432,0.0,0.0,-0.09681233018636703,-0.3,0.13,0.1,0.0
172.21439200,172214392,2,0.72,0.35000000000000003,208.29,0.21394656598567963,-0.44740256667137146,-0.029636086896061897,0.038775309920310974,0.0,0.0,-0.09308581054210663,-0.3,0.13,0.1,0.0
172.31441400,172314414,2,0.73,0.35000000000000003,208.28,0.22054651379585266,-0.4545780420303345,-0.03004048764705658,0.019525492563843727,0.0,0.0,-0.0912860557436943,-0.3,0.13,0.1,0.0
172.41436800,172414368,2,0.73,0.35000000000000003,208.26,0.2233428806066513,-0.4607049226760864,-0.029523881152272224,0.007344209123402834,0.0,0.0,-0.08991426229476929,-0.3,0.13,0.1,0.0
172.51433400,172514334,2,0.74,0.35000000000000003,208.23000000000002,0.2266562134027481,-0.4662609398365021,-0.030124232172966003,0.0007829173118807375,0.0,0.0,-0.08941905945539474,-0.3,0.13,0.1,0.0
172.61433200,172614332,2,0.75,0.35000000000000003,208.21,0.2319951206445694,-0.4730338752269745,-0.029581094160676003,-0.009093095548450947,0.0,0.0,-0.08989376574754715,-0.3,0.13,0.1,0.0
172.71433500,172714335,2,0.76,0.35000000000000003,208.19,0.23358914256095886,-0.4783266484737396,-0.02788611687719822,-0.009691092185676098,0.0,0.0,-0.09024792164564133,-0.3,0.13,0.1,0.0
172.81433600,172814336,2,0.76,0.35000000000000003,208.17000000000002,0.2363915592432022,-0.48191913962364197,-0.027210311964154243,0.005258562974631786,0.0,0.0,-0.08897236734628677,-0.3,0.13,0.1,0.0
172.91436000,172914360,2,0.77,0.36,208.15,0.23926708102226257,-0.48431524634361267,-0.027979044243693352,0.020754363387823105,0.0,0.0,-0.08697731792926788,-0.3,0.13,0.1,0.0
173.01437800,173014378,2,0.78,0.35000000000000003,208.13,0.24045270681381226,-0.4869474172592163,-0.02675018459558487,0.016707133501768112,0.0,0.0,-0.08612673729658127,-0.3,0.13,0.1,0.0
173.11439400,173114394,2,0.79,0.36,208.12,0.24386031925678253,-0.48842760920524597,-0.027382174506783485,0.005310386419296265,0.0,0.0,-0.08560555428266525,-0.3,0.13,0.1,0.0
173.21440400,173214404,2,0.8,0.35000000000000003,208.1,0.245022714138031,-0.48881223797798157,-0.027676638215780258,-0.0014329480472952127,0.0,0.0,-0.08578915894031525,-0.3,0.13,0.1,0.0
173.31437100,173314371,2,0.81,0.35000000000000003,208.08,0.24621115624904633,-0.4886089563369751,-0.02828766219317913,-0.01893753744661808,0.0,0.0,-0.08772497624158859,-0.3,0.13,0.1,0.0
173.41433900,173414339,2,0.8200000000000001,0.34,208.06,0.24744440615177155,-0.487979918718338,-0.029861364513635635,-0.027180584147572517,0.0,0.0,-0.08949165791273117,-0.3,0.13,0.1,0.0
173.51434000,173514340,2,0.8200000000000001,0.35000000000000003,208.04,0.19429104030132294,-0.3725242018699646,-0.030568605288863182,-0.009999394416809082,0.0,0.0,-0.08978083729743958,-0.29,0.13,0.1,0.0
173.61433700,173614337,2,0.81,0.34,208.03,0.13221800327301025,-0.2346360832452774,-0.031363409012556076,0.009260205551981926,0.0,0.0,-0.08891688287258148,-0.29,0.13,0.1,0.0
173.71434000,173714340,2,0.79,0.34,208.01,0.08854980021715164,-0.1402648240327835,-0.03115672804415226,0.008030244149267673,0.0,0.0,-0.08903855830430984,-0.29,0.13,0.1,0.0
173.81434200,173814342,2,0.79,0.34,208.0,0.05956863611936569,-0.07786357402801514,-0.03159713000059128,-0.0026872456073760986,0.0,0.0,-0.0894479751586914,-0.29,0.13,0.1,0.0
173.91437600,173914376,2,0.78,0.34,207.97,0.04075264930725098,-0.0392368920147419,-0.03145753964781761,-0.02682744525372982,0.0,0.0,-0.09297400712966919,-0.29,0.13,0.1,0.0
174.01438200,174014382,2,0.79,0.34,207.95000000000002,0.030269095674157143,-0.017314370721578598,-0.03280355781316757,-0.02935723215341568,0.0,0.0,-0.09407108277082443,-0.29,0.13,0.1,0.0
174.11440400,174114404,2,0.79,0.33,207.93,0.02610369212925434,-0.006196690257638693,-0.03334227576851845,-0.005623889621347189,0.0,0.0,-0.09478802233934402,-0.29,0.13,0.1,0.0
174.21435700,174214357,2,0.81,0.33,207.91,0.025545381009578705,-0.003979573957622051,-0.033434219658374786,-0.024762671440839767,0.0,0.0,-0.09797646105289459,-0.29,0.13,0.1,0.0
174.31433200,174314332,2,0.81,0.34,207.9,0.02843831479549408,-0.008873851969838142,-0.03421076759696007,-0.04730583727359772,0.0,0.0,-0.10238106548786163,-0.29,0.13,0.1,0.0
174.41434100,174414341,2,0.8300000000000001,0.34,207.88,0.03266990929841995,-0.017296219244599342,-0.034715279936790466,-0.0666276142001152,0.0,0.0,-0.10870983451604843,-0.29,0.13,0.1,0.0
174.51433600,174514336,2,0.8300000000000001,0.34,207.87,0.037387385964393616,-0.027574943378567696,-0.034318290650844574,-0.059312254190444946,0.0,0.0,-0.11303500086069107,-0.29,0.13,0.1,0.0
174.61432800,174614328,2,0.84,0.34,207.85,0.04343646392226219,-0.040872808545827866,-0.033936962485313416,0.002622802508994937,0.0,0.0,-0.11142262816429138,-0.29,0.13,0.1,0.0
174.71436700,174714367,2,0.85,0.34,207.84,0.04933355748653412,-0.05504373833537102,-0.032327793538570404,0.06353721022605896,0.0,0.0,-0.10621951520442963,-0.29,0.13,0.1,0.0
174.81437900,174814379,2,0.86,0.34,207.82,0.05554576218128204,-0.06964728236198425,-0.030699288472533226,0.06653743237257004,0.0,0.0,-0.10245589166879654,-0.29,0.13,0.1,0.0
174.91437400,174914374,2,0.87,0.34,207.81,0.06273495405912399,-0.08386009931564331,-0.029630549252033234,0.038126323372125626,0.0,0.0,-0.1000743955373764,-0.29,0.13,0.1,0.0
175.01441300,175014413,2,0.88,0.35000000000000003,207.79,0.0700455829501152,-0.09924694895744324,-0.028440158814191818,0.031069248914718628,0.0,0.0,-0.09692749381065369,-0.29,0.13,0.1,0.0
175.11437800,175114378,2,0.89,0.35000000000000003,207.78,0.07602376490831375,-0.1141614317893982,-0.02697591297328472,0.033125508576631546,0.0,0.0,-0.0939130112528801,-0.29,0.13,0.1,0.0
175.21433600,175214336,2,0.9,0.35000000000000003,207.76,0.08282086253166199,-0.1279425173997879,-0.025005020201206207,0.049491047859191895,0.0,0.0,-0.08854138106107712,-0.29,0.13,0.1,0.0
175.31435300,175314353,2,0.9,0.35000000000000003,207.75,0.09006292372941971,-0.14227616786956787,-0.02215530537068844,0.08734674751758575,0.0,0.0,-0.0801844596862793,-0.29,0.13,0.1,0.0
175.41434400,175414344,2,0.91,0.35000000000000003,207.73000000000002,0.09631418436765671,-0.1562623530626297,-0.020512830466032028,0.07553180307149887,0.0,0.0,-0.07494146376848221,-0.29,0.13,0.1,0.0
175.51433000,175514330,2,0.91,0.35000000000000003,207.71,0.10313496738672256,-0.17004916071891785,-0.019579073414206505,0.03145546466112137,0.0,0.0,-0.07225804030895233,-0.29,0.13,0.1,0.0
175.61434100,175614341,2,0.91,0.35000000000000003,207.70000000000002,0.10868973284959793,-0.18225063383579254,-0.018485745415091515,0.023747315630316734,0.0,0.0,-0.06888990104198456,-0.29,0.13,0.11,0.0
175.71438500,175714385,2,0.92,0.35000000000000003,207.68,0.11376313865184784,-0.19403387606143951,-0.018377289175987244,0.022990940138697624,0.0,0.0,-0.06636179238557816,-0.29,0.13,0.11,0.0
175.81438200,175814382,2,0.92,0.35000000000000003,207.67000000000002,0.1183832511305809,-0.20543122291564941,-0.01858631707727909,-0.008495522662997246,0.0,0.0,-0.06752271205186844,-0.29,0.13,0.11,0.0
175.91441000,175914410,2,0.92,0.35000000000000003,207.65,0.1228586807847023,-0.21612484753131866,-0.020069383084774017,-0.054804570972919464,0.0,0.0,-0.07231587171554565,-0.29,0.13,0.11,0.0
176.01437900,176014379,2,0.92,0.35000000000000003,207.64000000000001,0.127214714884758,-0.2259644716978073,-0.02134663797914982,-0.08875249326229095,0.0,0.0,-0.07971201837062836,-0.29,0.13,0.11,0.0
176.11432800,176114328,2,0.91,0.35000000000000003,207.63,0.13109461963176727,-0.23506031930446625,-0.02290327288210392,-0.09421218186616898,0.0,0.0,-0.08683880418539047,-0.29,0.13,0.11,0.0
176.21433800,176214338,2,0.91,0.35000000000000003,207.61,0.13478723168373108,-0.2425205260515213,-0.023595470935106277,-0.08009098470211029,0.0,0.0,-0.09361272305250168,-0.29,0.13,0.11,0.0
176.31433900,176314339,2,0.9,0.36,207.6,0.138217493891716,-0.25048384070396423,-0.02417493611574173,-0.06708626449108124,0.0,0.0,-0.09960585832595825,-0.29,0.13,0.11,0.0
176.41433200,176414332,2,0.89,0.36,207.58,0.14051540195941925,-0.25625181198120117,-0.024789579212665558,-0.048241522163152695,0.0,0.0,-0.10417970269918442,-0.29,0.13,0.11,0.0
176.51434900,176514349,2,0.88,0.36,207.57,0.14251083135604858,-0.2608613073825836,-0.024150051176548004,-0.012507029809057713,0.0,0.0,-0.10520299524068832,-0.29,0.13,0.11,0.0
176.61437400,176614374,2,0.86,0.36,207.56,0.1429906189441681,-0.2645954489707947,-0.02363920770585537,0.00551378121599555,0.0,0.0,-0.10627090930938721,-0.28,0.13,0.11,0.0
176.71437700,176714377,2,0.85,0.35000000000000003,207.54,0.14380419254302979,-0.26797884702682495,-0.023399248719215393,-0.024209653958678246,0.0,0.0,-0.11027848720550537,-0.28,0.13,0.11,0.0
176.81442300,176814423,2,0.8300000000000001,0.35000000000000003,207.52,0.1442325860261917,-0.2711094915866852,-0.023798219859600067,-0.0417989045381546,0.0,0.0,-0.11387782543897629,-0.28,0.13,0.11,0.0
176.91437100,176914371,2,0.81,0.35000000000000003,207.5,0.14428426325321198,-0.2721523344516754,-0.02291167341172695,-0.03242926672101021,0.0,0.0,-0.11683575809001923,-0.28,0.13,0.11,0.0
177.01433300,177014333,2,0.79,0.35000000000000003,207.49,0.1442025601863861,-0.27188175916671753,-0.022435789927840233,-0.03578275442123413,0.0,0.0,-0.12065552920103073,-0.28,0.13,0.11,0.0
177.11433300,177114333,2,0.77,0.35000000000000003,207.48000000000002,0.14336304366588593,-0.27035200595855713,-0.022218268364667892,-0.024102533236145973,0.0,0.0,-0.1222832202911377,-0.28,0.13,0.11,0.0
177.21433300,177214333,2,0.76,0.34,207.47,0.1409849375486374,-0.26830416917800903,-0.02132345363497734,-0.00151927734259516,0.0,0.0,-0.12283901870250702,-0.28,0.13,0.11,0.0
177.31433100,177314331,2,0.73,0.35000000000000003,207.46,0.1386214941740036,-0.2658468782901764,-0.020062753930687904,0.011081239208579063,0.0,0.0,-0.1221657320857048,-0.28,0.13,0.11,0.0
177.41436200,177414362,2,0.71,0.35000000000000003,207.46,0.13667026162147522,-0.2624228596687317,-0.019693035632371902,0.0072242082096636295,0.0,0.0,-0.1225721463561058,-0.27,0.13,0.11,0.0
177.51437300,177514373,2,0.6900000000000001,0.34,207.45000000000002,0.13395057618618011,-0.25793835520744324,-0.019613996148109436,-0.01904257945716381,0.0,0.0,-0.12506593763828278,-0.27,0.13,0.11,0.0
177.61437600,177614376,2,0.66,0.35000000000000003,207.44,0.1300489902496338,-0.25292205810546875,-0.020017031580209732,-0.03939931467175484,0.0,0.0,-0.1286127120256424,-0.27,0.13,0.11,0.0
177.71441300,177714413,2,0.64,0.35000000000000003,207.43,0.1271766573190689,-0.24670346081256866,-0.02028757892549038,-0.036335211247205734,0.0,0.0,-0.1312149614095688,-0.27,0.13,0.11,0.0
177.81435800,177814358,2,0.61,0.34,207.43,0.12475118041038513,-0.24035586416721344,-0.01999339647591114,-0.03338121622800827,0.0,0.0,-0.13455720245838165,-0.27,0.13,0.11,0.0
177.91433200,177914332,2,0.59,0.34,207.41,0.12148911505937576,-0.23367533087730408,-0.01993025653064251,-0.03358541801571846,0.0,0.0,-0.13760033249855042,-0.27,0.13,0.11,0.0
178.01434700,178014347,2,0.56,0.34,207.41,0.11757422238588333,-0.22659434378147125,-0.020128950476646423,-0.04168803244829178,0.0,0.0,-0.14210160076618195,-0.26,0.13,0.11,0.0
178.11432700,178114327,2,0.54,0.34,207.4,0.113107830286026,-0.21987545490264893,-0.020215490832924843,-0.03449421375989914,0.0,0.0,-0.14453941583633423,-0.26,0.13,0.11,0.0
178.21432800,178214328,2,0.52,0.34,207.39000000000001,0.10846676677465439,-0.21272073686122894,-0.02090255543589592,-0.0307280495762825,0.0,0.0,-0.14815238118171692,-0.26,0.13,0.11,0.0
178.31434900,178314349,2,0.49,0.33,207.37,0.10479652136564255,-0.20506760478019714,-0.021476902067661285,-0.034192610532045364,0.0,0.0,-0.15128257870674133,-0.26,0.13,0.11,0.0
178.41437400,178414374,2,0.47000000000000003,0.33,207.36,0.10034852474927902,-0.1976541131734848,-0.021883457899093628,-0.017857776954770088,0.0,0.0,-0.1525803953409195,-0.26,0.13,0.11,0.0
178.51437800,178514378,2,0.45,0.33,207.35,0.09634248167276382,-0.19105112552642822,-0.022024381905794144,0.004958911798894405,0.0,0.0,-0.15217536687850952,-0.26,0.13,0.11,0.0
178.61439900,178614399,2,0.43,0.33,207.34,0.09183087199926376,-0.18270599842071533,-0.022816412150859833,-0.0041646999306976795,0.0,0.0,-0.15416444838047028,-0.26,0.13,0.11,0.0
178.71436000,178714360,2,0.41000000000000003,0.33,207.33,0.08924088627099991,-0.1774364411830902,-0.022583071142435074,-0.020170673727989197,0.0,0.0,-0.15617965161800385,-0.26,0.13,0.11,0.0
178.81433900,178814339,2,0.39,0.33,207.33,0.08515120297670364,-0.1704837530851364,-0.02194821648299694,0.0034934720024466515,0.0,0.0,-0.15518969297409058,-0.26,0.13,0.11,0.0
178.91432800,178914328,2,0.38,0.34,207.31,0.08157244324684143,-0.16302093863487244,-0.01964050531387329,0.036207493394613266,0.0,0.0,-0.15218861401081085,-0.26,0.13,0.11,0.0
179.01433100,179014331,2,0.36,0.33,207.3,0.07755168527364731,-0.15589191019535065,-0.019252268597483635,0.04499433562159538,0.0,0.0,-0.14874321222305298,-0.25,0.13,0.11,0.0
179.11433200,179114332,2,0.34,0.33,207.3,0.07343219220638275,-0.15011157095432281,-0.018440017476677895,0.04936222359538078,0.0,0.0,-0.144529789686203,-0.25,0.13,0.11,0.0
179.21434300,179214343,2,0.32,0.33,207.28,0.07018264383077621,-0.14381413161754608,-0.015968475490808487,0.05438421294093132,0.0,0.0,-0.13985702395439148,-0.25,0.13,0.11,0.0
179.31437900,179314379,2,0.31,0.33,207.28,0.06725258380174637,-0.1384640485048294,-0.013205030933022499,0.0596163347363472,0.0,0.0,-0.134422168135643,-0.25,0.13,0.11,0.0
179.41437900,179414379,2,0.3,0.33,207.27,0.06357888132333755,-0.13319818675518036,-0.011812265031039715,0.05789180472493172,0.0,0.0,-0.12910321354866028,-0.25,0.13,0.11,0.0
179.51441400,179514414,2,0.28,0.33,207.26,0.06154593080282211,-0.12845945358276367,-0.008902732282876968,0.06474888324737549,0.0,0.0,-0.12275104969739914,-0.25,0.13,0.11,0.0
179.61435700,179614357,2,0.27,0.33,207.26,0.058375921100378036,-0.1234293282032013,-0.006356049794703722,0.07808393985033035,0.0,0.0,-0.11539934575557709,-0.25,0.13,0.11,0.0
179.71433500,179714335,2,0.26,0.33,207.25,0.05584631487727165,-0.11844055354595184,-0.005266502033919096,0.06095336005091667,0.0,0.0,-0.11037885397672653,-0.25,0.13,0.11,0.0
179.81432800,179814328,2,0.25,0.33,207.25,0.05310147628188133,-0.11415445059537888,-0.003817860269919038,0.039378050714731216,0.0,0.0,-0.10621652007102966,-0.25,0.13,0.11,0.0
179.91432800,179914328,2,0.24,0.33,207.24,0.05098419636487961,-0.11021407693624496,-0.0033618721645325422,0.007959194481372833,0.0,0.0,-0.10566546767950058,-0.25,0.13,0.11,0.0
180.01433200,180014332,2,0.23,0.33,207.23000000000002,0.049455951899290085,-0.10616560280323029,-0.0030209452379494905,-0.005573049653321505,0.0,0.0,-0.10446956753730774,-0.25,0.13,0.11,0.0
180.11435100,180114351,2,0.22,0.33,207.23000000000002,0.047694165259599686,-0.10238124430179596,-0.002055765362456441,0.009543296881020069,0.0,0.0,-0.10282646864652634,-0.25,0.13,0.11,0.0
180.21437600,180214376,2,0.21,0.33,207.23000000000002,0.04578282684087753,-0.09837374091148376,-0.0008962740539573133,0.018216360360383987,0.0,0.0,-0.1005665734410286,-0.25,0.13,0.11,0.0
180.31437300,180314373,2,0.2,0.33,207.22,0.04415532574057579,-0.09478210657835007,0.00034425154444761574,0.031007468700408936,0.0,0.0,-0.09752916544675827,-0.25,0.13,0.11,0.0
180.41441800,180414418,2,0.19,0.33,207.22,0.043080687522888184,-0.09178788214921951,0.002250061137601733,0.035256002098321915,0.0,0.0,-0.0944242775440216,-0.25,0.13,0.11,0.0
180.51436600,180514366,2,0.18,0.33,207.22,0.04202795773744583,-0.08859742432832718,0.003672732273116708,0.05501190572977066,0.0,0.0,-0.08870068937540054,-0.25,0.13,0.11,0.0
180.61432700,180614327,2,0.17,0.33,207.21,0.04137767478823662,-0.08659110963344574,0.004961540922522545,0.05952472612261772,0.0,0.0,-0.08406093716621399,-0.25,0.13,0.11,0.0
180.71433000,180714330,2,0.17,0.32,207.20000000000002,0.03975922614336014,-0.08394254744052887,0.005652282852679491,0.039183586835861206,0.0,0.0,-0.0805278941988945,-0.25,0.13,0.11,0.0
180.81433300,180814333,2,0.16,0.32,207.19,0.03761845827102661,-0.08199312537908554,0.007288778200745583,0.039504893124103546,0.0,0.0,-0.07632939517498016,-0.24,0.13,0.11,0.0
180.91432700,180914327,2,0.15,0.33,207.18,0.03681901469826698,-0.07937201857566833,0.009232747368514538,0.05267472565174103,0.0,0.0,-0.07090673595666885,-0.24,0.13,0.11,0.0
181.01435000,181014350,2,0.15,0.33,207.18,0.03622260317206383,-0.07762593775987625,0.01098428014665842,0.06636308878660202,0.0,0.0,-0.0645269975066185,-0.24,0.13,0.11,0.0
181.11438000,181114380,2,0.15,0.33,207.17000000000002,0.035697415471076965,-0.07522104680538177,0.012498477473855019,0.06528334319591522,0.0,0.0,-0.05875931680202484,-0.24,0.13,0.11,0.0
181.21437600,181214376,2,0.14,0.33,207.17000000000002,0.03471067547798157,-0.07341822981834412,0.014299805276095867,0.06080952659249306,0.0,0.0,-0.052675846964120865,-0.24,0.13,0.11,0.0
181.31441600,181314416,2,0.13,0.33,207.17000000000002,0.033617615699768066,-0.07195383310317993,0.014360352419316769,0.053957510739564896,0.0,0.0,-0.047678589820861816,-0.24,0.13,0.11,0.0
181.41436400,181414364,2,0.13,0.33,207.17000000000002,0.03246266022324562,-0.07030870020389557,0.014884681440889835,0.023842280730605125,0.0,0.0,-0.04573303088545799,-0.24,0.13,0.11,0.0
181.51433200,181514332,2,0.13,0.34,207.16,0.032203324139118195,-0.06914208084344864,0.01632913202047348,0.0006241484079509974,0.0,0.0,-0.044803421944379807,-0.24,0.13,0.11,0.0
181.61432800,181614328,2,0.13,0.34,207.16,0.03232348710298538,-0.06716801226139069,0.0166385006159544,0.006865410134196281,0.0,0.0,-0.04282145947217941,-0.24,0.13,0.11,0.0
181.71433400,181714334,2,0.12,0.34,207.16,0.03181146830320358,-0.0649159848690033,0.018111782148480415,0.026021461933851242,0.0,0.0,-0.03970152884721756,-0.24,0.13,0.11,0.0
181.81432900,181814329,2,0.12,0.34,207.15,0.030586717650294304,-0.06444136798381805,0.018382275477051735,0.010918215848505497,0.0,0.0,-0.039545778185129166,-0.24,0.13,0.11,0.0
181.91434200,181914342,2,0.12,0.34,207.15,0.030120057985186577,-0.06252922117710114,0.018160147592425346,-0.010485091246664524,0.0,0.0,-0.03982909768819809,-0.24,0.13,0.11,0.0
182.01437500,182014375,2,0.11,0.34,207.15,0.029237067326903343,-0.06139984726905823,0.018765579909086227,0.0068231807090342045,0.0,0.0,-0.03812255337834358,-0.24,0.13,0.11,0.0
182.11437000,182114370,2,0.11,0.33,207.15,0.029101233929395676,-0.06033885478973389,0.019463693723082542,0.030858095735311508,0.0,0.0,-0.034895576536655426,-0.24,0.13,0.11,0.0
182.21442000,182214420,2,0.11,0.33,207.15,0.02806900255382061,-0.05893014743924141,0.02059493213891983,0.03895019367337227,0.0,0.0,-0.03172392398118973,-0.24,0.13,0.11,0.0
182.31436500,182314365,2,0.11,0.33,207.14000000000001,0.02743677981197834,-0.057667553424835205,0.021356437355279922,0.0352778285741806,0.0,0.0,-0.028657685965299606,-0.24,0.13,0.11,0.0
182.41433100,182414331,2,0.11,0.33,207.14000000000001,0.0278659388422966,-0.05689098313450813,0.022026071324944496,0.020270690321922302,0.0,0.0,-0.0273131150752306,-0.24,0.13,0.11,0.0
182.51433400,182514334,2,0.11,0.33,207.13,0.0274286437779665,-0.056123796850442886,0.021437784656882286,0.013302556239068508,0.0,0.0,-0.025200117379426956,-0.24,0.13,0.11,0.0
182.61432800,182614328,2,0.1,0.33,207.13,0.026379717513918877,-0.05555352568626404,0.021894851699471474,0.018196476623415947,0.0,0.0,-0.023469530045986176,-0.24,0.13,0.11,0.0
182.71433100,182714331,2,0.09,0.32,207.12,0.025910865515470505,-0.05472681671380997,0.022066015750169754,0.008503280580043793,0.0,0.0,-0.0226125568151474,-0.24,0.13,0.11,0.0
182.81434700,182814347,2,0.09,0.32,207.12,0.026467669755220413,-0.053448453545570374,0.023022059351205826,0.024479972198605537,0.0,0.0,-0.019286448135972023,-0.24,0.13,0.11,0.0
182.91437100,182914371,2,0.09,0.33,207.11,0.02597236819565296,-0.05203787237405777,0.024254892021417618,0.044820595532655716,0.0,0.0,-0.015365724451839924,-0.24,0.13,0.11,0.0
183.01438300,183014383,2,0.09,0.32,207.09,0.024964654818177223,-0.05153801292181015,0.024394303560256958,0.02651926316320896,0.0,0.0,-0.013776332139968872,-0.24,0.13,0.11,0.0
183.11442800,183114428,2,0.08,0.32,207.08,0.02333609014749527,-0.05004515126347542,0.02319561131298542,0.003569463500753045,0.0,0.0,-0.0130876824259758,-0.24,0.13,0.11,0.0
183.21435700,183214357,2,0.08,0.33,207.08,0.021017448976635933,-0.048735782504081726,0.022443272173404694,0.011730273254215717,0.0,0.0,-0.010894941166043282,-0.24,0.13,0.11,0.0
183.31433000,183314330,2,0.08,0.33,207.08,0.02025965228676796,-0.04793202877044678,0.021240772679448128,0.02528267353773117,0.0,0.0,-0.008344389498233795,-0.24,0.13,0.11,0.0
183.41433400,183414334,2,0.08,0.33,207.08,0.019485659897327423,-0.04676424711942673,0.02140158973634243,0.0319581963121891,0.0,0.0,-0.005243729334324598,-0.24,0.13,0.11,0.0
183.51433200,183514332,2,0.07,0.32,207.08,0.018353471532464027,-0.04643653705716133,0.02212333306670189,0.02452489174902439,0.0,0.0,-0.0036218257155269384,-0.24,0.13,0.11,0.0
183.61432800,183614328,2,0.07,0.33,207.08,0.017139257863163948,-0.045065153390169144,0.021963564679026604,0.01308788638561964,0.0,0.0,-0.0020268894731998444,-0.24,0.13,0.11,0.0
183.71435500,183714355,2,0.07,0.33,207.07,0.01603785529732704,-0.04381980374455452,0.022066598758101463,0.035065360367298126,0.0,0.0,0.0023227038327604532,-0.24,0.13,0.11,0.0
183.81437400,183814374,2,0.06,0.33,207.07,0.015117784962058067,-0.043077267706394196,0.021391287446022034,0.06490044295787811,0.0,0.0,0.008566188625991344,-0.24,0.13,0.11,0.0
183.91438700,183914387,2,0.06,0.33,207.06,0.01370008010417223,-0.04236432909965515,0.0213656947016716,0.05578691512346268,0.0,0.0,0.012373017147183418,-0.24,0.13,0.11,0.0
184.01442300,184014423,2,0.06,0.33,207.06,0.012574926018714905,-0.041298724710941315,0.020506208762526512,0.03347359597682953,0.0,0.0,0.015797505155205727,-0.24,0.13,0.11,0.0
184.11436200,184114362,2,0.07,0.33,207.05,0.012039421126246452,-0.04098235443234444,0.020672699436545372,0.04102948680520058,0.0,0.0,0.020300641655921936,-0.24,0.13,0.11,0.0
184.21433400,184214334,2,0.07,0.33,207.04,0.011178896762430668,-0.0418890155851841,0.02051669918000698,0.05093696340918541,0.0,0.0,0.02532964199781418,-0.24,0.13,0.11,0.0
184.31433100,184314331,2,0.07,0.33,207.03,0.00999773945659399,-0.0421450138092041,0.02118631638586521,0.04777463153004646,0.0,0.0,0.029530977830290794,-0.24,0.13,0.11,0.0
184.41433100,184414331,2,0.07,0.34,207.02,0.009475953876972198,-0.042092129588127136,0.021835235878825188,0.03762678802013397,0.0,0.0,0.03318865969777107,-0.24,0.13,0.11,0.0
184.51433700,184514337,2,0.07,0.35000000000000003,207.01,0.00913741160184145,-0.04229939356446266,0.02208261936903,0.036585159599781036,0.0,0.0,0.03707440569996834,-0.23,0.13,0.11,0.0
184.61434800,184614348,2,0.06,0.34,207.0,0.009471327997744083,-0.04144744947552681,0.02310258150100708,0.03502524644136429,0.0,0.0,0.04050607234239578,-0.23,0.13,0.11,0.0
184.71437400,184714374,2,0.06,0.34,206.98000000000002,0.00996349472552538,-0.041615623980760574,0.022890742868185043,0.02613571658730507,0.0,0.0,0.043182291090488434,-0.23,0.13,0.11,0.0
184.81439700,184814397,2,0.06,0.35000000000000003,206.97,0.009966886602342129,-0.04093235731124878,0.02314433827996254,0.026726191863417625,0.0,0.0,0.04632466658949852,-0.23,0.13,0.11,0.0
184.91441500,184914415,2,0.06,0.35000000000000003,206.96,0.009988374076783657,-0.04109470918774605,0.022883467376232147,0.02968509867787361,0.0,0.0,0.049306679517030716,-0.23,0.13,0.11,0.0
185.01440000,185014400,2,0.06,0.36,206.96,0.00918500404804945,-0.0411757230758667,0.02279084175825119,0.012993834912776947,0.0,0.0,0.050164829939603806,-0.23,0.13,0.11,0.0
185.11433200,185114332,2,0.05,0.36,206.95000000000002,0.009499742649495602,-0.04157404601573944,0.021631209179759026,-0.019081784412264824,0.0,0.0,0.04842893034219742,-0.23,0.13,0.11,0.0
185.21433600,185214336,2,0.04,0.36,206.96,0.00973709300160408,-0.040600817650556564,0.020097337663173676,-0.046284567564725876,0.0,0.0,0.04474687576293945,-0.23,0.13,0.1,0.0
185.31433100,185314331,2,0.04,0.36,206.95000000000002,0.009565254673361778,-0.03995039314031601,0.019523808732628822,-0.03789908066391945,0.0,0.0,0.04286608099937439,-0.23,0.13,0.1,0.0
185.41433300,185414333,2,0.04,0.37,206.95000000000002,0.009480012580752373,-0.039886217564344406,0.018846752122044563,-0.0332869328558445,0.0,0.0,0.03940095007419586,-0.23,0.13,0.1,0.0
185.51434700,185514347,2,0.04,0.37,206.95000000000002,0.011210332624614239,-0.039487823843955994,0.017953068017959595,-0.04196859151124954,0.0,0.0,0.03600559011101723,-0.23,0.13,0.1,0.0
185.61437100,185614371,2,0.04,0.37,206.94,0.01245726365596056,-0.03863658383488655,0.016971925273537636,-0.039644986391067505,0.0,0.0,0.03217198699712753,-0.23,0.13,0.1,0.0
185.71439400,185714394,2,0.03,0.37,206.94,0.012270813807845116,-0.038686562329530716,0.015170332975685596,-0.03513583540916443,0.0,0.0,0.029430601745843887,-0.23,0.13,0.1,0.0
185.81442000,185814420,2,0.03,0.37,206.93,0.013241108506917953,-0.03733716160058975,0.01561980415135622,-0.002884638961404562,0.0,0.0,0.02962355874478817,-0.23,0.13,0.1,0.0
185.91435700,185914357,2,0.03,0.37,206.92000000000002,0.014467718079686165,-0.03652641177177429,0.015447225421667099,0.016631992533802986,0.0,0.0,0.03028515726327896,-0.23,0.13,0.1,0.0
186.01433700,186014337,2,0.03,0.37,206.92000000000002,0.014845638535916805,-0.03545945882797241,0.014985714107751846,-0.004627809394150972,0.0,0.0,0.028431318700313568,-0.23,0.13,0.1,0.0
186.11432900,186114329,2,0.04,0.37,206.91,0.014885841868817806,-0.03433200716972351,0.013521717861294746,-0.03597531467676163,0.0,0.0,0.02484351396560669,-0.23,0.13,0.1,0.0
186.21432900,186214329,2,0.04,0.38,206.91,0.01500452496111393,-0.03345493972301483,0.011892803944647312,-0.05667007714509964,0.0,0.0,0.019747557118535042,-0.23,0.13,0.1,0.0
186.31432900,186314329,2,0.04,0.38,206.9,0.015393299981951714,-0.03360364958643913,0.010752824135124683,-0.03587968274950981,0.0,0.0,0.018177226185798645,-0.23,0.13,0.1,0.0
186.41436600,186414366,2,0.04,0.38,206.89000000000001,0.015670141205191612,-0.03323200345039368,0.009253871627151966,-0.0017590159550309181,0.0,0.0,0.017719388008117676,-0.23,0.13,0.1,0.0
186.51438000,186514380,2,0.05,0.39,206.89000000000001,0.016901591792702675,-0.03287401422858238,0.008341212756931782,-0.014321655966341496,0.0,0.0,0.015115521848201752,-0.23,0.13,0.1,0.0
186.61438200,186614382,2,0.04,0.39,206.89000000000001,0.018235808238387108,-0.03234105184674263,0.007429139222949743,-0.02854854054749012,0.0,0.0,0.012420068494975567,-0.23,0.13,0.1,0.0
186.71440400,186714404,2,0.04,0.39,206.89000000000001,0.020023711025714874,-0.03254510834813118,0.006847141310572624,-0.012418742291629314,0.0,0.0,0.01187075488269329,-0.23,0.13,0.1,0.0
186.81437300,186814373,2,0.04,0.39,206.89000000000001,0.02097492292523384,-0.03223397955298424,0.005865741521120071,-0.00812436081469059,0.0,0.0,0.010121984407305717,-0.23,0.12,0.1,0.0
186.91432900,186914329,2,0.04,0.39,206.89000000000001,0.02226128801703453,-0.032499127089977264,0.005168530624359846,-0.019804945215582848,0.0,0.0,0.008231774903833866,-0.23,0.12,0.1,0.0
187.01433200,187014332,2,0.04,0.4,206.88,0.02411249838769436,-0.032113924622535706,0.004989167209714651,-0.025425221771001816,0.0,0.0,0.005153164267539978,-0.23,0.12,0.1,0.0
187.11433000,187114330,2,0.04,0.4,206.88,0.0265871062874794,-0.03150138631463051,0.004517602268606424,-0.04218904674053192,0.0,0.0,0.0012425456661731005,-0.23,0.12,0.1,0.0
187.21432800,187214328,2,0.04,0.4,206.88,0.028335561975836754,-0.031465619802474976,0.003865559119731188,-0.0571795329451561,0.0,0.0,-0.004383400082588196,-0.23,0.12,0.1,0.0
187.31435700,187314357,2,0.05,0.4,206.86,0.0291976910084486,-0.030887136235833168,0.002268055686727166,-0.08020613342523575,0.0,0.0,-0.011234025470912457,-0.23,0.12,0.1,0.0
187.41437600,187414376,2,0.04,0.41000000000000003,206.86,0.03017379716038704,-0.031192924827337265,0.0010402571642771363,-0.08335750550031662,0.0,0.0,-0.0182375255972147,-0.23,0.12,0.1,0.0
187.51438100,187514381,2,0.04,0.4,206.86,0.03252095356583595,-0.03195051848888397,0.0005833393079228699,-0.0755123421549797,0.0,0.0,-0.02528339810669422,-0.23,0.12,0.1,0.0
187.61440600,187614406,2,0.04,0.4,206.85,0.034510787576436996,-0.03267597779631615,-0.000491889426484704,-0.06755348294973373,0.0,0.0,-0.0315178819000721,-0.23,0.12,0.1,0.0
187.71436100,187714361,2,0.04,0.41000000000000003,206.85,0.03585265576839447,-0.03338203206658363,-0.0018211682327091694,-0.06649085134267807,0.0,0.0,-0.03829573467373848,-0.23,0.12,0.1,0.0
187.81432700,187814327,2,0.04,0.41000000000000003,206.84,0.037205033004283905,-0.03298848867416382,-0.0029530476313084364,-0.07129886746406555,0.0,0.0,-0.04526433348655701,-0.23,0.12,0.1,0.0
187.91432900,187914329,2,0.04,0.4,206.83,0.03772144019603729,-0.033632926642894745,-0.0030892041977494955,-0.05547570809721947,0.0,0.0,-0.05040207505226135,-0.23,0.12,0.1,0.0
188.01433000,188014330,2,0.04,0.4,206.82,0.0387510247528553,-0.033586326986551285,-0.0028949251864105463,-0.03367104008793831,0.0,0.0,-0.05402252450585365,-0.23,0.13,0.1,0.0
188.11432900,188114329,2,0.04,0.4,206.82,0.04028403013944626,-0.033654551953077316,-0.002636321820318699,-0.023964133113622665,0.0,0.0,-0.05716531351208687,-0.23,0.12,0.1,0.0
188.21435400,188214354,2,0.04,0.4,206.82,0.04118022322654724,-0.03347889706492424,-0.0026808367110788822,-0.014194605872035027,0.0,0.0,-0.05888243019580841,-0.23,0.12,0.1,0.0
188.31437200,188314372,2,0.04,0.4,206.81,0.042928386479616165,-0.03335258737206459,-0.0027977663557976484,-0.003995936829596758,0.0,0.0,-0.059931494295597076,-0.23,0.12,0.1,0.0
188.41438500,188414385,2,0.05,0.39,206.81,0.04316653683781624,-0.033158738166093826,-0.003495066659525037,-0.02032640390098095,0.0,0.0,-0.06295385956764221,-0.23,0.13,0.1,0.0
188.51441900,188514419,2,0.04,0.39,206.8,0.04341941326856613,-0.033535514026880264,-0.004092419054359198,-0.05053713545203209,0.0,0.0,-0.0681007131934166,-0.23,0.13,0.1,0.0
188.61435600,188614356,2,0.04,0.39,206.8,0.04409094527363777,-0.03439944237470627,-0.005165178794413805,-0.05812752619385719,0.0,0.0,-0.0728788822889328,-0.23,0.13,0.1,0.0
188.71433100,188714331,2,0.04,0.38,206.79,0.044252317398786545,-0.03438809514045715,-0.005422583781182766,-0.03971762955188751,0.0,0.0,-0.07602741569280624,-0.23,0.13,0.1,0.0
188.81433100,188814331,2,0.04,0.38,206.79,0.04445245862007141,-0.0337880402803421,-0.00588584691286087,-0.026660459116101265,0.0,0.0,-0.07885992527008057,-0.23,0.13,0.1,0.0
188.91432700,188914327,2,0.03,0.38,206.78,0.0438731424510479,-0.03390258923172951,-0.006048969924449921,-0.023030824959278107,0.0,0.0,-0.08144237101078033,-0.23,0.13,0.1,0.0
189.01433100,189014331,2,0.03,0.38,206.78,0.04418503865599632,-0.03432900831103325,-0.006039898842573166,-0.02127840742468834,0.0,0.0,-0.0838857889175415,-0.23,0.13,0.1,0.0
189.11435600,189114356,2,0.03,0.38,206.78,0.044291071593761444,-0.03436759486794472,-0.007018937263637781,-0.02788650058209896,0.0,0.0,-0.08693794161081314,-0.23,0.13,0.1,0.0
189.21437100,189214371,2,0.04,0.38,206.77,0.043836530297994614,-0.03421986848115921,-0.007809378206729889,-0.04367696866393089,0.0,0.0,-0.09147053956985474,-0.23,0.13,0.1,0.0
189.31438100,189314381,2,0.03,0.38,206.76,0.044280748814344406,-0.03369269147515297,-0.008578404784202576,-0.05159284919500351,0.0,0.0,-0.0959906280040741,-0.23,0.13,0.1,0.0
189.41441500,189414415,2,0.03,0.38,206.76,0.0444483682513237,-0.03425437584519386,-0.008760432712733746,-0.03558941185474396,0.0,0.0,-0.09886615723371506,-0.23,0.13,0.1,0.0
189.51436300,189514363,2,0.03,0.38,206.75,0.045490533113479614,-0.03520716354250908,-0.00856053363531828,-0.006779482588171959,0.0,0.0,-0.09939970821142197,-0.23,0.13,0.1,0.0
189.61432700,189614327,2,0.03,0.38,206.74,0.045413754880428314,-0.03524276614189148,-0.008762101642787457,-0.01162787340581417,0.0,0.0,-0.10192015022039413,-0.23,0.13,0.1,0.0
189.71433100,189714331,2,0.03,0.38,206.74,0.045258186757564545,-0.03516925126314163,-0.008616557344794273,-0.0423484742641449,0.0,0.0,-0.10649385303258896,-0.23,0.13,0.1,0.0
189.81432900,189814329,2,0.03,0.38,206.73000000000002,0.044478639960289,-0.03542792424559593,-0.009879929944872856,-0.04308423399925232,0.0,0.0,-0.10980593413114548,-0.23,0.13,0.1,0.0
189.91432800,189914328,2,0.03,0.38,206.73000000000002,0.04419929161667824,-0.03574663773179054,-0.009249240159988403,-0.027667231857776642,0.0,0.0,-0.11235347390174866,-0.23,0.13,0.1,0.0
190.01435600,190014356,2,0.03,0.37,206.73000000000002,0.04357121139764786,-0.03577699512243271,-0.009486401453614235,-0.024590034037828445,0.0,0.0,-0.1149677112698555,-0.23,0.13,0.1,0.0
190.11437400,190114374,2,0.02,0.37,206.72,0.04303699731826782,-0.03544912487268448,-0.009587154723703861,-0.027060849592089653,0.0,0.0,-0.11787465959787369,-0.23,0.13,0.1,0.0
190.21438000,190214380,2,0.02,0.36,206.72,0.04193337634205818,-0.03562754765152931,-0.00928580854088068,-0.027825316414237022,0.0,0.0,-0.12063784897327423,-0.23,0.13,0.1,0.0
190.31441400,190314414,2,0.02,0.36,206.72,0.041455209255218506,-0.03549613803625107,-0.008738459087908268,-0.010669849812984467,0.0,0.0,-0.12130314111709595,-0.23,0.13,0.1,0.0
190.41436000,190414360,2,0.01,0.35000000000000003,206.71,0.04112036153674126,-0.03562786057591438,-0.007461163681000471,0.0034776346292346716,0.0,0.0,-0.1216604933142662,-0.23,0.13,0.1,0.0
190.51433200,190514332,2,0.02,0.35000000000000003,206.71,0.04038305580615997,-0.035536643117666245,-0.007879103533923626,-0.0033634391147643328,0.0,0.0,-0.12256469577550888,-0.23,0.13,0.1,0.0
190.61432900,190614329,2,0.01,0.35000000000000003,206.72,0.03831804171204567,-0.03561817482113838,-0.008922702632844448,0.002945102285593748,0.0,0.0,-0.12204331904649734,-0.22,0.13,0.1,0.0
