timestamp,TimeUS,DesRoll,Roll,DesPitch,Pitch,DesYaw,Yaw,ErrRP,ErrYaw,AEKF
1682106445.83937502,710574002,0.0,-0.19,0.0,-1.62,104.28,104.29,0.0,0.02,3
1682106445.93933702,710673964,0.0,-0.19,0.0,-1.62,104.28,104.29,0.0,0.02,3
1682106446.03933096,710773958,0.0,-0.19,0.0,-1.62,104.28,104.3,0.0,0.03,3
1682106446.13926196,710873889,0.0,-0.18,0.0,-1.62,104.28,104.3,0.0,0.03,3
1682106446.23937106,710973998,0.0,-0.18,0.0,-1.62,104.28,104.31,0.0,0.02,3
1682106446.33924508,711073872,0.0,-0.18,0.0,-1.62,104.28,104.32000000000001,0.0,0.02,3
1682106446.43930793,711173935,0.0,-0.18,0.0,-1.62,104.28,104.32000000000001,0.0,0.02,3
1682106446.53953695,711274164,0.0,-0.17,0.0,-1.6300000000000001,104.28,104.33,0.0,0.02,3
1682106446.63912106,711373748,0.0,-0.17,0.0,-1.6300000000000001,104.28,104.33,0.0,0.02,3
1682106446.73912907,711473756,0.0,-0.17,0.0,-1.6300000000000001,104.28,104.34,0.0,0.02,3
1682106446.83901095,711573638,0.0,-0.17,0.0,-1.6300000000000001,104.28,104.34,0.0,0.03,3
1682106446.93904996,711673677,0.0,-0.17,0.0,-1.6300000000000001,104.28,104.35000000000001,0.0,0.02,3
1682106447.03902197,711773649,0.0,-0.17,0.0,-1.6300000000000001,104.28,104.36,0.0,0.02,3
1682106447.13907409,711873701,0.0,-0.17,0.0,-1.62,104.28,104.36,0.0,0.02,3
1682106447.23907995,711973707,0.0,-0.17,0.0,-1.62,104.28,104.37,0.0,0.02,3
1682106447.33934593,712073973,0.0,-0.18,0.0,-1.62,104.28,104.38,0.0,0.02,3
1682106447.43936610,712173993,0.0,-0.18,0.0,-1.62,104.28,104.38,0.01,0.01,3
1682106447.53939390,712274021,0.0,-0.18,0.0,-1.62,104.28,104.38,0.01,0.02,3
1682106447.63937688,712374004,0.0,-0.18,0.0,-1.62,104.28,104.38,0.01,0.02,3
1682106447.73934507,712473972,0.0,-0.18,0.0,-1.62,104.28,104.39,0.01,0.01,3
1682106447.83935595,712573983,0.0,-0.19,0.0,-1.61,104.39,104.39,0.0,0.01,3
1682106447.93934894,712673976,0.0,-0.18,0.0,-1.61,104.39,104.39,0.0,0.01,3
1682106448.03942394,712774051,0.0,-0.18,0.0,-1.61,104.4,104.4,0.0,0.01,3
1682106448.13933897,712873966,0.0,-0.18,0.0,-1.61,104.4,104.4,0.0,0.01,3
1682106448.23962498,712974252,0.0,-0.18,0.0,-1.61,104.41,104.41,0.0,0.01,3
1682106448.33961105,713074238,0.0,-0.18,0.0,-1.61,104.41,104.41,0.0,0.01,3
1682106448.43913293,713173760,0.0,-0.18,0.0,-1.61,104.41,104.41,0.01,0.01,3
1682106448.53918409,713273811,0.0,-0.19,0.0,-1.61,104.41,104.41,0.01,0.01,3
1682106448.63904595,713373673,0.0,-0.19,0.0,-1.6,104.41,104.42,0.01,0.01,3
1682106448.73900700,713473634,0.0,-0.19,0.0,-1.61,104.41,104.43,0.01,0.01,3
1682106448.83902597,713573653,0.0,-0.2,0.0,-1.61,104.41,104.4,0.01,0.01,3
1682106448.93947887,713674106,0.0,-0.19,0.0,-1.59,104.41,104.44,0.01,0.01,3
1682106449.03934789,713773975,0.0,-0.19,0.0,-1.6300000000000001,104.41,104.44,0.01,0.01,3
1682106449.13907909,713873706,0.0,-0.19,0.0,-1.6,104.41,104.42,0.01,0.02,3
1682106449.23917294,713973800,0.0,-0.16,0.0,-1.52,104.41,104.48,0.01,0.03,3
1682106449.33913398,714073761,0.0,-0.14,0.0,-1.51,104.41,104.47,0.01,0.03,3
1682106449.43910789,714173735,0.0,-0.13,0.0,-1.5,104.41,104.41,0.01,0.04,3
1682106449.53902888,714273656,0.0,-0.16,0.0,-1.5,104.41,104.48,0.01,0.03,3
1682106449.63936305,714373990,0.0,-0.14,0.0,-1.5,104.41,104.48,0.01,0.03,3
1682106449.73931289,714473940,0.0,-0.16,0.0,-1.5,104.41,104.49000000000001,0.01,0.03,3
1682106449.83909702,714573724,0.0,-0.18,0.0,-1.48,104.41,104.54,0.01,0.02,3
1682106449.93918705,714673814,0.0,-0.03,0.0,-1.48,104.41,104.57000000000001,0.01,0.04,3
1682106450.03910398,714773731,0.0,0.05,0.0,-1.3800000000000001,104.41,104.58,0.01,0.08,3
1682106450.13920689,714873834,0.0,0.48,0.0,-0.6900000000000001,104.41,104.56,0.01,0.11,3
1682106450.23919892,714973826,-0.01,0.45,0.0,-0.12,104.41,104.64,0.01,0.14,3
1682106450.33916187,715073789,-0.74,0.6,-0.35000000000000003,-0.05,104.41,104.72,0.01,0.15,3
1682106450.43907905,715173706,-1.3800000000000001,-0.22,-1.93,-0.81,104.41,104.75,0.01,0.15,3
1682106450.53900409,715273631,-2.08,-1.51,-2.5500000000000003,-2.75,104.41,104.8,0.01,0.16,3
1682106450.63909602,715373723,-3.2600000000000002,-2.33,-2.21,-3.27,104.41,104.76,0.01,0.19,3
1682106450.73945308,715474080,-3.84,-3.59,-1.27,-2.06,104.41,104.64,0.01,0.19,3
1682106450.83935499,715573982,-3.39,-4.15,-0.65,-0.48,104.41,104.44,0.01,0.17,3
1682106450.93919396,715673821,-2.73,-2.97,-0.33,-0.07,104.41,104.35000000000001,0.01,0.15,3
1682106451.03934598,715773973,-1.43,-1.45,-0.16,0.01,104.41,104.35000000000001,0.01,0.14,3
1682106451.13933110,715873958,-0.73,-0.19,-0.08,0.27,104.41,104.3,0.01,0.14,3
1682106451.23935795,715973985,-0.37,0.24,-0.04,0.28,104.41,104.26,0.01,0.14,3
1682106451.33930588,716073933,-0.19,0.32,-0.02,0.04,104.41,104.18,0.01,0.15,3
1682106451.43924403,716173871,-0.09,0.15,-0.01,0.01,104.41,104.08,0.02,0.16,3
1682106451.53929496,716273922,-0.04,0.3,0.0,-0.13,104.41,104.01,0.02,0.16,3
1682106451.63945198,716374079,-0.02,0.41000000000000003,0.0,-0.34,104.41,103.9,0.03,0.16,3
1682106451.73935509,716473982,-0.01,0.5,0.0,-0.28,104.41,103.83,0.03,0.16,3
1682106451.83943295,716574060,0.0,0.52,0.0,-0.26,104.41,103.7,0.05,0.16,3
1682106451.93943691,716674064,0.0,0.25,0.0,-0.09,104.41,103.60000000000001,0.05,0.16,3
1682106452.03937888,716774006,0.0,0.53,0.0,-0.06,104.41,103.48,0.04,0.16,3
1682106452.13939595,716874023,0.0,0.31,0.0,-0.08,104.41,103.35000000000001,0.04,0.16,3
1682106452.23935604,716973983,0.0,0.28,0.0,0.09,104.41,103.18,0.05,0.15,3
1682106452.33937097,717073998,0.0,0.22,0.0,0.1,104.41,103.07000000000001,0.05,0.14,3
1682106452.43931603,717173943,0.0,0.04,0.0,0.14,104.41,102.94,0.05,0.14,3
1682106452.53970695,717274334,0.0,0.1,0.0,0.16,104.41,102.81,0.05,0.13,3
1682106452.63936210,717373989,-0.18,0.06,0.04,0.07,104.41,102.7,0.04,0.13,3
1682106452.73912406,717473751,-0.43,-0.22,0.25,0.14,104.41,102.59,0.04,0.12,3
1682106452.83919501,717573822,-0.52,-0.71,1.02,0.56,104.41,102.54,0.05,0.12,3
1682106452.93924499,717673872,-0.5700000000000001,-0.5,2.38,1.86,104.41,102.43,0.05,0.12,3
1682106453.03913999,717773767,-0.43,-0.7000000000000001,3.42,3.66,104.41,102.36,0.05,0.11,3
1682106453.13907409,717873701,-0.25,-0.64,4.0200000000000005,4.54,104.41,102.37,0.05,0.11,3
1682106453.23899198,717973619,-0.27,-0.34,3.84,4.74,104.41,102.36,0.06,0.11,3
1682106453.33904195,718073669,-0.63,-0.56,2.07,3.7600000000000002,104.41,102.4,0.06,0.11,3
1682106453.43911099,718173738,-0.91,-0.9400000000000001,1.05,0.89,104.41,102.49000000000001,0.07,0.12,3
1682106453.53907704,718273704,-1.06,-1.22,0.54,-0.41000000000000003,104.41,102.56,0.07,0.15,3
1682106453.63910604,718373733,-1.33,-1.23,0.35000000000000003,-0.05,104.41,102.64,0.06,0.16,3
1682106453.73938894,718474016,-1.56,-1.46,0.37,0.17,104.41,102.75,0.06,0.14,3
1682106453.83913994,718573767,-1.55,-1.76,0.28,0.14,104.41,102.88,0.06,0.14,3
1682106453.93919110,718673818,-1.56,-1.3800000000000001,0.17,0.13,104.41,102.98,0.06,0.14,3
1682106454.03908110,718773708,-1.52,-1.42,0.08,-0.23,104.41,103.09,0.06,0.12,3
1682106454.13899994,718873627,-1.19,-1.3900000000000001,0.04,-0.44,104.41,103.17,0.06,0.11,3
1682106454.23902392,718973651,-0.84,-0.86,0.04,-0.25,104.41,103.21000000000001,0.07,0.11,3
1682106454.33911610,719073743,-0.56,-0.33,0.2,-0.08,104.41,103.24000000000001,0.07,0.11,3
1682106454.43908501,719173712,-0.28,-0.33,0.62,0.22,104.41,103.27,0.07,0.11,3
1682106454.53942895,719274056,-0.16,0.09,0.89,0.85,104.41,103.3,0.07,0.11,3
1682106454.63939190,719374019,-0.32,0.38,1.69,1.21,104.41,103.37,0.06,0.1,3
1682106454.73921394,719473841,-0.28,-0.09,2.33,2.12,104.41,103.44,0.06,0.09,3
1682106454.83945489,719574082,-0.33,-0.25,2.47,3.1,104.41,103.49000000000001,0.08,0.08,3
1682106454.93942189,719674049,-0.53,-0.33,2.5300000000000002,2.81,104.41,103.56,0.08,0.08,3
1682106455.03922701,719773854,-0.62,-0.63,2.49,2.5500000000000003,104.41,103.63,0.08,0.09,3
1682106455.13928008,719873907,-0.6900000000000001,-0.89,2.36,2.5500000000000003,104.41,103.73,0.08,0.1,3
1682106455.23936796,719973995,-0.8200000000000001,-0.88,2.35,2.2600000000000002,104.41,103.82000000000001,0.07,0.11,3
1682106455.33927298,720073900,-0.93,-1.08,2.2,2.2800000000000002,104.41,103.95,0.07,0.11,3
1682106455.43932700,720173954,-0.98,-0.93,1.94,2.06,104.41,104.01,0.07,0.11,3
1682106455.53980803,720274435,-1.06,-1.06,1.81,1.6400000000000001,104.41,104.13,0.07,0.12,3
1682106455.63938594,720374013,-1.22,-1.19,1.68,1.59,104.41,104.19,0.07,0.13,3
1682106455.73915696,720473784,-1.34,-1.43,1.6,1.56,104.41,104.24000000000001,0.07,0.14,3
1682106455.83907604,720573703,-1.31,-1.24,1.57,1.47,104.41,104.23,0.06,0.15,3
1682106455.93911791,720673745,-1.1500000000000001,-1.34,1.41,1.49,104.41,104.27,0.06,0.15,3
1682106456.03904510,720773672,-0.62,-1.12,1.07,1.2,104.41,104.24000000000001,0.04,0.15,3
1682106456.13909888,720873726,-0.31,-0.31,0.64,0.73,104.41,104.27,0.04,0.15,3
1682106456.23908401,720973711,-0.16,0.06,0.32,0.15,104.41,104.26,0.04,0.14,3
1682106456.33910704,721073734,-0.08,0.13,0.28,-0.05,104.41,104.27,0.04,0.14,3
1682106456.43938494,721174012,-0.04,0.14,0.62,0.01,104.41,104.3,0.04,0.14,3
1682106456.53951406,721274141,-0.02,-0.09,1.81,0.89,104.41,104.34,0.04,0.12,3
1682106456.63940907,721374036,-0.01,-0.11,2.13,2.5100000000000002,104.41,104.37,0.05,0.11,3
1682106456.73908305,721473710,0.0,-0.15,1.97,2.8000000000000003,104.41,104.4,0.05,0.1,3
1682106456.83899498,721573622,0.0,-0.19,1.82,1.79,104.41,104.42,0.04,0.1,3
1682106456.93921208,721673839,-0.19,-0.2,1.47,1.46,104.41,104.41,0.04,0.12,3
1682106457.03910303,721773730,-0.54,-0.59,1.19,1.3,104.41,104.39,0.04,0.11,3
1682106457.13906789,721873695,-0.72,-1.01,1.1400000000000001,0.8300000000000001,104.41,104.35000000000001,0.04,0.1,3
1682106457.23910499,721973732,-0.67,-1.05,1.24,0.91,104.41,104.34,0.05,0.1,3
1682106457.33939409,722074021,-0.37,-0.64,1.35,1.18,104.41,104.27,0.05,0.09,3
1682106457.43938494,722174012,-0.19,-0.3,1.54,1.27,104.41,104.29,0.05,0.08,3
1682106457.53953791,722274165,-0.09,0.0,1.78,1.45,104.41,104.29,0.05,0.08,3
1682106457.63903594,722373663,-0.05,-0.04,1.87,1.96,104.41,104.24000000000001,0.05,0.08,3
1682106457.73900604,722473633,-0.02,-0.07,1.92,1.98,104.41,104.23,0.05,0.07,3
1682106457.83902502,722573652,-0.01,-0.07,2.04,2.04,104.41,104.25,0.04,0.08,3
1682106457.93918705,722673814,0.0,0.02,1.94,2.32,104.41,104.23,0.04,0.07,3
1682106458.03905797,722773685,-0.15,-0.15,1.8900000000000001,2.06,104.41,104.2,0.04,0.06,3
1682106458.13918805,722873815,-0.5700000000000001,-0.29,2.33,2.04,104.41,104.21000000000001,0.04,0.07,3
1682106458.23938394,722974011,-0.89,-0.88,2.4,2.69,104.41,104.19,0.03,0.07,3
1682106458.33940792,723074035,-1.31,-1.11,2.49,2.84,104.41,104.21000000000001,0.03,0.06,3
1682106458.43939090,723174018,-1.68,-1.6,2.5500000000000003,2.45,104.41,104.2,0.03,0.07,3
1682106458.53926492,723273892,-1.8800000000000001,-2.0300000000000002,2.42,2.42,104.41,104.18,0.03,0.07,3
1682106458.63921404,723373841,-2.45,-2.3000000000000003,2.3000000000000003,2.21,104.41,104.2,0.03,0.07,3
1682106458.73922801,723473855,-2.65,-2.99,2.22,1.95,104.41,104.22,0.03,0.06,3
1682106458.83934903,723573976,-2.47,-3.2,2.18,2.02,104.41,104.21000000000001,0.03,0.07,3
1682106458.93935704,723673984,-2.24,-2.36,2.14,2.14,104.41,104.2,0.03,0.06,3
1682106459.03935289,723773980,-1.36,-1.97,1.8800000000000001,1.97,104.41,104.21000000000001,0.03,0.05,3
1682106459.13932800,723873955,-0.79,-0.5700000000000001,1.6500000000000001,1.6600000000000001,104.41,104.23,0.03,0.05,3
1682106459.23936510,723973992,-0.63,0.04,1.35,1.29,104.41,104.19,0.02,0.04,3
1682106459.33955693,724074184,-0.6,0.02,1.09,0.93,104.41,104.16,0.02,0.06,3
1682106459.43935895,724173986,-0.63,-0.31,0.56,0.47000000000000003,104.41,104.11,0.02,0.07,3
1682106459.53933787,724273965,-0.74,-0.41000000000000003,0.28,-0.17,104.41,104.05,0.02,0.07,3
1682106459.63933492,724373962,-0.74,-0.66,0.14,-0.41000000000000003,104.41,104.01,0.02,0.07,3
1682106459.73940802,724474035,-0.76,-0.54,0.07,-0.22,104.41,104.0,0.02,0.07,3
1682106459.83934593,724573973,-0.76,-0.78,0.12,-0.07,104.41,103.99000000000001,0.02,0.06,3
1682106459.93946791,724674095,-0.7000000000000001,-0.61,0.39,0.26,104.41,103.95,0.02,0.06,3
1682106460.03917289,724773800,-0.68,-0.62,0.73,0.88,104.41,103.93,0.02,0.06,3
1682106460.13921404,724873841,-0.74,-0.4,0.77,1.25,104.41,103.91,0.02,0.05,3
1682106460.23940110,724974028,-0.77,-0.59,0.7000000000000001,1.0,104.41,103.91,0.02,0.04,3
1682106460.33907700,725073704,-0.93,-0.51,0.48,0.76,104.41,103.86,0.02,0.05,3
1682106460.43899989,725173627,-1.05,-0.9400000000000001,0.37,0.42,104.41,103.86,0.02,0.05,3
1682106460.53907108,725273698,-1.11,-0.91,0.6,0.39,104.41,103.8,0.02,0.04,3
1682106460.63910103,725373728,-1.12,-0.91,0.8,0.78,104.41,103.78,0.02,0.04,3
1682106460.73910689,725473734,-1.1,-0.8300000000000001,1.0,1.01,104.41,103.72,0.02,0.03,3
1682106460.83921099,725573838,-0.98,-0.9400000000000001,1.1,1.1300000000000001,104.41,103.72,0.02,0.03,3
1682106460.93923998,725673867,-0.89,-0.75,0.96,1.22,106.59,105.87,0.02,0.03,3
1682106461.03920007,725773827,-0.56,-0.33,0.78,0.9400000000000001,106.59,105.97,0.01,0.03,3
1682106461.13948298,725874110,-0.32,-0.12,0.51,0.62,106.59,106.10000000000001,0.01,0.03,3
1682106461.23908591,725973713,-0.25,0.04,0.38,0.44,106.59,106.19,0.02,0.04,3
1682106461.33902001,726073647,-0.15,-0.08,0.29,0.45,106.59,106.22,0.02,0.03,3
1682106461.43904996,726173677,-0.16,0.0,0.28,0.4,106.59,106.15,0.02,0.03,3
1682106461.53910995,726273737,-0.19,0.14,0.25,0.48,106.59,106.04,0.02,0.02,3
1682106461.63907599,726373703,-0.22,-0.04,0.2,0.34,106.59,105.94,0.03,0.02,3
1682106461.73910594,726473733,-0.11,-0.07,0.1,0.28,106.59,106.01,0.03,0.03,3
1682106461.83921099,726573838,-0.05,0.08,0.05,0.19,106.59,106.04,0.04,0.03,3
1682106461.93926096,726673888,-0.06,0.14,0.02,0.18,106.59,105.98,0.04,0.03,3
1682106462.03914690,726773774,-1.19,0.01,0.01,0.19,106.59,106.01,0.04,0.04,3
1682106462.13907695,726873704,-2.95,-1.71,0.1,0.06,106.59,106.14,0.04,0.04,3
1682106462.23938608,726974013,-4.75,-4.08,0.55,0.02,106.59,106.2,0.05,0.03,3
1682106462.33934188,727073969,-5.46,-6.18,1.08,0.72,106.59,106.09,0.05,0.03,3
1682106462.43935490,727173982,-5.1000000000000005,-6.32,1.55,1.57,106.59,105.86,0.05,0.03,3
1682106462.53926802,727273895,-4.5200000000000005,-5.16,1.6600000000000001,2.02,106.59,105.77,0.05,0.04,3
1682106462.63933301,727373960,-4.25,-4.01,1.6,1.98,106.59,105.79,0.04,0.04,3
1682106462.73934293,727473970,-3.62,-3.46,1.06,1.73,106.59,105.96000000000001,0.04,0.04,3
1682106462.83935189,727573979,-1.9000000000000001,-2.44,0.54,0.76,106.59,106.29,0.04,0.04,3
1682106462.93939495,727674022,-0.97,-0.37,0.27,-0.04,106.59,106.75,0.04,0.04,3
1682106463.03929806,727773925,-0.49,0.65,0.14,-0.12,106.59,107.23,0.03,0.03,3
1682106463.13956499,727874192,-0.25,0.45,0.07,-0.22,106.59,107.60000000000001,0.03,0.03,3
1682106463.23949790,727974125,-0.12,0.33,0.03,-0.42,106.59,107.91,0.03,0.04,3
1682106463.33912396,728073751,-0.06,0.28,0.01,-0.38,106.59,108.06,0.03,0.03,3
1682106463.43909502,728173722,0.03,0.02,0.07,-0.26,106.59,108.18,0.04,0.04,3
1682106463.53912210,728273749,0.44,0.25,0.46,0.0,106.59,108.31,0.04,0.04,3
1682106463.63920498,728373832,0.9400000000000001,0.75,1.05,0.62,106.59,108.41,0.05,0.04,3
1682106463.73920107,728473828,0.99,1.47,1.75,1.49,106.59,108.43,0.05,0.04,3
1682106463.83914304,728573770,0.73,1.3900000000000001,2.49,2.3000000000000003,106.59,108.3,0.06,0.05,3
1682106463.93912101,728673748,0.25,0.76,3.2600000000000002,3.23,106.59,108.14,0.06,0.05,3
1682106464.03934503,728773972,-0.34,0.14,4.03,4.17,106.59,107.88,0.07,0.06,3
1682106464.13903093,728873658,-0.87,-0.87,4.38,4.84,106.59,107.5,0.07,0.08,3
1682106464.23911190,728973739,-1.23,-1.35,4.2700000000000005,4.92,106.59,107.14,0.07,0.07,3
1682106464.33909798,729073725,-1.43,-1.73,3.9,4.3,106.59,106.86,0.07,0.08,3
1682106464.43918490,729173812,-1.49,-1.87,3.38,3.62,106.59,106.67,0.06,0.09,3
1682106464.53919506,729273822,-1.45,-1.85,2.8000000000000003,2.92,106.59,106.53,0.06,0.09,3
1682106464.63914299,729373770,-1.35,-1.77,2.23,2.14,106.59,106.41,0.05,0.09,3
1682106464.73914790,729473775,-1.19,-1.46,1.6300000000000001,1.6500000000000001,106.59,106.32000000000001,0.05,0.09,3
1682106464.83907294,729573700,-1.04,-1.27,1.02,1.11,106.59,106.19,0.04,0.08,3
1682106464.93941689,729674044,-0.9500000000000001,-1.16,0.66,0.46,106.59,105.94,0.04,0.07,3
1682106465.03903389,729773661,-0.89,-1.03,0.86,0.32,106.59,105.68,0.03,0.06,3
1682106465.13935304,729873980,-0.89,-0.98,1.29,0.85,106.59,105.44,0.03,0.07,3
1682106465.23931289,729973940,-0.93,-0.97,1.53,1.6400000000000001,106.59,105.24000000000001,0.03,0.06,3
1682106465.33935308,730073980,-0.97,-1.22,1.46,1.74,106.59,105.22,0.03,0.05,3
1682106465.43933010,730173957,-1.02,-1.3,1.25,1.43,106.59,105.21000000000001,0.02,0.06,3
1682106465.53934288,730273970,-1.04,-1.24,0.9500000000000001,1.06,106.59,105.32000000000001,0.02,0.06,3
1682106465.63933992,730373967,-1.03,-1.31,0.61,0.63,106.59,105.47,0.02,0.05,3
1682106465.73929906,730473926,-1.04,-1.3,0.6,0.2,106.59,105.63,0.02,0.04,3
1682106465.83955002,730574177,-1.05,-1.19,1.01,0.55,106.59,105.85000000000001,0.02,0.05,3
1682106465.93935609,730673983,-1.02,-1.01,1.55,1.33,106.59,106.09,0.02,0.04,3
1682106466.03940296,730774030,-1.0,-0.92,2.29,2.11,106.59,106.37,0.02,0.04,3
1682106466.13934588,730873973,-0.97,-0.9500000000000001,2.81,3.0500000000000003,106.59,106.63,0.02,0.03,3
1682106466.23943591,730974063,-0.85,-0.87,2.94,3.56,106.59,106.9,0.02,0.03,3
1682106466.33938909,731074016,-0.68,-0.77,2.5500000000000003,3.14,106.59,107.15,0.02,0.03,3
1682106466.43938208,731174009,-0.49,-0.5,1.9100000000000001,2.34,106.59,107.39,0.02,0.03,3
1682106466.53940606,731274033,-0.29,-0.22,1.19,1.27,106.59,107.57000000000001,0.02,0.04,3
1682106466.63940501,731374032,-0.33,-0.16,0.81,0.46,106.59,107.71000000000001,0.01,0.04,3
1682106466.73961401,731474241,-0.73,-0.35000000000000003,0.72,0.13,106.59,107.84,0.01,0.04,3
1682106466.83931398,731573941,-1.05,-1.09,0.74,0.32,106.59,107.88,0.01,0.04,3
1682106466.93945694,731674084,-1.28,-1.52,0.88,0.55,106.59,107.87,0.01,0.04,3
1682106467.03936601,731773993,-1.4000000000000001,-1.58,1.04,0.77,106.59,107.8,0.01,0.05,3
1682106467.13910198,731873729,-1.42,-1.6500000000000001,1.21,0.97,106.59,107.71000000000001,0.01,0.05,3
1682106467.23920798,731973835,-1.41,-1.49,1.37,1.29,106.59,107.57000000000001,0.01,0.05,3
1682106467.33920693,732073834,-1.43,-1.29,1.5,1.4000000000000001,106.59,107.4,0.01,0.05,3
1682106467.43921399,732173841,-1.43,-1.48,1.59,1.6,106.59,107.2,0.01,0.04,3
1682106467.53931499,732273942,-1.46,-1.54,1.6500000000000001,1.71,106.59,107.03,0.01,0.03,3
1682106467.63924003,732373867,-1.49,-1.6500000000000001,1.68,1.68,106.59,106.89,0.01,0.04,3
1682106467.73929000,732473917,-1.51,-1.78,1.68,1.6500000000000001,106.59,106.72,0.01,0.03,3
1682106467.83967710,732574304,-1.53,-1.6600000000000001,1.67,1.6600000000000001,106.59,106.59,0.01,0.03,3
1682106467.93943596,732674063,-1.49,-1.6600000000000001,1.68,1.74,106.59,106.46000000000001,0.01,0.03,3
1682106468.03943706,732774064,-1.47,-1.6,1.7,1.69,106.59,106.36,0.01,0.03,3
1682106468.13938808,732874015,-1.44,-1.57,1.55,1.61,106.59,106.32000000000001,0.01,0.03,3
1682106468.23938394,732974011,-1.32,-1.6,0.87,1.34,106.59,106.28,0.01,0.03,3
1682106468.33941102,733074038,-1.11,-1.44,0.5,0.37,106.59,106.29,0.01,0.04,3
1682106468.43934393,733173971,-0.87,-1.22,0.0,-0.06,106.59,106.31,0.01,0.03,3
1682106468.53935909,733273986,-0.61,-0.93,-0.42,-0.29,106.59,106.33,0.01,0.03,3
1682106468.63930702,733373934,-0.33,-0.48,-0.61,-0.51,106.59,106.33,0.01,0.03,3
1682106468.73970890,733474336,0.1,-0.14,-1.08,-0.65,106.59,106.36,0.01,0.03,3
1682106468.83933592,733573963,0.41000000000000003,0.35000000000000003,-1.74,-1.25,106.59,106.43,0.01,0.02,3
1682106468.93925190,733673879,0.48,0.85,-1.99,-2.13,106.59,106.46000000000001,0.01,0.02,3
1682106469.03919196,733773819,0.35000000000000003,0.5700000000000001,-2.17,-2.29,106.59,106.52,0.01,0.02,3
1682106469.13914204,733873769,0.14,0.24,-2.12,-2.24,106.59,106.59,0.01,0.01,3
1682106469.23914504,733973772,-0.11,-0.07,-1.67,-1.98,106.59,106.66,0.01,0.01,3
1682106469.33904409,734073671,-0.32,-0.49,-1.04,-1.01,106.59,106.75,0.01,0.01,3
1682106469.43935490,734173982,-0.38,-0.68,-0.25,-0.15,106.59,106.86,0.02,0.02,3
1682106469.53947592,734274103,-0.45,-0.53,0.53,0.37,106.59,106.97,0.02,0.02,3
1682106469.63911605,734373743,-0.5700000000000001,-0.67,1.32,1.07,106.59,107.11,0.02,0.02,3
1682106469.73908305,734473710,-0.76,-0.91,2.08,1.98,106.59,107.25,0.02,0.02,3
1682106469.83910298,734573730,-1.19,-1.23,2.25,2.7800000000000002,106.51,107.34,0.04,0.02,3
1682106469.93923092,734673858,-1.54,-1.6500000000000001,1.95,2.74,105.78,107.31,0.04,0.02,3
1682106470.03919506,734773822,-1.72,-2.08,1.43,1.98,105.48,107.13,0.03,0.02,3
1682106470.13940406,734874031,-1.81,-2.07,0.9,1.22,105.48,106.86,0.03,0.03,3
1682106470.23934507,734973972,-2.35,-2.12,0.39,0.58,105.48,106.65,0.04,0.02,3
1682106470.33928895,735073916,-2.46,-2.73,0.44,0.11,105.48,106.52,0.04,0.02,3
1682106470.43931007,735173937,-2.33,-2.8000000000000003,0.86,0.28,105.48,106.39,0.05,0.03,3
1682106470.53935599,735273983,-2.13,-2.5100000000000002,1.46,1.1500000000000001,105.48,106.17,0.05,0.02,3
1682106470.63925600,735373883,-1.84,-2.18,2.16,1.98,105.48,106.06,0.06,0.03,3
1682106470.73935795,735473985,-1.33,-1.58,2.82,2.7800000000000002,105.48,106.0,0.06,0.03,3
1682106470.83932304,735573950,-0.62,-0.81,2.75,3.48,105.48,105.95,0.07,0.02,3
1682106470.93938398,735674011,0.14,0.11,2.09,2.93,105.48,105.81,0.07,0.02,3
1682106471.03939104,735774018,0.93,0.97,1.03,1.5,105.48,105.64,0.08,0.02,3
1682106471.13940597,735874033,1.6600000000000001,1.87,0.16,0.0,105.48,105.46000000000001,0.08,0.04,3
1682106471.23938489,735974012,1.8800000000000001,2.75,-0.67,-0.76,105.48,105.31,0.07,0.03,3
1682106471.33933496,736073962,1.72,2.74,-1.06,-1.42,105.48,105.21000000000001,0.07,0.03,3
1682106471.43909788,736173725,1.37,2.37,-1.04,-1.52,105.48,105.13,0.07,0.04,3
1682106471.53907394,736273701,0.9400000000000001,1.44,-0.62,-1.07,105.48,105.08,0.07,0.04,3
1682106471.63912106,736373748,0.5,0.9,0.03,-0.29,105.47,105.03,0.06,0.03,3
1682106471.73918891,736473816,-0.07,0.02,0.75,0.65,105.47,104.99000000000001,0.06,0.03,3
1682106471.83913493,736573762,-0.75,-0.77,1.51,1.57,105.47,104.84,0.05,0.03,3
1682106471.93919706,736673824,-1.27,-1.59,2.3000000000000003,2.23,105.47,104.64,0.05,0.03,3
1682106472.03908396,736773711,-1.53,-1.98,3.09,3.0300000000000002,105.47,104.51,0.04,0.03,3
1682106472.13936806,736873995,-1.57,-2.12,3.85,3.71,105.47,104.32000000000001,0.04,0.04,3
1682106472.23934507,736973972,-1.44,-1.93,4.15,4.45,105.47,104.21000000000001,0.04,0.03,3
1682106472.33941388,737074041,-1.25,-1.6400000000000001,4.07,4.43,105.47,104.13,0.04,0.04,3
1682106472.43934608,737173973,-0.99,-1.36,3.7600000000000002,3.87,105.47,104.15,0.03,0.04,3
1682106472.53943205,737274059,-0.72,-0.92,3.31,3.36,105.47,104.17,0.03,0.03,3
1682106472.63937402,737374001,-0.56,-0.6,2.83,2.91,105.47,104.18,0.03,0.03,3
1682106472.73940396,737474031,-0.46,-0.41000000000000003,2.35,2.32,105.47,104.2,0.03,0.03,3
1682106472.83940697,737574034,-0.43,-0.31,1.95,1.8,105.47,104.12,0.03,0.02,3
1682106472.93948507,737674112,-0.5,-0.27,1.6400000000000001,1.44,105.47,104.10000000000001,0.03,0.02,3
1682106473.03962803,737774255,-0.63,-0.19,1.43,1.21,105.47,104.05,0.02,0.02,3
1682106473.13934994,737873977,-0.8200000000000001,-0.51,1.36,1.07,105.47,103.97,0.02,0.02,3
1682106473.23912406,737973751,-1.01,-0.75,1.36,1.24,105.47,103.97,0.02,0.02,3
1682106473.33909607,738073723,-1.2,-1.05,1.44,1.35,105.47,104.03,0.02,0.02,3
1682106473.43911600,738173743,-1.32,-1.25,1.55,1.43,105.47,104.15,0.02,0.02,3
1682106473.53921604,738273843,-1.3900000000000001,-1.29,1.68,1.6,105.47,104.35000000000001,0.02,0.01,3
1682106473.63923001,738373857,-1.42,-1.4000000000000001,1.78,1.86,105.47,104.53,0.01,0.01,3
1682106473.73922610,738473853,-1.46,-1.52,1.86,1.87,105.47,104.67,0.01,0.02,3
1682106473.83937001,738573997,-1.48,-1.47,1.92,1.8800000000000001,105.47,104.77,0.01,0.02,3
1682106473.93945599,738674083,-1.53,-1.47,1.95,1.8,105.47,104.86,0.01,0.02,3
1682106474.03934693,738773974,-1.59,-1.58,1.98,1.74,105.47,104.91,0.01,0.02,3
1682106474.13935900,738873986,-1.6400000000000001,-1.55,1.96,1.7,105.47,104.88,0.01,0.01,3
1682106474.23927593,738973903,-1.71,-1.6500000000000001,1.96,1.67,105.47,104.83,0.01,0.01,3
1682106474.33937192,739073999,-1.78,-1.49,1.98,1.6600000000000001,105.47,104.74000000000001,0.01,0.02,3
1682106474.43933606,739173963,-1.84,-1.6600000000000001,1.97,1.68,105.47,104.62,0.01,0.02,3
1682106474.53934908,739273976,-1.9000000000000001,-1.75,1.92,1.85,105.47,104.46000000000001,0.01,0.03,3
1682106474.63936496,739373992,-1.87,-1.79,1.84,1.78,105.47,104.31,0.01,0.03,3
1682106474.73932409,739473951,-1.83,-1.86,1.67,1.76,105.47,104.19,0.01,0.02,3
1682106474.83934999,739573977,-1.6600000000000001,-1.77,1.48,1.57,105.47,104.09,0.01,0.03,3
1682106474.93946791,739674095,-1.55,-1.49,1.35,1.19,105.47,104.04,0.01,0.03,3
1682106475.03912997,739773757,-1.36,-1.46,1.23,1.02,105.47,104.07000000000001,0.01,0.03,3
1682106475.13910198,739873729,-1.21,-1.29,1.16,0.91,105.47,104.13,0.01,0.03,3
1682106475.23922205,739973849,-1.09,-1.1300000000000001,1.09,1.08,105.47,104.13,0.01,0.02,3
1682106475.33920097,740073828,-1.05,-0.93,1.06,1.1300000000000001,105.47,104.17,0.01,0.02,3
1682106475.43924093,740173868,-1.01,-1.08,0.99,1.06,105.47,104.14,0.01,0.02,3
1682106475.53917694,740273804,-0.98,-0.99,0.88,0.89,105.47,104.12,0.01,0.02,3
1682106475.63941002,740374037,-0.9400000000000001,-0.91,0.81,0.8,105.47,104.11,0.01,0.02,3
1682106475.73937106,740473998,-0.81,-0.89,0.75,0.75,105.47,104.16,0.01,0.02,3
1682106475.83953309,740574160,-0.74,-0.8200000000000001,0.74,0.6900000000000001,105.36,104.2,0.01,0.02,3
1682106475.93974400,740674371,-0.62,-0.59,0.73,0.76,105.04,104.2,0.01,0.02,3
1682106476.03935003,740773977,-0.53,-0.65,0.7000000000000001,0.75,104.97,104.16,0.01,0.01,3
1682106476.13911200,740873739,-0.55,-0.56,0.6900000000000001,0.8,104.97,104.12,0.01,0.02,3
1682106476.23921108,740973838,-0.54,-0.42,0.66,0.7000000000000001,104.97,104.07000000000001,0.01,0.01,3
1682106476.33921909,741073846,-0.5700000000000001,-0.6900000000000001,0.64,0.7000000000000001,104.97,104.03,0.01,0.01,3
1682106476.43916488,741173792,-0.58,-0.56,0.66,0.7000000000000001,104.76,103.97,0.01,0.01,3
1682106476.53907394,741273701,-0.52,-0.54,0.67,0.68,104.35000000000001,103.86,0.01,0.01,3
1682106476.63900208,741373629,-0.49,-0.45,0.7000000000000001,0.65,104.04,103.66,0.01,0.01,3
1682106476.73904800,741473675,-0.5,-0.39,0.77,0.8200000000000001,103.72,103.41,0.01,0.01,3
1682106476.83941698,741574044,-0.54,-0.63,0.8300000000000001,0.88,103.24000000000001,103.14,0.01,0.01,3
1682106476.93918896,741673816,-0.5700000000000001,-0.53,0.89,0.91,103.17,102.8,0.01,0.01,3
1682106477.03921604,741773843,-0.6,-0.43,0.91,0.9400000000000001,103.17,102.44,0.01,0.01,3
1682106477.13921404,741873841,-0.56,-0.54,0.9400000000000001,1.04,103.17,102.19,0.01,0.01,3
1682106477.23922396,741973851,-0.58,-0.54,0.96,0.98,103.17,101.88,0.01,0.01,3
1682106477.33915210,742073779,-0.5700000000000001,-0.49,0.93,0.99,103.17,101.62,0.01,0.01,3
1682106477.43907595,742173703,-0.42,-0.61,0.89,1.02,103.17,101.37,0.01,0.01,3
1682106477.53901100,742273638,-0.63,-0.35000000000000003,0.73,0.97,103.17,101.17,0.01,0.01,3
1682106477.63902187,742373649,-0.76,-0.6,0.28,0.55,103.17,101.07000000000001,0.01,0.01,3
1682106477.73940611,742474033,-0.8200000000000001,-0.76,-0.42,-0.2,103.17,100.93,0.01,0.01,3
1682106477.83908796,742573715,-0.87,-0.96,-0.74,-1.1300000000000001,103.17,100.86,0.01,0.01,3
1682106477.93938208,742674009,-0.91,-0.92,-0.6900000000000001,-1.27,103.17,100.78,0.01,0.02,3
1682106478.03934097,742773968,-1.01,-0.91,-0.6900000000000001,-0.77,103.17,100.71000000000001,0.01,0.03,3
1682106478.13935304,742873980,-1.2,-1.24,-0.45,-0.78,103.17,100.68,0.01,0.03,3
1682106478.23936391,742973991,-1.3900000000000001,-1.46,-0.37,-0.64,103.17,100.62,0.01,0.03,3
1682106478.33928800,743073915,-1.5,-1.67,-0.58,-0.43,103.17,100.61,0.01,0.04,3
1682106478.43922806,743173855,-1.59,-1.6300000000000001,-0.7000000000000001,-0.64,103.17,100.56,0.01,0.03,3
1682106478.53928399,743273911,-1.6400000000000001,-1.7,-0.54,-0.79,103.17,100.54,0.01,0.04,3
1682106478.63963008,743374257,-1.67,-1.58,-0.54,-0.45,103.17,100.5,0.01,0.04,3
1682106478.73936796,743473995,-1.68,-1.76,-0.46,-0.44,103.17,100.53,0.01,0.05,3
1682106478.83936596,743573993,-1.69,-1.7,-0.1,-0.38,103.17,100.60000000000001,0.01,0.05,3
1682106478.93942404,743674051,-1.69,-1.74,0.05,0.18,103.17,100.61,0.01,0.04,3
1682106479.03938293,743774010,-1.69,-1.97,0.05,0.34,103.17,100.65,0.01,0.04,3
1682106479.13938808,743874015,-1.69,-1.93,0.05,0.14,103.17,100.72,0.01,0.05,3
1682106479.23935509,743973982,-1.69,-1.75,0.02,0.1,103.17,100.74000000000001,0.02,0.04,3
1682106479.33937001,744073997,-1.69,-1.76,0.02,0.1,103.17,100.78,0.02,0.05,3
1682106479.43932509,744173952,-2.0300000000000002,-1.82,0.03,0.0,103.17,100.78,0.01,0.05,3
1682106479.53941989,744274047,-2.3000000000000003,-2.35,0.08,0.0,103.17,100.85000000000001,0.01,0.05,3
1682106479.63935590,744373983,-2.18,-2.79,0.04,0.09,103.17,100.9,0.02,0.06,3
1682106479.73944092,744474068,-1.92,-2.4,-0.25,0.11,103.17,100.92,0.02,0.06,3
1682106479.83940196,744574029,-1.3900000000000001,-1.69,-0.22,-0.33,103.17,100.95,0.02,0.05,3
1682106479.93923187,744673859,-0.68,-1.06,-0.01,-0.22,103.17,100.98,0.02,0.04,3
1682106480.03920293,744773830,0.07,-0.07,0.04,0.23,103.17,101.0,0.03,0.04,3
1682106480.13906908,744873696,0.85,0.72,0.25,0.26,103.17,101.01,0.03,0.04,3
1682106480.23900199,744973629,1.6300000000000001,1.51,0.31,0.39,103.17,101.15,0.04,0.04,3
1682106480.33901405,745073641,2.11,2.42,0.24,0.49,103.17,101.32000000000001,0.04,0.04,3
1682106480.43910193,745173729,2.13,2.59,0.2,0.3,103.17,101.57000000000001,0.04,0.03,3
1682106480.53908896,745273716,1.83,2.16,0.22,0.21,103.17,101.82000000000001,0.04,0.03,3
1682106480.63909888,745373726,1.32,1.53,0.6,0.38,103.17,102.16,0.05,0.03,3
1682106480.73939800,745474025,0.7000000000000001,0.93,1.2,1.09,103.17,102.47,0.05,0.03,3
1682106480.83918190,745573809,0.04,-0.04,1.9000000000000001,1.99,103.17,102.75,0.05,0.03,3
1682106480.93918896,745673816,-0.49,-0.8,2.21,2.69,103.17,102.92,0.05,0.02,3
1682106481.03906393,745773691,-0.88,-1.35,2.11,2.74,103.17,103.04,0.04,0.02,3
1682106481.13896704,745873594,-1.1300000000000001,-1.6500000000000001,1.81,2.31,103.17,103.11,0.04,0.03,3
1682106481.23903608,745973663,-1.24,-1.71,1.1500000000000001,1.68,103.17,103.10000000000001,0.06,0.04,3
1682106481.33913708,746073764,-1.23,-1.81,0.29,0.65,103.17,103.10000000000001,0.06,0.03,3
1682106481.43908095,746173708,-1.16,-1.59,-0.12,-0.46,103.17,103.03,0.05,0.03,3
1682106481.53911591,746273743,-1.06,-1.29,-0.35000000000000003,-0.62,103.17,102.93,0.05,0.03,3
1682106481.63938308,746374010,-0.9400000000000001,-1.04,-0.45,-0.58,103.17,102.82000000000001,0.06,0.03,3
1682106481.73920608,746473833,-0.8,-0.89,-0.48,-0.5700000000000001,103.17,102.76,0.06,0.02,3
1682106481.83931994,746573947,-0.74,-0.68,-0.53,-0.46,103.17,102.69,0.06,0.02,3
1682106481.93933797,746673965,-0.7000000000000001,-0.65,-0.51,-0.38,103.17,102.66,0.06,0.03,3
1682106482.03922391,746773851,-1.02,-0.59,-0.42,-0.28,103.17,102.65,0.05,0.02,3
1682106482.13932395,746873951,-1.75,-1.32,-0.46,-0.08,103.17,102.68,0.05,0.02,3
1682106482.23966599,746974293,-2.0100000000000002,-2.21,-0.72,-0.16,103.17,102.72,0.04,0.02,3
1682106482.33936596,747073993,-2.08,-2.33,-0.93,-0.6900000000000001,103.17,102.8,0.04,0.02,3
1682106482.43943000,747174057,-1.9000000000000001,-2.08,-0.87,-0.8300000000000001,103.17,102.9,0.04,0.02,3
1682106482.53938007,747274007,-1.62,-1.74,-1.01,-0.73,103.17,102.96000000000001,0.04,0.03,3
1682106482.63938689,747374014,-1.2,-1.27,-1.1300000000000001,-1.01,103.17,103.11,0.04,0.02,3
1682106482.73941898,747474046,-0.96,-0.59,-0.88,-1.18,103.17,103.19,0.04,0.02,3
1682106482.83940601,747574033,-0.86,-0.25,-0.51,-0.64,103.17,103.31,0.03,0.02,3
1682106482.93966007,747674287,-0.84,-0.5,-0.26,-0.05,103.17,103.43,0.03,0.03,3
1682106483.03931093,747773938,-0.86,-0.53,-0.14,0.12,103.17,103.55,0.03,0.04,3
1682106483.13941097,747874038,-0.87,-0.56,0.22,0.27,103.17,103.64,0.03,0.04,3
1682106483.23935795,747973985,-0.88,-0.66,0.8,0.78,103.17,103.78,0.03,0.03,3
1682106483.33911109,748073738,-0.92,-0.75,1.49,1.48,103.17,103.92,0.03,0.03,3
1682106483.43918896,748173816,-1.01,-0.87,2.2,2.21,103.17,104.02,0.03,0.03,3
1682106483.53914690,748273774,-1.41,-1.1,2.47,2.96,103.17,104.16,0.03,0.03,3
1682106483.63913202,748373759,-2.07,-1.7,2.39,3.0100000000000002,103.17,104.26,0.03,0.02,3
1682106483.73928499,748473912,-2.68,-2.75,2.12,2.57,103.17,104.35000000000001,0.03,0.03,3
1682106483.83957291,748574200,-3.0,-3.35,1.75,2.16,103.17,104.39,0.03,0.04,3
1682106483.93934608,748673973,-3.16,-3.46,1.36,1.67,103.17,104.47,0.03,0.04,3
1682106484.03941202,748774039,-3.16,-3.5300000000000002,1.4000000000000001,1.18,103.17,104.49000000000001,0.03,0.03,3
1682106484.13935304,748873980,-3.13,-3.34,1.81,1.3800000000000001,103.17,104.38,0.03,0.03,3
1682106484.23949909,748974126,-3.11,-3.0100000000000002,2.41,2.16,103.17,104.26,0.03,0.03,3
1682106484.33940196,749074029,-3.1,-3.0500000000000003,3.1,2.91,103.17,104.14,0.03,0.03,3
1682106484.43937802,749174005,-3.0,-2.98,3.38,3.68,103.17,104.01,0.02,0.03,3
1682106484.53938699,749274014,-2.79,-2.7800000000000002,3.06,3.61,103.17,103.89,0.02,0.02,3
1682106484.63934588,749373973,-2.5500000000000003,-2.56,2.46,2.7600000000000002,103.17,103.82000000000001,0.02,0.03,3
1682106484.73937297,749474000,-2.37,-2.2800000000000002,1.62,1.83,103.17,103.71000000000001,0.02,0.03,3
1682106484.83929896,749573926,-2.2800000000000002,-2.07,0.75,0.86,103.17,103.61,0.02,0.03,3
1682106484.93974400,749674371,-2.23,-2.04,0.15,-0.19,103.17,103.49000000000001,0.02,0.03,3
1682106485.03933787,749773965,-2.13,-2.04,-0.08,-0.65,103.17,103.33,0.02,0.03,3
1682106485.13910699,749873734,-1.93,-1.82,-0.13,-0.61,103.17,103.17,0.02,0.02,3
1682106485.23919201,749973819,-1.49,-1.74,0.21,-0.35000000000000003,103.17,103.07000000000001,0.03,0.02,3
1682106485.33915091,750073778,-0.8,-0.88,0.78,0.39,103.17,102.99000000000001,0.03,0.02,3
1682106485.43915105,750173778,-0.06,-0.02,0.98,1.3,103.17,102.97,0.04,0.03,3
1682106485.53904104,750273668,0.7000000000000001,0.8200000000000001,0.9500000000000001,1.29,103.17,102.93,0.04,0.04,3
1682106485.63898802,750373615,1.49,1.6600000000000001,0.87,0.8300000000000001,103.17,102.87,0.05,0.04,3
1682106485.73905301,750473680,2.2800000000000002,2.54,0.49,0.73,103.17,102.84,0.05,0.04,3
1682106485.83940697,750574034,3.0700000000000003,3.22,-0.48,0.12,103.17,102.76,0.05,0.03,3
1682106485.93938303,750674010,3.64,3.94,-0.73,-1.27,103.17,102.66,0.05,0.04,3
1682106486.03910708,750773734,3.5500000000000003,4.33,-0.46,-1.3800000000000001,103.17,102.65,0.06,0.03,3
1682106486.13919592,750873823,2.94,3.62,0.08,-0.34,103.17,102.7,0.06,0.03,3
1682106486.23914289,750973770,2.0300000000000002,2.37,0.79,0.59,103.17,102.75,0.05,0.04,3
1682106486.33921194,751073839,0.96,1.17,1.55,1.35,103.17,102.8,0.05,0.04,3
1682106486.43908191,751173709,-0.22,-0.32,2.33,2.39,103.17,102.85000000000001,0.05,0.03,3
1682106486.53899693,751273624,-1.33,-1.68,3.12,3.23,103.17,102.9,0.05,0.04,3
1682106486.63903689,751373664,-1.95,-2.64,3.91,4.05,103.17,102.88,0.04,0.04,3
1682106486.73940492,751474032,-2.25,-2.89,4.71,4.99,103.17,102.99000000000001,0.04,0.03,3
1682106486.83933091,751573958,-2.23,-2.83,5.22,5.67,103.17,103.06,0.04,0.03,3
1682106486.93936896,751673996,-2.21,-2.63,5.08,5.84,103.17,103.10000000000001,0.04,0.02,3
1682106487.03934288,751773970,-2.2,-2.5300000000000002,4.49,5.0600000000000005,103.17,103.21000000000001,0.04,0.02,3
1682106487.13933492,751873962,-2.19,-2.2,3.74,3.89,103.17,103.27,0.04,0.03,3
1682106487.23937201,751973999,-2.19,-2.17,2.95,2.85,103.17,103.29,0.04,0.04,3
1682106487.33933210,752073959,-2.19,-2.14,2.08,2.08,103.17,103.24000000000001,0.04,0.03,3
1682106487.43922806,752173855,-2.19,-2.06,1.68,1.18,103.17,103.19,0.04,0.03,3
1682106487.53927803,752273905,-2.19,-2.14,1.6500000000000001,0.98,103.17,103.12,0.04,0.02,3
1682106487.63971210,752374339,-2.19,-2.02,1.51,1.29,103.17,103.08,0.03,0.02,3
1682106487.73935103,752473978,-2.16,-1.98,1.3900000000000001,1.26,103.17,103.10000000000001,0.03,0.03,3
1682106487.83943105,752574058,-1.84,-1.9100000000000001,1.23,1.03,103.17,103.12,0.03,0.02,3
1682106487.93923402,752673861,-1.32,-1.44,0.85,0.89,103.17,103.14,0.03,0.02,3
1682106488.03919196,752773819,-1.0,-0.63,0.3,0.38,103.17,103.10000000000001,0.03,0.02,3
1682106488.13913989,752873767,-0.8300000000000001,-0.41000000000000003,0.29,-0.47000000000000003,103.17,103.07000000000001,0.03,0.02,3
1682106488.23908997,752973717,-0.75,-0.52,0.34,-0.28,103.17,102.99000000000001,0.03,0.02,3
1682106488.33899689,753073624,-0.71,-0.76,0.31,0.26,103.17,102.89,0.03,0.02,3
1682106488.43907595,753173703,-0.6900000000000001,-0.86,0.39,0.29,103.17,102.83,0.03,0.03,3
1682106488.53911209,753273739,-0.68,-1.08,0.63,0.46,103.17,102.76,0.03,0.03,3
1682106488.63909698,753373724,-0.49,-0.92,0.64,0.86,103.17,102.68,0.02,0.03,3
1682106488.73924398,753473871,0.0,-0.4,0.52,0.73,103.17,102.65,0.02,0.02,3
1682106488.83976507,753574392,0.63,0.37,0.29,0.43,103.17,102.65,0.02,0.03,3
1682106488.93923998,753673867,1.35,1.1500000000000001,-0.07,0.18,103.17,102.64,0.02,0.03,3
1682106489.03934288,753773970,1.95,1.94,-0.38,-0.27,103.17,102.65,0.02,0.03,3
1682106489.13930488,753873932,2.0300000000000002,2.63,-0.5,-0.64,103.17,102.65,0.02,0.02,3
1682106489.23926592,753973893,1.75,2.57,-0.32,-0.59,103.17,102.66,0.02,0.03,3
1682106489.33926702,754073894,1.3,1.8800000000000001,-0.29,-0.3,103.17,102.75,0.02,0.03,3
1682106489.43933702,754173964,0.58,1.06,-0.27,-0.19,103.17,102.81,0.02,0.02,3
1682106489.53926992,754273897,-0.42,0.0,-0.2,-0.2,103.17,102.87,0.02,0.02,3
1682106489.63933206,754373959,-1.19,-1.29,-0.55,-0.03,103.17,102.95,0.01,0.02,3
1682106489.73919201,754473819,-1.57,-2.19,-0.92,-0.59,103.17,103.2,0.01,0.03,3
1682106489.83939099,754574018,-1.76,-2.14,-0.9500000000000001,-1.26,103.17,103.43,0.02,0.04,3
1682106489.93944502,754674072,-1.84,-2.1,-0.9,-1.04,103.17,103.63,0.02,0.03,3
1682106490.03940105,754774028,-1.87,-2.14,-0.68,-0.58,103.17,103.8,0.02,0.04,3
1682106490.13935304,754873980,-2.09,-2.13,-0.35000000000000003,-0.22,103.17,103.92,0.02,0.03,3
1682106490.23932600,754973953,-2.2600000000000002,-2.32,-0.04,0.28,103.17,104.04,0.02,0.03,3
1682106490.33942103,755074048,-2.39,-2.57,0.14,0.5700000000000001,103.17,104.14,0.02,0.04,3
1682106490.43935609,755173983,-2.46,-2.82,0.08,0.54,103.17,104.22,0.02,0.03,3
1682106490.53944898,755274076,-2.49,-2.73,0.17,0.35000000000000003,103.17,104.29,0.02,0.02,3
1682106490.63936806,755373995,-2.49,-2.85,0.28,0.38,103.17,104.34,0.03,0.02,3
1682106490.73920298,755473830,-2.46,-2.68,0.71,0.62,103.17,104.33,0.03,0.02,3
1682106490.83925009,755573877,-2.43,-2.58,1.33,1.17,103.17,104.28,0.03,0.01,3
1682106490.93912292,755673750,-2.4,-2.34,2.0300000000000002,1.92,103.17,104.24000000000001,0.03,0.01,3
1682106491.03899407,755773621,-2.33,-2.32,2.79,2.56,103.17,104.18,0.03,0.01,3
1682106491.13901401,755873641,-2.18,-2.07,3.56,3.49,103.17,104.06,0.03,0.02,3
1682106491.23910093,755973728,-2.07,-1.93,4.3500000000000005,4.17,103.17,104.0,0.03,0.02,3
1682106491.33927202,756073899,-1.77,-1.6500000000000001,5.04,4.91,103.17,103.89,0.03,0.02,3
1682106491.43932390,756173951,-1.28,-1.1,5.12,5.45,103.17,103.76,0.03,0.02,3
1682106491.53938699,756274014,-0.59,-0.42,4.83,5.07,103.17,103.62,0.03,0.02,3
1682106491.63940191,756374029,0.14,0.42,4.33,4.18,103.17,103.48,0.03,0.01,3
1682106491.73943400,756474061,0.91,1.18,3.71,3.47,103.17,103.3,0.03,0.01,3
1682106491.83920598,756573833,1.69,1.93,3.04,2.73,103.17,103.08,0.04,0.01,3
1682106491.93939495,756674022,2.48,2.69,2.45,2.02,103.17,102.89,0.04,0.01,3
1682106492.03933191,756773959,2.88,3.29,1.94,1.46,103.17,102.7,0.03,0.01,3
1682106492.13939905,756874026,2.74,3.36,1.59,1.1,103.17,102.58,0.03,0.03,3
1682106492.23935795,756973985,2.2800000000000002,2.97,1.3900000000000001,0.81,103.17,102.45,0.03,0.04,3
1682106492.33942294,757074050,1.6500000000000001,2.46,1.3,0.78,103.17,102.43,0.03,0.04,3
1682106492.43937993,757174007,0.9400000000000001,1.54,1.29,0.9,103.17,102.44,0.03,0.03,3
1682106492.53939700,757274024,0.19,0.34,1.34,1.23,103.17,102.53,0.03,0.03,3
1682106492.63947511,757374102,-0.54,-0.35000000000000003,1.41,1.41,103.17,102.71000000000001,0.03,0.03,3
1682106492.73908591,757473713,-1.09,-1.37,1.46,1.6300000000000001,103.17,102.97,0.03,0.04,3
1682106492.83901000,757573637,-1.3800000000000001,-1.54,1.5,1.78,103.17,103.24000000000001,0.03,0.05,3
1682106492.93908906,757673716,-1.46,-1.62,1.52,1.68,103.17,103.60000000000001,0.03,0.05,3
1682106493.03912687,757773754,-1.33,-1.74,1.54,1.7,103.17,103.96000000000001,0.03,0.04,3
1682106493.13910389,757873731,-1.11,-1.52,1.61,1.62,103.17,104.31,0.03,0.03,3
1682106493.23923206,757973859,-0.86,-1.18,1.6400000000000001,1.7,103.17,104.63,0.02,0.03,3
1682106493.33941698,758074044,-0.65,-0.88,1.69,1.77,103.17,104.86,0.02,0.03,3
1682106493.43940401,758174031,-0.52,-0.73,1.74,1.79,103.17,105.07000000000001,0.02,0.03,3
1682106493.53917408,758273801,-0.45,-0.61,1.74,1.8800000000000001,103.17,105.19,0.02,0.02,3
1682106493.63909197,758373719,-0.43,-0.53,1.69,1.86,103.17,105.31,0.02,0.02,3
1682106493.73900700,758473634,-0.41000000000000003,-0.36,1.6600000000000001,1.8,103.17,105.37,0.02,0.02,3
1682106493.83906007,758573687,-0.41000000000000003,-0.48,1.62,1.71,103.17,105.38,0.02,0.02,3
1682106493.93945098,758674078,-0.46,-0.56,1.6300000000000001,1.59,103.17,105.39,0.02,0.02,3
1682106494.03909397,758773721,-0.49,-0.64,1.6300000000000001,1.6,103.17,105.32000000000001,0.01,0.02,3
1682106494.13934994,758873977,-0.51,-0.65,1.6400000000000001,1.6300000000000001,103.17,105.26,0.01,0.01,3
1682106494.23936009,758973987,-0.5700000000000001,-0.64,1.62,1.61,103.17,105.16,0.01,0.02,3
1682106494.33936000,759073987,-0.53,-0.73,1.54,1.54,103.17,105.05,0.01,0.02,3
1682106494.43936706,759173994,-0.52,-0.8300000000000001,1.47,1.45,103.17,104.96000000000001,0.01,0.02,3
1682106494.53932095,759273948,-0.49,-0.76,1.44,1.43,103.17,104.86,0.01,0.02,3
1682106494.63923502,759373862,-0.46,-0.67,1.37,1.46,103.17,104.75,0.01,0.02,3
1682106494.73935890,759473986,-0.46,-0.75,1.33,1.34,103.17,104.65,0.01,0.02,3
1682106494.83967590,759574303,-0.46,-0.74,1.26,1.31,103.17,104.58,0.01,0.02,3
1682106494.93919706,759673824,-0.55,-0.72,1.1400000000000001,1.29,103.17,104.46000000000001,0.01,0.02,3
1682106495.03942800,759774055,-0.55,-0.8,1.05,1.1500000000000001,103.17,104.34,0.01,0.02,3
1682106495.13939810,759874025,-0.58,-0.76,0.9500000000000001,1.06,103.17,104.27,0.01,0.02,3
1682106495.23940206,759974029,-0.55,-0.67,0.92,0.99,103.17,104.15,0.0,0.02,3
1682106495.33939600,760074023,-0.6,-0.7000000000000001,0.88,0.85,103.17,104.04,0.0,0.01,3
1682106495.43944407,760174071,-0.65,-0.74,0.8300000000000001,0.92,103.17,103.97,0.01,0.02,3
1682106495.53938198,760274009,-0.65,-0.7000000000000001,0.87,0.98,103.17,103.91,0.01,0.01,3
1682106495.63934803,760373975,-0.7000000000000001,-0.51,0.8300000000000001,1.07,103.17,103.84,0.01,0.01,3
1682106495.73943710,760474064,-0.67,-0.45,0.8200000000000001,1.04,103.17,103.76,0.01,0.02,3
1682106495.83937907,760574006,-0.72,-0.37,0.78,0.96,103.17,103.74000000000001,0.01,0.02,3
1682106495.93948293,760674110,-0.73,-0.45,0.74,0.76,103.17,103.73,0.01,0.02,3
1682106496.03942204,760774049,-0.75,-0.5,0.72,0.6900000000000001,103.17,103.69,0.01,0.02,3
1682106496.13922095,760873848,-0.84,-0.64,0.6900000000000001,0.66,103.17,103.63,0.01,0.02,3
1682106496.23916602,760973793,-0.85,-0.9500000000000001,0.74,0.73,103.17,103.62,0.01,0.01,3
1682106496.33909392,761073721,-0.87,-0.98,0.75,0.79,103.17,103.59,0.01,0.01,3
1682106496.43902302,761173650,-0.84,-1.08,0.77,0.8200000000000001,103.17,103.58,0.01,0.02,3
1682106496.53903890,761273666,-0.74,-0.8200000000000001,0.8200000000000001,0.89,103.17,103.61,0.01,0.02,3
1682106496.63942504,761374052,-0.66,-0.8,0.85,0.9500000000000001,103.17,103.60000000000001,0.0,0.02,3
1682106496.73937607,761474003,-0.51,-0.8200000000000001,0.89,0.86,103.17,103.61,0.0,0.02,3
1682106496.83945203,761574079,-0.48,-0.53,0.89,0.92,103.17,103.66,0.0,0.02,3
1682106496.93943310,761674060,-0.41000000000000003,-0.63,0.92,0.87,103.17,103.69,0.0,0.02,3
1682106497.03920507,761773832,-0.43,-0.6,0.9500000000000001,0.92,103.17,103.7,0.0,0.02,3
1682106497.13915610,761873783,-0.49,-0.5,0.96,1.12,103.17,103.71000000000001,0.0,0.02,3
1682106497.23908496,761973712,-0.5,-0.55,1.0,1.1,103.17,103.7,0.01,0.02,3
1682106497.33902192,762073649,-0.54,-0.41000000000000003,0.96,1.1500000000000001,103.17,103.65,0.01,0.03,3
1682106497.43903899,762173666,-0.55,-0.36,0.9500000000000001,1.1,103.17,103.58,0.0,0.02,3
1682106497.53919411,762273821,-0.6,-0.52,0.9,1.05,103.17,103.54,0.0,0.02,3
1682106497.63911104,762373738,-0.65,-0.5700000000000001,0.91,0.99,103.17,103.48,0.0,0.03,3
1682106497.73922491,762473852,-0.65,-0.64,0.93,0.87,103.17,103.39,0.0,0.02,3
1682106497.83940291,762574030,-0.66,-0.67,0.9500000000000001,1.03,103.17,103.37,0.0,0.03,3
1682106497.93925810,762673885,-0.58,-0.68,0.93,0.97,103.17,103.32000000000001,0.0,0.03,3
1682106498.03937292,762774000,-0.55,-0.5700000000000001,0.92,0.99,103.17,103.25,0.0,0.03,3
1682106498.13930798,762873935,-0.55,-0.56,0.9,1.01,103.17,103.22,0.0,0.03,3
1682106498.23934007,762973967,-0.55,-0.58,0.91,0.9400000000000001,103.17,103.18,0.0,0.03,3
1682106498.33928704,763073914,-0.65,-0.59,0.93,0.92,103.17,103.18,0.0,0.02,3
1682106498.43937397,763174001,-0.71,-0.78,0.98,1.02,103.17,103.17,0.01,0.03,3
1682106498.53931499,763273942,-0.76,-0.75,0.98,1.02,103.17,103.14,0.01,0.03,3
1682106498.63936496,763373992,-0.78,-0.71,1.01,1.05,103.17,103.13,0.01,0.04,3
1682106498.73939896,763474026,-0.76,-0.85,1.01,1.07,103.17,103.12,0.01,0.04,3
1682106498.83922291,763573850,-0.81,-0.84,1.06,0.9500000000000001,103.17,103.09,0.01,0.03,3
1682106498.93954492,763674172,-0.79,-0.71,1.06,1.07,103.17,103.05,0.01,0.03,3
1682106499.03942394,763774051,-0.8200000000000001,-0.53,1.06,1.09,103.17,103.04,0.01,0.03,3
1682106499.13934708,763873974,-0.9,-0.41000000000000003,1.1,1.01,103.17,103.0,0.01,0.03,3
1682106499.23935103,763973978,-0.9500000000000001,-0.6,1.1,0.96,103.17,102.93,0.01,0.03,3
1682106499.33974099,764074368,-1.12,-0.55,1.17,0.9400000000000001,103.17,102.84,0.01,0.03,3
1682106499.43934989,764173977,-1.22,-0.77,1.23,0.97,103.17,102.73,0.01,0.03,3
1682106499.53942204,764274049,-1.33,-0.98,1.25,0.97,103.17,102.61,0.01,0.03,3
1682106499.63938808,764374015,-1.43,-1.1500000000000001,1.29,1.1500000000000001,103.17,102.53,0.01,0.02,3
1682106499.73920989,764473837,-1.44,-1.4000000000000001,1.27,1.32,103.17,102.45,0.01,0.02,3
1682106499.83914709,764573774,-1.51,-1.29,1.26,1.43,103.17,102.43,0.01,0.02,3
1682106499.93912292,764673750,-1.75,-1.6600000000000001,1.32,1.44,103.17,102.48,0.01,0.02,3
1682106500.03902292,764773650,-2.24,-2.17,1.49,1.52,103.17,102.57000000000001,0.01,0.03,3
1682106500.13903904,764873666,-2.77,-2.85,1.55,1.62,103.17,102.68,0.01,0.02,3
1682106500.23912191,764973749,-3.38,-3.46,1.58,1.6400000000000001,103.17,102.83,0.01,0.02,3
1682106500.33910108,765073728,-4.39,-4.01,1.52,1.6400000000000001,103.17,103.04,0.01,0.01,3
1682106500.43943095,765174058,-5.18,-5.2,1.44,1.55,103.17,103.16,0.01,0.01,3
1682106500.53939295,765274020,-5.38,-6.22,1.41,1.24,103.17,103.34,0.01,0.03,3
1682106500.63934588,765373973,-5.14,-5.65,1.37,1.11,103.17,103.46000000000001,0.01,0.02,3
1682106500.73937106,765473998,-4.46,-4.51,1.3800000000000001,1.1300000000000001,103.17,103.57000000000001,0.01,0.03,3
1682106500.83931494,765573942,-3.61,-3.45,1.3900000000000001,1.05,103.17,103.62,0.01,0.04,3
1682106500.93934894,765673976,-2.79,-2.2800000000000002,1.42,1.25,103.17,103.60000000000001,0.01,0.05,3
1682106501.03931904,765773946,-1.93,-1.6,1.48,1.1400000000000001,103.17,103.56,0.01,0.05,3
1682106501.13935804,765873985,-1.07,-0.65,1.52,1.11,103.17,103.5,0.01,0.05,3
1682106501.23926401,765973891,-0.25,0.37,1.56,1.32,103.17,103.41,0.01,0.05,3
1682106501.33935189,766073979,0.56,1.12,1.61,1.35,103.17,103.33,0.01,0.05,3
1682106501.43932891,766173956,1.36,1.84,1.62,1.56,103.17,103.29,0.01,0.05,3
1682106501.53933692,766273964,2.13,2.52,1.61,1.55,103.17,103.2,0.01,0.04,3
1682106501.63938189,766374009,2.39,3.21,1.61,1.4000000000000001,103.17,103.10000000000001,0.01,0.03,3
1682106501.73909307,766473720,2.17,3.23,1.57,1.34,103.17,103.01,0.01,0.03,3
1682106501.83938789,766574015,1.68,2.35,1.54,1.28,103.17,102.86,0.01,0.02,3
1682106501.93933606,766673963,1.04,1.55,1.49,1.37,103.17,102.79,0.01,0.02,3
1682106502.03941894,766774046,0.32,0.68,1.43,1.61,103.17,102.71000000000001,0.01,0.03,3
1682106502.13934588,766873973,-0.43,-0.48,1.41,1.68,103.17,102.57000000000001,0.01,0.04,3
1682106502.23942399,766974051,-1.08,-1.32,1.3900000000000001,1.3900000000000001,103.17,102.49000000000001,0.02,0.05,3
1682106502.33939910,767074026,-1.5,-2.25,1.34,1.45,103.17,102.4,0.02,0.04,3
1682106502.43938804,767174015,-1.69,-2.12,1.34,1.32,103.17,102.3,0.02,0.04,3
1682106502.53961897,767274246,-1.67,-2.05,1.34,1.47,103.17,102.21000000000001,0.02,0.04,3
1682106502.63908792,767373715,-1.54,-1.46,1.33,1.5,103.17,102.14,0.01,0.04,3
1682106502.73898292,767473610,-1.41,-1.09,1.33,1.58,103.17,102.0,0.01,0.04,3
1682106502.83905506,767573682,-1.32,-0.9400000000000001,1.3,1.7,103.17,101.92,0.01,0.04,3
1682106502.93921494,767673842,-1.36,-0.86,1.27,1.57,103.17,101.88,0.01,0.03,3
1682106503.03908896,767773716,-1.46,-0.74,1.27,1.46,103.17,101.79,0.01,0.03,3
1682106503.13911796,767873745,-1.53,-1.04,1.27,1.27,103.17,101.74000000000001,0.01,0.03,3
1682106503.23922110,767973848,-1.54,-1.34,1.3,1.09,103.17,101.73,0.01,0.03,3
1682106503.33922505,768073852,-1.61,-1.28,1.42,1.08,103.17,101.78,0.01,0.03,3
1682106503.43940592,768174033,-1.58,-1.54,1.5,1.27,103.17,101.78,0.01,0.03,3
1682106503.53911400,768273741,-1.52,-1.53,1.6,1.29,103.17,101.82000000000001,0.01,0.02,3
1682106503.63933301,768373960,-1.44,-1.55,1.6300000000000001,1.49,103.17,101.93,0.01,0.02,3
1682106503.73929405,768473921,-1.31,-1.56,1.6400000000000001,1.61,103.17,102.02,0.01,0.01,3
1682106503.83942699,768574054,-1.26,-1.06,1.6500000000000001,1.6400000000000001,103.17,102.05,0.01,0.01,3
1682106503.93940902,768674036,-1.17,-1.12,1.6300000000000001,1.67,103.17,102.11,0.01,0.02,3
1682106504.03944111,768774068,-1.22,-1.1300000000000001,1.61,1.61,103.17,102.18,0.0,0.02,3
1682106504.13940096,768874028,-1.23,-1.17,1.62,1.55,103.17,102.23,0.0,0.02,3
1682106504.23940492,768974032,-1.25,-1.28,1.6,1.54,103.17,102.3,0.0,0.02,3
1682106504.33962703,769074254,-1.31,-1.44,1.58,1.43,103.17,102.39,0.0,0.01,3
1682106504.43944097,769174068,-1.36,-1.45,1.31,1.44,103.17,102.45,0.0,0.01,3
1682106504.53937387,769274001,-1.3800000000000001,-1.43,1.09,1.05,103.17,102.55,0.0,0.01,3
1682106504.63934803,769373975,-1.3800000000000001,-1.79,1.01,0.86,103.17,102.58,0.01,0.01,3
1682106504.73912907,769473756,-1.4000000000000001,-1.53,0.98,0.97,103.17,102.66,0.01,0.02,3
1682106504.83909893,769573726,-1.41,-1.59,1.01,1.01,103.17,102.71000000000001,0.01,0.02,3
1682106504.93924904,769673876,-1.3900000000000001,-1.44,1.11,1.08,103.17,102.77,0.01,0.02,3
1682106505.03920889,769773836,-1.31,-1.51,1.21,1.22,103.17,102.82000000000001,0.01,0.03,3
1682106505.13920593,769873833,-1.26,-1.2,1.28,1.44,103.17,102.87,0.01,0.02,3
1682106505.23951888,769974146,-1.34,-1.25,1.34,1.48,103.17,102.91,0.01,0.02,3
1682106505.33942795,770074055,-1.6300000000000001,-1.35,1.36,1.49,103.17,102.94,0.01,0.03,3
1682106505.43935704,770173984,-1.93,-1.78,1.36,1.48,103.17,103.01,0.01,0.03,3
1682106505.53933001,770273957,-2.23,-2.18,1.32,1.41,103.17,103.07000000000001,0.01,0.03,3
1682106505.63910294,770373730,-3.15,-2.66,1.31,1.3800000000000001,103.17,103.12,0.01,0.02,3
1682106505.73909497,770473722,-3.84,-3.74,1.31,1.28,103.17,103.18,0.01,0.02,3
1682106505.83919907,770573826,-4.22,-4.73,1.33,1.28,103.17,103.18,0.01,0.03,3
1682106505.93922997,770673857,-4.48,-4.65,1.32,1.34,103.17,103.28,0.01,0.02,3
1682106506.03922606,770773853,-4.3100000000000005,-4.68,1.32,1.37,103.17,103.26,0.01,0.02,3
1682106506.13916802,770873795,-3.77,-4.25,1.33,1.27,103.17,103.25,0.01,0.03,3
1682106506.23908806,770973715,-3.06,-3.4,1.33,1.29,103.17,103.26,0.02,0.04,3
1682106506.33937693,771074004,-2.3000000000000003,-2.46,1.33,1.36,103.17,103.2,0.02,0.03,3
1682106506.43932199,771173949,-1.45,-1.42,1.35,1.22,103.17,103.15,0.03,0.03,3
1682106506.53937006,771273997,-0.63,-0.68,1.3800000000000001,1.2,103.17,103.07000000000001,0.03,0.03,3
1682106506.63926196,771373889,0.17,0.39,1.41,1.25,103.17,102.99000000000001,0.03,0.03,3
1682106506.73936200,771473989,0.98,1.33,1.49,1.28,103.17,102.94,0.03,0.04,3
1682106506.83933592,771573963,1.78,2.07,1.57,1.3800000000000001,103.17,102.84,0.03,0.04,3
1682106506.93938994,771674017,2.21,2.68,1.6500000000000001,1.55,103.17,102.77,0.03,0.05,3
1682106507.03934908,771773976,2.1,2.99,1.7,1.71,103.17,102.73,0.03,0.04,3
1682106507.13956690,771874194,1.6600000000000001,2.4,1.74,1.79,103.17,102.61,0.03,0.04,3
1682106507.23962188,771974249,1.04,1.61,1.76,1.76,103.17,102.53,0.03,0.03,3
1682106507.33952403,772074151,0.34,0.52,1.72,1.84,103.17,102.52,0.03,0.03,3
1682106507.43911695,772173744,-0.37,-0.54,1.7,1.87,103.17,102.5,0.03,0.04,3
1682106507.53908801,772273715,-0.96,-1.17,1.67,1.69,103.17,102.51,0.03,0.04,3
1682106507.63912392,772373751,-1.35,-1.77,1.62,1.62,103.17,102.56,0.02,0.04,3
1682106507.73921800,772473845,-1.53,-2.04,1.6300000000000001,1.6,103.17,102.65,0.02,0.03,3
1682106507.83924389,772573871,-1.52,-1.8900000000000001,1.6600000000000001,1.6600000000000001,103.17,102.76,0.02,0.03,3
1682106507.93921995,772673847,-1.42,-1.6,1.7,1.74,103.17,102.9,0.02,0.03,3
1682106508.03944898,772774076,-1.3,-1.45,1.74,1.85,103.17,103.02,0.02,0.03,3
1682106508.13936210,772873989,-1.17,-1.36,1.76,1.76,103.17,103.21000000000001,0.02,0.03,3
1682106508.23935294,772973980,-1.06,-1.28,1.77,1.71,103.17,103.41,0.02,0.02,3
1682106508.33937693,773074004,-0.9500000000000001,-0.9400000000000001,1.77,1.67,103.17,103.62,0.02,0.03,3
1682106508.43932009,773173947,-0.89,-0.98,1.77,1.67,103.17,103.8,0.01,0.04,3
1682106508.53934598,773273973,-0.85,-0.9,1.82,1.6600000000000001,103.17,103.94,0.01,0.03,3
1682106508.63934994,773373977,-0.85,-0.8300000000000001,1.86,1.7,103.17,104.08,0.01,0.03,3
1682106508.73935604,773473983,-0.87,-0.99,1.87,1.85,103.17,104.13,0.01,0.04,3
1682106508.83936596,773573993,-0.88,-0.99,1.9000000000000001,1.92,103.17,104.16,0.01,0.03,3
1682106508.93939996,773674027,-0.88,-1.1300000000000001,1.8900000000000001,1.96,103.17,104.09,0.01,0.03,3
1682106509.03937387,773774001,-0.85,-1.42,1.87,1.9000000000000001,103.17,104.04,0.01,0.03,3
1682106509.13934207,773873969,-0.87,-1.34,1.83,1.86,103.17,103.96000000000001,0.01,0.03,3
1682106509.23944092,773974068,-0.85,-1.3,1.73,1.83,103.17,103.89,0.01,0.02,3
1682106509.33940101,774074028,-0.84,-1.16,1.67,1.67,103.17,103.81,0.01,0.02,3
1682106509.43946195,774174089,-0.8200000000000001,-0.8,1.6,1.56,103.17,103.77,0.01,0.02,3
1682106509.53941607,774274043,-0.84,-0.7000000000000001,1.54,1.59,103.17,103.73,0.01,0.02,3
1682106509.63941598,774374043,-0.37,-0.77,1.11,1.5,103.18,103.7,0.01,0.02,3
1682106509.73943305,774474060,1.32,0.05,-0.05,0.8300000000000001,103.17,103.69,0.01,0.02,3
1682106509.83943009,774574057,2.32,2.4,-0.29,-0.93,103.16,103.71000000000001,0.01,0.03,3
1682106509.93942094,774674048,2.48,3.63,0.7000000000000001,-0.88,103.2,103.77,0.01,0.02,3
1682106510.03935003,774773977,1.8800000000000001,2.85,1.33,1.28,103.23,103.91,0.02,0.04,3
1682106510.13970709,774874334,0.49,1.37,1.2,2.3000000000000003,103.23,103.88,0.02,0.04,3
1682106510.23937607,774974003,0.01,-0.28,0.38,1.35,103.23,103.83,0.03,0.04,3
1682106510.33922696,775073854,0.26,-0.93,-0.37,-0.29,103.22,103.83,0.03,0.05,3
1682106510.43922710,775173854,0.54,-0.08,-0.3,-1.09,103.22,103.85000000000001,0.02,0.05,3
1682106510.53923988,775273867,1.0,0.8200000000000001,0.17,-0.55,103.23,103.83,0.02,0.04,3
1682106510.63917303,775373800,0.76,1.26,0.37,0.44,103.24000000000001,103.81,0.02,0.04,3
1682106510.73911190,775473739,0.05,0.76,0.29,0.64,103.23,103.77,0.02,0.04,3
1682106510.83901811,775573645,-0.47000000000000003,-0.54,0.07,0.36,103.24000000000001,103.74000000000001,0.02,0.04,3
1682106510.93913102,775673758,-0.89,-1.1,0.02,0.15,103.24000000000001,103.72,0.02,0.05,3
1682106511.03942299,775774050,-1.0,-1.34,0.03,0.15,103.24000000000001,103.71000000000001,0.03,0.04,3
1682106511.13938904,775874016,-0.93,-1.41,0.04,0.17,103.24000000000001,103.71000000000001,0.03,0.03,3
1682106511.23913097,775973758,-0.9400000000000001,-1.1500000000000001,0.06,0.24,103.24000000000001,103.74000000000001,0.03,0.03,3
1682106511.33937097,776073998,-0.8200000000000001,-1.16,0.2,0.29,103.23,103.74000000000001,0.03,0.02,3
1682106511.43943191,776174059,-0.96,-1.18,0.23,0.44,103.23,103.74000000000001,0.04,0.02,3
1682106511.53953195,776274159,-0.91,-1.34,0.38,0.48,103.23,103.72,0.04,0.02,3
1682106511.63941789,776374045,-0.8200000000000001,-1.34,0.45,0.46,103.23,103.66,0.04,0.02,3
1682106511.73941398,776474041,-0.79,-1.23,0.49,0.54,103.23,103.61,0.04,0.02,3
1682106511.83936596,776573993,-0.6900000000000001,-1.18,0.66,0.56,103.23,103.5,0.04,0.02,3
1682106511.93978190,776674409,-0.76,-1.1,1.0,0.84,103.22,103.32000000000001,0.04,0.01,3
1682106512.03912401,776773751,-0.8200000000000001,-1.1300000000000001,1.41,1.34,103.22,103.17,0.03,0.01,3
1682106512.13924694,776873874,-0.84,-1.02,1.84,1.76,103.21000000000001,102.92,0.03,0.01,3
1682106512.23924088,776973868,-0.97,-0.98,2.16,2.21,103.21000000000001,102.74000000000001,0.03,0.01,3
1682106512.33922911,777073856,-0.9,-1.18,2.38,2.33,103.2,102.54,0.03,0.01,3
1682106512.43918991,777173817,-1.04,-1.18,2.49,2.44,103.2,102.34,0.03,0.02,3
1682106512.53910804,777273735,-1.08,-1.1,2.54,2.4,103.2,102.21000000000001,0.03,0.01,3
1682106512.63902593,777373653,-1.11,-1.0,2.56,2.39,103.2,102.04,0.03,0.02,3
1682106512.73907089,777473698,-1.1500000000000001,-0.97,2.56,2.45,103.2,101.86,0.03,0.03,3
1682106512.83944607,777574073,-1.17,-0.91,2.5500000000000003,2.34,103.2,101.78,0.03,0.03,3
1682106512.93945599,777674083,-1.1,-1.08,2.4,2.38,103.2,101.64,0.03,0.04,3
1682106513.03942800,777774055,-1.06,-1.32,2.2800000000000002,2.44,103.2,101.61,0.03,0.04,3
1682106513.13940597,777874033,-1.01,-1.25,2.2,2.27,103.21000000000001,101.63,0.03,0.04,3
1682106513.23921800,777973845,-0.93,-1.48,2.1,2.29,103.21000000000001,101.75,0.03,0.04,3
1682106513.33915305,778073780,-0.49,-1.26,1.17,1.97,103.21000000000001,101.91,0.03,0.05,3
1682106513.43907189,778173699,-0.25,-0.52,0.59,0.52,103.21000000000001,102.07000000000001,0.02,0.04,3
1682106513.53897595,778273603,-0.13,-0.26,0.3,-0.33,103.21000000000001,102.16,0.02,0.04,3
1682106513.63913989,778373767,-0.06,-0.02,0.15,-0.04,103.21000000000001,102.28,0.03,0.03,3
1682106513.73942900,778474056,-0.03,-0.04,0.07,0.02,103.21000000000001,102.41,0.03,0.03,3
1682106513.83936501,778573992,-0.01,0.1,0.04,0.01,103.21000000000001,102.49000000000001,0.03,0.03,3
1682106513.93945193,778674079,0.0,0.02,0.02,0.15,103.21000000000001,102.58,0.03,0.03,3
1682106514.03939390,778774021,0.0,0.14,0.01,0.01,103.21000000000001,102.64,0.02,0.04,3
1682106514.13918805,778873815,0.0,0.0,0.0,0.06,103.21000000000001,102.77,0.02,0.04,3
1682106514.23933601,778973963,0.0,0.19,0.0,0.09,103.21000000000001,102.86,0.02,0.04,3
1682106514.33929801,779073925,0.0,-0.03,0.0,0.06,103.21000000000001,102.99000000000001,0.02,0.04,3
1682106514.43923497,779173862,0.0,0.07,0.0,0.07,103.21000000000001,103.08,0.02,0.03,3
1682106514.53928590,779273913,0.0,-0.06,0.26,0.11,103.21000000000001,103.21000000000001,0.02,0.03,3
1682106514.63936210,779373989,0.0,-0.3,1.04,0.44,103.21000000000001,103.32000000000001,0.02,0.03,3
1682106514.73927402,779473901,0.0,-0.3,1.85,1.6500000000000001,103.21000000000001,103.4,0.02,0.02,3
1682106514.83933711,779573964,0.0,-0.32,2.99,2.6,103.21000000000001,103.47,0.02,0.02,3
1682106514.93942308,779674050,0.0,-0.28,3.5700000000000003,3.83,103.21000000000001,103.48,0.02,0.03,3
1682106515.03914809,779773775,0.0,-0.02,3.34,4.32,103.2,103.53,0.02,0.03,3
