timestamp,TimeUS,I,Status,GMS,GWk,NSats,HDop,Lat,Lng,Alt,Spd,GCrs,VZ,Yaw,U
1682106445.79900002,710533627,0,3,503263799,2258,16,0.7000000000000001,42.690002,-84.48886759999999,271.02,0.019235385581851006,117.89725494384766,-0.02800000086426735,0.0,1
1682106445.97883987,710713467,0,3,503263999,2258,16,0.7000000000000001,42.690002,-84.48886759999999,271.02,0.03413209691643715,174.95753479003906,-0.07500000298023224,0.0,1
1682106446.17890596,710913533,0,3,503264199,2258,16,0.7000000000000001,42.6900021,-84.48886759999999,271.02,0.00984885822981596,113.96247863769531,-0.01900000125169754,0.0,1
1682106446.37934089,711113968,0,3,503264399,2258,16,0.7000000000000001,42.6900021,-84.4888677,271.02,0.019723083823919296,149.53443908691406,-0.014000000432133675,0.0,1
1682106446.57876801,711313395,0,3,503264599,2258,16,0.7000000000000001,42.6900021,-84.4888677,271.02,0.02828427217900753,135.0,-0.020000001415610313,0.0,1
1682106446.77926803,711513895,0,3,503264799,2258,16,0.7000000000000001,42.6900021,-84.4888677,271.01,0.012165524996817112,80.53767395019531,-0.024000000208616257,0.0,1
1682106446.97923398,711713861,0,3,503264999,2258,16,0.7000000000000001,42.690002199999995,-84.4888677,271.0,0.028160257264971733,106.50435638427734,-0.052000001072883606,0.0,1
1682106447.17927694,711913904,0,3,503265199,2258,16,0.7000000000000001,42.690002199999995,-84.4888677,271.01,0.012165524996817112,170.5376739501953,-0.01100000087171793,0.0,1
1682106447.37870407,712113331,0,3,503265399,2258,16,0.7000000000000001,42.690002199999995,-84.4888677,271.01,0.030413813889026642,62.59242248535156,-0.04500000178813934,0.0,1
1682106447.57877898,712313406,0,3,503265599,2258,16,0.7000000000000001,42.690002299999996,-84.4888677,271.0,0.015264337882399559,121.60749816894531,-0.04100000113248825,0.0,1
1682106447.77884793,712513475,0,3,503265799,2258,16,0.7000000000000001,42.690002299999996,-84.4888678,271.01,0.01004987582564354,185.71060180664062,-0.046000003814697266,0.0,1
1682106447.97891498,712713542,0,3,503265999,2258,16,0.7000000000000001,42.690002299999996,-84.4888678,271.0,0.012041594833135605,228.36647033691406,-0.049000002443790436,0.0,1
1682106448.17932796,712913955,0,3,503266199,2258,16,0.7000000000000001,42.690002299999996,-84.4888679,271.0,0.00806225836277008,172.87496948242188,-0.05100000277161598,0.0,1
1682106448.37876797,713113395,0,3,503266399,2258,16,0.7000000000000001,42.690002299999996,-84.4888679,270.99,0.04570557922124863,169.9193878173828,-0.003000000026077032,0.0,1
1682106448.57941604,713314043,0,3,503266599,2258,16,0.7000000000000001,42.690002199999995,-84.4888679,270.99,0.025495097041130066,191.3099365234375,0.0430000014603138,0.0,1
1682106448.77929091,713513918,0,3,503266799,2258,16,0.7000000000000001,42.690002199999995,-84.488868,270.98,0.06281720101833344,193.81503295898438,0.009000000543892384,0.0,1
1682106448.97933006,713713957,0,3,503266999,2258,16,0.7000000000000001,42.6900021,-84.488868,270.97,0.018000001087784767,90.0,-0.04500000178813934,0.0,1
1682106449.17930198,713913929,0,3,503267199,2258,16,0.7000000000000001,42.6900021,-84.48886809999999,270.96,0.023021729663014412,145.61965942382812,-0.02500000037252903,0.0,1
1682106449.37934399,714113971,0,3,503267399,2258,16,0.7000000000000001,42.6900021,-84.48886809999999,270.96,0.02846050076186657,198.43495178222656,-0.06800000369548798,0.0,1
1682106449.57983494,714314462,0,3,503267599,2258,16,0.7000000000000001,42.6900021,-84.4888682,270.96,0.022360682487487793,280.30487060546875,-0.00800000037997961,0.0,1
1682106449.77891302,714513540,0,3,503267799,2258,16,0.7000000000000001,42.6900021,-84.4888682,270.95,0.02408318966627121,138.366455078125,-0.04500000178813934,0.0,1
1682106449.97876906,714713396,0,3,503267999,2258,16,0.7000000000000001,42.690002,-84.4888682,270.95,0.02088061533868313,73.30075073242188,0.03200000151991844,0.0,1
1682106450.17879605,714913423,0,3,503268199,2258,16,0.7000000000000001,42.690002,-84.4888683,270.95,0.033941127359867096,225.0,-0.08800000697374344,0.0,1
1682106450.37888789,715113515,0,3,503268399,2258,16,0.7000000000000001,42.690002,-84.4888684,271.0,0.08221922069787979,161.56504821777344,-0.9150000214576721,0.0,1
1682106450.57885909,715313486,0,3,503268599,2258,16,0.7000000000000001,42.6900019,-84.4888682,271.17,0.08955445885658264,113.70263671875,-0.7280000448226929,0.0,1
1682106450.77885509,715513482,0,3,503268799,2258,16,0.7000000000000001,42.6900018,-84.488868,271.29,0.11399123817682266,97.56141662597656,-0.46700000762939453,0.0,1
1682106450.99899197,715733619,0,3,503268999,2258,16,0.7000000000000001,42.6900019,-84.48886759999999,271.37,0.245943084359169,75.39871978759766,-0.3790000081062317,0.0,1
1682106451.17879391,715913421,0,3,503269199,2258,16,0.7000000000000001,42.6900021,-84.48886689999999,271.45,0.32801374793052673,61.403480529785156,-0.37800002098083496,0.0,1
1682106451.37884903,716113476,0,3,503269399,2258,16,0.7000000000000001,42.6900024,-84.4888663,271.47,0.285842627286911,46.984703063964844,-0.16200000047683716,0.0,1
1682106451.57890511,716313532,0,3,503269599,2258,16,0.7000000000000001,42.6900026,-84.48886569999999,271.51,0.305059015750885,91.1269760131836,-0.36900001764297485,0.0,1
1682106451.77930903,716513936,0,3,503269799,2258,16,0.7000000000000001,42.6900027,-84.4888649,271.59000000000003,0.417757123708725,60.61235809326172,-0.5,0.0,1
1682106451.99911189,716733739,0,3,503269999,2258,17,0.7000000000000001,42.690003,-84.4888641,271.66,0.325897216796875,68.39446258544922,-0.46700000762939453,0.0,1
1682106452.17934704,716913974,0,3,503270199,2258,17,0.64,42.6900031,-84.4888632,271.77,0.4662359952926636,99.38150024414062,-0.5550000071525574,0.0,1
1682106452.37931609,717113943,0,3,503270399,2258,17,0.64,42.690003,-84.4888622,271.89,0.3624362051486969,100.81387329101562,-0.703000009059906,0.0,1
1682106452.57929492,717313922,0,3,503270599,2258,17,0.64,42.690002799999995,-84.4888613,272.03000000000003,0.41015729308128357,108.03736877441406,-0.6960000395774841,0.0,1
1682106452.77932000,717513947,0,3,503270799,2258,17,0.64,42.6900027,-84.4888601,272.18,0.535785436630249,86.89728546142578,-0.7710000276565552,0.0,1
1682106452.97929597,717713923,0,3,503270999,2258,17,0.64,42.6900027,-84.4888589,272.34000000000003,0.39008206129074097,91.17512512207031,-0.737000048160553,0.0,1
1682106453.17932105,717913948,0,3,503271199,2258,16,0.7000000000000001,42.6900025,-84.488858,272.45,0.4969235360622406,111.60870361328125,-0.6290000081062317,0.0,1
1682106453.37983608,718114463,0,3,503271399,2258,16,0.7000000000000001,42.6900024,-84.4888569,272.59000000000003,0.4178241491317749,84.64417266845703,-0.7520000338554382,0.0,1
1682106453.57946205,718314089,0,3,503271599,2258,16,0.7000000000000001,42.6900025,-84.48885589999999,272.75,0.3757406175136566,76.92536926269531,-0.8170000314712524,0.0,1
1682106453.77875710,718513384,0,3,503271799,2258,16,0.7000000000000001,42.6900025,-84.4888552,272.87,0.26280030608177185,100.96786499023438,-0.5900000333786011,0.0,1
1682106453.97888088,718713508,0,3,503271999,2258,17,0.7000000000000001,42.690002299999996,-84.4888545,273.0,0.2815386652946472,112.55723571777344,-0.5550000071525574,0.0,1
1682106454.17886400,718913491,0,3,503272199,2258,17,0.64,42.690002299999996,-84.48885369999999,273.08,0.43272626399993896,79.88462829589844,-0.31200000643730164,0.0,1
1682106454.37934804,719113975,0,3,503272399,2258,17,0.64,42.690002299999996,-84.4888527,273.09000000000003,0.3851870000362396,88.21472930908203,-0.05000000074505806,0.0,1
1682106454.57873392,719313361,0,3,503272599,2258,17,0.64,42.6900024,-84.4888517,273.11,0.4746461808681488,75.72953033447266,-0.0010000000474974513,0.0,1
1682106454.77881694,719513444,0,3,503272799,2258,17,0.64,42.6900024,-84.48885059999999,273.09000000000003,0.45411011576652527,108.75413513183594,0.018000001087784767,0.0,1
1682106454.97884297,719713470,0,3,503272999,2258,17,0.64,42.690002199999995,-84.4888497,273.08,0.3714969754219055,83.35322570800781,0.1290000081062317,0.0,1
1682106455.17893195,719913559,0,3,503273199,2258,17,0.64,42.690002299999996,-84.48884869999999,273.06,0.3832140564918518,80.53767395019531,-0.014000000432133675,0.0,1
1682106455.37938595,720114013,0,3,503273399,2258,17,0.64,42.690002199999995,-84.4888479,273.04,0.36362895369529724,105.1445541381836,0.09600000083446503,0.0,1
1682106455.57876706,720313394,0,3,503273599,2258,17,0.64,42.6900021,-84.4888471,273.04,0.3084493577480316,81.42330169677734,-0.08900000154972076,0.0,1
1682106455.77971792,720514345,0,3,503273799,2258,17,0.64,42.690002199999995,-84.4888464,273.05,0.26360008120536804,83.68380737304688,-0.16200000047683716,0.0,1
1682106455.99884605,720733473,0,3,503273999,2258,17,0.64,42.6900021,-84.48884579999999,273.07,0.26400190591812134,89.78296661376953,-0.26600000262260437,0.0,1
1682106456.17934394,720913971,0,3,503274199,2258,17,0.64,42.6900021,-84.4888452,273.12,0.27322152256965637,87.692626953125,-0.28300002217292786,0.0,1
1682106456.37935090,721113978,0,3,503274399,2258,17,0.64,42.6900021,-84.48884439999999,273.17,0.375161349773407,91.68019104003906,-0.28300002217292786,0.0,1
1682106456.57931304,721313940,0,3,503274599,2258,17,0.64,42.6900019,-84.4888436,273.21,0.3187883794307709,109.23066711425781,-0.1120000034570694,0.0,1
1682106456.77932692,721513954,0,3,503274799,2258,17,0.64,42.690001699999996,-84.4888429,273.22,0.2845083475112915,93.42558288574219,-0.16300000250339508,0.0,1
1682106456.97935200,721713979,0,3,503274999,2258,17,0.64,42.690001599999995,-84.4888423,273.26,0.2666608393192291,111.56200408935547,-0.18200001120567322,0.0,1
1682106457.17970896,721914336,0,3,503275199,2258,17,0.64,42.6900015,-84.4888416,273.3,0.335538387298584,93.24612426757812,-0.1850000023841858,0.0,1
1682106457.37876511,722113392,0,3,503275399,2258,17,0.64,42.6900013,-84.48884079999999,273.34000000000003,0.3004213869571686,119.29541015625,-0.07800000160932541,0.0,1
1682106457.57887101,722313498,0,3,503275599,2258,17,0.64,42.690000999999995,-84.4888402,273.35,0.3024979531764984,105.13882446289062,-0.12000000476837158,0.0,1
1682106457.77887988,722513507,0,3,503275799,2258,17,0.64,42.6900008,-84.4888395,273.38,0.2770000100135803,114.529541015625,-0.13600000739097595,0.0,1
1682106457.97886610,722713493,0,3,503275999,2258,17,0.64,42.6900006,-84.48883889999999,273.39,0.28623244166374207,121.13539123535156,-0.05000000074505806,0.0,1
1682106458.17873311,722913360,0,3,503276199,2258,17,0.64,42.6900003,-84.4888383,273.40000000000003,0.29637813568115234,121.75948333740234,-0.0860000029206276,0.0,1
1682106458.37878489,723113412,0,3,503276399,2258,17,0.64,42.69,-84.4888378,273.42,0.18450474739074707,130.1634063720703,-0.06300000101327896,0.0,1
1682106458.57885909,723313486,0,3,503276599,2258,17,0.64,42.689999799999995,-84.4888375,273.43,0.1624315232038498,127.99871826171875,0.009000000543892384,0.0,1
1682106458.77890992,723513537,0,3,503276799,2258,17,0.64,42.6899996,-84.48883719999999,273.41,0.182496577501297,109.52710723876953,0.005000000353902578,0.0,1
1682106458.97876906,723713396,0,3,503276999,2258,17,0.64,42.6899995,-84.4888369,273.39,0.11211155354976654,92.55614471435547,0.09000000357627869,0.0,1
1682106459.17933393,723913961,0,3,503277199,2258,17,0.64,42.6899995,-84.4888367,273.36,0.14494137465953827,50.599334716796875,0.0560000017285347,0.0,1
1682106459.37909794,724113725,0,3,503277399,2258,17,0.64,42.6899996,-84.4888364,273.38,0.04464302957057953,74.40718841552734,0.14600001275539398,0.0,1
1682106459.57931709,724313944,0,3,503277599,2258,17,0.64,42.6899996,-84.4888363,273.35,0.10989541560411453,74.69915008544922,0.018000001087784767,0.0,1
1682106459.77932501,724513952,0,3,503277799,2258,17,0.64,42.6899996,-84.48883599999999,273.35,0.10358572006225586,83.90413665771484,0.05000000074505806,0.0,1
1682106459.97959399,724714221,0,3,503277999,2258,17,0.64,42.6899996,-84.4888357,273.34000000000003,0.1508144587278366,101.0864028930664,0.02500000037252903,0.0,1
1682106460.17931008,724913937,0,3,503278199,2258,17,0.64,42.6899995,-84.48883529999999,273.35,0.15791770815849304,96.17991638183594,-0.005000000353902578,0.0,1
1682106460.37929702,725113924,0,3,503278399,2258,17,0.64,42.6899994,-84.4888349,273.37,0.22203153371810913,102.22090911865234,-0.10200000554323196,0.0,1
1682106460.57937098,725313998,0,3,503278599,2258,17,0.64,42.6899993,-84.4888343,273.39,0.2692953944206238,98.97261810302734,-0.30300000309944153,0.0,1
1682106460.77937698,725514004,0,3,503278799,2258,17,0.64,42.689999199999995,-84.4888337,273.44,0.22707930207252502,88.48592376708984,-0.2770000100135803,0.0,1
1682106460.98057890,725715206,0,3,503278999,2258,17,0.64,42.689999199999995,-84.4888332,273.5,0.23182106018066406,97.18631744384766,-0.2850000262260437,0.0,1
1682106461.17888689,725913514,0,3,503279199,2258,17,0.64,42.6899991,-84.4888325,273.55,0.3443733751773834,108.27710723876953,-0.3530000150203705,0.0,1
1682106461.37891793,726113545,0,3,503279399,2258,17,0.64,42.6899989,-84.4888318,273.59000000000003,0.3235861659049988,95.67535400390625,-0.2160000056028366,0.0,1
1682106461.57887506,726313502,0,3,503279599,2258,17,0.64,42.6899988,-84.4888311,273.66,0.2410000115633011,119.8628158569336,-0.2800000011920929,0.0,1
1682106461.77874994,726513377,0,3,503279799,2258,17,0.64,42.6899985,-84.4888304,273.68,0.39761289954185486,113.72837829589844,-0.16900001466274261,0.0,1
1682106461.99903202,726733659,0,3,503279999,2258,17,0.64,42.6899982,-84.4888297,273.73,0.2775103747844696,121.74275970458984,-0.1380000114440918,0.0,1
1682106462.17995310,726914580,0,3,503280199,2258,17,0.64,42.6899978,-84.4888289,273.71,0.4794006943702698,120.0413589477539,-0.11700000613927841,0.0,1
1682106462.37892795,727113555,0,3,503280399,2258,17,0.64,42.6899975,-84.48882789999999,273.75,0.38662129640579224,103.46113586425781,-0.0950000062584877,0.0,1
1682106462.57876110,727313388,0,3,503280599,2258,17,0.64,42.689997399999996,-84.4888271,273.74,0.35305097699165344,96.17888641357422,0.020000001415610313,0.0,1
1682106462.77991295,727514540,0,3,503280799,2258,17,0.64,42.689997399999996,-84.4888261,273.76,0.3970617353916168,88.9898452758789,-0.11400000751018524,0.0,1
1682106462.98003197,727714659,0,3,503280999,2258,17,0.64,42.6899975,-84.4888251,273.75,0.46777987480163574,67.76643371582031,-0.09800000488758087,0.0,1
1682106463.17911005,727913737,0,3,503281199,2258,17,0.64,42.6899978,-84.4888241,273.76,0.43094781041145325,66.76649475097656,0.02800000086426735,0.0,1
1682106463.38037896,728115006,0,3,503281399,2258,17,0.64,42.6899978,-84.4888232,273.76,0.3767240345478058,107.13626861572266,0.046000003814697266,0.0,1
1682106463.57988310,728314510,0,3,503281599,2258,17,0.64,42.6899977,-84.4888223,273.76,0.41405922174453735,89.03131866455078,-0.06200000271201134,0.0,1
1682106463.77990603,728514533,0,3,503281799,2258,17,0.64,42.6899976,-84.4888211,273.74,0.555598795413971,110.32670593261719,0.15000000596046448,0.0,1
1682106463.98003292,728714660,0,3,503281999,2258,17,0.64,42.689997299999995,-84.4888199,273.73,0.4720381498336792,90.72828674316406,0.07100000232458115,0.0,1
1682106464.17893696,728913564,0,3,503282199,2258,17,0.64,42.6899971,-84.48881899999999,273.69,0.4130436182022095,126.03756713867188,0.15200001001358032,0.0,1
1682106464.37877798,729113405,0,3,503282399,2258,17,0.64,42.689996699999995,-84.48881829999999,273.67,0.3036000728607178,126.8321533203125,0.09100000560283661,0.0,1
1682106464.57875800,729313385,0,3,503282599,2258,17,0.64,42.6899964,-84.48881779999999,273.64,0.2328454554080963,125.73789978027344,0.05700000375509262,0.0,1
1682106464.78004694,729514674,0,3,503282799,2258,17,0.64,42.689996099999995,-84.4888174,273.63,0.18485942482948303,138.2892303466797,0.013000000268220901,0.0,1
1682106464.97886205,729713489,0,3,503282999,2258,17,0.64,42.6899959,-84.48881709999999,273.62,0.1826307773590088,137.66299438476562,0.09400000423192978,0.0,1
1682106465.17885804,729913485,0,3,503283199,2258,17,0.64,42.6899957,-84.4888168,273.6,0.18195879459381104,137.895751953125,-0.026000000536441803,0.0,1
1682106465.37872696,730113354,0,3,503283399,2258,17,0.64,42.6899954,-84.4888165,273.59000000000003,0.1845887452363968,136.0974884033203,0.0,0.0,1
1682106465.57883191,730313459,0,3,503283599,2258,17,0.64,42.6899952,-84.4888162,273.6,0.16780048608779907,142.99351501464844,0.049000002443790436,0.0,1
1682106465.78002596,730514653,0,3,503283799,2258,16,0.64,42.689994899999995,-84.48881589999999,273.6,0.19117532670497894,132.03175354003906,-0.08500000089406967,0.0,1
1682106465.97919798,730713825,0,3,503283999,2258,16,0.64,42.6899947,-84.4888156,273.62,0.13720059394836426,126.70284271240234,-0.018000001087784767,0.0,1
1682106466.18000793,730914635,0,3,503284199,2258,16,0.7000000000000001,42.6899945,-84.4888154,273.62,0.17572706937789917,138.69137573242188,-0.06100000441074371,0.0,1
1682106466.37988400,731114511,0,3,503284399,2258,16,0.7000000000000001,42.689994299999995,-84.48881519999999,273.62,0.10016985982656479,148.05523681640625,-0.0860000029206276,0.0,1
1682106466.58003306,731314660,0,3,503284599,2258,16,0.7000000000000001,42.6899942,-84.488815,273.64,0.08236504346132278,150.94540405273438,-0.1810000091791153,0.0,1
1682106466.77925992,731513887,0,3,503284799,2258,16,0.7000000000000001,42.689994,-84.488815,273.67,0.10989540815353394,164.6991424560547,-0.17000000178813934,0.0,1
1682106466.97999406,731714621,0,3,503284999,2258,16,0.7000000000000001,42.689993799999996,-84.4888149,273.7,0.11704700440168381,160.0168914794922,-0.12700000405311584,0.0,1
1682106467.17994809,731914575,0,3,503285199,2258,16,0.7000000000000001,42.6899936,-84.4888149,273.72,0.13566502928733826,161.9656982421875,-0.0950000062584877,0.0,1
1682106467.37881398,732113441,0,3,503285399,2258,16,0.7000000000000001,42.6899934,-84.4888148,273.73,0.11200447380542755,156.86856079101562,-0.02200000174343586,0.0,1
1682106467.57886100,732313488,0,3,503285599,2258,16,0.7000000000000001,42.689993199999996,-84.48881469999999,273.75,0.08579627424478531,158.81863403320312,0.007000000216066837,0.0,1
1682106467.78008509,732514712,0,3,503285799,2258,16,0.7000000000000001,42.689993099999995,-84.4888146,273.76,0.050209563225507736,134.19305419921875,-0.020000001415610313,0.0,1
1682106467.97915602,732713783,0,3,503285999,2258,16,0.7000000000000001,42.689993099999995,-84.4888146,273.75,0.03471311181783676,168.36634826660156,0.010000000707805157,0.0,1
1682106468.17984605,732914473,0,3,503286199,2258,16,0.7000000000000001,42.689993,-84.4888146,273.74,0.03534119576215744,154.88516235351562,-0.01900000125169754,0.0,1
1682106468.37998199,733114609,0,3,503286399,2258,16,0.7000000000000001,42.689993,-84.48881449999999,273.73,0.03538361191749573,47.29060745239258,-0.01900000125169754,0.0,1
1682106468.58004189,733314669,0,3,503286599,2258,16,0.7000000000000001,42.689993099999995,-84.48881449999999,273.73,0.051264021545648575,20.556045532226562,0.10100000351667404,0.0,1
1682106468.77926207,733513889,0,3,503286799,2258,17,0.7000000000000001,42.689993199999996,-84.4888143,273.71,0.1194026842713356,53.51398468017578,0.0820000022649765,0.0,1
1682106468.97989798,733714525,0,3,503286999,2258,17,0.7000000000000001,42.6899933,-84.4888139,273.71,0.18500269949436188,90.30970001220703,0.010000000707805157,0.0,1
1682106469.17992306,733914550,0,3,503287199,2258,17,0.64,42.689993199999996,-84.4888134,273.71,0.23176929354667664,112.58182525634766,-0.06800000369548798,0.0,1
1682106469.38000298,734114630,0,3,503287399,2258,17,0.64,42.689993099999995,-84.4888127,273.71,0.32672467827796936,103.27063751220703,0.039000000804662704,0.0,1
1682106469.57891488,734313542,0,3,503287599,2258,17,0.64,42.6899928,-84.4888118,273.71,0.4628660976886749,116.5650405883789,0.08300000429153442,0.0,1
1682106469.77877092,734513398,0,3,503287799,2258,17,0.64,42.6899926,-84.48881089999999,273.73,0.33801335096359253,90.5085220336914,0.030000001192092896,0.0,1
1682106469.97989798,734714525,0,3,503287999,2258,17,0.64,42.6899926,-84.4888101,273.72,0.29502713680267334,89.22315216064453,-0.05100000277161598,0.0,1
1682106470.17887998,734913507,0,3,503288199,2258,16,0.7000000000000001,42.689992499999995,-84.4888093,273.7,0.4111119210720062,104.50946044921875,-0.07200000435113907,0.0,1
1682106470.37888694,735113514,0,3,503288399,2258,16,0.7000000000000001,42.689992499999995,-84.4888083,273.74,0.3996060788631439,73.42435455322266,-0.07300000637769699,0.0,1
1682106470.57886600,735313493,0,3,503288599,2258,16,0.7000000000000001,42.689992499999995,-84.4888074,273.75,0.32496923208236694,100.99872589111328,0.00800000037997961,0.0,1
1682106470.77872801,735513355,0,3,503288799,2258,16,0.7000000000000001,42.6899927,-84.48880659999999,273.73,0.4673767387866974,59.81414794921875,0.05400000140070915,0.0,1
1682106470.97992492,735714552,0,3,503288999,2258,16,0.7000000000000001,42.689993,-84.4888057,273.73,0.30633968114852905,78.32325744628906,0.04200000315904617,0.0,1
1682106471.17990994,735914537,0,3,503289199,2258,16,0.7000000000000001,42.689993199999996,-84.48880489999999,273.74,0.3457528054714203,64.47252655029297,-0.06800000369548798,0.0,1
1682106471.38001609,736114643,0,3,503289399,2258,16,0.7000000000000001,42.6899933,-84.4888041,273.72,0.39457574486732483,97.7193832397461,-0.018000001087784767,0.0,1
1682106471.57986498,736314492,0,3,503289599,2258,17,0.7000000000000001,42.689993099999995,-84.4888031,273.73,0.42046165466308594,112.66178894042969,-0.013000000268220901,0.0,1
1682106471.77988195,736514509,0,3,503289799,2258,17,0.7000000000000001,42.6899928,-84.4888021,273.71,0.4609089195728302,106.90165710449219,-0.030000001192092896,0.0,1
1682106471.98003101,736714658,0,3,503289999,2258,17,0.7000000000000001,42.689992499999995,-84.488801,273.75,0.49211788177490234,118.12726593017578,0.018000001087784767,0.0,1
1682106472.17889404,736913521,0,3,503290199,2258,17,0.64,42.6899921,-84.4888,273.75,0.41727930307388306,111.2149429321289,-0.11500000208616257,0.0,1
1682106472.37885499,737113482,0,3,503290399,2258,16,0.64,42.689991899999995,-84.4887992,273.76,0.28958073258399963,114.26382446289062,-0.07000000029802322,0.0,1
1682106472.57874298,737313370,0,3,503290599,2258,16,0.64,42.6899917,-84.4887986,273.78000000000003,0.23663686215877533,115.26555633544922,-0.055000003427267075,0.0,1
1682106472.77880192,737513429,0,3,503290799,2258,16,0.64,42.6899915,-84.4887983,273.8,0.1697586625814438,133.56788635253906,-0.0860000029206276,0.0,1
1682106472.98000693,737714634,0,3,503290999,2258,16,0.64,42.6899912,-84.488798,273.82,0.13870833814144135,151.5873260498047,-0.09700000286102295,0.0,1
1682106473.17928100,737913908,0,3,503291199,2258,16,0.7000000000000001,42.689991,-84.4887979,273.83,0.13700366020202637,142.71188354492188,-0.11900000274181366,0.0,1
1682106473.38000989,738114637,0,3,503291399,2258,16,0.7000000000000001,42.6899908,-84.48879769999999,273.85,0.12387898564338684,153.64178466796875,-0.07500000298023224,0.0,1
1682106473.57996488,738314592,0,3,503291599,2258,16,0.7000000000000001,42.6899905,-84.4887976,273.86,0.14800000190734863,161.07534790039062,-0.09200000762939453,0.0,1
1682106473.78004193,738514669,0,3,503291799,2258,16,0.7000000000000001,42.6899903,-84.48879749999999,273.87,0.09763708710670471,147.1237335205078,-0.01900000125169754,0.0,1
1682106473.99910903,738733736,0,3,503291999,2258,16,0.7000000000000001,42.6899902,-84.48879749999999,273.88,0.05984146147966385,170.38026428222656,-0.05100000277161598,0.0,1
1682106474.17888403,738913511,0,3,503292199,2258,16,0.7000000000000001,42.689990099999996,-84.48879749999999,273.88,0.046389658004045486,172.56858825683594,-0.058000002056360245,0.0,1
1682106474.37876201,739113389,0,3,503292399,2258,16,0.7000000000000001,42.689990099999996,-84.48879749999999,273.89,0.030083218589425087,291.44775390625,0.04800000041723251,0.0,1
1682106474.57883692,739313464,0,3,503292599,2258,16,0.7000000000000001,42.689990099999996,-84.4887976,273.87,0.030083218589425087,248.55227661132812,-0.05100000277161598,0.0,1
1682106474.77910399,739513731,0,3,503292799,2258,16,0.7000000000000001,42.689990099999996,-84.48879769999999,273.88,0.055443666875362396,320.85601806640625,-0.018000001087784767,0.0,1
1682106474.98002195,739714649,0,3,503292999,2258,16,0.7000000000000001,42.6899902,-84.4887979,273.87,0.06794115155935287,317.3859558105469,-0.0650000050663948,0.0,1
1682106475.17987108,739914498,0,3,503293199,2258,16,0.7000000000000001,42.6899903,-84.4887981,273.86,0.07961156219244003,327.3080139160156,-0.06200000271201134,0.0,1
1682106475.37984991,740114477,0,3,503293399,2258,16,0.7000000000000001,42.6899905,-84.48879819999999,273.86,0.10480935871601105,330.255126953125,0.052000001072883606,0.0,1
1682106475.58003092,740314658,0,3,503293599,2258,16,0.7000000000000001,42.689990699999996,-84.4887983,273.85,0.11580156534910202,343.44293212890625,-0.03400000184774399,0.0,1
1682106475.78008509,740514712,0,3,503293799,2258,16,0.7000000000000001,42.6899909,-84.4887985,273.84000000000003,0.12522779405117035,341.85443115234375,0.049000002443790436,0.0,1
1682106475.97927403,740713901,0,3,503293999,2258,16,0.7000000000000001,42.6899911,-84.4887986,273.83,0.1038171574473381,352.8065185546875,0.04800000041723251,0.0,1
1682106476.17994094,740914568,0,3,503294199,2258,16,0.7000000000000001,42.689991299999996,-84.4887986,273.83,0.09914131462574005,351.29779052734375,0.055000003427267075,0.0,1
1682106476.37998009,741114607,0,3,503294399,2258,16,0.7000000000000001,42.6899916,-84.48879869999999,273.82,0.1207021176815033,6.182929992675781,-0.014000000432133675,0.0,1
1682106476.59894896,741333576,0,3,503294599,2258,16,0.7000000000000001,42.6899917,-84.4887986,273.81,0.05412023887038231,27.512001037597656,0.01100000087171793,0.0,1
1682106476.78009605,741514723,0,3,503294799,2258,16,0.7000000000000001,42.6899918,-84.4887986,273.8,0.05594640597701073,24.274438858032227,0.04800000041723251,0.0,1
1682106476.97880292,741713430,0,3,503294999,2258,16,0.7000000000000001,42.689991899999995,-84.4887985,273.8,0.0522015355527401,36.43085479736328,0.04800000041723251,0.0,1
1682106477.19918394,741933811,0,3,503295199,2258,16,0.7000000000000001,42.689992,-84.4887985,273.77,0.02529822289943695,71.56504821777344,0.006000000052154064,0.0,1
1682106477.37890410,742113531,0,3,503295399,2258,16,0.7000000000000001,42.689992,-84.4887984,273.76,0.04972926899790764,105.15406036376953,0.06000000238418579,0.0,1
1682106477.57887387,742313501,0,3,503295599,2258,16,0.7000000000000001,42.689992,-84.4887984,273.75,0.022472206503152847,110.85444641113281,0.010000000707805157,0.0,1
1682106477.77887106,742513498,0,3,503295799,2258,16,0.7000000000000001,42.689991899999995,-84.4887983,273.75,0.07051950693130493,108.17800903320312,-0.05900000408291817,0.0,1
1682106477.97873998,742713367,0,3,503295999,2258,16,0.7000000000000001,42.689991899999995,-84.4887981,273.75,0.1131591871380806,115.65924835205078,-0.026000000536441803,0.0,1
1682106478.17880797,742913435,0,3,503296199,2258,16,0.7000000000000001,42.6899918,-84.4887978,273.75,0.15056228637695312,94.9532470703125,-0.08000000566244125,0.0,1
1682106478.37886310,743113490,0,3,503296399,2258,16,0.7000000000000001,42.6899918,-84.4887974,273.76,0.21060864627361298,85.64302062988281,0.023000001907348633,0.0,1
1682106478.58008695,743314714,0,3,503296599,2258,16,0.7000000000000001,42.6899918,-84.4887968,273.76,0.2782103717327118,82.7728042602539,0.04400000348687172,0.0,1
1682106478.77921104,743513838,0,3,503296799,2258,16,0.7000000000000001,42.689991899999995,-84.4887961,273.75,0.28280383348464966,78.3721923828125,-0.04400000348687172,0.0,1
1682106478.97985005,743714477,0,3,503296999,2258,16,0.7000000000000001,42.689992,-84.48879529999999,273.76,0.37387967109680176,77.48780822753906,0.08100000023841858,0.0,1
1682106479.17994404,743914571,0,3,503297199,2258,16,0.7000000000000001,42.6899922,-84.48879439999999,273.75,0.37918993830680847,68.1705322265625,-0.10300000756978989,0.0,1
1682106479.38007689,744114704,0,3,503297399,2258,16,0.7000000000000001,42.6899924,-84.4887936,273.76,0.3677635192871094,80.76818084716797,-0.006000000052154064,0.0,1
1682106479.57925200,744313879,0,3,503297599,2258,16,0.7000000000000001,42.6899927,-84.4887925,273.79,0.5221197009086609,61.766136169433594,-0.06700000166893005,0.0,1
1682106479.77992201,744514549,0,3,503297799,2258,16,0.7000000000000001,42.689993,-84.48879149999999,273.77,0.45751723647117615,69.66381072998047,0.020000001415610313,0.0,1
1682106479.97991300,744714540,0,3,503297999,2258,16,0.7000000000000001,42.6899934,-84.4887904,273.8,0.49722129106521606,52.60002517700195,-0.0560000017285347,0.0,1
1682106480.17999601,744914623,0,3,503298199,2258,16,0.7000000000000001,42.689993799999996,-84.4887894,273.81,0.4310777485370636,78.22086334228516,-0.11100000888109207,0.0,1
1682106480.38007498,745114702,0,3,503298399,2258,16,0.7000000000000001,42.689994,-84.48878839999999,273.87,0.3804221749305725,71.6126708984375,-0.15900000929832458,0.0,1
1682106480.57999492,745314622,0,3,503298599,2258,17,0.7000000000000001,42.689994,-84.4887875,273.88,0.4246940314769745,108.39227294921875,-0.09100000560283661,0.0,1
1682106480.77876806,745513395,0,3,503298799,2258,17,0.7000000000000001,42.689993799999996,-84.4887864,273.91,0.5254303216934204,101.97289276123047,-0.23600001633167267,0.0,1
1682106480.97888398,745713511,0,3,503298999,2258,17,0.7000000000000001,42.6899935,-84.4887852,273.91,0.533633828163147,115.41256713867188,-0.07200000435113907,0.0,1
1682106481.17887592,745913503,0,3,503299199,2258,17,0.64,42.6899933,-84.488784,273.92,0.45973581075668335,86.75794219970703,-0.11100000888109207,0.0,1
1682106481.37885809,746113485,0,3,503299399,2258,17,0.64,42.6899934,-84.48878289999999,273.90000000000003,0.447004497051239,90.25634765625,-0.005000000353902578,0.0,1
1682106481.57875609,746313383,0,3,503299599,2258,17,0.64,42.689993199999996,-84.48878189999999,273.90000000000003,0.43775907158851624,118.96560668945312,0.021000001579523087,0.0,1
1682106481.77879691,746513424,0,3,503299799,2258,17,0.64,42.6899929,-84.4887809,273.93,0.4804008901119232,100.07015228271484,-0.049000002443790436,0.0,1
1682106481.97887397,746713501,0,3,503299999,2258,17,0.64,42.6899929,-84.4887796,273.92,0.5738379955291748,93.09674072265625,0.017000000923871994,0.0,1
1682106482.18008399,746914711,0,3,503300199,2258,17,0.64,42.6899928,-84.4887782,273.90000000000003,0.6275134086608887,97.60066986083984,-0.013000000268220901,0.0,1
1682106482.37915397,747113781,0,3,503300399,2258,17,0.64,42.6899927,-84.4887766,273.91,0.6461517214775085,88.75849151611328,-0.0690000057220459,0.0,1
1682106482.57988310,747314510,0,3,503300599,2258,17,0.64,42.6899928,-84.48877499999999,273.93,0.6661921739578247,85.35063171386719,-0.0650000050663948,0.0,1
1682106482.78003907,747514666,0,3,503300799,2258,17,0.64,42.6899929,-84.4887734,273.93,0.7181365489959717,88.88294982910156,-0.07600000500679016,0.0,1
1682106482.97927594,747713903,0,3,503300999,2258,17,0.64,42.6899929,-84.48877159999999,273.93,0.7314984798431396,87.88469696044922,0.005000000353902578,0.0,1
1682106483.18001008,747914637,0,3,503301199,2258,17,0.64,42.6899929,-84.48876969999999,273.96,0.8079418540000916,92.76678466796875,-0.16500000655651093,0.0,1
1682106483.37994003,748114567,0,3,503301399,2258,17,0.64,42.6899928,-84.48876779999999,273.97,0.755005955696106,94.17752838134766,0.06100000441074371,0.0,1
1682106483.57880497,748313432,0,3,503301599,2258,17,0.64,42.6899928,-84.48876609999999,273.99,0.6980007290840149,89.91791534423828,-0.12000000476837158,0.0,1
1682106483.78002501,748514652,0,3,503301799,2258,17,0.64,42.6899928,-84.4887644,273.99,0.7120252847671509,90.4828109741211,-0.13900001347064972,0.0,1
1682106483.97919202,748713819,0,3,503301999,2258,17,0.64,42.6899929,-84.48876279999999,273.99,0.5976219773292542,85.77776336669922,-0.04000000283122063,0.0,1
1682106484.17987704,748914504,0,3,503302199,2258,17,0.64,42.689993099999995,-84.4887613,273.99,0.6731456518173218,74.93151092529297,-0.07900000363588333,0.0,1
1682106484.37985301,749114480,0,3,503302399,2258,17,0.64,42.6899935,-84.4887597,273.97,0.6904202103614807,68.4143295288086,0.09000000357627869,0.0,1
1682106484.57997990,749314607,0,3,503302599,2258,17,0.64,42.689994,-84.48875819999999,273.95,0.6903079152107239,59.534454345703125,0.0950000062584877,0.0,1
1682106484.78004193,749514669,0,3,503302799,2258,17,0.64,42.6899946,-84.4887569,273.95,0.6212021112442017,52.98252487182617,0.02500000037252903,0.0,1
1682106484.97926307,749713890,0,3,503302999,2258,17,0.64,42.6899954,-84.4887557,273.96,0.6109811663627625,45.66311264038086,-0.00800000037997961,0.0,1
1682106485.17995310,749914580,0,3,503303199,2258,17,0.64,42.689996099999995,-84.4887545,273.96,0.6879047751426697,57.16468048095703,-0.07800000160932541,0.0,1
1682106485.37993193,750114559,0,3,503303399,2258,17,0.64,42.6899969,-84.48875319999999,273.98,0.719973623752594,46.12550735473633,-0.017000000923871994,0.0,1
1682106485.58001304,750314640,0,3,503303599,2258,17,0.64,42.6899976,-84.4887519,273.98,0.6180396676063538,61.27855682373047,-0.08300000429153442,0.0,1
1682106485.78005409,750514681,0,3,503303799,2258,16,0.64,42.6899982,-84.4887506,273.98,0.6494898200035095,54.082881927490234,-0.05300000309944153,0.0,1
1682106485.99899697,750733624,0,3,503303999,2258,16,0.64,42.6899987,-84.4887492,273.99,0.6454843282699585,73.53031158447266,0.005000000353902578,0.0,1
1682106486.17875791,750913385,0,3,503304199,2258,17,0.64,42.6899989,-84.4887478,274.0,0.534724235534668,83.23381805419922,0.07500000298023224,0.0,1
1682106486.37889504,751113522,0,3,503304399,2258,17,0.64,42.689999,-84.48874649999999,273.98,0.5693856477737427,83.74870300292969,-0.05100000277161598,0.0,1
1682106486.57889891,751313526,0,3,503304599,2258,17,0.64,42.689999,-84.4887452,273.95,0.5281401872634888,97.1788330078125,0.07800000160932541,0.0,1
1682106486.77886391,751513491,0,3,503304799,2258,17,0.64,42.6899989,-84.488744,273.95,0.5126909613609314,100.56472778320312,0.09600000083446503,0.0,1
1682106486.97873497,751713362,0,3,503304999,2258,17,0.64,42.6899988,-84.48874289999999,273.93,0.3694117069244385,80.18069458007812,0.06300000101327896,0.0,1
1682106487.19906497,751933692,0,3,503305199,2258,17,0.64,42.6899989,-84.4887423,273.92,0.2032732218503952,66.20922088623047,-0.003000000026077032,0.0,1
1682106487.37883210,752113459,0,3,503305399,2258,17,0.64,42.689999199999995,-84.4887419,273.92,0.22910697758197784,45.353668212890625,-0.032999999821186066,0.0,1
1682106487.58007097,752314698,0,3,503305599,2258,17,0.64,42.6899995,-84.4887415,273.92,0.2604995369911194,28.926424026489258,-0.032999999821186066,0.0,1
1682106487.77876711,752513394,0,3,503305799,2258,17,0.64,42.6899999,-84.4887413,273.93,0.20026233792304993,20.154211044311523,0.05700000375509262,0.0,1
1682106487.97877908,752713406,0,3,503305999,2258,17,0.64,42.6900003,-84.4887411,273.92,0.2867647409439087,28.08423614501953,0.004000000189989805,0.0,1
1682106488.17886901,752913496,0,3,503306199,2258,17,0.64,42.6900007,-84.4887407,273.93,0.26491132378578186,32.67024612426758,0.018000001087784767,0.0,1
1682106488.37889409,753113521,0,3,503306399,2258,17,0.64,42.6900012,-84.4887404,273.91,0.2657536566257477,24.925718307495117,0.04200000315904617,0.0,1
1682106488.57998896,753314616,0,3,503306599,2258,17,0.64,42.690001599999995,-84.4887401,273.92,0.2784546911716461,41.36013412475586,-0.10100000351667404,0.0,1
1682106488.77873898,753513366,0,3,503306799,2258,17,0.64,42.690002,-84.4887396,273.93,0.30818504095077515,39.734153747558594,-0.027000000700354576,0.0,1
1682106488.97880507,753713432,0,3,503306999,2258,17,0.64,42.690002299999996,-84.48873909999999,273.95,0.26797762513160706,57.496009826660156,-0.02500000037252903,0.0,1
1682106489.17885900,753913486,0,3,503307199,2258,16,0.7000000000000001,42.6900025,-84.4887385,273.95,0.2738558053970337,65.40020751953125,-0.0650000050663948,0.0,1
1682106489.38007307,754114700,0,3,503307399,2258,16,0.7000000000000001,42.6900027,-84.4887378,273.96,0.3192632496356964,80.62618255615234,-0.023000001907348633,0.0,1
1682106489.57992411,754314551,0,3,503307599,2258,16,0.7000000000000001,42.6900027,-84.488737,273.96,0.3049016296863556,96.40243530273438,-0.07000000029802322,0.0,1
1682106489.77902889,754513656,0,3,503307799,2258,16,0.7000000000000001,42.6900026,-84.48873619999999,273.97,0.4310000240802765,90.0,-0.07200000435113907,0.0,1
1682106489.97993398,754714561,0,3,503307999,2258,16,0.7000000000000001,42.6900026,-84.4887351,273.96,0.47826772928237915,91.91712951660156,0.030000001192092896,0.0,1
1682106490.18000698,754914634,0,3,503308199,2258,16,0.7000000000000001,42.6900026,-84.4887339,273.95,0.48550698161125183,82.1869888305664,0.032999999821186066,0.0,1
1682106490.37994599,755114573,0,3,503308399,2258,16,0.7000000000000001,42.6900027,-84.4887328,273.95,0.47673580050468445,83.85888671875,0.04000000283122063,0.0,1
1682106490.57921696,755313844,0,3,503308599,2258,16,0.7000000000000001,42.690002899999996,-84.4887316,273.96,0.5344342589378357,71.9040756225586,-0.024000000208616257,0.0,1
1682106490.77992511,755514552,0,3,503308799,2258,16,0.7000000000000001,42.6900032,-84.4887303,273.95,0.5964310765266418,75.33466339111328,-0.04200000315904617,0.0,1
1682106490.97999692,755714624,0,3,503308999,2258,16,0.7000000000000001,42.690003399999995,-84.48872879999999,273.96,0.6624507904052734,75.04072570800781,-0.02800000086426735,0.0,1
1682106491.17891502,755913542,0,3,503309199,2258,16,0.7000000000000001,42.6900039,-84.4887273,273.96,0.6930007338523865,61.84483337402344,0.013000000268220901,0.0,1
1682106491.38012695,756114754,0,3,503309399,2258,16,0.7000000000000001,42.6900045,-84.48872589999999,273.96,0.5828182101249695,53.58232116699219,0.03400000184774399,0.0,1
1682106491.57903099,756313658,0,3,503309599,2258,16,0.7000000000000001,42.6900051,-84.488725,273.96,0.5052732229232788,37.84514236450195,0.0690000057220459,0.0,1
1682106491.77993798,756514565,0,3,503309799,2258,16,0.7000000000000001,42.6900058,-84.4887243,273.94,0.37981709837913513,36.32682418823242,-0.09400000423192978,0.0,1
1682106491.98001003,756714637,0,3,503309999,2258,16,0.7000000000000001,42.6900063,-84.4887239,273.93,0.3360907733440399,24.429845809936523,-0.03800000250339508,0.0,1
1682106492.17999792,756914625,0,3,503310199,2258,17,0.64,42.6900067,-84.4887236,273.93,0.14280056953430176,37.03038787841797,0.0010000000474974513,0.0,1
1682106492.37920594,757113833,0,3,503310399,2258,17,0.64,42.6900069,-84.4887234,273.94,0.08910667896270752,44.09061813354492,0.07000000029802322,0.0,1
1682106492.57994604,757314573,0,3,503310599,2258,17,0.64,42.6900069,-84.48872329999999,273.93,0.08139410614967346,132.51043701171875,0.0010000000474974513,0.0,1
1682106492.78002691,757514654,0,3,503310799,2258,17,0.64,42.6900068,-84.4887231,273.93,0.06767570227384567,124.1596908569336,-0.029000001028180122,0.0,1
1682106492.98008394,757714711,0,3,503310999,2258,17,0.64,42.6900067,-84.488723,273.93,0.08700574934482574,127.52843475341797,-0.06800000369548798,0.0,1
1682106493.18000007,757914627,0,3,503311199,2258,17,0.64,42.6900067,-84.48872279999999,273.94,0.06603029370307922,125.13419342041016,-0.10200000554323196,0.0,1
1682106493.37878394,758113411,0,3,503311399,2258,17,0.64,42.6900066,-84.4887227,273.94,0.05069517344236374,75.1413803100586,-0.09100000560283661,0.0,1
1682106493.57891202,758313539,0,3,503311599,2258,17,0.64,42.6900067,-84.4887226,273.95,0.04601087048649788,47.64254379272461,0.08800000697374344,0.0,1
1682106493.77891302,758513540,0,3,503311799,2258,17,0.64,42.6900067,-84.4887226,273.94,0.030463092029094696,66.80140686035156,-0.01100000087171793,0.0,1
1682106493.97889090,758713518,0,3,503311999,2258,17,0.64,42.6900067,-84.4887226,273.94,0.012529964558780193,208.61045837402344,0.014000000432133675,0.0,1
1682106494.17874098,758913368,0,3,503312199,2258,17,0.64,42.6900067,-84.4887226,273.92,0.020024985074996948,272.8624267578125,-0.013000000268220901,0.0,1
1682106494.37882590,759113453,0,3,503312399,2258,17,0.64,42.6900067,-84.4887227,273.92,0.009899495169520378,225.0,-0.006000000052154064,0.0,1
1682106494.57886004,759313487,0,3,503312599,2258,17,0.64,42.6900066,-84.48872279999999,273.91,0.03623534366488457,219.4006805419922,0.018000001087784767,0.0,1
1682106494.78012300,759514750,0,3,503312799,2258,17,0.64,42.6900066,-84.4887229,273.89,0.06640782952308655,251.5650634765625,0.04700000211596489,0.0,1
1682106494.97916293,759713790,0,3,503312999,2258,17,0.64,42.690006499999996,-84.4887231,273.87,0.06228964775800705,264.47247314453125,-0.003000000026077032,0.0,1
1682106495.17985010,759914477,0,3,503313199,2258,17,0.64,42.690006499999996,-84.48872329999999,273.85,0.06040695309638977,276.6544189453125,-0.02800000086426735,0.0,1
1682106495.37999988,760114627,0,3,503313399,2258,17,0.64,42.6900066,-84.4887234,273.86,0.04661545157432556,324.6051940917969,0.06700000166893005,0.0,1
1682106495.58019400,760314821,0,3,503313599,2258,17,0.64,42.6900066,-84.4887236,273.84000000000003,0.050803545862436295,306.1932067871094,-0.013000000268220901,0.0,1
1682106495.77927399,760513901,0,3,503313799,2258,17,0.64,42.6900067,-84.4887237,273.83,0.06920260936021805,307.3666687011719,-0.04400000348687172,0.0,1
1682106495.97997093,760714598,0,3,503313999,2258,17,0.64,42.6900067,-84.4887239,273.82,0.03701351210474968,308.4180603027344,0.05100000277161598,0.0,1
1682106496.17993498,760914562,0,3,503314199,2258,17,0.64,42.6900068,-84.4887239,273.8,0.023345237597823143,316.7357177734375,0.005000000353902578,0.0,1
1682106496.38001490,761114642,0,3,503314399,2258,17,0.64,42.6900068,-84.48872399999999,273.79,0.02088061533868313,16.699243545532227,0.02500000037252903,0.0,1
1682106496.58012509,761314752,0,3,503314599,2258,17,0.64,42.6900069,-84.48872399999999,273.79,0.028231190517544746,22.932100296020508,0.004000000189989805,0.0,1
1682106496.79878402,761533411,0,3,503314799,2258,17,0.64,42.6900069,-84.4887239,273.79,0.03478505462408066,18.43494987487793,-0.032999999821186066,0.0,1
1682106496.97874308,761713370,0,3,503314999,2258,17,0.64,42.690007,-84.4887239,273.79,0.030083218589425087,74.57783508300781,-0.06400000303983688,0.0,1
1682106497.19912505,761933752,0,3,503315199,2258,17,0.64,42.690007,-84.4887238,273.79,0.023345237597823143,43.2642936706543,0.00800000037997961,0.0,1
1682106497.37890005,762113527,0,3,503315399,2258,17,0.64,42.690007099999995,-84.4887238,273.79,0.02690725028514862,41.98720932006836,-0.03400000184774399,0.0,1
1682106497.57887101,762313498,0,3,503315599,2258,17,0.64,42.690007099999995,-84.4887237,273.8,0.01615549437701702,111.80139923095703,0.01100000087171793,0.0,1
1682106497.77879691,762513424,0,3,503315799,2258,17,0.64,42.690007099999995,-84.4887237,273.8,0.007280109915882349,195.94540405273438,-0.01100000087171793,0.0,1
1682106497.97881699,762713444,0,3,503315999,2258,17,0.64,42.690007099999995,-84.4887237,273.81,0.008062257431447506,299.744873046875,0.014000000432133675,0.0,1
1682106498.17887497,762913502,0,3,503316199,2258,17,0.64,42.690007099999995,-84.4887237,273.8,0.0292061660438776,141.95294189453125,-0.08000000566244125,0.0,1
1682106498.37894297,763113570,0,3,503316399,2258,17,0.64,42.690007,-84.4887237,273.8,0.0070710680447518826,8.13010311126709,-0.003000000026077032,0.0,1
1682106498.58000994,763314637,0,3,503316599,2258,17,0.64,42.690007,-84.4887237,273.8,0.029120439663529396,164.05459594726562,-0.032999999821186066,0.0,1
1682106498.77902198,763513649,0,3,503316799,2258,17,0.64,42.690007,-84.4887237,273.82,0.026019224897027016,357.7973937988281,0.020000001415610313,0.0,1
1682106498.97997093,763714598,0,3,503316999,2258,17,0.64,42.690007,-84.4887237,273.81,0.009219544939696789,102.52880096435547,-0.06100000441074371,0.0,1
1682106499.18004107,763914668,0,3,503317199,2258,17,0.64,42.690007,-84.4887236,273.81,0.04527692869305611,149.4702911376953,-0.020000001415610313,0.0,1
1682106499.37924790,764113875,0,3,503317399,2258,17,0.64,42.6900069,-84.4887236,273.81,0.044598210602998734,160.34616088867188,-0.006000000052154064,0.0,1
1682106499.57995605,764314583,0,3,503317599,2258,17,0.64,42.6900069,-84.4887237,273.8,0.04317406937479973,193.3925018310547,0.010000000707805157,0.0,1
1682106499.77883792,764513465,0,3,503317799,2258,17,0.64,42.6900068,-84.4887237,273.79,0.05166236683726311,165.42578125,-0.07300000637769699,0.0,1
1682106499.97884703,764713474,0,3,503317999,2258,16,0.64,42.6900067,-84.4887237,273.79,0.041773200035095215,168.95904541015625,0.04200000315904617,0.0,1
1682106500.17891788,764913545,0,3,503318199,2258,16,0.7000000000000001,42.6900067,-84.4887238,273.78000000000003,0.028600702062249184,53.530765533447266,0.04500000178813934,0.0,1
1682106500.37987900,765114506,0,3,503318399,2258,16,0.7000000000000001,42.6900068,-84.4887238,273.76,0.07184010744094849,16.16449737548828,0.08000000566244125,0.0,1
1682106500.57877207,765313399,0,3,503318599,2258,16,0.7000000000000001,42.690007099999995,-84.4887238,273.74,0.21967248618602753,10.491476058959961,0.04800000041723251,0.0,1
1682106500.77888608,765513513,0,3,503318799,2258,16,0.7000000000000001,42.6900076,-84.4887237,273.72,0.28246062994003296,10.1959867477417,0.05100000277161598,0.0,1
1682106500.97889209,765713519,0,3,503318999,2258,16,0.7000000000000001,42.6900082,-84.4887236,273.69,0.36744797229766846,13.695876121520996,0.09600000083446503,0.0,1
1682106501.17886710,765913494,0,3,503319199,2258,16,0.7000000000000001,42.690008899999995,-84.4887234,273.68,0.4441734254360199,12.878593444824219,-0.015000000596046448,0.0,1
1682106501.37989807,766114525,0,3,503319399,2258,16,0.7000000000000001,42.6900097,-84.48872329999999,273.68,0.4122377932071686,11.473477363586426,-0.04500000178813934,0.0,1
1682106501.57992887,766314556,0,3,503319599,2258,16,0.7000000000000001,42.6900103,-84.4887231,273.67,0.2769205868244171,16.14434051513672,0.02500000037252903,0.0,1
1682106501.77990603,766514533,0,3,503319799,2258,16,0.7000000000000001,42.690010699999995,-84.4887229,273.66,0.1524336040019989,19.148136138916016,0.07000000029802322,0.0,1
1682106501.98000789,766714635,0,3,503319999,2258,16,0.7000000000000001,42.6900109,-84.48872279999999,273.62,0.07749193906784058,17.265810012817383,-0.030000001192092896,0.0,1
1682106502.18001890,766914646,0,3,503320199,2258,16,0.7000000000000001,42.690011,-84.48872279999999,273.6,0.02831960655748844,132.13760375976562,-0.007000000216066837,0.0,1
1682106502.37990689,767114534,0,3,503320399,2258,16,0.7000000000000001,42.690011,-84.4887227,273.59000000000003,0.047010637819767,156.1612548828125,0.08900000154972076,0.0,1
1682106502.57923889,767313866,0,3,503320599,2258,16,0.7000000000000001,42.6900109,-84.4887226,273.55,0.04830114170908928,152.90443420410156,0.026000000536441803,0.0,1
1682106502.78011990,767514747,0,3,503320799,2258,16,0.7000000000000001,42.6900109,-84.4887225,273.53000000000003,0.04022437334060669,124.87532806396484,0.02800000086426735,0.0,1
1682106502.97999406,767714621,0,3,503320999,2258,16,0.7000000000000001,42.6900109,-84.4887224,273.52,0.04104875400662422,124.07717895507812,0.10300000756978989,0.0,1
1682106503.17995501,767914582,0,3,503321199,2258,16,0.7000000000000001,42.6900109,-84.48872229999999,273.49,0.04712748900055885,107.28148651123047,0.02200000174343586,0.0,1
1682106503.37994504,768114572,0,3,503321399,2258,16,0.7000000000000001,42.6900109,-84.48872209999999,273.48,0.029068883508443832,86.0548095703125,-0.0820000022649765,0.0,1
1682106503.57885194,768313479,0,3,503321599,2258,16,0.7000000000000001,42.6900109,-84.48872209999999,273.49,0.015033296309411526,93.81407165527344,-0.0010000000474974513,0.0,1
1682106503.77892995,768513557,0,3,503321799,2258,17,0.7000000000000001,42.6900109,-84.488722,273.48,0.031144823879003525,47.602561950683594,-0.10700000822544098,0.0,1
1682106503.98005390,768714681,0,3,503321999,2258,17,0.7000000000000001,42.6900109,-84.488722,273.49,0.022671569138765335,48.57632827758789,-0.01600000075995922,0.0,1
1682106504.17994308,768914570,0,3,503322199,2258,17,0.64,42.6900109,-84.488722,273.48,0.014764823950827122,28.300756454467773,-0.09700000286102295,0.0,1
1682106504.37921309,769113840,0,3,503322399,2258,17,0.64,42.690011,-84.48872209999999,273.48,0.053037725389003754,315.763916015625,-0.05400000140070915,0.0,1
1682106504.58008099,769314708,0,3,503322599,2258,17,0.64,42.690011,-84.4887222,273.49,0.018384777009487152,337.619873046875,0.01600000075995922,0.0,1
1682106504.77997708,769514604,0,3,503322799,2258,17,0.64,42.690011,-84.4887222,273.49,0.01702938787639141,40.236358642578125,0.06800000369548798,0.0,1
1682106504.97996497,769714592,0,3,503322999,2258,17,0.64,42.6900111,-84.48872229999999,273.47,0.05375872179865837,9.637537956237793,0.13600000739097595,0.0,1
1682106505.19885802,769933485,0,3,503323199,2258,17,0.64,42.6900112,-84.48872229999999,273.44,0.033837851136922836,18.970407485961914,0.19500000774860382,0.0,1
1682106505.37884903,770113476,0,3,503323399,2258,17,0.64,42.690011299999995,-84.48872229999999,273.37,0.02941088192164898,35.31121063232422,0.25200000405311584,0.0,1
1682106505.57893205,770313559,0,3,503323599,2258,17,0.64,42.690011299999995,-84.4887222,273.32,0.05990826338529587,56.5751838684082,0.22100001573562622,0.0,1
1682106505.77877307,770513400,0,3,503323799,2258,17,0.64,42.6900115,-84.48872209999999,273.28000000000003,0.09392017871141434,18.62786293029785,0.21900001168251038,0.0,1
1682106505.97876692,770713394,0,3,503323999,2258,17,0.64,42.6900118,-84.48872209999999,273.23,0.2272641658782959,8.09444808959961,0.14300000667572021,0.0,1
1682106506.18002009,770914647,0,3,503324199,2258,16,0.7000000000000001,42.6900123,-84.4887219,273.2,0.3464130759239197,10.14211654663086,0.20600001513957977,0.0,1
1682106506.37888694,771113514,0,3,503324399,2258,16,0.7000000000000001,42.6900129,-84.4887217,273.16,0.3276858329772949,14.67236614227295,0.10900000482797623,0.0,1
1682106506.57886410,771313491,0,3,503324599,2258,16,0.7000000000000001,42.6900136,-84.4887215,273.14,0.43406566977500916,15.637160301208496,0.0860000029206276,0.0,1
1682106506.77874207,771513369,0,3,503324799,2258,16,0.7000000000000001,42.6900142,-84.4887213,273.14,0.3150571584701538,13.771597862243652,0.0430000014603138,0.0,1
1682106506.97880793,771713435,0,3,503324999,2258,16,0.7000000000000001,42.6900147,-84.48872109999999,273.12,0.2598326504230499,26.76228141784668,0.04000000283122063,0.0,1
1682106507.19893408,771933561,0,3,503325199,2258,16,0.7000000000000001,42.690014999999995,-84.4887208,273.11,0.1302497684955597,28.926424026489258,-0.06400000303983688,0.0,1
1682106507.37891102,772113538,0,3,503325399,2258,16,0.7000000000000001,42.6900151,-84.4887207,273.12,0.06630988419055939,66.91487121582031,-0.03500000014901161,0.0,1
1682106507.57886696,772313494,0,3,503325599,2258,16,0.7000000000000001,42.6900151,-84.4887206,273.14,0.08300603181123734,143.82037353515625,0.017000000923871994,0.0,1
1682106507.77878308,772513410,0,3,503325799,2258,16,0.7000000000000001,42.690014999999995,-84.4887205,273.13,0.0650000050663948,143.13009643554688,-0.05100000277161598,0.0,1
1682106507.98002410,772714651,0,3,503325999,2258,16,0.7000000000000001,42.6900149,-84.4887203,273.14,0.028861740604043007,75.96375274658203,-0.04100000113248825,0.0,1
1682106508.17891693,772913544,0,3,503326199,2258,16,0.7000000000000001,42.6900149,-84.4887202,273.14,0.03765634074807167,79.28687286376953,-0.026000000536441803,0.0,1
1682106508.37886810,773113495,0,3,503326399,2258,16,0.7000000000000001,42.690014999999995,-84.4887201,273.13,0.04477722942829132,60.572540283203125,-0.16600000858306885,0.0,1
1682106508.57875299,773313380,0,3,503326599,2258,16,0.7000000000000001,42.690014999999995,-84.48872,273.14,0.03939543291926384,66.03750610351562,-0.125,0.0,1
1682106508.77880311,773513430,0,3,503326799,2258,16,0.7000000000000001,42.690014999999995,-84.48871989999999,273.17,0.019235385581851006,27.89727020263672,-0.09000000357627869,0.0,1
1682106508.97911692,773713744,0,3,503326999,2258,16,0.7000000000000001,42.690014999999995,-84.48871989999999,273.18,0.021587034687399864,346.6075134277344,-0.055000003427267075,0.0,1
1682106509.18003702,773914664,0,3,503327199,2258,16,0.7000000000000001,42.690014999999995,-84.48871989999999,273.18,0.016763055697083473,342.6459655761719,-0.12400000542402267,0.0,1
1682106509.37992406,774114551,0,3,503327399,2258,16,0.7000000000000001,42.690014999999995,-84.48871989999999,273.2,0.03337663784623146,278.61566162109375,0.01600000075995922,0.0,1
1682106509.57990098,774314528,0,3,503327599,2258,16,0.7000000000000001,42.6900151,-84.48872,273.2,0.046529561281204224,298.21734619140625,-0.012000000104308128,0.0,1
1682106509.78007889,774514706,0,3,503327799,2258,16,0.7000000000000001,42.6900151,-84.48872,273.21,0.0430116280913353,287.5924377441406,0.03500000014901161,0.0,1
1682106509.98012090,774714748,0,3,503327999,2258,16,0.7000000000000001,42.6900149,-84.48872,273.2,0.2336343377828598,167.39138793945312,0.004000000189989805,0.0,1
1682106510.17928910,774913916,0,3,503328199,2258,16,0.7000000000000001,42.6900146,-84.48871989999999,273.14,0.18300001323223114,180.0,0.281000018119812,0.0,1
1682106510.37994289,775114570,0,3,503328399,2258,16,0.7000000000000001,42.6900143,-84.48871969999999,273.09000000000003,0.2271079123020172,162.84161376953125,0.29500001668930054,0.0,1
1682106510.57994199,775314569,0,3,503328599,2258,16,0.7000000000000001,42.690013799999996,-84.4887196,273.0,0.3048688471317291,175.67335510253906,0.5049999952316284,0.0,1
1682106510.78001904,775514646,0,3,503328799,2258,16,0.7000000000000001,42.6900133,-84.4887193,272.9,0.3531416356563568,155.75746154785156,0.5370000004768372,0.0,1
1682106510.98008394,775714711,0,3,503328999,2258,16,0.7000000000000001,42.6900128,-84.4887189,272.83,0.3302605152130127,163.10134887695312,0.29100000858306885,0.0,1
1682106511.17881298,775913440,0,3,503329199,2258,16,0.7000000000000001,42.6900121,-84.48871849999999,272.74,0.4935109317302704,155.2005157470703,0.4010000228881836,0.0,1
1682106511.37880993,776113437,0,3,503329399,2258,16,0.7000000000000001,42.690011399999996,-84.4887179,272.64,0.4110109806060791,142.71188354492188,0.41100001335144043,0.0,1
1682106511.57999897,776314626,0,3,503329599,2258,16,0.7000000000000001,42.690010799999996,-84.48871729999999,272.54,0.43048810958862305,151.41078186035156,0.35500001907348633,0.0,1
1682106511.78006887,776514696,0,3,503329799,2258,16,0.7000000000000001,42.6900103,-84.4887167,272.48,0.40665099024772644,130.1122589111328,0.242000013589859,0.0,1
1682106511.97927690,776713904,0,3,503329999,2258,16,0.7000000000000001,42.6900099,-84.4887158,272.41,0.4071805775165558,124.39256286621094,0.3370000123977661,0.0,1
1682106512.17995405,776914581,0,3,503330199,2258,16,0.7000000000000001,42.6900094,-84.488715,272.3,0.43334054946899414,132.00686645507812,0.40300002694129944,0.0,1
1682106512.38007307,777114700,0,3,503330399,2258,17,0.7000000000000001,42.690008999999996,-84.4887143,272.24,0.3125540018081665,135.51849365234375,0.18400001525878906,0.0,1
1682106512.58003807,777314665,0,3,503330599,2258,17,0.7000000000000001,42.6900086,-84.48871369999999,272.18,0.33765366673469543,130.43565368652344,0.12300000339746475,0.0,1
1682106512.78019094,777514818,0,3,503330799,2258,16,0.7000000000000001,42.690008299999995,-84.4887131,272.16,0.19615556299686432,131.90036010742188,0.04500000178813934,0.0,1
1682106512.97887492,777713502,0,3,503330999,2258,16,0.7000000000000001,42.6900081,-84.4887128,272.15,0.18603496253490448,136.5246124267578,0.027000000700354576,0.0,1
1682106513.17878795,777913415,0,3,503331199,2258,16,0.7000000000000001,42.6900079,-84.48871249999999,272.13,0.1611490100622177,146.90159606933594,0.021000001579523087,0.0,1
1682106513.37888694,778113514,0,3,503331399,2258,17,0.7000000000000001,42.690007699999995,-84.4887124,272.11,0.09261210262775421,155.09523010253906,0.06599999964237213,0.0,1
1682106513.58006692,778314694,0,3,503331599,2258,17,0.7000000000000001,42.6900076,-84.4887122,272.08,0.15743252635002136,141.96542358398438,0.03100000135600567,0.0,1
1682106513.77885795,778513485,0,3,503331799,2258,17,0.7000000000000001,42.6900074,-84.48871199999999,272.06,0.10840664803981781,150.12399291992188,0.0010000000474974513,0.0,1
1682106513.97873592,778713363,0,3,503331999,2258,17,0.7000000000000001,42.6900072,-84.48871179999999,272.05,0.12963025271892548,128.10757446289062,0.10000000149011612,0.0,1
1682106514.17880392,778913431,0,3,503332199,2258,17,0.64,42.690007099999995,-84.4887114,272.02,0.22306278347969055,131.91082763671875,0.01100000087171793,0.0,1
1682106514.37886095,779113488,0,3,503332399,2258,17,0.64,42.6900068,-84.488711,272.01,0.25389960408210754,136.11705017089844,-0.05000000074505806,0.0,1
1682106514.57892704,779313554,0,3,503332599,2258,17,0.64,42.690006499999996,-84.4887105,272.01,0.26237568259239197,128.96673583984375,-0.04000000283122063,0.0,1
1682106514.77992296,779514550,0,3,503332799,2258,17,0.64,42.6900061,-84.48871,272.01,0.3122851252555847,139.93601989746094,-0.11700000613927841,0.0,1
1682106514.97902203,779713649,0,3,503332999,2258,17,0.64,42.6900057,-84.48870959999999,272.04,0.2766225039958954,151.02586364746094,-0.2160000056028366,0.0,1
1682106515.19909501,779933722,0,3,503333199,2258,17,0.64,42.690005299999996,-84.4887093,272.12,0.22272855043411255,152.74465942382812,-0.41100001335144043,0.0,1
1682106515.38002801,780114655,0,3,503333399,2258,17,0.64,42.6900049,-84.4887093,272.21,0.20618924498558044,198.9622039794922,-0.3800000250339508,0.0,1
1682106515.57994103,780314568,0,3,503333599,2258,17,0.64,42.6900045,-84.48870939999999,272.29,0.2178095579147339,205.85919189453125,-0.4130000174045563,0.0,1
1682106515.77921605,780513843,0,3,503333799,2258,17,0.64,42.6900042,-84.48870989999999,272.35,0.24788708984851837,241.57400512695312,-0.39500001072883606,0.0,1
1682106515.97879601,780713423,0,3,503333999,2258,17,0.64,42.690003999999995,-84.4887105,272.46,0.2800803780555725,249.30030822753906,-0.48100003600120544,0.0,1
1682106516.17885303,780913480,0,3,503334199,2258,17,0.64,42.6900038,-84.48871109999999,272.54,0.2566398084163666,256.9384460449219,-0.38700002431869507,0.0,1
1682106516.37891293,781113540,0,3,503334399,2258,17,0.64,42.6900038,-84.48871179999999,272.58,0.29333943128585815,275.47735595703125,-0.1770000010728836,0.0,1
1682106516.58006907,781314696,0,3,503334599,2258,17,0.64,42.6900038,-84.4887127,272.64,0.41109609603881836,282.0752868652344,-0.27300000190734863,0.0,1
1682106516.77874804,781513375,0,3,503334799,2258,17,0.64,42.690003999999995,-84.4887135,272.69,0.3327852189540863,299.7235412597656,-0.29600000381469727,0.0,1
1682106516.97888088,781713508,0,3,503334999,2258,16,0.64,42.6900042,-84.4887143,272.74,0.31497302651405334,288.8951416015625,-0.11500000208616257,0.0,1
1682106517.19924188,781933869,0,3,503335199,2258,16,0.7000000000000001,42.6900044,-84.488715,272.76,0.3067898452281952,302.7576904296875,-0.13100001215934753,0.0,1
1682106517.37885499,782113482,0,3,503335399,2258,17,0.7000000000000001,42.6900045,-84.48871559999999,272.76,0.1954737901687622,279.125,-0.004000000189989805,0.0,1
1682106517.57909298,782313720,0,3,503335599,2258,17,0.7000000000000001,42.6900045,-84.48871609999999,272.77,0.17348775267601013,265.70263671875,0.03700000047683716,0.0,1
1682106517.77988696,782514514,0,3,503335799,2258,16,0.7000000000000001,42.6900044,-84.4887164,272.76,0.07360027730464935,233.28579711914062,0.11100000888109207,0.0,1
1682106517.97991896,782714546,0,3,503335999,2258,16,0.7000000000000001,42.6900043,-84.4887165,272.74,0.06536819040775299,209.3100128173828,0.17000000178813934,0.0,1
1682106518.18006706,782914694,0,3,503336199,2258,17,0.64,42.6900042,-84.48871659999999,272.69,0.05830952152609825,157.83364868164062,0.1680000126361847,0.0,1
1682106518.37920594,783113833,0,3,503336399,2258,17,0.64,42.690003999999995,-84.4887165,272.65,0.12182775139808655,125.64701843261719,0.18000000715255737,0.0,1
1682106518.57992792,783314555,0,3,503336599,2258,17,0.64,42.6900039,-84.4887163,272.63,0.12625372409820557,130.5028533935547,0.20500001311302185,0.0,1
1682106518.78006101,783514688,0,3,503336799,2258,17,0.64,42.6900038,-84.48871609999999,272.61,0.051623642444610596,135.78480529785156,0.0950000062584877,0.0,1
1682106518.97890496,783713532,0,3,503336999,2258,17,0.64,42.6900037,-84.48871609999999,272.59000000000003,0.0650000050663948,104.2500228881836,0.06000000238418579,0.0,1
1682106519.17887592,783913503,0,3,503337199,2258,17,0.64,42.6900037,-84.4887159,272.6,0.05099019780755043,78.69005584716797,0.018000001087784767,0.0,1
