timestamp,TimeUS,Lat,Lng,Alt,RelHomeAlt,RelOriginAlt
1682106445.83952498,710574152,42.690001099999996,-84.4888654,269.82000732421875,0.0010957960039377213,-0.40890419483184814
1682106445.93954706,710674174,42.6900012,-84.4888654,269.82000732421875,0.0021140817552804947,-0.40788590908050537
1682106446.03956389,710774191,42.6900012,-84.4888654,269.82000732421875,0.004709506407380104,-0.40529048442840576
1682106446.13952589,710874153,42.6900012,-84.4888654,269.82000732421875,0.007773185148835182,-0.4022268056869507
1682106446.23961091,710974238,42.6900012,-84.4888654,269.82000732421875,0.009781384840607643,-0.4002186059951782
1682106446.33946109,711074088,42.6900012,-84.4888654,269.8299865722656,0.011107945814728737,-0.39889204502105713
1682106446.43952608,711174153,42.6900013,-84.4888655,269.8299865722656,0.012040877714753151,-0.3979591131210327
1682106446.53978992,711274417,42.6900013,-84.4888655,269.8299865722656,0.01284649409353733,-0.39715349674224854
1682106446.63931203,711373939,42.6900013,-84.4888655,269.8299865722656,0.014173055067658424,-0.39582693576812744
1682106446.73934007,711473967,42.6900013,-84.4888655,269.8299865722656,0.015419268980622292,-0.3945807218551636
1682106446.83926010,711573887,42.6900013,-84.4888655,269.8299865722656,0.01702406443655491,-0.39297592639923096
1682106446.93936896,711673996,42.6900013,-84.4888655,269.8299865722656,0.018404746428132057,-0.3915952444076538
1682106447.03928494,711773912,42.6900013,-84.4888655,269.8399963378906,0.020711207762360573,-0.3892887830734253
1682106447.13936901,711873996,42.6900013,-84.4888655,269.8399963378906,0.023649955168366432,-0.38635003566741943
1682106447.23927593,711973903,42.6900013,-84.4888655,269.8399963378906,0.02543666400015354,-0.3845633268356323
1682106447.33952999,712074157,42.6900013,-84.4888655,269.8399963378906,0.02687814272940159,-0.3831218481063843
1682106447.43955207,712174179,42.6900013,-84.4888655,269.8399963378906,0.02912762202322483,-0.38087236881256104
1682106447.53954792,712274175,42.6900013,-84.4888655,269.8500061035156,0.031450055539608,-0.3785499334335327
1682106447.63952398,712374151,42.6900014,-84.4888655,269.8500061035156,0.0344097837805748,-0.3755902051925659
1682106447.73956299,712474190,42.6900014,-84.4888655,269.8500061035156,0.036851666867733,-0.3731483221054077
1682106447.83958387,712574211,42.6900014,-84.4888655,269.8500061035156,0.03979327529668808,-0.37020671367645264
1682106447.93961096,712674238,42.6900014,-84.4888655,269.8599853515625,0.04279615730047226,-0.36720383167266846
1682106448.03967905,712774306,42.6900014,-84.4888655,269.8599853515625,0.04621126502752304,-0.3637887239456177
1682106448.13958097,712874208,42.6900014,-84.4888655,269.8599853515625,0.04983951896429062,-0.3601604700088501
1682106448.23984289,712974470,42.6900015,-84.4888656,269.8699951171875,0.05355384200811386,-0.35644614696502686
1682106448.33985806,713074485,42.6900015,-84.4888656,269.8699951171875,0.05629374831914902,-0.3537062406539917
1682106448.43933010,713173957,42.6900015,-84.4888656,269.8699951171875,0.05785014480352402,-0.3521498441696167
1682106448.53943300,713274060,42.6900015,-84.48886569999999,269.8699951171875,0.05848362296819687,-0.35151636600494385
1682106448.63928795,713373915,42.6900015,-84.4888658,269.8699951171875,0.05704810470342636,-0.35295188426971436
1682106448.73932600,713473953,42.6900015,-84.4888658,269.8699951171875,0.054479144513607025,-0.3555208444595337
1682106448.83925891,713573886,42.6900015,-84.4888658,269.8699951171875,0.052200816571712494,-0.3577991724014282
1682106448.93974304,713674370,42.6900015,-84.4888658,269.8699951171875,0.050025008618831635,-0.3599749803543091
1682106449.03959894,713774226,42.6900015,-84.4888659,269.8599853515625,0.04889848083257675,-0.36110150814056396
1682106449.13927102,713873898,42.6900015,-84.4888659,269.8599853515625,0.0489824041724205,-0.3610175848007202
1682106449.23932910,713973956,42.6900014,-84.4888659,269.8599853515625,0.049102090299129486,-0.36089789867401123
1682106449.33932590,714073953,42.6900014,-84.488866,269.8599853515625,0.049193404614925385,-0.36080658435821533
1682106449.43931293,714173940,42.6900014,-84.488866,269.8599853515625,0.04964163154363632,-0.3603583574295044
1682106449.53929305,714273920,42.6900014,-84.488866,269.8699951171875,0.05121590942144394,-0.3587840795516968
1682106449.63958907,714374216,42.6900014,-84.4888661,269.8699951171875,0.05209019035100937,-0.35790979862213135
1682106449.73958302,714474210,42.6900014,-84.4888661,269.8699951171875,0.051730893552303314,-0.3582690954208374
1682106449.83938909,714574016,42.6900014,-84.4888661,269.8699951171875,0.050898097455501556,-0.35910189151763916
1682106449.93936706,714673994,42.6900014,-84.4888661,269.8699951171875,0.050138019025325775,-0.35986196994781494
1682106450.03930306,714773930,42.6900014,-84.4888661,269.8599853515625,0.04775645583868027,-0.36224353313446045
1682106450.13934994,714873977,42.6900013,-84.48886619999999,269.8699951171875,0.05615093559026718,-0.35384905338287354
1682106450.23934698,714973974,42.6900013,-84.48886619999999,269.9100036621094,0.09468939155340195,-0.31531059741973877
1682106450.33938599,715074013,42.6900013,-84.4888663,269.9700012207031,0.15816882252693176,-0.25183117389678955
1682106450.43931890,715173946,42.6900012,-84.48886619999999,270.05999755859375,0.2459883987903595,-0.16401159763336182
1682106450.53924203,715273869,42.690001099999996,-84.4888661,270.1499938964844,0.335084468126297,-0.07491552829742432
1682106450.63931990,715373947,42.690001099999996,-84.4888661,270.22998046875,0.41187551617622375,0.0018755178898572922
1682106450.73971891,715474346,42.690001099999996,-84.4888659,270.2900085449219,0.4725377857685089,0.0625377893447876
1682106450.83961010,715574237,42.690001099999996,-84.48886569999999,270.3299865722656,0.5147788524627686,0.10477888584136963
1682106450.93934798,715673975,42.6900012,-84.4888654,270.3599853515625,0.5489051342010498,0.13890516757965088
1682106451.03949809,715774125,42.6900013,-84.48886499999999,270.3999938964844,0.5805618762969971,0.17056190967559814
1682106451.13947701,715874104,42.6900013,-84.4888647,270.41998291015625,0.6097207069396973,0.19972074031829834
1682106451.23950696,715974134,42.6900015,-84.4888643,270.4499816894531,0.639988899230957,0.2299889326095581
1682106451.33952498,716074152,42.690001599999995,-84.4888639,270.47998046875,0.6697888374328613,0.2597888708114624
1682106451.43951988,716174147,42.6900018,-84.4888636,270.5099792480469,0.6953823566436768,0.28538239002227783
1682106451.53956699,716274194,42.6900019,-84.4888632,270.5400085449219,0.7252504825592041,0.3152505159378052
1682106451.63971806,716374345,42.690002,-84.4888629,270.5799865722656,0.761707067489624,0.3517071008682251
1682106451.73961997,716474247,42.6900021,-84.4888625,270.6199951171875,0.8027641773223877,0.39276421070098877
1682106451.83967209,716574299,42.690002199999995,-84.488862,270.66998291015625,0.853198766708374,0.4431988000869751
1682106451.93962407,716674251,42.690002299999996,-84.48886159999999,270.7200012207031,0.9090539216995239,0.499053955078125
1682106452.03953600,716774163,42.6900024,-84.4888611,270.7900085449219,0.9725900888442993,0.5625901222229004
1682106452.13954496,716874172,42.6900024,-84.48886069999999,270.8500061035156,1.0389176607131958,0.6289176940917969
1682106452.23957396,716974201,42.6900024,-84.48886019999999,270.91998291015625,1.1045001745224,0.694500207901001
1682106452.33960199,717074229,42.6900024,-84.4888596,270.97998046875,1.1692743301391602,0.7592743635177612
1682106452.43958902,717174216,42.6900024,-84.4888591,271.04998779296875,1.2352739572525024,0.8252739906311035
1682106452.53986788,717274495,42.690002299999996,-84.4888586,271.1199951171875,1.3011001348495483,0.8911001682281494
1682106452.63961411,717374241,42.690002199999995,-84.4888581,271.17999267578125,1.3688064813613892,0.9588065147399902
1682106452.73936296,717473990,42.6900021,-84.4888576,271.25,1.4353419542312622,1.0253419876098633
1682106452.83934903,717573976,42.690002,-84.488857,271.30999755859375,1.4995728731155396,1.0895729064941406
1682106452.93939900,717674026,42.690002,-84.4888564,271.3800048828125,1.565492868423462,1.155492901802063
1682106453.03937602,717774003,42.690002,-84.48885589999999,271.4499816894531,1.6316906213760376,1.2216906547546387
1682106453.13930988,717873937,42.690002,-84.48885539999999,271.5099792480469,1.6961718797683716,1.2861719131469727
1682106453.23923492,717973862,42.6900019,-84.4888551,271.57000732421875,1.7565574645996094,1.3465574979782104
1682106453.33928704,718073914,42.6900019,-84.48885469999999,271.6300048828125,1.8160033226013184,1.4060033559799194
1682106453.43935990,718173987,42.6900018,-84.4888543,271.69000244140625,1.8778221607208252,1.4678221940994263
1682106453.53928494,718273912,42.6900019,-84.48885399999999,271.75,1.9382611513137817,1.5282611846923828
1682106453.63933706,718373964,42.6900019,-84.4888536,271.80999755859375,1.9927029609680176,1.5827029943466187
1682106453.73957896,718474206,42.690002,-84.4888531,271.8500061035156,2.038475751876831,1.6284756660461426
1682106453.83934402,718573971,42.690002,-84.4888527,271.8899841308594,2.0775740146636963,1.6675739288330078
1682106453.93938208,718674009,42.6900021,-84.48885229999999,271.92999267578125,2.1126816272735596,1.702681541442871
1682106454.03932595,718773953,42.6900021,-84.48885179999999,271.9599914550781,2.145895481109619,1.7358955144882202
1682106454.13924599,718873873,42.6900021,-84.4888514,271.989990234375,2.1760826110839844,1.766082525253296
1682106454.23925591,718973883,42.6900021,-84.4888509,272.0099792480469,2.198606252670288,1.7886061668395996
1682106454.33936405,719073991,42.6900021,-84.4888503,272.0299987792969,2.2129669189453125,1.8029669523239136
1682106454.43932009,719173947,42.6900021,-84.4888498,272.0299987792969,2.2132701873779297,1.8032701015472412
1682106454.53967905,719274306,42.6900021,-84.48884919999999,272.0199890136719,2.206796169281006,1.796796202659607
1682106454.63957191,719374199,42.6900021,-84.48884869999999,272.0099792480469,2.1968939304351807,1.7868939638137817
1682106454.73935890,719473986,42.6900021,-84.4888481,272.0,2.185163736343384,1.7751636505126953
1682106454.83960390,719574231,42.6900021,-84.4888476,271.989990234375,2.1719939708709717,1.7619940042495728
1682106454.93958807,719674215,42.690002,-84.4888471,271.9700012207031,2.1569011211395264,1.7469011545181274
1682106455.03947401,719774101,42.690002,-84.4888467,271.9599914550781,2.142887830734253,1.732887864112854
1682106455.13951707,719874144,42.690002,-84.48884629999999,271.9499816894531,2.1310837268829346,1.7210837602615356
1682106455.23962593,719974253,42.690002,-84.4888459,271.94000244140625,2.124164581298828,1.7141646146774292
1682106455.33953595,720074163,42.690002,-84.48884559999999,271.94000244140625,2.120543956756592,1.7105438709259033
1682106455.43951607,720174143,42.690002,-84.4888452,271.92999267578125,2.118479013442993,1.7084790468215942
1682106455.54005098,720274678,42.690002,-84.48884489999999,271.92999267578125,2.119453191757202,1.7094531059265137
1682106455.63953304,720374160,42.6900021,-84.4888445,271.94000244140625,2.1275062561035156,1.7175061702728271
1682106455.73934698,720473974,42.690002,-84.4888442,271.9599914550781,2.1412594318389893,1.7312594652175903
1682106455.83933496,720573962,42.690002,-84.48884389999999,271.97998046875,2.1606390476226807,1.7506390810012817
1682106455.93937206,720673999,42.6900021,-84.4888436,272.0,2.183375597000122,1.7733756303787231
1682106456.03930402,720773931,42.6900021,-84.4888433,272.0199890136719,2.2086710929870605,1.7986711263656616
1682106456.13935494,720873982,42.6900021,-84.488843,272.04998779296875,2.236210346221924,1.826210379600525
1682106456.23927498,720973902,42.6900021,-84.48884269999999,272.0799865722656,2.262695074081421,1.852695107460022
1682106456.33934307,721073970,42.6900021,-84.4888423,272.1000061035156,2.284611463546753,1.874611496925354
1682106456.43956709,721174194,42.6900021,-84.4888419,272.1199951171875,2.30283784866333,1.8928378820419312
1682106456.53971004,721274337,42.690002,-84.48884149999999,272.1300048828125,2.316399335861206,1.9063993692398071
1682106456.63955593,721374183,42.690002,-84.4888411,272.1399841308594,2.3270480632781982,1.9170479774475098
1682106456.73931694,721473944,42.6900018,-84.4888407,272.1499938964844,2.336115598678589,1.92611563205719
1682106456.83923793,721573865,42.6900018,-84.48884029999999,272.1600036621094,2.346367359161377,1.9363672733306885
1682106456.93950891,721674136,42.690001699999996,-84.48884,272.16998291015625,2.3598835468292236,1.9498834609985352
1682106457.03935790,721773985,42.690001599999995,-84.4888397,272.19000244140625,2.373572826385498,1.9635728597640991
1682106457.13926697,721873894,42.6900015,-84.48883939999999,272.1999816894531,2.3854267597198486,1.9754267930984497
1682106457.23933887,721973966,42.6900014,-84.48883909999999,272.2099914550781,2.397519111633301,1.9875190258026123
1682106457.33957410,722074201,42.6900014,-84.4888388,272.2200012207031,2.408851146697998,1.9988511800765991
1682106457.43953705,722174164,42.6900013,-84.4888385,272.22998046875,2.4161999225616455,2.006199836730957
1682106457.53969693,722274324,42.6900012,-84.4888381,272.239990234375,2.4225449562072754,2.012544870376587
1682106457.63931394,722373941,42.690000999999995,-84.4888378,272.239990234375,2.4274508953094482,2.0174508094787598
1682106457.73933101,722473958,42.6900009,-84.4888375,272.25,2.430222511291504,2.0202224254608154
1682106457.83927894,722573906,42.6900008,-84.48883719999999,272.25,2.4316911697387695,2.021691083908081
1682106457.93939209,722674019,42.6900006,-84.4888369,272.25,2.4345643520355225,2.024564266204834
1682106458.03926992,722773897,42.6900005,-84.4888367,272.25,2.438694715499878,2.0286946296691895
1682106458.13934088,722873968,42.6900003,-84.4888364,272.2599792480469,2.443636417388916,2.0336363315582275
1682106458.23957205,722974199,42.6900002,-84.4888362,272.2599792480469,2.448540210723877,2.0385401248931885
1682106458.33955598,723074183,42.69,-84.48883599999999,272.2699890136719,2.4522836208343506,2.042283535003662
1682106458.43954396,723174171,42.6899999,-84.48883579999999,272.2699890136719,2.4546666145324707,2.0446665287017822
1682106458.53947997,723274107,42.689999799999995,-84.4888357,272.2699890136719,2.4557557106018066,2.045755624771118
1682106458.63945603,723374083,42.689999799999995,-84.4888355,272.2699890136719,2.453089952468872,2.0430898666381836
1682106458.73952007,723474147,42.6899997,-84.4888354,272.2599792480469,2.4488868713378906,2.038886785507202
1682106458.83959198,723574219,42.6899997,-84.48883529999999,272.2599792480469,2.4443519115448,2.0343518257141113
1682106458.93960309,723674230,42.689999799999995,-84.4888351,272.25,2.4396121501922607,2.0296120643615723
1682106459.03966498,723774292,42.689999799999995,-84.488835,272.25,2.4345335960388184,2.02453351020813
1682106459.13949108,723874118,42.6899999,-84.4888349,272.239990234375,2.428931713104248,2.0189316272735596
1682106459.23951292,723974140,42.6899999,-84.48883479999999,272.239990234375,2.423776626586914,2.0137765407562256
1682106459.33971310,724074340,42.6899999,-84.48883459999999,272.22998046875,2.419290065765381,2.0092899799346924
1682106459.43958402,724174211,42.6899999,-84.4888345,272.22998046875,2.4118645191192627,2.001864433288574
1682106459.53959894,724274226,42.6899999,-84.4888344,272.2200012207031,2.4035303592681885,1.9935302734375
1682106459.63962698,724374254,42.6899999,-84.4888343,272.2099914550781,2.3983356952667236,1.9883357286453247
1682106459.73967409,724474301,42.689999799999995,-84.48883409999999,272.2099914550781,2.3950753211975098,1.9850752353668213
1682106459.83958292,724574210,42.689999799999995,-84.488834,272.2099914550781,2.3919997215270996,1.9819996356964111
1682106459.93971300,724674340,42.689999799999995,-84.4888338,272.2099914550781,2.3902580738067627,1.9802581071853638
1682106460.03933406,724773961,42.6899997,-84.48883359999999,272.2099914550781,2.391423225402832,1.9814231395721436
1682106460.13935804,724873985,42.6899997,-84.48883339999999,272.2099914550781,2.3949408531188965,1.9849408864974976
1682106460.23955393,724974181,42.6899996,-84.4888332,272.2200012207031,2.401552438735962,1.991552472114563
1682106460.33931494,725073942,42.6899995,-84.48883289999999,272.22998046875,2.4135735034942627,2.003573417663574
1682106460.43923688,725173864,42.6899994,-84.4888327,272.25,2.430114269256592,2.0201141834259033
1682106460.53933311,725273960,42.6899994,-84.4888325,272.2599792480469,2.44915771484375,2.0391576290130615
1682106460.63936210,725373989,42.6899993,-84.48883219999999,272.2900085449219,2.4740328788757324,2.064032793045044
1682106460.73933196,725473959,42.689999199999995,-84.4888319,272.32000732421875,2.5033509731292725,2.093350887298584
1682106460.83935809,725573985,42.689999199999995,-84.4888316,272.3500061035156,2.531627893447876,2.1216278076171875
1682106460.93938994,725674017,42.6899991,-84.4888313,272.3800048828125,2.561223268508911,2.1512231826782227
1682106461.03934908,725773976,42.6899991,-84.48883099999999,272.4100036621094,2.591486930847168,2.1814868450164795
1682106461.13962793,725874255,42.689999,-84.4888307,272.42999267578125,2.6197164058685303,2.209716320037842
1682106461.23932910,725973956,42.689999,-84.4888304,272.4599914550781,2.6454970836639404,2.235496997833252
1682106461.33925390,726073881,42.6899989,-84.48883,272.47998046875,2.666745662689209,2.2567455768585205
1682106461.43929911,726173926,42.6899988,-84.4888296,272.5,2.6819052696228027,2.2719051837921143
1682106461.53937888,726274006,42.689998599999996,-84.48882929999999,272.5099792480469,2.6938233375549316,2.283823251724243
1682106461.63927007,726373897,42.6899985,-84.4888289,272.5199890136719,2.7057199478149414,2.295719861984253
1682106461.73933506,726473962,42.6899983,-84.48882859999999,272.5299987792969,2.7173542976379395,2.307354211807251
1682106461.83935595,726573983,42.6899981,-84.4888282,272.5400085449219,2.728283166885376,2.3182830810546875
1682106461.93940592,726674033,42.6899979,-84.4888278,272.54998779296875,2.73828387260437,2.3282837867736816
1682106462.03937101,726773998,42.6899977,-84.48882739999999,272.55999755859375,2.746297836303711,2.3362977504730225
1682106462.13933396,726873961,42.689997399999996,-84.488827,272.57000732421875,2.7528319358825684,2.34283185005188
1682106462.23960996,726974237,42.689997299999995,-84.4888265,272.57000732421875,2.7569243907928467,2.346924304962158
1682106462.33961987,727074247,42.6899971,-84.488826,272.57000732421875,2.7591395378112793,2.349139451980591
1682106462.43959689,727174224,42.689997,-84.48882549999999,272.57000732421875,2.7597222328186035,2.349722146987915
1682106462.53953695,727274164,42.6899971,-84.4888249,272.57000732421875,2.7571656703948975,2.347165584564209
1682106462.63951588,727374143,42.6899971,-84.4888244,272.57000732421875,2.7535886764526367,2.3435885906219482
1682106462.73949099,727474118,42.689997299999995,-84.4888239,272.57000732421875,2.751126527786255,2.3411264419555664
1682106462.83950210,727574129,42.689997299999995,-84.48882329999999,272.57000732421875,2.7504401206970215,2.340440034866333
1682106462.93954301,727674170,42.689997399999996,-84.4888228,272.57000732421875,2.751553773880005,2.3415536880493164
1682106463.03952003,727774147,42.6899975,-84.4888223,272.57000732421875,2.753484010696411,2.3434839248657227
1682106463.13972402,727874351,42.6899976,-84.4888218,272.57000732421875,2.7540202140808105,2.344020128250122
1682106463.23966908,727974296,42.6899977,-84.48882119999999,272.57000732421875,2.750497579574585,2.3404974937438965
1682106463.33938193,728074009,42.6899978,-84.48882069999999,272.55999755859375,2.744520664215088,2.3345205783843994
1682106463.43931890,728173946,42.6899977,-84.4888201,272.54998779296875,2.7369182109832764,2.326918125152588
1682106463.53936100,728273988,42.6899976,-84.4888196,272.5400085449219,2.728100061416626,2.3180999755859375
1682106463.63935089,728373978,42.6899975,-84.4888191,272.5400085449219,2.721029758453369,2.3110296726226807
1682106463.73934698,728473974,42.689997399999996,-84.4888186,272.5299987792969,2.7146594524383545,2.304659366607666
1682106463.83936405,728573991,42.689997299999995,-84.4888182,272.5199890136719,2.706770896911621,2.2967708110809326
1682106463.93940496,728674032,42.689997,-84.4888177,272.5099792480469,2.6965878009796143,2.286587715148926
1682106464.03959703,728774224,42.689996799999996,-84.4888173,272.5,2.685791015625,2.2757909297943115
1682106464.13928008,728873907,42.689996699999995,-84.48881689999999,272.489990234375,2.6754746437072754,2.265474557876587
1682106464.23937011,728973997,42.6899965,-84.48881659999999,272.47998046875,2.6652369499206543,2.255236864089966
1682106464.33932209,729073949,42.6899964,-84.48881639999999,272.4700012207031,2.654684543609619,2.2446844577789307
1682106464.43932891,729173956,42.6899963,-84.4888163,272.4599914550781,2.645275831222534,2.2352757453918457
1682106464.53935003,729273977,42.689996199999996,-84.4888161,272.4499816894531,2.63696026802063,2.2269601821899414
1682106464.63934493,729373972,42.689996099999995,-84.488816,272.44000244140625,2.6296937465667725,2.219693660736084
1682106464.73933887,729473966,42.689996099999995,-84.48881589999999,272.44000244140625,2.624394416809082,2.2143943309783936
1682106464.83930302,729573930,42.689996,-84.4888158,272.44000244140625,2.6209428310394287,2.2109427452087402
1682106464.93963504,729674262,42.6899959,-84.48881569999999,272.42999267578125,2.619338035583496,2.2093379497528076
1682106465.03928995,729773917,42.6899958,-84.4888155,272.42999267578125,2.6171905994415283,2.20719051361084
1682106465.13958597,729874213,42.6899957,-84.4888153,272.42999267578125,2.614640235900879,2.2046401500701904
1682106465.23956704,729974194,42.689995499999995,-84.4888151,272.42999267578125,2.6122379302978516,2.202237844467163
1682106465.33965802,730074285,42.6899954,-84.488815,272.41998291015625,2.6095833778381348,2.1995832920074463
1682106465.43947887,730174106,42.6899952,-84.4888148,272.41998291015625,2.6062514781951904,2.196251392364502
1682106465.53949809,730274125,42.6899951,-84.4888146,272.41998291015625,2.6016130447387695,2.191612958908081
1682106465.63948298,730374110,42.689994999999996,-84.48881449999999,272.4100036621094,2.595498561859131,2.1854984760284424
1682106465.73951697,730474144,42.6899948,-84.4888143,272.4100036621094,2.5901150703430176,2.180114984512329
1682106465.83969402,730574321,42.6899947,-84.4888142,272.3999938964844,2.5868682861328125,2.176868200302124
1682106465.93962407,730674251,42.6899946,-84.48881399999999,272.3999938964844,2.585289716720581,2.1752896308898926
1682106466.03966403,730774291,42.6899945,-84.4888138,272.3999938964844,2.58365797996521,2.1736578941345215
1682106466.13959098,730874218,42.689994299999995,-84.4888137,272.3999938964844,2.585082769393921,2.1750826835632324
1682106466.23969293,730974320,42.6899942,-84.4888136,272.3999938964844,2.5887300968170166,2.178730010986328
1682106466.33957005,731074197,42.6899941,-84.48881349999999,272.4100036621094,2.5964646339416504,2.186464548110962
1682106466.43953204,731174159,42.689994,-84.48881349999999,272.41998291015625,2.606825590133667,2.1968255043029785
1682106466.53957105,731274198,42.689994,-84.48881349999999,272.42999267578125,2.618269920349121,2.2082698345184326
1682106466.63957310,731374200,42.6899939,-84.48881349999999,272.4499816894531,2.631021499633789,2.2210214138031006
1682106466.73976398,731474391,42.689993799999996,-84.48881349999999,272.4599914550781,2.643021821975708,2.2330217361450195
1682106466.83961010,731574237,42.689993699999995,-84.48881349999999,272.4700012207031,2.6546220779418945,2.244621992111206
1682106466.93973088,731674358,42.6899936,-84.48881349999999,272.47998046875,2.665503740310669,2.2555036544799805
1682106467.03961706,731774244,42.6899934,-84.4888134,272.489990234375,2.6752572059631348,2.2652571201324463
1682106467.13934088,731873968,42.6899933,-84.48881329999999,272.5,2.6802144050598145,2.270214319229126
1682106467.23936009,731973987,42.689993199999996,-84.48881329999999,272.5,2.682206392288208,2.2722063064575195
1682106467.33935189,732073979,42.689993099999995,-84.4888132,272.5,2.682352304458618,2.2723522186279297
1682106467.43943906,732174066,42.689993,-84.4888131,272.489990234375,2.678051233291626,2.2680511474609375
1682106467.53954101,732274168,42.689993,-84.4888131,272.489990234375,2.6725597381591797,2.262559652328491
1682106467.63946795,732374095,42.6899929,-84.488813,272.47998046875,2.6672492027282715,2.257249116897583
1682106467.73956108,732474188,42.6899928,-84.488813,272.47998046875,2.662205696105957,2.2522056102752686
1682106467.83982611,732574453,42.6899928,-84.488813,272.4700012207031,2.6577515602111816,2.247751474380493
1682106467.93972397,732674351,42.6899928,-84.488813,272.4700012207031,2.6534276008605957,2.2434275150299072
1682106468.03968096,732774308,42.6899928,-84.4888129,272.4599914550781,2.6490650177001953,2.239064931869507
1682106468.13957000,732874197,42.6899928,-84.4888129,272.4599914550781,2.6445000171661377,2.234499931335449
1682106468.23953700,732974164,42.6899929,-84.4888129,272.4599914550781,2.640989303588867,2.2309892177581787
1682106468.33955789,733074185,42.6899929,-84.4888129,272.4499816894531,2.6377904415130615,2.227790355682373
1682106468.43955588,733174183,42.6899929,-84.4888129,272.4499816894531,2.635128974914551,2.2251288890838623
1682106468.53960800,733274235,42.689993,-84.48881279999999,272.4499816894531,2.6319241523742676,2.221924066543579
1682106468.63957810,733374205,42.689993,-84.4888127,272.44000244140625,2.627153158187866,2.2171530723571777
1682106468.73987103,733474498,42.689993,-84.4888126,272.44000244140625,2.621116876602173,2.2111167907714844
1682106468.83959293,733574220,42.689993,-84.4888124,272.42999267578125,2.6142396926879883,2.2042396068573
1682106468.93944001,733674067,42.689993,-84.4888122,272.41998291015625,2.606501340866089,2.1965012550354004
1682106469.03934193,733773969,42.689993,-84.4888119,272.41998291015625,2.6008071899414062,2.1908071041107178
1682106469.13934302,733873970,42.6899929,-84.48881159999999,272.4100036621094,2.5948643684387207,2.1848642826080322
1682106469.23934197,733973969,42.6899928,-84.4888112,272.4100036621094,2.5905768871307373,2.180576801300049
1682106469.33932209,734073949,42.6899927,-84.4888107,272.3999938964844,2.5884265899658203,2.178426504135132
1682106469.43959093,734174218,42.6899926,-84.4888103,272.3999938964844,2.5858235359191895,2.175823450088501
1682106469.53969407,734274321,42.6899924,-84.48880969999999,272.3999938964844,2.582472085952759,2.1724720001220703
1682106469.63936710,734373994,42.6899923,-84.48880919999999,272.3899841308594,2.579296827316284,2.1692967414855957
1682106469.73930788,734473935,42.6899921,-84.48880869999999,272.3899841308594,2.575413227081299,2.1654131412506104
1682106469.83934188,734573969,42.689992,-84.4888083,272.3899841308594,2.5715510845184326,2.161550998687744
1682106469.93937898,734674006,42.689992,-84.48880779999999,272.3800048828125,2.5688893795013428,2.1588892936706543
1682106470.03934789,734773975,42.689992,-84.4888074,272.3800048828125,2.569654941558838,2.1596548557281494
1682106470.13955402,734874181,42.689992,-84.4888071,272.3899841308594,2.5725257396698,2.1625256538391113
1682106470.23956394,734974191,42.689992,-84.4888067,272.3899841308594,2.576782464981079,2.1667823791503906
1682106470.33958387,735074211,42.689992,-84.4888062,272.3999938964844,2.581651449203491,2.1716513633728027
1682106470.43958402,735174211,42.6899921,-84.4888058,272.3999938964844,2.5861520767211914,2.176151990890503
1682106470.53961802,735274245,42.6899922,-84.4888053,272.3999938964844,2.5895931720733643,2.179593086242676
1682106470.63951898,735374146,42.6899923,-84.4888048,272.4100036621094,2.590230941772461,2.1802308559417725
1682106470.73954892,735474176,42.6899923,-84.4888043,272.3999938964844,2.587777853012085,2.1777777671813965
1682106470.83947301,735574100,42.6899924,-84.4888039,272.3999938964844,2.5848474502563477,2.174847364425659
1682106470.93953300,735674160,42.6899926,-84.4888035,272.3999938964844,2.5824882984161377,2.172488212585449
1682106471.03954506,735774172,42.6899928,-84.48880319999999,272.3999938964844,2.5803029537200928,2.1703028678894043
1682106471.13958502,735874212,42.6899928,-84.4888028,272.3899841308594,2.5767996311187744,2.166799545288086
1682106471.23959899,735974226,42.6899929,-84.48880249999999,272.3899841308594,2.573531150817871,2.1635310649871826
1682106471.33962989,736074257,42.6899929,-84.4888022,272.3800048828125,2.569535970687866,2.1595358848571777
1682106471.43935108,736173978,42.6899928,-84.4888017,272.3800048828125,2.56516170501709,2.1551616191864014
1682106471.53928089,736273908,42.6899926,-84.48880129999999,272.3800048828125,2.560037612915039,2.1500375270843506
1682106471.63935995,736373987,42.6899924,-84.48880079999999,272.3699951171875,2.554036855697632,2.1440367698669434
1682106471.73933887,736473966,42.6899923,-84.4888002,272.3699951171875,2.550676107406616,2.1406760215759277
1682106471.83933711,736573964,42.6899921,-84.4887997,272.3599853515625,2.547499179840088,2.1374990940093994
1682106471.93940711,736674034,42.689991899999995,-84.4887992,272.3599853515625,2.5451107025146484,2.13511061668396
1682106472.03932810,736773955,42.6899917,-84.48879869999999,272.3599853515625,2.5459182262420654,2.135918140411377
1682106472.13958502,736874212,42.6899916,-84.4887983,272.3599853515625,2.5494513511657715,2.139451265335083
1682106472.23962402,736974251,42.6899915,-84.4887979,272.3699951171875,2.554326057434082,2.1443259716033936
1682106472.33968711,737074314,42.6899914,-84.48879749999999,272.3699951171875,2.5591070652008057,2.149106979370117
1682106472.43958688,737174214,42.6899914,-84.4887973,272.3800048828125,2.5606155395507812,2.1506154537200928
1682106472.53968191,737274309,42.6899914,-84.4887971,272.3800048828125,2.563246726989746,2.1532466411590576
1682106472.63955188,737374179,42.689991299999996,-84.4887969,272.3800048828125,2.5654137134552,2.1554136276245117
1682106472.73955488,737474182,42.689991299999996,-84.4887968,272.3800048828125,2.5653433799743652,2.1553432941436768
1682106472.83956003,737574187,42.6899912,-84.4887967,272.3800048828125,2.5645110607147217,2.154510974884033
1682106472.93963504,737674262,42.6899912,-84.4887966,272.3800048828125,2.563138723373413,2.1531386375427246
1682106473.03978109,737774408,42.6899911,-84.48879649999999,272.3800048828125,2.562901020050049,2.1529009342193604
1682106473.13963294,737874260,42.689991,-84.4887964,272.3800048828125,2.5619850158691406,2.151984930038452
1682106473.23937607,737974003,42.6899909,-84.48879629999999,272.3699951171875,2.5592002868652344,2.149200201034546
1682106473.33931994,738073947,42.689990699999996,-84.48879629999999,272.3699951171875,2.5592153072357178,2.1492152214050293
1682106473.43934608,738173973,42.6899906,-84.4887962,272.3800048828125,2.562068462371826,2.1520683765411377
1682106473.53937101,738273998,42.6899905,-84.4887961,272.3800048828125,2.5657694339752197,2.1557693481445312
1682106473.63937688,738374004,42.6899904,-84.4887961,272.3800048828125,2.569495677947998,2.1594955921173096
1682106473.73947501,738474102,42.6899903,-84.488796,272.3899841308594,2.5736465454101562,2.1636464595794678
1682106473.83959293,738574220,42.6899903,-84.488796,272.3899841308594,2.577500343322754,2.1675002574920654
1682106473.93967199,738674299,42.6899902,-84.488796,272.3999938964844,2.581087350845337,2.1710872650146484
1682106474.03963995,738774267,42.689990099999996,-84.488796,272.3999938964844,2.585082769393921,2.1750826835632324
1682106474.13960791,738874235,42.689990099999996,-84.488796,272.3999938964844,2.5894763469696045,2.179476261138916
1682106474.23954296,738974170,42.689990099999996,-84.488796,272.4100036621094,2.593393087387085,2.1833930015563965
1682106474.33962202,739074249,42.689990099999996,-84.488796,272.4100036621094,2.597275733947754,2.1872756481170654
1682106474.43948603,739174113,42.689990099999996,-84.4887961,272.4100036621094,2.598040819168091,2.1880407333374023
1682106474.53950691,739274134,42.689990099999996,-84.4887961,272.4100036621094,2.5957202911376953,2.185720205307007
1682106474.63951993,739374147,42.689990099999996,-84.4887961,272.4100036621094,2.5932064056396484,2.18320631980896
1682106474.73955297,739474180,42.689990099999996,-84.4887962,272.3999938964844,2.5893633365631104,2.179363250732422
1682106474.83958006,739574207,42.689990099999996,-84.48879629999999,272.3999938964844,2.5840933322906494,2.174093246459961
1682106474.93965006,739674277,42.6899902,-84.4887964,272.3899841308594,2.5783021450042725,2.168302059173584
1682106475.03938890,739774016,42.6899903,-84.4887964,272.3899841308594,2.573134183883667,2.1631340980529785
1682106475.13932490,739873952,42.6899903,-84.48879649999999,272.3800048828125,2.568721055984497,2.1587209701538086
1682106475.23937011,739973997,42.6899904,-84.4887966,272.3800048828125,2.5670149326324463,2.157014846801758
1682106475.33936095,740073988,42.6899905,-84.4887966,272.3800048828125,2.5673165321350098,2.1573164463043213
1682106475.43938804,740174015,42.6899905,-84.4887967,272.3800048828125,2.567115545272827,2.1571154594421387
1682106475.53937793,740274005,42.6899906,-84.4887968,272.3800048828125,2.565882682800293,2.1558825969696045
1682106475.63957906,740374206,42.689990699999996,-84.4887968,272.3800048828125,2.565335988998413,2.1553359031677246
1682106475.73961902,740474246,42.6899908,-84.4887969,272.3800048828125,2.5642378330230713,2.154237747192383
1682106475.83971310,740574340,42.6899908,-84.4887969,272.3800048828125,2.561217784881592,2.1512176990509033
1682106475.93988991,740674517,42.6899909,-84.4887969,272.3699951171875,2.55657696723938,2.1465768814086914
1682106476.03960204,740774229,42.689991,-84.48879699999999,272.3699951171875,2.5517783164978027,2.1417782306671143
1682106476.13934994,740873977,42.689991,-84.48879699999999,272.3599853515625,2.5466156005859375,2.136615514755249
1682106476.23935795,740973985,42.6899911,-84.48879699999999,272.3599853515625,2.540384531021118,2.1303844451904297
1682106476.33937502,741074002,42.6899911,-84.48879699999999,272.3500061035156,2.5332412719726562,2.1232411861419678
1682106476.43937111,741173998,42.6899912,-84.48879699999999,272.3399963378906,2.5269551277160645,2.116955041885376
1682106476.53931999,741273947,42.689991299999996,-84.48879699999999,272.3399963378906,2.520881414413452,2.1108813285827637
1682106476.63923502,741373862,42.689991299999996,-84.48879699999999,272.3299865722656,2.5151150226593018,2.1051149368286133
1682106476.73930192,741473929,42.689991299999996,-84.48879699999999,272.32000732421875,2.5099501609802246,2.099950075149536
1682106476.83967495,741574302,42.6899914,-84.48879699999999,272.32000732421875,2.5050320625305176,2.095031976699829
1682106476.93937588,741674003,42.6899914,-84.48879699999999,272.30999755859375,2.4995248317718506,2.089524745941162
1682106477.03937387,741774001,42.6899914,-84.48879699999999,272.30999755859375,2.492727279663086,2.0827271938323975
1682106477.13935709,741873984,42.6899914,-84.4887969,272.29998779296875,2.4860730171203613,2.076072931289673
1682106477.23937201,741973999,42.6899915,-84.4887969,272.29998779296875,2.4813966751098633,2.071396589279175
1682106477.33937788,742074005,42.6899915,-84.4887969,272.2900085449219,2.4789164066314697,2.0689163208007812
1682106477.43930602,742173933,42.6899915,-84.4887968,272.2900085449219,2.475921392440796,2.0659213066101074
1682106477.53933001,742273957,42.6899915,-84.4887968,272.2900085449219,2.471895217895508,2.0618951320648193
1682106477.63927007,742373897,42.6899915,-84.4887967,272.2799987792969,2.46937894821167,2.0593788623809814
1682106477.73967195,742474299,42.6899915,-84.4887967,272.2799987792969,2.4679360389709473,2.057935953140259
1682106477.83929491,742573922,42.6899915,-84.4887966,272.2799987792969,2.4676694869995117,2.0576694011688232
1682106477.93968987,742674317,42.6899915,-84.4887964,272.2799987792969,2.468421697616577,2.0584216117858887
1682106478.03949404,742774121,42.6899914,-84.4887962,272.2799987792969,2.4697463512420654,2.059746265411377
1682106478.13950205,742874129,42.6899914,-84.488796,272.2900085449219,2.47115159034729,2.0611515045166016
1682106478.23951602,742974143,42.6899914,-84.48879579999999,272.2900085449219,2.475109815597534,2.0651097297668457
1682106478.33952093,743074148,42.6899914,-84.4887955,272.2900085449219,2.4798786640167236,2.069878578186035
1682106478.43946409,743174091,42.6899914,-84.48879509999999,272.29998779296875,2.4813694953918457,2.0713694095611572
1682106478.53956509,743274192,42.6899914,-84.4887948,272.29998779296875,2.481151819229126,2.0711517333984375
1682106478.63979793,743374425,42.6899915,-84.48879439999999,272.29998779296875,2.4808504581451416,2.070850372314453
1682106478.73960900,743474236,42.6899915,-84.48879389999999,272.2900085449219,2.4776782989501953,2.067678213119507
1682106478.83962107,743574248,42.6899915,-84.4887935,272.2900085449219,2.4754395484924316,2.065439462661743
1682106478.93961096,743674238,42.6899915,-84.4887931,272.2900085449219,2.477130174636841,2.0671300888061523
1682106479.03953791,743774165,42.6899916,-84.4887926,272.2900085449219,2.4782016277313232,2.0682015419006348
1682106479.13954091,743874168,42.6899917,-84.4887921,272.29998779296875,2.480320930480957,2.0703208446502686
1682106479.23957205,743974199,42.6899918,-84.4887916,272.29998779296875,2.483454942703247,2.0734548568725586
1682106479.33958888,744074216,42.689992,-84.4887911,272.29998779296875,2.4854743480682373,2.075474262237549
1682106479.43959594,744174223,42.6899921,-84.4887906,272.29998779296875,2.483661413192749,2.0736613273620605
1682106479.53970003,744274327,42.6899923,-84.4887901,272.29998779296875,2.481316089630127,2.0713160037994385
1682106479.63959503,744374222,42.689992499999995,-84.4887895,272.29998779296875,2.4803335666656494,2.070333480834961
1682106479.73967695,744474304,42.6899927,-84.488789,272.29998779296875,2.4830005168914795,2.073000431060791
1682106479.83958602,744574213,42.6899929,-84.48878839999999,272.29998779296875,2.4881505966186523,2.078150510787964
1682106479.93939209,744674019,42.689993099999995,-84.4887878,272.30999755859375,2.4945499897003174,2.084549903869629
1682106480.03946900,744774096,42.6899934,-84.48878719999999,272.32000732421875,2.502199649810791,2.0921995639801025
1682106480.13931704,744873944,42.6899936,-84.4887866,272.3299865722656,2.510587215423584,2.1005871295928955
1682106480.23924303,744973870,42.689993799999996,-84.48878599999999,272.3299865722656,2.5192503929138184,2.10925030708313
1682106480.33925295,745073880,42.6899939,-84.48878549999999,272.3399963378906,2.5254695415496826,2.115469455718994
1682106480.43935990,745173987,42.6899939,-84.488785,272.3500061035156,2.5311715602874756,2.121171474456787
1682106480.53932190,745273949,42.6899939,-84.4887845,272.3500061035156,2.5374622344970703,2.127462148666382
1682106480.63933110,745373958,42.689993799999996,-84.488784,272.3599853515625,2.5418548583984375,2.131854772567749
1682106480.73958302,745474210,42.6899936,-84.48878359999999,272.3599853515625,2.545083999633789,2.1350839138031006
1682106480.83933401,745573961,42.6899935,-84.48878309999999,272.3599853515625,2.549971342086792,2.1399712562561035
1682106480.93939805,745674025,42.6899933,-84.4887827,272.3699951171875,2.5529844760894775,2.142984390258789
1682106481.03930688,745773934,42.689993099999995,-84.4887822,272.3699951171875,2.554093360900879,2.1440932750701904
1682106481.13919997,745873827,42.6899929,-84.4887818,272.3699951171875,2.5554862022399902,2.1454861164093018
1682106481.23928499,745973912,42.6899928,-84.4887814,272.3699951171875,2.5560190677642822,2.1460189819335938
1682106481.33938909,746074016,42.6899927,-84.4887809,272.3699951171875,2.55831241607666,2.1483123302459717
1682106481.43927789,746173905,42.6899927,-84.4887804,272.3800048828125,2.560614585876465,2.1506145000457764
1682106481.53937006,746273997,42.6899927,-84.4887799,272.3800048828125,2.561467409133911,2.1514673233032227
1682106481.63958001,746374207,42.6899926,-84.48877929999999,272.3800048828125,2.5602188110351562,2.1502187252044678
1682106481.73935390,746473981,42.6899926,-84.48877879999999,272.3699951171875,2.5570602416992188,2.1470601558685303
1682106481.83947396,746574101,42.689992499999995,-84.48877809999999,272.3699951171875,2.5542140007019043,2.144213914871216
1682106481.93953395,746674161,42.6899924,-84.4887775,272.3699951171875,2.5520477294921875,2.142047643661499
1682106482.03946710,746774094,42.6899924,-84.4887768,272.3599853515625,2.5485329627990723,2.138532876968384
1682106482.13962293,746874250,42.6899923,-84.4887761,272.3599853515625,2.5451886653900146,2.135188579559326
1682106482.23981500,746974442,42.6899923,-84.4887753,272.3599853515625,2.54439115524292,2.1343910694122314
1682106482.33966589,747074293,42.6899922,-84.48877449999999,272.3599853515625,2.545516014099121,2.1355159282684326
1682106482.43967700,747174304,42.6899922,-84.4887737,272.3599853515625,2.5465846061706543,2.136584520339966
1682106482.53957391,747274201,42.6899922,-84.48877279999999,272.3599853515625,2.547607183456421,2.1376070976257324
1682106482.63953400,747374161,42.6899922,-84.4887718,272.3599853515625,2.548687219619751,2.1386871337890625
1682106482.73956800,747474195,42.6899922,-84.48877089999999,272.3599853515625,2.549699068069458,2.1396989822387695
1682106482.83957911,747574206,42.6899923,-84.4887699,272.3699951171875,2.551126480102539,2.1411263942718506
1682106482.93980098,747674428,42.6899923,-84.4887689,272.3699951171875,2.552018404006958,2.1420183181762695
1682106483.03959703,747774224,42.6899923,-84.4887679,272.3699951171875,2.5530810356140137,2.143080949783325
1682106483.13968301,747874310,42.6899923,-84.4887669,272.3699951171875,2.553093194961548,2.1430931091308594
1682106483.23960304,747974230,42.6899923,-84.48876589999999,272.3699951171875,2.554776430130005,2.1447763442993164
1682106483.33934808,748073975,42.6899923,-84.488765,272.3699951171875,2.5565803050994873,2.146580219268799
1682106483.43933105,748173958,42.6899923,-84.48876399999999,272.3699951171875,2.555716037750244,2.1457159519195557
1682106483.53935099,748273978,42.6899923,-84.4887631,272.3699951171875,2.5544822216033936,2.144482135772705
1682106483.63935399,748373981,42.6899923,-84.48876229999999,272.3699951171875,2.5568628311157227,2.146862745285034
1682106483.73950911,748474136,42.6899924,-84.4887615,272.3699951171875,2.5599021911621094,2.149902105331421
1682106483.83972192,748574349,42.6899924,-84.4887607,272.3800048828125,2.56252121925354,2.1525211334228516
1682106483.93961406,748674241,42.689992499999995,-84.48875989999999,272.3800048828125,2.565803050994873,2.1558029651641846
1682106484.03967309,748774300,42.6899926,-84.48875919999999,272.3800048828125,2.568824529647827,2.1588244438171387
1682106484.13960910,748874236,42.6899928,-84.4887584,272.3899841308594,2.571079730987549,2.1610796451568604
1682106484.23974991,748974377,42.689993,-84.4887577,272.3899841308594,2.5717084407806396,2.161708354949951
1682106484.33958197,749074209,42.6899933,-84.48875699999999,272.3899841308594,2.57177996635437,2.1617798805236816
1682106484.43953896,749174166,42.6899936,-84.48875629999999,272.3899841308594,2.570958375930786,2.1609582901000977
1682106484.53954792,749274175,42.6899939,-84.48875559999999,272.3800048828125,2.569570302963257,2.1595702171325684
1682106484.63955402,749374181,42.689994299999995,-84.48875489999999,272.3800048828125,2.5674099922180176,2.157409906387329
1682106484.73960590,749474233,42.6899947,-84.4887543,272.3800048828125,2.5652854442596436,2.155285358428955
1682106484.83959103,749574218,42.6899952,-84.48875369999999,272.3800048828125,2.563558578491211,2.1535584926605225
1682106484.93989301,749674520,42.689995599999996,-84.4887531,272.3800048828125,2.5616753101348877,2.151675224304199
1682106485.03959107,749774218,42.689996,-84.48875249999999,272.3699951171875,2.559896230697632,2.1498961448669434
1682106485.13934207,749873969,42.6899965,-84.4887519,272.3699951171875,2.556427478790283,2.1464273929595947
1682106485.23934293,749973970,42.6899969,-84.4887512,272.3699951171875,2.55399751663208,2.1439974308013916
1682106485.33934093,750073968,42.689997299999995,-84.4887505,272.3699951171875,2.553497314453125,2.1434972286224365
1682106485.43936396,750173991,42.6899977,-84.4887497,272.3699951171875,2.5537915229797363,2.143791437149048
1682106485.53932500,750273952,42.6899981,-84.488749,272.3699951171875,2.5542855262756348,2.1442854404449463
1682106485.63922906,750373856,42.6899984,-84.48874839999999,272.3699951171875,2.5567641258239746,2.146764039993286
1682106485.73928809,750473915,42.6899987,-84.48874769999999,272.3800048828125,2.5603232383728027,2.1503231525421143
1682106485.83967710,750574304,42.6899989,-84.4887471,272.3800048828125,2.5637032985687256,2.153703212738037
1682106485.93967390,750674301,42.689999,-84.4887464,272.3800048828125,2.5672261714935303,2.157226085662842
1682106486.03934908,750773976,42.6899991,-84.48874579999999,272.3800048828125,2.5696797370910645,2.159679651260376
1682106486.13933992,750873967,42.6899991,-84.4887451,272.3800048828125,2.5694055557250977,2.159405469894409
1682106486.23933411,750973961,42.689999,-84.4887444,272.3800048828125,2.5653769969940186,2.15537691116333
1682106486.33946896,751074096,42.6899988,-84.4887437,272.3699951171875,2.5590622425079346,2.149062156677246
1682106486.43931508,751173942,42.6899987,-84.4887431,272.3699951171875,2.554002523422241,2.1440024375915527
1682106486.53932500,751273952,42.689998599999996,-84.4887425,272.3599853515625,2.549611806869507,2.1396117210388184
1682106486.63928294,751373910,42.689998599999996,-84.4887419,272.3599853515625,2.5436248779296875,2.133624792098999
1682106486.73966908,751474296,42.6899985,-84.4887414,272.3500061035156,2.536370038986206,2.1263699531555176
1682106486.83957696,751574204,42.6899987,-84.48874099999999,272.3399963378906,2.529667615890503,2.1196675300598145
1682106486.93962097,751674248,42.6899987,-84.4887406,272.3399963378906,2.522763729095459,2.1127636432647705
1682106487.03949499,751774122,42.6899987,-84.4887404,272.3299865722656,2.5159518718719482,2.1059517860412598
1682106487.13948298,751874110,42.6899988,-84.4887402,272.3299865722656,2.510523557662964,2.1005234718322754
1682106487.23952007,751974147,42.689999,-84.48873999999999,272.32000732421875,2.506153106689453,2.0961530208587646
1682106487.33954906,752074176,42.689999199999995,-84.4887399,272.32000732421875,2.502354621887207,2.0923545360565186
1682106487.43951607,752174143,42.6899993,-84.48873979999999,272.32000732421875,2.5003905296325684,2.09039044380188
1682106487.53957295,752274200,42.6899995,-84.4887397,272.30999755859375,2.4994122982025146,2.089412212371826
1682106487.63985491,752374482,42.6899997,-84.4887396,272.30999755859375,2.4986650943756104,2.088665008544922
1682106487.73959899,752474226,42.6899999,-84.4887395,272.30999755859375,2.4977760314941406,2.087775945663452
1682106487.83966899,752574296,42.6900002,-84.4887394,272.30999755859375,2.4957563877105713,2.085756301879883
1682106487.93937802,752674005,42.690000399999995,-84.48873929999999,272.30999755859375,2.494046449661255,2.0840463638305664
1682106488.03934693,752773974,42.6900006,-84.4887392,272.30999755859375,2.4926764965057373,2.082676410675049
1682106488.13935590,752873983,42.6900009,-84.488739,272.30999755859375,2.4936063289642334,2.083606243133545
1682106488.23932505,752973952,42.690001099999996,-84.4887389,272.30999755859375,2.4971725940704346,2.087172508239746
1682106488.33924794,753073875,42.6900013,-84.4887387,272.32000732421875,2.500443935394287,2.0904438495635986
1682106488.43933392,753173961,42.6900015,-84.4887384,272.30999755859375,2.4994094371795654,2.089409351348877
1682106488.53938007,753274007,42.690001699999996,-84.4887382,272.30999755859375,2.4965522289276123,2.086552143096924
1682106488.63932395,753373951,42.6900018,-84.488738,272.30999755859375,2.4971764087677,2.0871763229370117
1682106488.73942304,753474050,42.690002,-84.4887378,272.30999755859375,2.4987082481384277,2.0887081623077393
1682106488.83998299,753574610,42.690002199999995,-84.4887375,272.32000732421875,2.5005486011505127,2.090548515319824
1682106488.93939400,753674021,42.6900024,-84.4887373,272.32000732421875,2.502540349960327,2.0925402641296387
1682106489.03950000,753774127,42.6900025,-84.488737,272.32000732421875,2.5024819374084473,2.092481851577759
1682106489.13952804,753874155,42.6900025,-84.48873669999999,272.32000732421875,2.502265691757202,2.0922656059265137
1682106489.23957109,753974198,42.6900025,-84.4887363,272.32000732421875,2.504802703857422,2.0948026180267334
1682106489.33952403,754074151,42.6900025,-84.488736,272.32000732421875,2.5071370601654053,2.097136974334717
1682106489.43959689,754174224,42.6900024,-84.4887356,272.32000732421875,2.506356716156006,2.0963566303253174
1682106489.53956199,754274189,42.690002299999996,-84.4887352,272.32000732421875,2.503736972808838,2.0937368869781494
1682106489.63950801,754374135,42.690002199999995,-84.4887347,272.32000732421875,2.5010390281677246,2.091038942337036
1682106489.73934698,754473974,42.6900021,-84.4887342,272.30999755859375,2.4965713024139404,2.086571216583252
1682106489.83954191,754574169,42.6900021,-84.4887337,272.30999755859375,2.493494749069214,2.0834946632385254
1682106489.93960309,754674230,42.6900021,-84.48873309999999,272.30999755859375,2.4925215244293213,2.082521438598633
1682106490.03958106,754774208,42.6900021,-84.48873239999999,272.29998779296875,2.4897267818450928,2.0797266960144043
1682106490.13959193,754874219,42.690002199999995,-84.4887317,272.29998779296875,2.4850986003875732,2.0750985145568848
1682106490.23961401,754974241,42.690002199999995,-84.488731,272.29998779296875,2.4807827472686768,2.0707826614379883
1682106490.33968496,755074312,42.690002299999996,-84.4887303,272.2900085449219,2.4772963523864746,2.067296266555786
1682106490.43959498,755174222,42.690002299999996,-84.4887296,272.2900085449219,2.473616361618042,2.0636162757873535
1682106490.53974390,755274371,42.6900025,-84.4887289,272.2799987792969,2.4699761867523193,2.059976100921631
1682106490.63952494,755374152,42.6900026,-84.4887282,272.2799987792969,2.4669485092163086,2.05694842338562
1682106490.73935604,755473983,42.690002799999995,-84.4887275,272.2799987792969,2.465256929397583,2.0552568435668945
1682106490.83947110,755574098,42.6900031,-84.4887268,272.2799987792969,2.464708089828491,2.0547080039978027
1682106490.93938994,755674017,42.6900033,-84.4887261,272.2799987792969,2.465639114379883,2.0556390285491943
1682106491.03923988,755773867,42.6900036,-84.48872539999999,272.2799987792969,2.467475414276123,2.0574753284454346
1682106491.13924789,755873875,42.6900039,-84.48872469999999,272.2799987792969,2.4698405265808105,2.059840440750122
1682106491.23935509,755973982,42.6900042,-84.4887241,272.2900085449219,2.471897602081299,2.0618975162506104
1682106491.33952498,756074152,42.6900045,-84.48872349999999,272.2900085449219,2.473724126815796,2.0637240409851074
1682106491.43950701,756174134,42.6900049,-84.4887231,272.2900085449219,2.474233627319336,2.0642335414886475
1682106491.53958201,756274209,42.690005299999996,-84.4887227,272.2900085449219,2.4734275341033936,2.063427448272705
1682106491.63955188,756374179,42.6900056,-84.4887224,272.2900085449219,2.472576141357422,2.0625760555267334
1682106491.73958206,756474209,42.690006,-84.4887222,272.2900085449219,2.472261905670166,2.0622618198394775
1682106491.83945894,756574086,42.6900063,-84.48872209999999,272.2900085449219,2.473055839538574,2.0630557537078857
1682106491.93961906,756674246,42.690006499999996,-84.488722,272.2900085449219,2.4750514030456543,2.065051317214966
1682106492.03962207,756774249,42.6900067,-84.488722,272.2900085449219,2.4762072563171387,2.06620717048645
1682106492.13966107,756874288,42.6900068,-84.488722,272.2900085449219,2.47644305229187,2.0664429664611816
1682106492.23959994,756974227,42.6900069,-84.488722,272.2900085449219,2.476849317550659,2.0668492317199707
1682106492.33965206,757074279,42.6900069,-84.4887219,272.2900085449219,2.476947784423828,2.0669476985931396
1682106492.43956208,757174189,42.6900068,-84.4887219,272.2900085449219,2.4752771854400635,2.065277099609375
1682106492.53956008,757274187,42.6900067,-84.4887219,272.2900085449219,2.4739699363708496,2.063969850540161
1682106492.63962102,757374248,42.6900066,-84.4887218,272.2900085449219,2.4737548828125,2.0637547969818115
1682106492.73933005,757473957,42.690006499999996,-84.4887218,272.2900085449219,2.473421573638916,2.0634214878082275
1682106492.83925104,757573878,42.6900066,-84.48872159999999,272.2900085449219,2.4747025966644287,2.0647025108337402
1682106492.93934298,757673970,42.690006499999996,-84.48872159999999,272.2900085449219,2.476116895675659,2.0661168098449707
1682106493.03938508,757774012,42.690006499999996,-84.48872159999999,272.2900085449219,2.4779205322265625,2.067920446395874
1682106493.13933492,757873962,42.690006499999996,-84.4887215,272.2900085449219,2.4795496463775635,2.069549560546875
1682106493.23939800,757974025,42.690006499999996,-84.4887214,272.29998779296875,2.4805102348327637,2.070510149002075
1682106493.33960700,758074234,42.690006499999996,-84.4887214,272.29998779296875,2.4816336631774902,2.0716335773468018
1682106493.43955803,758174185,42.690006499999996,-84.4887213,272.29998779296875,2.4838707447052,2.0738706588745117
1682106493.53939199,758274019,42.690006499999996,-84.4887213,272.29998779296875,2.4860360622406006,2.076035976409912
1682106493.63932109,758373948,42.690006499999996,-84.4887213,272.29998779296875,2.4838271141052246,2.073827028274536
1682106493.73925209,758473879,42.6900066,-84.4887212,272.2900085449219,2.4785728454589844,2.068572759628296
1682106493.83931494,758573942,42.6900066,-84.4887212,272.2900085449219,2.473644733428955,2.0636446475982666
1682106493.93971109,758674338,42.6900066,-84.4887212,272.2900085449219,2.470090389251709,2.0600903034210205
1682106494.03932905,758773956,42.6900066,-84.4887212,272.2799987792969,2.4679417610168457,2.0579416751861572
1682106494.13952994,758874157,42.6900066,-84.4887212,272.2799987792969,2.466254234313965,2.0562541484832764
1682106494.23952293,758974150,42.6900066,-84.4887212,272.2799987792969,2.465676784515381,2.0556766986846924
1682106494.33950710,759074134,42.6900066,-84.4887213,272.2799987792969,2.466174364089966,2.0561742782592773
1682106494.43951988,759174147,42.6900066,-84.4887213,272.2799987792969,2.466536521911621,2.0565364360809326
1682106494.53955388,759274181,42.6900066,-84.4887213,272.2799987792969,2.4661834239959717,2.056183338165283
1682106494.63952708,759374154,42.6900066,-84.4887214,272.2799987792969,2.4647581577301025,2.054758071899414
1682106494.73966289,759474290,42.6900066,-84.4887214,272.2799987792969,2.463355302810669,2.0533552169799805
1682106494.83982611,759574453,42.6900066,-84.4887215,272.2799987792969,2.4616644382476807,2.051664352416992
1682106494.93937993,759674007,42.6900066,-84.48872159999999,272.2699890136719,2.459644317626953,2.0496442317962646
1682106495.03965807,759774285,42.690006499999996,-84.48872159999999,272.2699890136719,2.4582037925720215,2.048203706741333
1682106495.13958097,759874208,42.690006499999996,-84.4887217,272.2699890136719,2.4575071334838867,2.0475070476531982
1682106495.23955393,759974181,42.690006499999996,-84.4887218,272.2699890136719,2.4582808017730713,2.048280715942383
1682106495.33954406,760074171,42.690006499999996,-84.4887219,272.2799987792969,2.4600751399993896,2.050075054168701
1682106495.43960404,760174231,42.690006499999996,-84.4887219,272.2799987792969,2.4604220390319824,2.050421953201294
1682106495.53961110,760274238,42.690006499999996,-84.488722,272.2699890136719,2.459756851196289,2.0497567653656006
1682106495.63961101,760374238,42.690006499999996,-84.488722,272.2799987792969,2.4601075649261475,2.050107479095459
1682106495.73970008,760474327,42.690006499999996,-84.488722,272.2799987792969,2.4601876735687256,2.050187587738037
1682106495.83961797,760574245,42.6900066,-84.48872209999999,272.2799987792969,2.460739850997925,2.0507397651672363
1682106495.93973398,760674361,42.6900066,-84.48872209999999,272.2799987792969,2.462355852127075,2.0523557662963867
1682106496.03960991,760774237,42.6900066,-84.4887222,272.2799987792969,2.4628963470458984,2.05289626121521
1682106496.13936400,760873991,42.6900066,-84.4887222,272.2799987792969,2.462705612182617,2.0527055263519287
1682106496.23938704,760974014,42.6900066,-84.48872229999999,272.2799987792969,2.4626376628875732,2.0526375770568848
1682106496.33939195,761074019,42.6900066,-84.48872229999999,272.2799987792969,2.4632370471954346,2.053236961364746
1682106496.43932891,761173956,42.6900066,-84.48872229999999,272.2799987792969,2.463163375854492,2.0531632900238037
1682106496.53930688,761273934,42.6900066,-84.48872229999999,272.2799987792969,2.4628312587738037,2.0528311729431152
1682106496.63968396,761374311,42.6900066,-84.48872229999999,272.2799987792969,2.4619812965393066,2.051981210708618
1682106496.73961711,761474244,42.6900066,-84.4887222,272.2799987792969,2.4614012241363525,2.051401138305664
1682106496.83974504,761574372,42.6900067,-84.48872229999999,272.2799987792969,2.4618773460388184,2.05187726020813
1682106496.93961596,761674243,42.6900067,-84.48872229999999,272.2799987792969,2.4620609283447266,2.052060842514038
1682106497.03935504,761773982,42.6900067,-84.48872229999999,272.2799987792969,2.4621546268463135,2.052154541015625
1682106497.13934493,761873972,42.6900067,-84.4887222,272.2799987792969,2.460507869720459,2.0505077838897705
1682106497.23932004,761973947,42.6900067,-84.4887222,272.2699890136719,2.457303047180176,2.0473029613494873
1682106497.33933496,762073962,42.6900067,-84.4887222,272.2699890136719,2.453773021697998,2.0437729358673096
1682106497.43929100,762173918,42.6900067,-84.4887222,272.2699890136719,2.4509146213531494,2.040914535522461
1682106497.53940797,762274035,42.6900067,-84.4887222,272.2599792480469,2.447894811630249,2.0378947257995605
1682106497.63932395,762373951,42.6900067,-84.4887222,272.2599792480469,2.4457099437713623,2.035709857940674
1682106497.73937106,762473998,42.6900067,-84.48872209999999,272.2599792480469,2.4476492404937744,2.037649154663086
1682106497.83958793,762574215,42.6900068,-84.48872209999999,272.2699890136719,2.45157527923584,2.0415751934051514
1682106497.93940210,762674029,42.6900068,-84.48872209999999,272.2699890136719,2.453911542892456,2.0439114570617676
1682106498.03952694,762774154,42.6900068,-84.48872209999999,272.2699890136719,2.4544837474823,2.0444836616516113
1682106498.13952088,762874148,42.6900068,-84.48872209999999,272.2699890136719,2.455548048019409,2.0455479621887207
1682106498.23956800,762974195,42.6900068,-84.48872209999999,272.2699890136719,2.458717107772827,2.0487170219421387
1682106498.33955288,763074180,42.6900068,-84.48872209999999,272.2799987792969,2.4612886905670166,2.051288604736328
1682106498.43962598,763174253,42.6900068,-84.48872209999999,272.2799987792969,2.4611916542053223,2.051191568374634
1682106498.53957891,763274206,42.6900068,-84.48872209999999,272.2699890136719,2.459488868713379,2.0494887828826904
1682106498.63962007,763374247,42.6900068,-84.48872209999999,272.2699890136719,2.4577105045318604,2.047710418701172
1682106498.73958111,763474208,42.6900068,-84.48872209999999,272.2699890136719,2.456392526626587,2.0463924407958984
1682106498.83936691,763573994,42.6900068,-84.48872209999999,272.2699890136719,2.4541947841644287,2.0441946983337402
1682106498.93968797,763674315,42.6900068,-84.48872209999999,272.2699890136719,2.4518496990203857,2.0418496131896973
1682106499.03960490,763774232,42.6900068,-84.48872209999999,272.2699890136719,2.45068621635437,2.0406861305236816
1682106499.13958693,763874214,42.6900067,-84.48872209999999,272.2699890136719,2.450911045074463,2.0409109592437744
1682106499.23963404,763974261,42.6900067,-84.48872209999999,272.2699890136719,2.4520351886749268,2.0420351028442383
1682106499.33990097,764074528,42.6900067,-84.488722,272.2699890136719,2.4536399841308594,2.043639898300171
