timestamp,TimeUS,C,Roll,Pitch,Yaw,VN,VE,VD,dPD,PN,PE,PD,GX,GY,GZ,OH
1682106445.83848405,710573111,2,-0.14,-1.58,104.04,0.02071286179125309,0.004797970876097679,-0.03470108285546303,-0.007861480116844177,7.637868404388428,6.308369159698486,0.41105547547340393,-0.32,0.14,-0.07,272.64
1682106445.93849397,710673121,2,-0.14,-1.58,104.05,0.01876935176551342,0.0049140858463943005,-0.03485085442662239,-0.007997207343578339,7.641191005706787,6.307196140289307,0.4100100100040436,-0.32,0.14,-0.07,272.64
1682106446.03849697,710773124,2,-0.15,-1.59,104.05,0.017997970804572105,0.004645518958568573,-0.034576188772916794,-0.019916510209441185,7.643309593200684,6.305657863616943,0.40740981698036194,-0.32,0.14,-0.07,272.64
1682106446.13856697,710873194,2,-0.14,-1.59,104.06,0.014640681445598602,0.004395481664687395,-0.03645666688680649,-0.03641464188694954,7.6446309089660645,6.30428409576416,0.40411892533302307,-0.32,0.14,-0.07,272.64
1682106446.23857307,710973200,2,-0.15,-1.59,104.08,0.012257728725671768,0.004692931193858385,-0.03640514239668846,-0.03152349218726158,7.646197319030762,6.3028035163879395,0.4017888605594635,-0.32,0.14,-0.07,272.64
1682106446.33858204,711073209,2,-0.14,-1.59,104.09,0.010097552090883255,0.005722594913095236,-0.03552291914820671,-0.01873558573424816,7.647627353668213,6.301699161529541,0.4000484049320221,-0.32,0.14,-0.07,272.64
1682106446.43854809,711173175,2,-0.15,-1.59,104.09,0.0074663166888058186,0.006201146170496941,-0.034678224474191666,-0.010823887772858143,7.648866176605225,6.30044412612915,0.3989056646823883,-0.32,0.14,-0.07,272.64
1682106446.53852010,711273147,2,-0.14,-1.61,104.10000000000001,0.004335230216383934,0.007043462246656418,-0.033254314213991165,-0.006114985328167677,7.649624347686768,6.299508094787598,0.39786091446876526,-0.32,0.14,-0.07,272.64
1682106446.63848591,711373113,2,-0.14,-1.6,104.10000000000001,0.00013207027222961187,0.00840879138559103,-0.03241926431655884,-0.010144405998289585,7.650026798248291,6.298967361450195,0.3963138163089752,-0.32,0.14,-0.07,272.64
1682106446.73848295,711473110,2,-0.14,-1.6,104.11,-0.004205193370580673,0.011146401055157185,-0.03269520029425621,-0.012653907760977745,7.649866104125977,6.29872989654541,0.39505329728126526,-0.32,0.14,-0.07,272.64
1682106446.83848000,711573107,2,-0.14,-1.6,104.11,-0.0067051551304757595,0.012994908727705479,-0.031591322273015976,-0.014030029997229576,7.650141716003418,6.298548221588135,0.39358773827552795,-0.32,0.14,-0.07,272.64
1682106446.93851304,711673140,2,-0.14,-1.61,104.11,-0.009700636379420757,0.014767291024327278,-0.031684763729572296,-0.014276309870183468,7.650641918182373,6.298476696014404,0.3922368586063385,-0.32,0.14,-0.07,272.64
1682106447.03857207,711773199,2,-0.13,-1.61,104.13,-0.011670134030282497,0.017653673887252808,-0.033078186213970184,-0.020156851038336754,7.6513752937316895,6.298846244812012,0.3901447355747223,-0.32,0.14,-0.07,272.64
1682106447.13856697,711873194,2,-0.13,-1.61,104.14,-0.013553261756896973,0.020432857796549797,-0.03365670144557953,-0.03161159157752991,7.652115345001221,6.299759387969971,0.3871249258518219,-0.32,0.14,-0.07,272.64
1682106447.23861504,711973242,2,-0.12,-1.61,104.14,-0.016059009358286858,0.02053290233016014,-0.03338760510087013,-0.026571432128548622,7.652904033660889,6.300071716308594,0.3850163519382477,-0.32,0.14,-0.07,272.64
1682106447.33856392,712073191,2,-0.12,-1.61,104.14,-0.018716277554631233,0.020486541092395782,-0.03376973047852516,-0.016124067828059196,7.653453826904297,6.299789905548096,0.3834458887577057,-0.32,0.14,-0.07,272.64
1682106447.43851209,712173139,2,-0.12,-1.61,104.14,-0.019299210980534554,0.021238695830106735,-0.03278600797057152,-0.018409959971904755,7.655194282531738,6.29972505569458,0.38121548295021057,-0.32,0.14,-0.07,272.64
1682106447.53848600,712273113,2,-0.12,-1.61,104.14,-0.018002405762672424,0.021999914199113846,-0.033249035477638245,-0.023780610412359238,7.657167911529541,6.300125598907471,0.37889090180397034,-0.32,0.14,-0.07,272.64
1682106447.63848901,712373116,2,-0.13,-1.62,104.15,-0.017704598605632782,0.021584542468190193,-0.03154957294464111,-0.025947989895939827,7.659550189971924,6.300006866455078,0.37619271874427795,-0.32,0.14,-0.07,272.64
1682106447.73848391,712473111,2,-0.13,-1.62,104.15,-0.01721121370792389,0.021280210465192795,-0.030967356637120247,-0.025184135884046555,7.661645889282227,6.2999420166015625,0.37389078736305237,-0.32,0.14,-0.07,272.64
1682106447.83851004,712573137,2,-0.13,-1.62,104.16,-0.01770748384296894,0.020125646144151688,-0.03003915399312973,-0.02357669733464718,7.663898468017578,6.2987060546875,0.37141504883766174,-0.32,0.14,-0.07,272.64
1682106447.93856597,712673193,2,-0.13,-1.62,104.16,-0.01834348402917385,0.01916939578950405,-0.02929142862558365,-0.025901658460497856,7.665653228759766,6.297300338745117,0.3688618242740631,-0.32,0.14,-0.07,272.64
1682106448.03857207,712773199,2,-0.14,-1.62,104.16,-0.01786794513463974,0.017406273633241653,-0.028671277686953545,-0.028881873935461044,7.667634010314941,6.294851779937744,0.3659287989139557,-0.32,0.14,-0.07,272.64
1682106448.13859701,712873224,2,-0.15,-1.62,104.16,-0.018392525613307953,0.015088669024407864,-0.029289163649082184,-0.03323013707995415,7.669206619262695,6.292333126068115,0.36279764771461487,-0.32,0.14,-0.07,272.64
1682106448.23855305,712973180,2,-0.15,-1.62,104.17,-0.018033068627119064,0.012651454657316208,-0.02893325313925743,-0.034354422241449356,7.671095371246338,6.289295673370361,0.359464555978775,-0.32,0.14,-0.07,272.64
1682106448.33853102,713073158,2,-0.14,-1.62,104.17,-0.017854565754532814,0.01066019106656313,-0.028115781024098396,-0.027853354811668396,7.672664642333984,6.2864837646484375,0.35702791810035706,-0.32,0.14,-0.07,272.64
1682106448.43849206,713173119,2,-0.14,-1.62,104.18,-0.02061612531542778,0.009998212568461895,-0.027891943231225014,-0.010432416573166847,7.672989368438721,6.283721446990967,0.3560899794101715,-0.32,0.14,-0.07,272.64
1682106448.53849411,713273121,2,-0.14,-1.61,104.18,-0.0227383803576231,0.009299066849052906,-0.02617563121020794,0.0030715286266058683,7.6721343994140625,6.281466007232666,0.35583582520484924,-0.32,0.14,-0.07,272.64
1682106448.63849211,713373119,2,-0.14,-1.61,104.2,-0.0263191107660532,0.00832352414727211,-0.025304431095719337,0.023046310991048813,7.671221733093262,6.278736591339111,0.3580302298069,-0.32,0.14,-0.07,272.64
1682106448.73852110,713473148,2,-0.15,-1.61,104.21000000000001,-0.02601855807006359,0.004662083461880684,-0.02387709729373455,0.039312347769737244,7.669940948486328,6.276225566864014,0.36085382103919983,-0.32,0.14,-0.07,272.64
1682106448.83856201,713573189,2,-0.16,-1.62,104.17,-0.031462617218494415,0.005537326913326979,-0.022308455780148506,0.036491330713033676,7.667390823364258,6.272942543029785,0.36360254883766174,-0.32,0.14,-0.07,272.64
1682106448.93857789,713673205,2,-0.17,-1.6,104.22,-0.03158121928572655,-0.004449245519936085,-0.020141536369919777,0.03137896955013275,7.664002418518066,6.269076347351074,0.3661095201969147,-0.32,0.14,-0.07,272.64
1682106449.03858590,713773213,2,-0.16,-1.6300000000000001,104.23,-0.05333598330616951,-0.0040303366258740425,-0.018364213407039642,0.018602503463625908,7.662210941314697,6.267026901245117,0.3675142824649811,-0.32,0.14,-0.06,272.64
1682106449.13855410,713873181,2,-0.16,-1.6,104.21000000000001,-0.05278928950428963,-0.018904510885477066,-0.017299804836511612,0.004379454534500837,7.661424160003662,6.264634609222412,0.36795225739479065,-0.32,0.14,-0.06,272.64
1682106449.23852205,713973149,2,-0.16,-1.52,104.27,-0.04864538460969925,0.008184998296201229,-0.016402002424001694,-0.0007896121242083609,7.660478115081787,6.261178016662598,0.36822381615638733,-0.32,0.14,-0.07,272.64
1682106449.33850002,714073127,2,-0.14,-1.49,104.26,-0.03295744210481644,0.0072081079706549644,-0.01463419571518898,0.0015247381525114179,7.659867286682129,6.258989334106445,0.36851754784584045,-0.32,0.14,-0.07,272.64
1682106449.43849897,714173126,2,-0.12,-1.49,104.21000000000001,-0.039093561470508575,0.01813315786421299,-0.024112582206726074,-0.013671488501131535,7.65860652923584,6.2559638023376465,0.3679892122745514,-0.32,0.14,-0.07,272.64
1682106449.53850007,714273127,2,-0.13,-1.49,104.28,-0.05296841636300087,0.010789182968437672,-0.021119248121976852,-0.021044297143816948,7.656657695770264,6.2533769607543945,0.3666626513004303,-0.32,0.14,-0.07,272.64
1682106449.63852000,714373147,2,-0.14,-1.48,104.29,-0.047801658511161804,-0.0050804330967366695,-0.016690799966454506,-0.015940360724925995,7.6561174392700195,6.250827789306641,0.3657459318637848,-0.32,0.14,-0.07,272.64
1682106449.73856306,714473190,2,-0.14,-1.46,104.29,-0.039344672113657,0.005301535129547119,-0.022540437057614326,-0.010369362309575081,7.655482292175293,6.248538494110107,0.36563149094581604,-0.32,0.14,-0.07,272.64
1682106449.83858299,714573210,2,-0.13,-1.45,104.35000000000001,-0.042635686695575714,-0.0101296566426754,-0.0003485958441160619,0.022223656997084618,7.6555352210998535,6.247018814086914,0.3660642206668854,-0.32,0.14,-0.07,272.64
1682106449.93857908,714673206,2,-0.02,-1.45,104.38,-0.0441524013876915,-0.0019361049635335803,-0.027290431782603264,0.004280629102140665,7.655036449432373,6.245940685272217,0.36639776825904846,-0.32,0.14,-0.07,272.64
1682106450.03857207,714773199,2,0.05,-1.32,104.38,-0.05186232924461365,-0.021668365225195885,-0.0951613336801529,-0.0403318777680397,7.654183864593506,6.2444071769714355,0.3678103983402252,-0.32,0.14,-0.07,272.64
1682106450.13851905,714873146,2,0.3,-0.54,104.43,-0.04377037286758423,-0.035245414823293686,-0.28441888093948364,-0.20544523000717163,7.651490688323975,6.241413593292236,0.3585189878940582,-0.32,0.14,-0.07,272.64
1682106450.23849392,714973121,2,0.45,0.05,104.51,-0.07693508267402649,-0.014153393916785717,-0.572394073009491,-0.521012008190155,7.648380756378174,6.238406181335449,0.31811800599098206,-0.32,0.14,-0.07,272.64
1682106450.33849406,715073121,2,0.54,-0.06,104.55,-0.08776763081550598,0.013282699510455132,-0.6944059133529663,-0.7036936283111572,7.643824100494385,6.237034320831299,0.2521573603153229,-0.32,0.14,-0.07,272.64
1682106450.43849111,715173118,2,-0.32,-0.79,104.58,-0.08230596035718918,0.051700495183467865,-0.7043062448501587,-0.8518640995025635,7.638359069824219,6.238955974578857,0.16299070417881012,-0.32,0.14,-0.07,272.64
1682106450.53850293,715273130,2,-1.51,-2.7,104.59,-0.08642057329416275,0.09539569914340973,-0.6513763666152954,-0.9264181852340698,7.6323933601379395,6.246243476867676,0.07355775684118271,-0.32,0.14,-0.07,272.64
1682106450.63854790,715373175,2,-2.32,-3.27,104.55,-0.06355485320091248,0.1339622437953949,-0.6003661751747131,-0.8076774477958679,7.6294169425964355,6.259102821350098,-0.0031825099140405655,-0.32,0.14,-0.07,272.64
1682106450.73858309,715473210,2,-3.61,-1.99,104.43,-0.008905529044568539,0.17915941774845123,-0.48041173815727234,-0.5848686695098877,7.630634784698486,6.276885509490967,-0.0642295852303505,-0.32,0.14,-0.07,272.64
1682106450.83858705,715573214,2,-4.19,-0.44,104.27,0.006982419174164534,0.21927756071090698,-0.3875857889652252,-0.38316723704338074,7.636505603790283,6.298457145690918,-0.1058114543557167,-0.32,0.14,-0.07,272.64
1682106450.93856406,715673191,2,-2.97,-0.03,104.2,0.040339041501283646,0.25455552339553833,-0.3475356698036194,-0.26318851113319397,7.644756317138672,6.32378625869751,-0.13817010819911957,-0.32,0.14,-0.07,272.64
1682106451.03852797,715773155,2,-1.49,0.05,104.19,0.06908471882343292,0.27432364225387573,-0.3129202425479889,-0.23588143289089203,7.6572394371032715,6.351194381713867,-0.16757141053676605,-0.31,0.14,-0.07,272.64
1682106451.13849497,715873122,2,-0.21,0.32,104.15,0.08748995512723923,0.2811795771121979,-0.2633208632469177,-0.21584810316562653,7.673107147216797,6.379153251647949,-0.1941736787557602,-0.31,0.14,-0.07,272.64
1682106451.23849201,715973119,2,0.21,0.36,104.12,0.09160009026527405,0.30237606167793274,-0.24865750968456268,-0.2593570649623871,7.691281795501709,6.408575057983398,-0.22262345254421234,-0.31,0.14,-0.07,272.64
1682106451.33849692,716073124,2,0.18,0.12,104.04,0.09150476008653641,0.30639612674713135,-0.2540940046310425,-0.30407679080963135,7.708888530731201,6.439024448394775,-0.2501886785030365,-0.31,0.14,-0.07,272.64
1682106451.43851209,716173139,2,0.2,0.08,103.95,0.08046523481607437,0.3115655481815338,-0.2933081388473511,-0.29646748304367065,7.727029800415039,6.46584939956665,-0.27442893385887146,-0.31,0.14,-0.07,272.64
1682106451.53857589,716273203,2,0.22,-0.11,103.87,0.07510263472795486,0.3260612189769745,-0.33516907691955566,-0.301256000995636,7.743703842163086,6.492279529571533,-0.30300506949424744,-0.32,0.14,-0.08,272.64
1682106451.63858294,716373210,2,0.31,-0.27,103.79,0.07453058660030365,0.3246166706085205,-0.34252649545669556,-0.34192579984664917,7.753952980041504,6.521180152893066,-0.3383346498012543,-0.31,0.14,-0.08,272.64
1682106451.73858690,716473214,2,0.44,-0.31,103.69,0.04850466176867485,0.34288275241851807,-0.42675548791885376,-0.45186755061149597,7.760201930999756,6.5519304275512695,-0.37927088141441345,-0.31,0.14,-0.08,272.64
1682106451.83855891,716573186,2,0.35000000000000003,-0.19,103.57000000000001,0.052006758749485016,0.3629266917705536,-0.45903146266937256,-0.5081812739372253,7.769095420837402,6.585757255554199,-0.42890116572380066,-0.31,0.14,-0.08,272.64
1682106451.93852401,716673151,2,0.32,-0.02,103.47,0.027967965230345726,0.37219926714897156,-0.47228533029556274,-0.561272919178009,7.778987884521484,6.622200012207031,-0.48511168360710144,-0.31,0.14,-0.08,272.64
1682106452.03849006,716773117,2,0.44,0.03,103.34,0.024672839790582657,0.397188663482666,-0.5508192777633667,-0.6587262749671936,7.787631511688232,6.659023761749268,-0.5472877025604248,-0.31,0.14,-0.08,272.64
1682106452.13849592,716873123,2,0.33,0.0,103.22,0.002675609663128853,0.3876795172691345,-0.5666019320487976,-0.6813942193984985,7.796597003936768,6.695437431335449,-0.6127209663391113,-0.31,0.14,-0.08,272.64
1682106452.23849106,716973118,2,0.28,0.16,103.07000000000001,-0.014059744775295258,0.4087885320186615,-0.622173011302948,-0.6997968554496765,7.799311637878418,6.73554801940918,-0.6775758266448975,-0.32,0.14,-0.08,272.64
1682106452.33853602,717073163,2,0.21,0.2,102.94,-0.034056682139635086,0.41959258913993835,-0.6188399195671082,-0.6513869166374207,7.797237873077393,6.778805732727051,-0.7422381639480591,-0.32,0.14,-0.08,272.64
1682106452.43856692,717173194,2,0.1,0.25,102.8,-0.05040854215621948,0.43382367491722107,-0.6527460813522339,-0.6504889726638794,7.792588710784912,6.821396350860596,-0.8073712587356567,-0.32,0.14,-0.08,272.64
1682106452.53857994,717273207,2,0.12,0.2,102.69,-0.05033217370510101,0.4401787221431732,-0.6693256497383118,-0.6513055562973022,7.7857747077941895,6.8634562492370605,-0.872360348701477,-0.32,0.14,-0.08,272.64
1682106452.63858604,717373213,2,0.11,0.18,102.58,-0.08065181970596313,0.44582611322402954,-0.6917371153831482,-0.6631385684013367,7.775669574737549,6.906096458435059,-0.9390716552734375,-0.31,0.14,-0.08,272.64
1682106452.73856807,717473195,2,-0.28,0.28,102.47,-0.07691102474927902,0.4622345268726349,-0.7021512389183044,-0.6532537341117859,7.763395309448242,6.9489970207214355,-1.0046466588974,-0.32,0.14,-0.08,272.64
1682106452.83852506,717573152,2,-0.63,0.64,102.41,-0.08483046293258667,0.44512826204299927,-0.7089246511459351,-0.630358099937439,7.755847454071045,6.995793342590332,-1.0680232048034668,-0.31,0.14,-0.08,272.64
1682106452.93849206,717673119,2,-0.62,1.93,102.35000000000001,-0.0552017018198967,0.443355917930603,-0.6914089918136597,-0.6137741208076477,7.750092506408691,7.043468475341797,-1.1330912113189697,-0.31,0.14,-0.08,272.64
1682106453.03850889,717773136,2,-0.71,3.72,102.31,-0.06184080243110657,0.4107220768928528,-0.7108288407325745,-0.6458238959312439,7.747181415557861,7.085110187530518,-1.1989171504974365,-0.31,0.14,-0.08,272.64
1682106453.13849998,717873127,2,-0.62,4.65,102.31,-0.058395471423864365,0.365107923746109,-0.706996500492096,-0.6319669485092163,7.745710849761963,7.1220879554748535,-1.2627127170562744,-0.32,0.14,-0.08,272.64
1682106453.23851705,717973144,2,-0.41000000000000003,4.88,102.32000000000001,-0.028989743441343307,0.31209418177604675,-0.6811151504516602,-0.5909216403961182,7.7407708168029785,7.154266834259033,-1.3230117559432983,-0.31,0.14,-0.08,272.64
1682106453.33857393,718073201,2,-0.56,3.88,102.35000000000001,-0.02468716725707054,0.28857025504112244,-0.6612634062767029,-0.5702909231185913,7.735276222229004,7.18247127532959,-1.3820360898971558,-0.31,0.14,-0.08,272.64
1682106453.43857789,718173205,2,-1.05,0.98,102.4,-0.006923244800418615,0.2660786509513855,-0.6674222946166992,-0.6066637635231018,7.734229564666748,7.211538314819336,-1.4430015087127686,-0.31,0.14,-0.09,272.64
1682106453.53857803,718273205,2,-1.21,-0.32,102.46000000000001,-0.015261928550899029,0.25261998176574707,-0.6559705138206482,-0.6001395583152771,7.735156536102295,7.239696502685547,-1.5021326541900635,-0.31,0.14,-0.09,272.64
1682106453.63856792,718373195,2,-1.19,0.06,102.56,0.009149376302957535,0.2731345593929291,-0.5870086550712585,-0.5015351176261902,7.739692687988281,7.271805286407471,-1.5552431344985962,-0.31,0.15,-0.09,272.64
1682106453.73853397,718473161,2,-1.47,0.27,102.67,0.015286178328096867,0.2993306517601013,-0.49373137950897217,-0.3984360992908478,7.745856761932373,7.307729721069336,-1.5994700193405151,-0.31,0.15,-0.09,272.64
1682106453.83848810,718573115,2,-1.73,0.24,102.79,0.007052117493003607,0.3211040794849396,-0.4086744785308838,-0.31965410709381104,7.7500410079956055,7.343482494354248,-1.6368743181228638,-0.31,0.15,-0.09,272.64
1682106453.93849587,718673123,2,-1.56,0.16,102.9,0.029076620936393738,0.3499947488307953,-0.3366274833679199,-0.2774808406829834,7.753145694732666,7.379684925079346,-1.670061707496643,-0.31,0.15,-0.09,272.64
1682106454.03849506,718773122,2,-1.49,-0.11,103.0,0.04235586151480675,0.36443108320236206,-0.283738911151886,-0.2849656939506531,7.752902030944824,7.415772914886475,-1.7021888494491577,-0.31,0.14,-0.09,272.64
1682106454.13852406,718873151,2,-1.43,-0.3,103.06,0.040218889713287354,0.38111329078674316,-0.2282271683216095,-0.2851620018482208,7.751829147338867,7.452987194061279,-1.7309097051620483,-0.31,0.14,-0.09,272.64
1682106454.23853993,718973167,2,-0.88,-0.17,103.13,0.024925172328948975,0.4008968472480774,-0.17021659016609192,-0.23103564977645874,7.752575397491455,7.494105339050293,-1.7521865367889404,-0.31,0.15,-0.09,272.64
1682106454.33857489,719073202,2,-0.3,0.0,103.15,0.01876845955848694,0.4222593903541565,-0.09166017919778824,-0.13126684725284576,7.753761291503906,7.5372724533081055,-1.7656279802322388,-0.31,0.15,-0.09,272.64
1682106454.43858194,719173209,2,-0.24,0.29,103.18,0.011005284264683723,0.4317299425601959,-0.01829543150961399,0.008081501349806786,7.754589080810547,7.581573486328125,-1.7650172710418701,-0.31,0.15,-0.09,272.64
1682106454.53855991,719273187,2,0.03,0.93,103.23,0.008280654437839985,0.4539681673049927,0.0409654937684536,0.11632706224918365,7.753998279571533,7.625962257385254,-1.7589319944381714,-0.31,0.15,-0.09,272.64
1682106454.63853288,719373160,2,0.34,1.3,103.32000000000001,0.008723419159650803,0.4441665709018707,0.061946794390678406,0.12225841730833054,7.755484104156494,7.671959400177002,-1.7495932579040527,-0.31,0.15,-0.09,272.64
1682106454.73849487,719473122,2,-0.02,2.23,103.39,-0.0018481358420103788,0.43092384934425354,0.088119275867939,0.12914060056209564,7.758011341094971,7.717153549194336,-1.7383118867874146,-0.31,0.15,-0.09,272.64
1682106454.83848906,719573116,2,-0.21,3.14,103.45,-0.02984469197690487,0.41330215334892273,0.11794927716255188,0.13830721378326416,7.754329204559326,7.758824825286865,-1.7256479263305664,-0.31,0.15,-0.09,272.64
1682106454.93849993,719673127,2,-0.32,2.93,103.51,-0.02821839042007923,0.38265761733055115,0.1432092934846878,0.15128841996192932,7.747844219207764,7.798217296600342,-1.710863471031189,-0.31,0.15,-0.09,272.64
1682106455.03849888,719773126,2,-0.71,2.63,103.58,-0.00700997281819582,0.35682132840156555,0.10135448724031448,0.10905078798532486,7.744746685028076,7.832520484924316,-1.6968544721603394,-0.31,0.14,-0.09,272.64
1682106455.13855910,719873186,2,-0.88,2.62,103.67,-0.025766810402274132,0.3357420861721039,0.11499298363924026,0.12376240640878677,7.743176460266113,7.863096237182617,-1.684529185295105,-0.31,0.14,-0.09,272.64
1682106455.23859501,719973222,2,-0.91,2.36,103.77,0.00922299548983574,0.31939902901649475,0.10734440386295319,0.09299921989440918,7.744754791259766,7.892603874206543,-1.6770374774932861,-0.31,0.14,-0.09,272.64
1682106455.33857894,720073206,2,-1.06,2.29,103.89,0.03046252764761448,0.29498744010925293,0.04954475536942482,0.01048703771084547,7.748875617980957,7.921148777008057,-1.672736406326294,-0.31,0.14,-0.09,272.64
1682106455.43856096,720173188,2,-1.0,2.13,103.98,0.026061341166496277,0.2808191180229187,-0.03158973902463913,-0.04455864802002907,7.749355316162109,7.9493231773376465,-1.670842170715332,-0.32,0.15,-0.09,272.64
1682106455.53851891,720273146,2,-0.99,1.71,104.07000000000001,0.025585250928997993,0.264421284198761,-0.0707489550113678,-0.0368378609418869,7.74924898147583,7.977288246154785,-1.6717474460601807,-0.32,0.15,-0.1,272.64
1682106455.63849497,720373122,2,-1.18,1.67,104.13,0.043672606348991394,0.2631179392337799,-0.14614593982696533,-0.10011780261993408,7.7516632080078125,8.004206657409668,-1.6802648305892944,-0.31,0.14,-0.1,272.64
1682106455.73849106,720473118,2,-1.43,1.6300000000000001,104.18,0.041515350341796875,0.25444045662879944,-0.2111857831478119,-0.18103399872779846,7.755989074707031,8.030740737915039,-1.694115161895752,-0.31,0.14,-0.1,272.64
1682106455.83850503,720573132,2,-1.46,1.53,104.21000000000001,0.07022321224212646,0.2597103714942932,-0.22360727190971375,-0.20611543953418732,7.76118803024292,8.056801795959473,-1.7131620645523071,-0.31,0.14,-0.1,272.64
1682106455.93853092,720673158,2,-1.35,1.52,104.23,0.06789309531450272,0.2566067576408386,-0.22756534814834595,-0.22582055628299713,7.767874240875244,8.082289695739746,-1.7356048822402954,-0.31,0.14,-0.1,272.64
1682106456.03857708,720773204,2,-1.12,1.25,104.21000000000001,0.08138475567102432,0.2592742145061493,-0.24916194379329681,-0.25188207626342773,7.774036884307861,8.107609748840332,-1.7604390382766724,-0.31,0.14,-0.1,272.64
1682106456.13857698,720873204,2,-0.36,0.76,104.22,0.0649009495973587,0.2593379020690918,-0.27907058596611023,-0.28774183988571167,7.778287887573242,8.133057594299316,-1.787482500076294,-0.31,0.14,-0.1,272.64
1682106456.23857689,720973204,2,0.07,0.22,104.22,0.05665223300457001,0.2783598303794861,-0.2671697437763214,-0.26407817006111145,7.7801899909973145,8.159960746765137,-1.8143118619918823,-0.31,0.14,-0.1,272.64
1682106456.33855700,721073184,2,0.08,-0.02,104.23,0.04489177092909813,0.2841765582561493,-0.26677384972572327,-0.2275339514017105,7.780622482299805,8.188010215759277,-1.836887240409851,-0.31,0.14,-0.1,272.64
1682106456.43853402,721173161,2,0.06,0.07,104.27,0.03189237415790558,0.28555503487586975,-0.25605446100234985,-0.18870186805725098,7.776948928833008,8.220297813415527,-1.8563586473464966,-0.32,0.15,-0.1,272.64
1682106456.53849292,721273120,2,-0.03,0.9400000000000001,104.31,0.001642742776311934,0.28664931654930115,-0.24096010625362396,-0.154656320810318,7.771381378173828,8.254081726074219,-1.8715873956680298,-0.32,0.15,-0.1,272.64
1682106456.63850808,721373135,2,-0.12,2.66,104.38,-0.011182696558535099,0.2784859836101532,-0.2396548092365265,-0.11027389764785767,7.761524200439453,8.285752296447754,-1.882550835609436,-0.32,0.15,-0.1,272.64
1682106456.73849201,721473119,2,-0.2,2.89,104.41,-0.011076545342803001,0.2892267405986786,-0.19990088045597076,-0.05041981488466263,7.750245571136475,8.316503524780273,-1.891520380973816,-0.32,0.15,-0.1,272.64
1682106456.83852696,721573154,2,-0.23,1.92,104.41,-0.024868493899703026,0.2625925838947296,-0.20494267344474792,-0.07617347687482834,7.740010738372803,8.34410572052002,-1.901450276374817,-0.32,0.15,-0.1,272.64
1682106456.93856907,721673196,2,-0.23,1.57,104.39,-0.024427399039268494,0.2412944734096527,-0.17639029026031494,-0.09613639861345291,7.731178283691406,8.368378639221191,-1.9147735834121704,-0.32,0.15,-0.1,272.64
1682106457.03858590,721773213,2,-0.52,1.35,104.37,-0.04338555783033371,0.2328222692012787,-0.19191782176494598,-0.14745429158210754,7.720388412475586,8.391375541687012,-1.9285626411437988,-0.32,0.15,-0.1,272.64
1682106457.13857794,721873205,2,-1.03,0.92,104.34,-0.035474374890327454,0.24130739271640778,-0.16920141875743866,-0.12147004902362823,7.709609031677246,8.414709091186523,-1.94083571434021,-0.32,0.15,-0.1,272.64
1682106457.23855710,721973184,2,-1.1,1.0,104.32000000000001,-0.035674721002578735,0.23906753957271576,-0.17114542424678802,-0.1131829172372818,7.699986457824707,8.441062927246094,-1.9525686502456665,-0.32,0.15,-0.1,272.64
1682106457.33852601,722073153,2,-0.79,1.26,104.28,-0.030723540112376213,0.2523915767669678,-0.13547682762145996,-0.07331044226884842,7.691830635070801,8.468518257141113,-1.9626001119613647,-0.32,0.15,-0.11,272.64
1682106457.43848896,722173116,2,-0.3,1.35,104.27,-0.03851854056119919,0.2406676709651947,-0.14523077011108398,-0.06836254149675369,7.680883884429932,8.496126174926758,-1.9694997072219849,-0.32,0.15,-0.11,272.64
1682106457.53849101,722273118,2,-0.02,1.6,104.27,-0.054259952157735825,0.23380303382873535,-0.16151675581932068,-0.069353848695755,7.669373989105225,8.522934913635254,-1.9757254123687744,-0.32,0.15,-0.11,272.64
1682106457.63849401,722373121,2,-0.02,1.99,104.24000000000001,-0.06690715998411179,0.23768147826194763,-0.1341937780380249,-0.03387683629989624,7.656707286834717,8.549619674682617,-1.979867935180664,-0.32,0.15,-0.11,272.64
1682106457.73853707,722473164,2,-0.08,2.08,104.23,-0.06935922056436539,0.2168128788471222,-0.13653825223445892,-0.02780645340681076,7.643630027770996,8.57553768157959,-1.981805443763733,-0.32,0.15,-0.11,272.64
1682106457.83854795,722573175,2,-0.05,2.14,104.23,-0.06587997823953629,0.21548143029212952,-0.08962176740169525,0.01242627203464508,7.62842321395874,8.59969711303711,-1.9830704927444458,-0.32,0.15,-0.11,272.64
1682106457.93857789,722673205,2,-0.12,2.33,104.22,-0.10025708377361298,0.19599956274032593,-0.09849603474140167,-0.025852318853139877,7.612908363342285,8.621490478515625,-1.986374855041504,-0.32,0.15,-0.11,272.64
1682106458.03858209,722773209,2,-0.15,2.15,104.21000000000001,-0.09962568432092667,0.18630002439022064,-0.07211143523454666,-0.03207453712821007,7.595358848571777,8.642533302307129,-1.9899184703826904,-0.32,0.15,-0.11,272.64
1682106458.13857007,722873197,2,-0.39,2.06,104.21000000000001,-0.09594745188951492,0.16338126361370087,-0.08297639340162277,-0.05849714204668999,7.577751636505127,8.661890983581543,-1.9939485788345337,-0.32,0.15,-0.11,272.64
1682106458.23857307,722973200,2,-0.91,2.73,104.2,-0.09748892486095428,0.14102768898010254,-0.04854459688067436,-0.032893192023038864,7.5597615242004395,8.680718421936035,-1.9976913928985596,-0.32,0.15,-0.11,272.64
1682106458.33850002,723073127,2,-1.25,2.84,104.21000000000001,-0.0979011058807373,0.13181662559509277,-0.029655026271939278,-0.021765833720564842,7.542607307434082,8.69855785369873,-2.000149726867676,-0.32,0.15,-0.11,272.64
1682106458.43849397,723173121,2,-1.62,2.52,104.2,-0.06735454499721527,0.12031760066747665,-0.0045070829801261425,-0.0006897946004755795,7.527817249298096,8.713004112243652,-2.001389503479004,-0.32,0.15,-0.11,272.64
1682106458.53849697,723273124,2,-2.1,2.46,104.19,-0.042893148958683014,0.10416252911090851,-0.006233000662177801,-0.005454565864056349,7.516601085662842,8.724419593811035,-2.001613140106201,-0.32,0.15,-0.11,272.64
1682106458.63851810,723373145,2,-2.37,2.25,104.21000000000001,-0.024997560307383537,0.08426918089389801,0.00602946151047945,0.010973809286952019,7.5079345703125,8.734579086303711,-1.999151587486267,-0.32,0.15,-0.11,272.64
1682106458.73854399,723473171,2,-2.99,2.0100000000000002,104.21000000000001,0.015999434515833855,0.09119973331689835,0.03989915922284126,0.05068877711892128,7.503636360168457,8.744046211242676,-1.9958571195602417,-0.32,0.15,-0.11,272.64
1682106458.83857799,723573205,2,-3.16,2.09,104.2,0.04384535923600197,0.08021388202905655,0.029687339439988136,0.036624811589717865,7.502545356750488,8.755043029785156,-1.992127537727356,-0.32,0.15,-0.11,272.64
1682106458.93857503,723673202,2,-2.54,2.13,104.2,0.07381793856620789,0.08812368661165237,0.05226687341928482,0.05414599925279617,7.5046868324279785,8.766505241394043,-1.9876329898834229,-0.32,0.15,-0.11,272.64
1682106459.03855801,723773185,2,-1.9100000000000001,2.0100000000000002,104.22,0.10379209369421005,0.07606536895036697,0.03806450590491295,0.04136497527360916,7.509057521820068,8.778136253356934,-1.982475996017456,-0.32,0.15,-0.11,272.64
1682106459.13852406,723873151,2,-0.68,1.7,104.22,0.08514411747455597,0.07762856036424637,0.04329967871308327,0.05721408873796463,7.514488697052002,8.788871765136719,-1.9766840934753418,-0.32,0.15,-0.11,272.64
1682106459.23849392,723973121,2,0.09,1.35,104.19,0.10315252840518951,0.07934609055519104,0.04811060056090355,0.06817871332168579,7.520320892333984,8.799561500549316,-1.9703361988067627,-0.32,0.15,-0.11,272.64
1682106459.33849597,724073123,2,-0.09,0.97,104.15,0.09402505308389664,0.07481449842453003,0.036968909204006195,0.05819900333881378,7.526854038238525,8.810120582580566,-1.9645307064056396,-0.32,0.15,-0.11,272.64
1682106459.43849301,724173120,2,-0.31,0.51,104.10000000000001,0.06264612823724747,0.09114003926515579,0.04786356911063194,0.08115372806787491,7.529277801513672,8.819574356079102,-1.9567110538482666,-0.32,0.15,-0.11,272.64
1682106459.53849411,724273121,2,-0.42,-0.14,104.06,0.04300237447023392,0.09133552014827728,0.04946921020746231,0.10949095338582993,7.527918815612793,8.829550743103027,-1.946987271308899,-0.32,0.15,-0.11,272.64
1682106459.63857388,724373201,2,-0.63,-0.33,104.01,0.04890923947095871,0.1137981042265892,0.02367674559354782,0.0719083771109581,7.525666236877441,8.841409683227539,-1.9398669004440308,-0.32,0.15,-0.11,272.64
1682106459.73858190,724473209,2,-0.63,-0.19,104.0,0.025134367868304253,0.13791097700595856,0.035972386598587036,0.06063952296972275,7.522322654724121,8.855137825012207,-1.9345035552978516,-0.32,0.15,-0.11,272.64
1682106459.83857608,724573203,2,-0.68,-0.03,103.98,0.006726526655256748,0.1585371047258377,0.027134543284773827,0.04034997150301933,7.5184125900268555,8.870752334594727,-1.929473638534546,-0.32,0.15,-0.11,272.64
1682106459.93855810,724673185,2,-0.73,0.26,103.96000000000001,0.016299759969115257,0.18074050545692444,0.01235737930983305,0.024852894246578217,7.514479637145996,8.88807487487793,-1.9255974292755127,-0.32,0.15,-0.11,272.64
1682106460.03852797,724773155,2,-0.59,0.86,103.96000000000001,-0.0035329610109329224,0.179940328001976,-0.007119621615856886,-0.0013415112625807524,7.5090556144714355,8.906291961669922,-1.9246760606765747,-0.32,0.15,-0.11,272.64
1682106460.13849688,724873124,2,-0.5700000000000001,1.28,103.93,0.0026837585028260946,0.19768641889095306,-0.030513931065797806,-0.029379453510046005,7.502965450286865,8.925304412841797,-1.9261095523834229,-0.32,0.15,-0.11,272.64
1682106460.23849392,724973121,2,-0.6900000000000001,1.0,103.93,-0.01738467626273632,0.19161222875118256,-0.09058389812707901,-0.09105225652456284,7.4961838722229,8.944011688232422,-1.9317353963851929,-0.32,0.15,-0.12,272.64
1682106460.33849907,725073126,2,-0.67,0.72,103.89,-0.015498393215239048,0.2032160609960556,-0.13579662144184113,-0.14478078484535217,7.489214897155762,8.962430953979492,-1.943521499633789,-0.32,0.15,-0.12,272.64
1682106460.43851995,725173147,2,-0.93,0.4,103.86,-0.03086777590215206,0.2111573964357376,-0.16851991415023804,-0.1879195123910904,7.480789661407471,8.982707977294922,-1.960590124130249,-0.33,0.15,-0.12,272.64
1682106460.53857899,725273206,2,-1.04,0.35000000000000003,103.82000000000001,-0.030021928250789642,0.22342702746391296,-0.20727378129959106,-0.21710218489170074,7.47224235534668,9.004271507263184,-1.9801368713378906,-0.32,0.15,-0.12,272.64
1682106460.63857508,725373202,2,-0.91,0.79,103.79,-0.045852530747652054,0.23444940149784088,-0.24251201748847961,-0.2643112242221832,7.46273136138916,9.028336524963379,-2.0061981678009033,-0.33,0.15,-0.12,272.64
1682106460.73859310,725473220,2,-0.9,1.05,103.75,-0.027127016335725784,0.2478541135787964,-0.23315247893333435,-0.29416123032569885,7.453397750854492,9.054283142089844,-2.036208391189575,-0.33,0.15,-0.12,272.64
1682106460.83856487,725573192,2,-0.87,1.18,103.74000000000001,-0.04117525368928909,0.24092324078083038,-0.25584983825683594,-0.3046366274356842,7.446156024932861,9.080312728881836,-2.0648298263549805,-0.33,0.15,-0.12,272.64
1682106460.93852711,725673154,2,-0.7000000000000001,1.24,103.74000000000001,-0.059092771261930466,0.2392372190952301,-0.25298747420310974,-0.28861504793167114,7.439950466156006,9.106040000915527,-2.095038890838623,-0.33,0.15,-0.12,272.64
1682106461.03852606,725773153,2,-0.43,0.97,103.77,-0.055611610412597656,0.2443597912788391,-0.2586762607097626,-0.3051946461200714,7.432994842529297,9.130963325500488,-2.1265296936035156,-0.32,0.15,-0.12,272.64
1682106461.13849902,725873126,2,-0.19,0.64,107.39,-0.07576598972082138,0.2554938793182373,-0.2555731236934662,-0.30009934306144714,7.425326824188232,9.155548095703125,-2.1559784412384033,-0.32,0.15,-0.12,272.64
1682106461.23849392,725973121,2,0.0,0.42,107.37,-0.08560541272163391,0.2517772614955902,-0.2330266237258911,-0.2642776668071747,7.414296627044678,9.182480812072754,-2.183006763458252,-0.32,0.15,-0.12,272.64
1682106461.33853793,726073165,2,-0.1,0.41000000000000003,107.37,-0.11650124192237854,0.2634693384170532,-0.20926256477832794,-0.21877898275852203,7.400219440460205,9.211153030395508,-2.205329656600952,-0.33,0.15,-0.12,272.64
1682106461.43856788,726173195,2,-0.02,0.42,107.35000000000001,-0.12788552045822144,0.2603950798511505,-0.18821482360363007,-0.14975252747535706,7.385452747344971,9.241098403930664,-2.221782684326172,-0.32,0.15,-0.12,272.64
1682106461.53858089,726273208,2,0.04,0.47000000000000003,107.26,-0.15121984481811523,0.27370724081993103,-0.17594097554683685,-0.1105426698923111,7.37015438079834,9.271838188171387,-2.23526930809021,-0.33,0.15,-0.12,272.64
1682106461.63858199,726373209,2,-0.03,0.39,107.2,-0.15697431564331055,0.2769753634929657,-0.1882336139678955,-0.13155597448349,7.352797508239746,9.300885200500488,-2.2483670711517334,-0.32,0.15,-0.12,272.64
1682106461.73856807,726473195,2,0.0,0.3,107.27,-0.185775026679039,0.2737460434436798,-0.16052570939064026,-0.1230044960975647,7.333095073699951,9.328399658203125,-2.2608511447906494,-0.32,0.15,-0.12,272.64
1682106461.83852005,726573147,2,0.17,0.2,107.31,-0.2140728384256363,0.283012330532074,-0.12845048308372498,-0.10088859498500824,7.311178684234619,9.357961654663086,-2.2723612785339355,-0.32,0.15,-0.12,272.64
1682106461.93849897,726673126,2,0.22,0.22,107.29,-0.23889555037021637,0.28895238041877747,-0.11899568140506744,-0.09484685212373734,7.287015438079834,9.389810562133789,-2.282565116882324,-0.32,0.15,-0.12,272.64
1682106462.03849602,726773123,2,-0.03,0.16,107.31,-0.24968321621418,0.2971985340118408,-0.11159562319517136,-0.08357051759958267,7.262119770050049,9.420763969421387,-2.290902853012085,-0.32,0.15,-0.12,272.64
1682106462.13849592,726873123,2,-1.62,0.03,107.43,-0.22764132916927338,0.3195645809173584,-0.11736571043729782,-0.08369216322898865,7.2390618324279785,9.451279640197754,-2.2979736328125,-0.33,0.15,-0.12,272.64
1682106462.23851991,726973147,2,-4.23,0.07,107.49000000000001,-0.181308776140213,0.3460890054702759,-0.0779266357421875,-0.03587401285767555,7.2182536125183105,9.48690128326416,-2.302885055541992,-0.33,0.15,-0.12,272.64
1682106462.33856392,727073191,2,-6.18,0.7000000000000001,107.38,-0.13767580687999725,0.37133583426475525,-0.05840008705854416,-0.02113230898976326,7.2022576332092285,9.527464866638184,-2.306279182434082,-0.33,0.15,-0.12,272.64
1682106462.43858099,727173208,2,-6.4,1.54,107.18,-0.05835910513997078,0.3981531858444214,-0.013183197006583214,0.013787055388092995,7.195251941680908,9.57071590423584,-2.307494640350342,-0.32,0.15,-0.12,272.64
1682106462.53858709,727273214,2,-5.2,2.0100000000000002,107.02,-0.015899961814284325,0.4086065888404846,-0.027620239183306694,0.004149810876697302,7.197790145874023,9.617025375366211,-2.3053152561187744,-0.33,0.15,-0.12,272.64
1682106462.63856292,727373190,2,-3.97,1.96,107.01,0.05819801613688469,0.42322322726249695,-0.035873111337423325,0.005551030393689871,7.208055019378662,9.662309646606445,-2.3022477626800537,-0.33,0.15,-0.12,272.64
1682106462.73852301,727473150,2,-3.43,1.6400000000000001,107.15,0.13409709930419922,0.4313128590583801,-0.019951939582824707,0.025050483644008636,7.225555896759033,9.706328392028809,-2.3002302646636963,-0.33,0.15,-0.12,272.64
1682106462.83849001,727573117,2,-2.5100000000000002,0.76,107.49000000000001,0.15281111001968384,0.4527508318424225,0.030253421515226364,0.056641411036252975,7.242281436920166,9.750009536743164,-2.298929452896118,-0.33,0.15,-0.12,272.64
1682106462.93849993,727673127,2,-0.37,-0.03,107.99000000000001,0.1546405404806137,0.45138052105903625,0.023884309455752373,0.01988609880208969,7.255124092102051,9.79274845123291,-2.298767566680908,-0.33,0.15,-0.12,272.64
1682106463.03849506,727773122,2,0.61,-0.17,108.51,0.14368385076522827,0.45732027292251587,0.0016720673302188516,-0.014957430772483349,7.267548084259033,9.836559295654297,-2.3003034591674805,-0.33,0.15,-0.12,272.64
1682106463.13852906,727873156,2,0.42,-0.26,108.96000000000001,0.11100465059280396,0.4737511873245239,0.017849186435341835,-0.011617372743785381,7.277673244476318,9.88226318359375,-2.3009912967681885,-0.33,0.15,-0.12,272.64
1682106463.23855901,727973186,2,0.27,-0.42,109.31,0.07015819102525711,0.47957170009613037,0.042163025587797165,0.025067895650863647,7.284501552581787,9.927956581115723,-2.297422409057617,-0.32,0.15,-0.12,272.64
1682106463.33858609,728073213,2,0.24,-0.36,109.5,0.04584786668419838,0.48521530628204346,0.0461261048913002,0.048518106341362,7.288055419921875,9.97177505493164,-2.2913365364074707,-0.32,0.15,-0.12,272.64
1682106463.43858290,728173210,2,0.08,-0.26,109.66,0.008349405601620674,0.4941279888153076,0.06798416376113892,0.0794440507888794,7.283030986785889,10.014894485473633,-2.2835099697113037,-0.32,0.15,-0.12,272.64
1682106463.53855491,728273182,2,0.21,-0.01,109.84,-0.029153315350413322,0.5003139972686768,0.09739796072244644,0.11004355549812317,7.270254611968994,10.056405067443848,-2.2738301753997803,-0.32,0.15,-0.12,272.64
1682106463.63855004,728373177,2,0.8300000000000001,0.67,109.99000000000001,-0.06853067129850388,0.47347769141197205,0.09917090833187103,0.09086041897535324,7.2554802894592285,10.096701622009277,-2.2658917903900146,-0.32,0.15,-0.12,272.64
1682106463.73849106,728473118,2,1.49,1.54,110.07000000000001,-0.12359818816184998,0.45247748494148254,0.09207101911306381,0.060354843735694885,7.238532543182373,10.135226249694824,-2.258802890777588,-0.32,0.15,-0.12,272.64
1682106463.83850598,728573133,2,1.37,2.37,109.99000000000001,-0.14410369098186493,0.4233078360557556,0.11011368781328201,0.09243287891149521,7.215587139129639,10.17383098602295,-2.249854326248169,-0.32,0.15,-0.12,272.64
1682106463.93850303,728673130,2,0.75,3.31,109.87,-0.1620626002550125,0.3821966350078583,0.1262146234512329,0.12801982462406158,7.187628269195557,10.210542678833008,-2.2388830184936523,-0.32,0.15,-0.12,272.64
1682106464.03852510,728773152,2,0.08,4.18,109.66,-0.20198006927967072,0.3224301040172577,0.1312118023633957,0.14073602855205536,7.164621353149414,10.243520736694336,-2.2272911071777344,-0.32,0.15,-0.12,272.64
1682106464.13855791,728873185,2,-0.78,4.87,109.34,-0.18520516157150269,0.26088565587997437,0.10189026594161987,0.10881707072257996,7.147156715393066,10.27195930480957,-2.2162604331970215,-0.32,0.15,-0.12,272.64
1682106464.23857999,728973207,2,-1.36,4.92,108.99000000000001,-0.1720045655965805,0.21214346587657928,0.11487742513418198,0.12410274893045425,7.129834175109863,10.29374885559082,-2.2049942016601562,-0.32,0.15,-0.12,272.64
1682106464.33858204,729073209,2,-1.6500000000000001,4.32,108.7,-0.12945976853370667,0.16456574201583862,0.10079851001501083,0.12070566415786743,7.113458633422852,10.309797286987305,-2.1929171085357666,-0.32,0.15,-0.12,272.64
1682106464.43855500,729173182,2,-1.8,3.68,108.47,-0.09585469961166382,0.10720096528530121,0.06975739449262619,0.09748432040214539,7.1003947257995605,10.321711540222168,-2.1822056770324707,-0.32,0.15,-0.12,272.64
1682106464.53852105,729273148,2,-1.86,2.92,108.3,-0.09498561173677444,0.07156872004270554,0.05858727544546127,0.07945539802312851,7.090521335601807,10.33063793182373,-2.172715425491333,-0.32,0.15,-0.12,272.64
1682106464.63850188,729373129,2,-1.74,2.21,108.12,-0.07796508073806763,0.058184172958135605,0.06218721345067024,0.08318416029214859,7.081297874450684,10.339212417602539,-2.164645195007324,-0.32,0.15,-0.12,272.64
1682106464.73849392,729473121,2,-1.48,1.6400000000000001,107.91,-0.05920550599694252,0.0465095080435276,0.031109169125556946,0.044126302003860474,7.072585582733154,10.348281860351562,-2.1585705280303955,-0.32,0.15,-0.12,272.64
1682106464.83849597,729573123,2,-1.25,1.09,107.7,-0.04670814424753189,0.060668762773275375,0.04595987871289253,0.045715685933828354,7.063291549682617,10.358075141906738,-2.1543045043945312,-0.32,0.15,-0.12,272.64
1682106464.93852806,729673155,2,-1.08,0.44,107.46000000000001,-0.06485962122678757,0.07049798965454102,0.01634424738585949,0.004114527255296707,7.053081035614014,10.369359016418457,-2.151883363723755,-0.32,0.15,-0.12,272.64
1682106465.03856111,729773188,2,-1.01,0.26,107.23,-0.08527271449565887,0.07294176518917084,-0.006433421745896339,-0.007631357759237289,7.040911674499512,10.382433891296387,-2.149803400039673,-0.32,0.15,-0.12,272.64
1682106465.13857198,729873199,2,-0.93,0.86,107.05,-0.07544146478176117,0.07950334995985031,-0.023893272504210472,-0.004908430390059948,7.027168273925781,10.396637916564941,-2.1478993892669678,-0.32,0.15,-0.12,272.64
1682106465.23858404,729973211,2,-1.0,1.6300000000000001,106.93,-0.07394009828567505,0.08573739975690842,-0.004764579702168703,0.022531529888510704,7.012768745422363,10.411320686340332,-2.146044969558716,-0.32,0.15,-0.12,272.64
1682106465.33855796,730073185,2,-1.1500000000000001,1.75,106.92,-0.08763580769300461,0.08316171169281006,-0.018962815403938293,0.0179295651614666,6.998275279998779,10.426209449768066,-2.1434719562530518,-0.32,0.15,-0.12,272.64
1682106465.43852496,730173152,2,-1.23,1.41,106.96000000000001,-0.08028027415275574,0.08794596791267395,-0.04429911822080612,0.0148394163697958,6.983569145202637,10.44027042388916,-2.1404314041137695,-0.32,0.15,-0.12,272.64
1682106465.53849506,730273122,2,-1.25,1.04,107.06,-0.07932285219430923,0.08434940129518509,-0.062122050672769547,0.015233402140438557,6.969394683837891,10.453667640686035,-2.1373589038848877,-0.32,0.15,-0.12,272.64
1682106465.63849497,730373122,2,-1.28,0.63,107.22,-0.09443839639425278,0.10289423912763596,-0.05790458619594574,0.04675297811627388,6.954549312591553,10.466748237609863,-2.1325204372406006,-0.32,0.15,-0.12,272.64
1682106465.73849106,730473118,2,-1.19,0.26,107.39,-0.0711091160774231,0.11274366080760956,-0.07913041859865189,0.05038308724761009,6.939172744750977,10.480191230773926,-2.1285319328308105,-0.32,0.15,-0.12,272.64
1682106465.83851290,730573140,2,-1.06,0.52,107.61,-0.08207797259092331,0.11963703483343124,-0.08709776401519775,0.03696339949965477,6.923664569854736,10.495149612426758,-2.126361846923828,-0.32,0.15,-0.12,272.64
1682106465.93855906,730673186,2,-0.99,1.33,107.85000000000001,-0.08812275528907776,0.11594226956367493,-0.10835980623960495,-0.0015084544429555535,6.908895015716553,10.510428428649902,-2.1274874210357666,-0.32,0.15,-0.12,272.64
1682106466.03857708,730773204,2,-0.9500000000000001,2.13,108.13,-0.08970637619495392,0.11557997763156891,-0.08375585079193115,0.018558796495199203,6.895011901855469,10.52487564086914,-2.1268889904022217,-0.32,0.15,-0.12,272.64
1682106466.13857603,730873203,2,-1.0,3.0700000000000003,108.42,-0.08385318517684937,0.08724528551101685,-0.11999118328094482,-0.023812148720026016,6.883086204528809,10.536561012268066,-2.128486156463623,-0.32,0.15,-0.12,272.64
1682106466.23857188,730973199,2,-0.97,3.5500000000000003,108.7,-0.07097531110048294,0.07027465105056763,-0.12112192809581757,-0.04718375205993652,6.871537685394287,10.544486999511719,-2.1321794986724854,-0.32,0.15,-0.12,272.64
1682106466.33852601,731073153,2,-0.78,3.2,108.97,-0.04768577218055725,0.03797154873609543,-0.1245163232088089,-0.07091555744409561,6.860411643981934,10.548908233642578,-2.1387155055999756,-0.33,0.15,-0.12,272.64
1682106466.43850398,731173131,2,-0.56,2.32,109.2,-0.050104670226573944,0.017611278221011162,-0.14281907677650452,-0.12218084186315536,6.850461006164551,10.54969310760498,-2.1484341621398926,-0.33,0.15,-0.12,272.64
1682106466.53849888,731273126,2,-0.32,1.28,109.37,-0.06254462897777557,-0.004207254387438297,-0.14970174431800842,-0.14116770029067993,6.841031074523926,10.547966003417969,-2.1595041751861572,-0.33,0.15,-0.12,272.64
1682106466.63850093,731373128,2,-0.17,0.42,109.51,-0.07609617710113525,-0.0007222624844871461,-0.14819209277629852,-0.14390599727630615,6.831160068511963,10.547150611877441,-2.1720502376556396,-0.32,0.15,-0.12,272.64
1682106466.73851800,731473145,2,-0.37,0.12,109.62,-0.0801146849989891,0.006030400283634663,-0.1325797289609909,-0.13074499368667603,6.820784568786621,10.547526359558105,-2.1849985122680664,-0.32,0.15,-0.12,272.64
1682106466.83857489,731573202,2,-1.04,0.33,109.66,-0.09302762895822525,0.011170521378517151,-0.11665879189968109,-0.10657712072134018,6.809084415435791,10.549827575683594,-2.196983575820923,-0.32,0.15,-0.12,272.64
1682106466.93857789,731673205,2,-1.48,0.52,109.65,-0.09619051963090897,0.026940811425447464,-0.10250914841890335,-0.09902854263782501,6.79614782333374,10.554208755493164,-2.208442449569702,-0.32,0.15,-0.12,272.64
1682106467.03857589,731773203,2,-1.51,0.72,109.60000000000001,-0.07930376380681992,0.040487345308065414,-0.1286819577217102,-0.12357515096664429,6.783742904663086,10.55996322631836,-2.2185592651367188,-0.32,0.15,-0.12,272.64
1682106467.13855100,731873178,2,-1.59,0.96,109.51,-0.08476266264915466,0.04456067830324173,-0.10085566341876984,-0.06483733654022217,6.7727813720703125,10.566915512084961,-2.223992109298706,-0.32,0.15,-0.12,272.64
1682106467.23852491,731973152,2,-1.45,1.2,109.37,-0.0714481920003891,0.05847502872347832,-0.07400597631931305,-0.0007968260324560106,6.761758804321289,10.573992729187012,-2.22592830657959,-0.33,0.15,-0.12,272.64
1682106467.33849692,732073124,2,-1.33,1.37,109.22,-0.05205102264881134,0.05541928485035896,-0.06768080592155457,0.013315381482243538,6.7511138916015625,10.581132888793945,-2.225640058517456,-0.32,0.15,-0.12,272.64
1682106467.43849397,732173121,2,-1.46,1.56,109.05,-0.05227184295654297,0.053865160793066025,-0.06604251265525818,0.034105610102415085,6.741603851318359,10.587200164794922,-2.2221837043762207,-0.32,0.15,-0.12,272.64
1682106467.53849602,732273123,2,-1.56,1.68,108.9,-0.03738915175199509,0.054788146167993546,-0.058238811790943146,0.04332320764660835,6.733177661895752,10.592222213745117,-2.218047857284546,-0.32,0.15,-0.12,272.64
1682106467.63852191,732373149,2,-1.62,1.67,108.76,-0.025902992114424706,0.04395057633519173,-0.040758442133665085,0.04206551983952522,6.726250171661377,10.596105575561523,-2.214163064956665,-0.32,0.15,-0.12,272.64
1682106467.73857093,732473198,2,-1.68,1.6400000000000001,108.59,-0.021433889865875244,0.040992069989442825,-0.02618553303182125,0.042145736515522,6.721158027648926,10.598909378051758,-2.2104201316833496,-0.32,0.15,-0.12,272.64
1682106467.83858109,732573208,2,-1.67,1.69,108.47,-0.007476413156837225,0.03104456141591072,-0.027570003643631935,0.020265132188796997,6.718305587768555,10.600929260253906,-2.2073476314544678,-0.32,0.15,-0.12,272.64
1682106467.93858099,732673208,2,-1.68,1.71,108.34,0.004994065500795841,0.04051393270492554,-0.00029955070931464434,0.02944517508149147,6.717808246612549,10.602666854858398,-2.204594373703003,-0.32,0.15,-0.12,272.64
1682106468.03856301,732773190,2,-1.62,1.6600000000000001,108.24000000000001,0.03553313761949539,0.024906568229198456,0.012084473855793476,0.03124414011836052,6.7185378074646,10.603377342224121,-2.2010746002197266,-0.32,0.15,-0.12,272.64
1682106468.13852501,732873152,2,-1.56,1.68,108.19,0.041359756141901016,0.014330324716866016,0.01417948305606842,0.03037300892174244,6.7203874588012695,10.602816581726074,-2.1974728107452393,-0.32,0.15,-0.12,272.64
1682106468.23849392,732973121,2,-1.6,1.34,108.14,0.04550014063715935,0.024214576929807663,0.004518955480307341,0.01245484035462141,6.722614288330078,10.602619171142578,-2.1942758560180664,-0.32,0.15,-0.12,272.64
1682106468.33849597,733073123,2,-1.51,0.37,108.13,0.05316014215350151,0.035571254789829254,0.02589522674679756,0.02501455321907997,6.724734783172607,10.603802680969238,-2.1914775371551514,-0.33,0.15,-0.12,272.64
1682106468.43849587,733173123,2,-1.26,-0.05,108.15,0.057714689522981644,0.036810535937547684,0.020885074511170387,0.018454955890774727,6.727633953094482,10.606689453125,-2.189194679260254,-0.33,0.15,-0.12,272.64
1682106468.53852797,733273155,2,-0.9,-0.28,108.16,0.058451391756534576,0.07440561801195145,0.06081780418753624,0.05516037344932556,6.730971336364746,10.612170219421387,-2.18578839302063,-0.33,0.15,-0.12,272.64
1682106468.63857508,733373202,2,-0.49,-0.49,108.16,0.04616174474358559,0.08673477917909622,0.010135323740541935,0.01557176373898983,6.73390531539917,10.619351387023926,-2.1813101768493652,-0.33,0.15,-0.12,272.64
1682106468.73858190,733473209,2,-0.06,-0.56,108.19,0.035337306559085846,0.1163451075553894,0.03673263639211655,0.05788964405655861,6.736103534698486,10.628435134887695,-2.1756629943847656,-0.32,0.15,-0.12,272.64
1682106468.83857393,733573201,2,0.44,-1.21,108.25,0.007279247045516968,0.15304172039031982,0.03452875465154648,0.06528595834970474,6.736124515533447,10.641493797302246,-2.168799638748169,-0.32,0.15,-0.12,272.64
1682106468.93858099,733673208,2,0.85,-2.15,108.29,-0.025259753689169884,0.19313399493694305,0.03883035108447075,0.07618851214647293,6.733443260192871,10.658893585205078,-2.1616766452789307,-0.32,0.15,-0.12,272.64
1682106469.03855300,733773180,2,0.64,-2.3000000000000003,108.4,-0.0715286061167717,0.22347387671470642,0.030080895870923996,0.05788949877023697,6.726921081542969,10.681138038635254,-2.156230926513672,-0.33,0.16,-0.12,272.64
1682106469.13849998,733873127,2,0.2,-2.21,108.53,-0.1065429076552391,0.2833816409111023,0.05210282653570175,0.07156923413276672,6.71649169921875,10.708833694458008,-2.1502366065979004,-0.33,0.16,-0.12,272.64
1682106469.23849392,733973121,2,-0.13,-1.99,108.69,-0.13787318766117096,0.31641510128974915,0.05316667631268501,0.05840127915143967,6.701766014099121,10.740614891052246,-2.146151065826416,-0.33,0.16,-0.12,272.64
1682106469.33850598,734073133,2,-0.48,-1.03,108.86,-0.14418670535087585,0.34986501932144165,0.039324354380369186,0.019536834210157394,6.684365749359131,10.775419235229492,-2.144426107406616,-0.33,0.16,-0.12,272.64
1682106469.43851709,734173144,2,-0.65,-0.11,109.01,-0.16016633808612823,0.374897301197052,0.03751860186457634,0.014760072343051434,6.667751789093018,10.813224792480469,-2.1423094272613525,-0.33,0.16,-0.12,272.64
1682106469.53853202,734273159,2,-0.56,0.41000000000000003,109.11,-0.16249842941761017,0.38838016986846924,0.049401767551898956,0.025145597755908966,6.651629447937012,10.85357666015625,-2.1393728256225586,-0.33,0.16,-0.12,272.64
1682106469.63858199,734373209,2,-0.62,1.07,109.22,-0.16019637882709503,0.39385631680488586,0.03200320899486542,0.00577120715752244,6.634413242340088,10.894932746887207,-2.136916399002075,-0.33,0.16,-0.12,272.64
1682106469.73857808,734473205,2,-0.85,2.0100000000000002,109.35000000000001,-0.1544506996870041,0.3808789849281311,0.028995387256145477,0.004649415612220764,6.616886138916016,10.936683654785156,-2.1343371868133545,-0.32,0.16,-0.12,272.64
1682106469.83856106,734573188,2,-1.1400000000000001,2.8000000000000003,109.44,-0.133430615067482,0.370906263589859,0.04603355750441551,0.028024686500430107,6.605690956115723,10.97508430480957,-2.1309032440185547,-0.32,0.15,-0.12,272.64
1682106469.93852997,734673157,2,-1.6500000000000001,2.72,109.35000000000001,-0.10148648917675018,0.3662415146827698,0.04252413287758827,0.030520182102918625,6.600759029388428,11.011293411254883,-2.127668857574463,-0.32,0.15,-0.12,272.64
1682106470.03849888,734773126,2,-2.08,1.96,109.10000000000001,-0.07327063381671906,0.3632260859012604,0.0376255065202713,0.006962355226278305,6.601629734039307,11.044453620910645,-2.128330945968628,-0.32,0.15,-0.12,272.64
1682106470.13850093,734873128,2,-2.13,1.12,108.72,-0.042181532829999924,0.36471790075302124,0.036993835121393204,-0.02660631574690342,6.607110500335693,11.075373649597168,-2.131241798400879,-0.32,0.15,-0.12,272.64
1682106470.23849392,734973121,2,-2.14,0.5700000000000001,108.43,0.006812377832829952,0.374492347240448,0.029223578050732613,-0.03867063671350479,6.612480640411377,11.109240531921387,-2.1351799964904785,-0.32,0.15,-0.12,272.64
1682106470.33852100,735073148,2,-2.71,0.11,108.24000000000001,0.03968733549118042,0.3905869424343109,0.01026863232254982,-0.05804901197552681,6.618897914886475,11.14694595336914,-2.1389477252960205,-0.32,0.15,-0.12,272.64
1682106470.43855190,735173179,2,-2.91,0.27,108.04,0.049187224358320236,0.39486226439476013,0.016092834994196892,-0.035956673324108124,6.630558013916016,11.187137603759766,-2.142605781555176,-0.32,0.15,-0.12,272.64
1682106470.53858089,735273208,2,-2.44,1.11,107.81,0.07990583777427673,0.4182511866092682,0.01184473093599081,-0.03705010935664177,6.646182060241699,11.228665351867676,-2.146096706390381,-0.32,0.15,-0.12,272.64
1682106470.63857508,735373202,2,-2.08,2.0,107.68,0.10702066123485565,0.41842541098594666,0.0048010218888521194,-0.027851924300193787,6.659946441650391,11.268706321716309,-2.146902322769165,-0.32,0.15,-0.12,272.64
1682106470.73857808,735473205,2,-1.69,2.83,107.65,0.14147037267684937,0.4021647870540619,0.0328306145966053,0.021798530593514442,6.67279577255249,11.306941986083984,-2.1453325748443604,-0.32,0.15,-0.12,272.64
1682106470.83853102,735573158,2,-0.89,3.5300000000000002,107.61,0.16969533264636993,0.38480207324028015,0.04770491272211075,0.046926867216825485,6.690652370452881,11.34294605255127,-2.1434590816497803,-0.32,0.15,-0.12,272.64
1682106470.93849897,735673126,2,0.08,2.97,107.51,0.16859883069992065,0.36048248410224915,0.027302170172333717,0.03191761299967766,6.7115397453308105,11.377067565917969,-2.1408989429473877,-0.32,0.15,-0.12,272.64
1682106471.03850293,735773130,2,0.9400000000000001,1.49,107.36,0.13816268742084503,0.3421860337257385,0.028238434344530106,0.03707702457904816,6.728140354156494,11.408369064331055,-2.13883376121521,-0.32,0.15,-0.12,272.64
1682106471.13850498,735873132,2,1.8800000000000001,0.07,107.2,0.09860454499721527,0.32056695222854614,0.020466044545173645,0.042292166501283646,6.739099502563477,11.435879707336426,-2.135277032852173,-0.32,0.15,-0.12,272.64
1682106471.23851299,735973140,2,2.69,-0.7000000000000001,107.07000000000001,0.0450027696788311,0.33338189125061035,0.017407093197107315,0.04458466172218323,6.745020389556885,11.464046478271484,-2.1323189735412598,-0.32,0.15,-0.12,272.64
1682106471.33856010,736073187,2,2.73,-1.34,106.97,-0.0091570895165205,0.3451498746871948,-0.002551398938521743,0.029832905158400536,6.745165824890137,11.494477272033691,-2.128981351852417,-0.32,0.15,-0.12,272.64
1682106471.43858290,736173210,2,2.19,-1.52,106.93,-0.0756838321685791,0.3599065840244293,-0.019118061289191246,0.027327679097652435,6.7356858253479,11.528860092163086,-2.1256508827209473,-0.33,0.15,-0.12,272.64
1682106471.53859711,736273224,2,1.41,-1.05,106.95,-0.1253187358379364,0.3796504735946655,-0.001753245247527957,0.04405752569437027,6.718204498291016,11.567214012145996,-2.1217432022094727,-0.33,0.15,-0.12,272.64
1682106471.63856888,736373196,2,0.71,-0.24,106.97,-0.14743740856647491,0.4031117558479309,-0.0006358747486956418,0.06271833181381226,6.694794654846191,11.608254432678223,-2.1164638996124268,-0.33,0.16,-0.12,272.64
1682106471.73851895,736473146,2,0.03,0.68,106.98,-0.18422573804855347,0.3981928825378418,-0.0203293077647686,0.04239502176642418,6.667482852935791,11.651137351989746,-2.1133954524993896,-0.33,0.16,-0.12,272.64
1682106471.83849406,736573121,2,-0.84,1.58,106.88,-0.196809783577919,0.39943769574165344,-0.022111758589744568,0.03044135868549347,6.642383098602295,11.694557189941406,-2.111736297607422,-0.33,0.16,-0.12,272.64
1682106471.93849301,736673120,2,-1.71,2.32,106.72,-0.16401410102844238,0.38401496410369873,-0.048725176602602005,0.009809494949877262,6.620319366455078,11.737347602844238,-2.109769582748413,-0.33,0.16,-0.12,272.64
1682106472.03848910,736773116,2,-2.11,3.0700000000000003,106.57000000000001,-0.1783866286277771,0.3496873378753662,-0.0532950758934021,-0.006010136567056179,6.599862098693848,11.777620315551758,-2.110253095626831,-0.33,0.16,-0.12,272.64
1682106472.13852191,736873149,2,-2.07,3.77,106.42,-0.12479545921087265,0.32376334071159363,-0.06841489672660828,-0.04746907949447632,6.582381725311279,11.814676284790039,-2.1138715744018555,-0.33,0.16,-0.12,272.64
1682106472.23857188,736973199,2,-2.0300000000000002,4.44,106.35000000000001,-0.09901584684848785,0.2766605019569397,-0.040366437286138535,-0.048157572746276855,6.570442199707031,11.847067832946777,-2.1192822456359863,-0.33,0.16,-0.12,272.64
1682106472.33858490,737073212,2,-1.75,4.45,106.3,-0.06120260804891586,0.24864107370376587,-0.02083584852516651,-0.03754616901278496,6.562873363494873,11.875147819519043,-2.1240100860595703,-0.33,0.16,-0.12,272.64
1682106472.43857598,737173203,2,-1.3800000000000001,3.94,106.3,-0.04031815379858017,0.19547155499458313,-0.03969573229551315,-0.03187345340847969,6.5578179359436035,11.897254943847656,-2.1262927055358887,-0.33,0.16,-0.12,272.64
1682106472.53855491,737273182,2,-0.99,3.42,106.32000000000001,-0.025170518085360527,0.14424937963485718,-0.0654105395078659,-0.03464396670460701,6.554574489593506,11.913487434387207,-2.128392219543457,-0.33,0.16,-0.12,272.64
1682106472.63852406,737373151,2,-0.67,2.91,106.31,-0.014081570319831371,0.11076632142066956,-0.03312426060438156,-0.012530608102679253,6.551106929779053,11.925976753234863,-2.130742311477661,-0.33,0.16,-0.12,272.64
1682106472.73849392,737473121,2,-0.48,2.37,106.28,-0.01691845990717411,0.08648866415023804,-0.02364370971918106,-0.0018740324303507805,6.547187328338623,11.935478210449219,-2.1313629150390625,-0.33,0.16,-0.12,272.64
1682106472.83849311,737573120,2,-0.31,1.8900000000000001,106.16,-0.006451619789004326,0.07524526119232178,-0.014504311606287956,0.018861008808016777,6.54128360748291,11.942485809326172,-2.1312501430511475,-0.33,0.16,-0.12,272.64
1682106472.93850803,737673135,2,-0.18,1.47,106.07000000000001,-0.009519407525658607,0.053567130118608475,-0.047689225524663925,-0.006588085554540157,6.533406734466553,11.947894096374512,-2.1311120986938477,-0.33,0.16,-0.12,272.64
1682106473.03852797,737773155,2,-0.26,1.2,105.95,-0.043852489441633224,0.04276443272829056,-0.060564521700143814,-0.014840884134173393,6.522705078125,11.952138900756836,-2.132460594177246,-0.33,0.16,-0.12,272.64
1682106473.13856888,737873196,2,-0.48,1.1400000000000001,105.82000000000001,-0.04085690528154373,0.05045029893517494,-0.048797134310007095,-0.0020540845580399036,6.5098981857299805,11.9558687210083,-2.132560968399048,-0.33,0.16,-0.12,272.64
1682106473.23858809,737973215,2,-0.85,1.26,105.77,-0.043501727283000946,0.034751664847135544,-0.053901270031929016,0.004097374621778727,6.49650764465332,11.960047721862793,-2.1317949295043945,-0.33,0.16,-0.12,272.64
1682106473.33857799,738073205,2,-1.08,1.3800000000000001,105.77,-0.06043393164873123,0.03706099092960358,-0.035792212933301926,0.0063798148185014725,6.482998847961426,11.965106010437012,-2.132957935333252,-0.33,0.16,-0.12,272.64
