timestamp,TimeUS,C,Q1,Q2,Q3,Q4
1682106445.83848405,710573111,2,0.615323543548584,0.010076155886054039,-0.009510134346783161,0.7881528735160828
1682106445.93849397,710673121,2,0.6152443289756775,0.010111224837601185,-0.009546059183776379,0.788213849067688
1682106446.03849697,710773124,2,0.6152234077453613,0.01013975590467453,-0.009598932228982449,0.7882291674613953
1682106446.13856697,710873194,2,0.6151783466339111,0.010141255334019661,-0.009571588598191738,0.7882646322250366
1682106446.23857307,710973200,2,0.615048348903656,0.01013394258916378,-0.009577155113220215,0.7883660793304443
1682106446.33858204,711073209,2,0.6149851679801941,0.010203535668551922,-0.009613581001758575,0.7884140610694885
1682106446.43854809,711173175,2,0.614949107170105,0.010167770087718964,-0.009623827412724495,0.7884424924850464
1682106446.53852010,711273147,2,0.6149140000343323,0.010298323817551136,-0.009661574847996235,0.7884677052497864
1682106446.63848591,711373113,2,0.6149086952209473,0.010291959159076214,-0.009644751437008381,0.7884721755981445
1682106446.73848295,711473110,2,0.6148571968078613,0.010265202261507511,-0.009645878337323666,0.788512647151947
1682106446.83848000,711573107,2,0.6148374676704407,0.010287795215845108,-0.009609353728592396,0.7885282039642334
1682106446.93851304,711673140,2,0.6148015856742859,0.010325772687792778,-0.009648972190916538,0.7885552048683167
1682106447.03857207,711773199,2,0.6147109270095825,0.010354829020798206,-0.009599614888429642,0.7886260747909546
1682106447.13856697,711873194,2,0.6146377921104431,0.010374972596764565,-0.00955880805850029,0.788683295249939
1682106447.23861504,711973242,2,0.6146074533462524,0.0104303490370512,-0.009532310999929905,0.7887065410614014
1682106447.33856392,712073191,2,0.6145898103713989,0.010431414470076561,-0.009522947482764721,0.7887203693389893
1682106447.43851209,712173139,2,0.6146048903465271,0.01043565571308136,-0.009531683288514614,0.7887084484100342
1682106447.53848600,712273113,2,0.6145849823951721,0.010440905578434467,-0.009569019079208374,0.7887234687805176
1682106447.63848901,712373116,2,0.6145544052124023,0.010444283485412598,-0.009613613598048687,0.78874671459198
1682106447.73848391,712473111,2,0.6145339608192444,0.010451755486428738,-0.00959175918251276,0.7887628078460693
1682106447.83851004,712573137,2,0.6144996285438538,0.010474694892764091,-0.009663805365562439,0.788788378238678
1682106447.93856597,712673193,2,0.6144779324531555,0.010457921773195267,-0.00966447964310646,0.7888054847717285
1682106448.03857207,712773199,2,0.6144545078277588,0.010414771735668182,-0.009704509750008583,0.7888237833976746
1682106448.13859701,712873224,2,0.6144512295722961,0.01038789190351963,-0.009786318056285381,0.7888257503509521
1682106448.23855305,712973180,2,0.6144145727157593,0.010345214046537876,-0.009783183224499226,0.7888548374176025
1682106448.33853102,713073158,2,0.6143925786018372,0.010378937236964703,-0.009724021889269352,0.788872241973877
1682106448.43849206,713173119,2,0.6143629550933838,0.010380803607404232,-0.009724147617816925,0.788895308971405
1682106448.53849411,713273121,2,0.6143141984939575,0.010331721045076847,-0.009695351123809814,0.7889342904090881
1682106448.63849211,713373119,2,0.6142299175262451,0.010336064733564854,-0.009666088968515396,0.7890002131462097
1682106448.73852110,713473148,2,0.6141296625137329,0.010311163030564785,-0.009727859869599342,0.7890778183937073
1682106448.83856201,713573189,2,0.6143908500671387,0.010300124995410442,-0.009872158989310265,0.7888728380203247
1682106448.93857789,713673205,2,0.6140432953834534,0.010129092261195183,-0.009772700257599354,0.7891468405723572
1682106449.03858590,713773213,2,0.6140095591545105,0.01038767397403717,-0.009947833605110645,0.7891675233840942
1682106449.13855410,713873181,2,0.6141576170921326,0.010144790634512901,-0.009711776860058308,0.7890583872795105
1682106449.23852205,713973149,2,0.6137067079544067,0.009639103896915913,-0.009287905879318714,0.7894206047058105
1682106449.33850002,714073127,2,0.6138099431991577,0.00957140140235424,-0.00899465475231409,0.7893445491790771
1682106449.43849897,714173126,2,0.6141111850738525,0.009611616842448711,-0.008900806307792664,0.7891107797622681
1682106449.53850007,714273127,2,0.6136428713798523,0.009594653733074665,-0.008911128155887127,0.78947514295578
1682106449.63852000,714373147,2,0.6136066317558289,0.009473497048020363,-0.008955073542892933,0.7895042300224304
1682106449.73856306,714473190,2,0.6136118769645691,0.009321571327745914,-0.008886639960110188,0.789502739906311
1682106449.83858299,714573210,2,0.6132127642631531,0.009340846911072731,-0.00874245259910822,0.7898141741752625
1682106449.93857908,714673206,2,0.6129680275917053,0.009897639974951744,-0.007981383241713047,0.7900053858757019
1682106450.03857207,714773199,2,0.6129946112632751,0.00942686852067709,-0.0067406464368104935,0.7900021076202393
1682106450.13851905,714873146,2,0.6126131415367126,0.005410528741776943,-0.0007970670121721923,0.7903639674186707
1682106450.23849392,714973121,2,0.6121151447296143,0.002098462777212262,0.003424809081479907,0.7907584309577942
1682106450.33849406,715073121,2,0.6118045449256897,0.003352533094584942,0.0033678312320262194,0.7909947037696838
1682106450.43849111,715173118,2,0.6116291880607605,0.0037365779280662537,-0.006442610640078783,0.7911095023155212
1682106450.53850293,715273130,2,0.6115737557411194,0.010580127127468586,-0.024879194796085358,0.7907254099845886
1682106450.63854790,715373175,2,0.6119195818901062,0.010167110711336136,-0.03354829177260399,0.7901427149772644
1682106450.73858309,715473210,2,0.6126981973648071,-0.005616662558168173,-0.03558053448796272,0.7894956469535828
1682106450.83858705,715573214,2,0.6134351491928101,-0.019366927444934845,-0.031302813440561295,0.7888867855072021
1682106450.93856406,715673191,2,0.6140627264976501,-0.01567971520125866,-0.02063881792128086,0.7888314723968506
1682106451.03852797,715773155,2,0.6142886281013489,-0.008420453406870365,-0.009994358755648136,0.7889732122421265
1682106451.13849497,715873122,2,0.6146077513694763,-0.00340180448256433,0.00029948321753181517,0.7888254523277283
1682106451.23849201,715973119,2,0.6148310899734497,-0.0013332660309970379,0.0034136436879634857,0.7886502742767334
1682106451.33849692,716073124,2,0.6153435111045837,0.000162476600962691,0.0019455412402749062,0.7882566452026367
1682106451.43851209,716173139,2,0.6160019636154175,0.000543399655725807,0.0018624264048412442,0.7877422571182251
1682106451.53857589,716273203,2,0.6165038347244263,0.0020114663057029247,0.0009022020385600626,0.7873488068580627
1682106451.63858294,716373210,2,0.6170883178710938,0.003602576907724142,0.0007231199415400624,0.7868853211402893
1682106451.73858690,716473214,2,0.617714524269104,0.004579402972012758,0.0013372194953262806,0.7863879203796387
1682106451.83855891,716573186,2,0.6185709834098816,0.0032035959884524345,0.0013854398857802153,0.7857211828231812
1682106451.93852401,716673151,2,0.6192867755889893,0.001936131389811635,0.0021165425423532724,0.7851596474647522
1682106452.03849006,716773117,2,0.6201254725456238,0.0022206627763807774,0.0032381690107285976,0.7844927906990051
1682106452.13849592,716873123,2,0.620980978012085,0.0018254461465403438,0.0023147203028202057,0.7838200926780701
1682106452.23849106,716973118,2,0.6220189929008484,0.0004252034123055637,0.002814321080222726,0.7829969525337219
1682106452.33853602,717073163,2,0.6228893995285034,-0.0002228300436399877,0.002619221108034253,0.7823054790496826
1682106452.43856692,717173194,2,0.6238164305686951,-0.0011829865397885442,0.002120904391631484,0.7815670967102051
1682106452.53857994,717273207,2,0.6245855689048767,-0.0006768199964426458,0.0019893276039510965,0.7809535264968872
1682106452.63858604,717373213,2,0.6253758668899536,-0.0006246668053790927,0.001824638806283474,0.7803212404251099
1682106452.73856807,717473195,2,0.6260824203491211,-0.003497638739645481,-0.00037727830931544304,0.7797489166259766
1682106452.83852506,717573152,2,0.626490592956543,-0.007806179579347372,-0.0007951523293741047,0.779389500617981
1682106452.93849206,717673119,2,0.6267262697219849,-0.016549574211239815,0.006325800437480211,0.7790380120277405
1682106453.03850889,717773136,2,0.6266583204269409,-0.02921959012746811,0.015511499717831612,0.7785916328430176
1682106453.13849998,717873127,2,0.6264901757240295,-0.03509531170129776,0.02122313156723976,0.7783495187759399
1682106453.23851705,717973144,2,0.6264439821243286,-0.03547469154000282,0.023908132687211037,0.778291642665863
1682106453.33857393,718073201,2,0.6264309287071228,-0.02949349582195282,0.01736598089337349,0.7787251472473145
1682106453.43857789,718173205,2,0.6264644861221313,-0.012485858052968979,-0.0017485159914940596,0.7793479561805725
1682106453.53857803,718273205,2,0.6261264681816101,-0.004459429997950792,-0.010021539404988289,0.7796443700790405
1682106453.63856792,718373195,2,0.6254745721817017,-0.006916763726621866,-0.007787419017404318,0.7801750302314758
1682106453.73853397,718473161,2,0.6246671676635742,-0.009952278807759285,-0.008568735793232918,0.7807806730270386
1682106453.83848810,718573115,2,0.6238367557525635,-0.0111231729388237,-0.01051486749202013,0.7814047932624817
1682106453.93849587,718673123,2,0.6231022477149963,-0.009649173356592655,-0.009777377359569073,0.7820197343826294
1682106454.03849506,718773122,2,0.6224455237388611,-0.007338272873312235,-0.01081311609596014,0.782554030418396
1682106454.13852406,718873151,2,0.6220117211341858,-0.005696451291441917,-0.01150500774383545,0.7829026579856873
1682106454.23853993,718973167,2,0.6216094493865967,-0.003574955742806196,-0.007000480778515339,0.7832878828048706
1682106454.33857489,719073202,2,0.621479332447052,-0.001583524513989687,-0.0020929230377078056,0.7834261655807495
1682106454.43858194,719173209,2,0.6212725043296814,-0.003346388228237629,-7.986708078533411e-05,0.7835874557495117
1682106454.53855991,719273187,2,0.620908260345459,-0.006251418497413397,0.005299609154462814,0.7838404178619385
1682106454.63853288,719373160,2,0.6202630400657654,-0.007081629708409309,0.00942356325685978,0.7843053340911865
1682106454.73849487,719473122,2,0.6197232007980347,-0.015417144633829594,0.011890534311532974,0.7845789194107056
1682106454.83848906,719573116,2,0.619158148765564,-0.022670501843094826,0.015513568185269833,0.7847856879234314
1682106454.93849993,719673127,2,0.61871737241745,-0.02190224826335907,0.013597371056675911,0.7851905226707458
1682106455.03849888,719773126,2,0.6182438731193542,-0.02194460853934288,0.009353140369057655,0.7856242656707764
1682106455.13855910,719873186,2,0.6175639033317566,-0.022770505398511887,0.008041823282837868,0.7861499190330505
1682106455.23859501,719973222,2,0.6169400215148926,-0.021174827590584755,0.006438693031668663,0.7866989374160767
1682106455.33857894,720073206,2,0.6160784959793091,-0.021499987691640854,0.00502777099609375,0.7873752117156982
1682106455.43856096,720173188,2,0.6155188679695129,-0.020087501034140587,0.004542253911495209,0.7878530025482178
1682106455.53851891,720273146,2,0.6149401664733887,-0.017144080251455307,0.0023833520244807005,0.7883837819099426
1682106455.63849497,720373122,2,0.6145108342170715,-0.01788269355893135,0.0007879140321165323,0.7887052893638611
1682106455.73849106,720473118,2,0.6141307353973389,-0.01897094026207924,-0.0011445757700130343,0.7889754772186279
1682106455.83850503,720573132,2,0.6139189004898071,-0.018377289175987244,-0.001849580672569573,0.789152979850769
1682106455.93853092,720673158,2,0.6138526797294617,-0.017749086022377014,-0.0012114163255319,0.7892200946807861
1682106456.03857708,720773204,2,0.6140627861022949,-0.014695579186081886,-0.001045591663569212,0.7891196608543396
1682106456.13857698,720873204,2,0.6140639185905457,-0.007219455670565367,0.0015737527282908559,0.7892217040061951
1682106456.23857689,720973204,2,0.6141074299812317,-0.0011358788469806314,0.0017274083802476525,0.7892197370529175
1682106456.33855700,721073184,2,0.6140521168708801,0.0006258758949115872,0.0004544059047475457,0.7892650961875916
1682106456.43853402,721173161,2,0.613770067691803,-0.00015296798665076494,0.000829493161290884,0.7894843816757202
1682106456.53849292,721273120,2,0.6134573817253113,-0.006687278859317303,0.0047630323097109795,0.7896851301193237
1682106456.63850808,721373135,2,0.6128557920455933,-0.019051117822527885,0.013348031789064407,0.7898523211479187
1682106456.73849201,721473119,2,0.6125707030296326,-0.02102300338447094,0.014057405292987823,0.7900111079216003
1682106456.83852696,721573154,2,0.6126770377159119,-0.014494079165160656,0.008664431981742382,0.7901529669761658
1682106456.93856907,721673196,2,0.61282879114151,-0.012125711888074875,0.006798755843192339,0.7900934219360352
1682106457.03858590,721773213,2,0.6129862070083618,-0.012160124257206917,0.003584891324862838,0.7899919152259827
1682106457.13857794,721873205,2,0.6131963133811951,-0.011929056607186794,-0.002140967408195138,0.7898375988006592
1682106457.23855710,721973184,2,0.6133314371109009,-0.01283956691622734,-0.002278156578540802,0.789717972278595
1682106457.33852601,722073153,2,0.61360102891922,-0.012931651435792446,0.0012889343779534101,0.7895092964172363
1682106457.43848896,722173116,2,0.6137229204177856,-0.010947524569928646,0.0051687718369066715,0.7894286513328552
1682106457.53849101,722273118,2,0.6137398481369019,-0.011166471987962723,0.008414953015744686,0.7893845438957214
1682106457.63849401,722373121,2,0.6139062643051147,-0.01388572994619608,0.010552323423326015,0.7891862392425537
1682106457.73853707,722473164,2,0.6139618754386902,-0.014798348769545555,0.010618752799928188,0.7891255021095276
1682106457.83854795,722573175,2,0.6139243841171265,-0.015076437965035439,0.011103479191660881,0.7891427874565125
1682106457.93857789,722673205,2,0.6139601469039917,-0.016754111275076866,0.011616143397986889,0.7890737056732178
1682106458.03858209,722773209,2,0.6140744686126709,-0.015701431781053543,0.010458068922162056,0.7890226244926453
1682106458.13857007,722873197,2,0.6140252947807312,-0.01638639345765114,0.00835392065346241,0.7890719771385193
1682106458.23857307,722973200,2,0.6139315962791443,-0.023694749921560287,0.008350874297320843,0.7889593243598938
1682106458.33850002,723073127,2,0.6137649416923523,-0.026351159438490868,0.006607298739254475,0.7890212535858154
1682106458.43849397,723173121,2,0.6137776970863342,-0.026111584156751633,0.0023395842872560024,0.7890434861183167
1682106458.53849697,723273124,2,0.6137528419494629,-0.02824227325618267,-0.0012466475600376725,0.7889919281005859
1682106458.63851810,723373145,2,0.6136080026626587,-0.028247259557247162,-0.0042782011441886425,0.7890937924385071
1682106458.73854399,723473171,2,0.6135420203208923,-0.029935412108898163,-0.009863319806754589,0.7890328168869019
1682106458.83857799,723573205,2,0.6134843230247498,-0.031398676335811615,-0.010588815435767174,0.7890113592147827
1682106458.93857503,723673202,2,0.6136326193809509,-0.028335001319646835,-0.00608993461355567,0.789059579372406
1682106459.03855801,723773185,2,0.6136865615844727,-0.024120861664414406,-0.002369097899645567,0.789177656173706
1682106459.13852406,723873151,2,0.6139460802078247,-0.015418332070112228,0.004421615041792393,0.7891849875450134
1682106459.23849392,723973121,2,0.6142519116401672,-0.00882318988442421,0.00793506857007742,0.7890207767486572
1682106459.33849597,724073123,2,0.6145418286323547,-0.007232952862977982,0.004536198452115059,0.7888380289077759
1682106459.43849301,724173120,2,0.6149049997329712,-0.005270848516374826,0.0005701518966816366,0.7885833978652954
1682106459.53849411,724273121,2,0.6152399778366089,-0.0012796063674613833,-0.0036783700343221426,0.7883302569389343
1682106459.63857388,724373201,2,0.6155273914337158,-0.0011384827084839344,-0.0061751361936330795,0.7880904674530029
1682106459.73858190,724473209,2,0.6156182885169983,-0.0020664839539676905,-0.005387982819229364,0.7880233526229858
1682106459.83857608,724573203,2,0.6157368421554565,-0.0034312084317207336,-0.00487106665968895,0.7879292964935303
1682106459.93855810,724673185,2,0.6158871054649353,-0.005761218257248402,-0.0036360311787575483,0.7878049612045288
1682106460.03852797,724773155,2,0.6158444881439209,-0.00913283322006464,0.0005200118757784367,0.7878146171569824
1682106460.13849688,724873124,2,0.6159928441047668,-0.011902142316102982,0.002978183561936021,0.7876561880111694
1682106460.23849392,724973121,2,0.6160328984260559,-0.010633120313286781,0.0006080077146179974,0.7876484394073486
1682106460.33849907,725073126,2,0.6163089871406555,-0.008641690947115421,-0.0007481542997993529,0.7874566912651062
1682106460.43851995,725173147,2,0.6165534257888794,-0.007810435723513365,-0.00423815893009305,0.7872629165649414
1682106460.53857899,725273206,2,0.6168450713157654,-0.00806052703410387,-0.005299718119204044,0.7870254516601562
1682106460.63857508,725373202,2,0.6169697642326355,-0.010389969684183598,-0.0019501270726323128,0.7869158387184143
1682106460.73859310,725473220,2,0.6172170639038086,-0.01215453166514635,-0.0005188756040297449,0.7866988778114319
1682106460.83856487,725573192,2,0.61727374792099,-0.01288632582873106,0.00035226528416387737,0.786642849445343
1682106460.93852711,725673154,2,0.6173108816146851,-0.012298361398279667,0.00186310731805861,0.7866209745407104
1682106461.03852606,725773153,2,0.6171475052833557,-0.009006580337882042,0.002257893793284893,0.7867926955223083
1682106461.13849902,725873126,2,0.5920282602310181,-0.005544857122004032,0.0019097717013210058,0.8058958649635315
1682106461.23849392,725973121,2,0.5921780467033386,-0.002950384048745036,0.002189376624301076,0.8057987689971924
1682106461.33853793,726073165,2,0.5921915173530579,-0.0034351639915257692,0.0014020075323060155,0.8057886958122253
1682106461.43856788,726173195,2,0.5923077464103699,-0.0031439559534192085,0.002011803910136223,0.8057031631469727
1682106461.53858089,726273208,2,0.5929578542709351,-0.003146237228065729,0.0027517792768776417,0.8052226305007935
1682106461.63858199,726373209,2,0.5933586359024048,-0.002978207776322961,0.0017698077717795968,0.8049308061599731
1682106461.73856807,726473195,2,0.5928986668586731,-0.002133588306605816,0.0016534990863874555,0.8052725195884705
1682106461.83852005,726573147,2,0.5925827026367188,-0.0005352772423066199,0.00226563005708158,0.8055062294006348
1682106461.93849897,726673126,2,0.5927740931510925,-0.0003904132463503629,0.002713191555812955,0.8053640723228455
1682106462.03849602,726773123,2,0.5926315784454346,-0.001325917779468,0.0006170904962345958,0.8054723143577576
1682106462.13849592,726873123,2,0.591680109500885,-0.00863602478057146,-0.011263519525527954,0.8060479164123535
1682106462.23851991,726973147,2,0.5909019708633423,-0.022329581901431084,-0.02939937822520733,0.8058981895446777
1682106462.33856392,727073191,2,0.5910128355026245,-0.03689095750451088,-0.03981528431177139,0.8048339486122131
1682106462.43858099,727173208,2,0.5919051766395569,-0.043978746980428696,-0.03698769584298134,0.8039564490318298
1682106462.53858709,727273214,2,0.5933284759521484,-0.04109104722738266,-0.026036959141492844,0.8034892082214355
1682106462.63856292,727373190,2,0.5938050150871277,-0.03444502130150795,-0.01767888478934765,0.8036769032478333
1682106462.73852301,727473150,2,0.5930483937263489,-0.029368191957473755,-0.015567335300147533,0.8044804334640503
1682106462.83849001,727573117,2,0.5911033749580383,-0.01837744191288948,-0.01374729909002781,0.8062692284584045
1682106462.93849993,727673127,2,0.5878451466560364,-0.0016469063702970743,-0.002814213978126645,0.8089669346809387
1682106463.03849506,727773122,2,0.5841178297996521,0.004400074016302824,0.0034497552551329136,0.8116496205329895
1682106463.13852906,727873156,2,0.5809148550033569,0.00401360634714365,0.0016541004879400134,0.8139527440071106
1682106463.23855901,727973186,2,0.5784642100334167,0.0043877665884792805,-0.00021822260168846697,0.8156959414482117
1682106463.33858609,728073213,2,0.5770765542984009,0.0038620594423264265,-0.00011749511759262532,0.816680908203125
1682106463.43858290,728173210,2,0.5759370923042297,0.002322928514331579,-0.000690152810420841,0.8174903988838196
1682106463.53855491,728273182,2,0.5747056603431702,0.0011764323571696877,0.0014830839354544878,0.8183580040931702
1682106463.63855004,728373177,2,0.5735946297645569,-0.0006836400716565549,0.009330709464848042,0.8190858960151672
1682106463.73849106,728473118,2,0.5730945467948914,-0.003588705323636532,0.018406424671411514,0.8192746639251709
1682106463.83850598,728573133,2,0.5736227631568909,-0.010062824003398418,0.02173152193427086,0.8187694549560547
1682106463.93850303,728673130,2,0.5743476152420044,-0.01990686170756817,0.022042809054255486,0.8180725574493408
1682106464.03852510,728773152,2,0.5756000876426697,-0.029420215636491776,0.021626058965921402,0.81691575050354
1682106464.13855791,728873185,2,0.5774597525596619,-0.03867610916495323,0.019040478393435478,0.8152802586555481
1682106464.23857999,728973207,2,0.5797357559204102,-0.04189154505729675,0.015299503691494465,0.8135831356048584
1682106464.33858204,729073209,2,0.5819071531295776,-0.03905555605888367,0.010272226296365261,0.8122519254684448
1682106464.43855500,729173182,2,0.5836660265922546,-0.035250160843133926,0.006014542188495398,0.811206042766571
1682106464.53852105,729273148,2,0.5850517153739929,-0.030245250090956688,0.0017600434366613626,0.8104299306869507
1682106464.63850188,729373129,2,0.5865182876586914,-0.024562131613492966,-0.0009673985769040883,0.8095629215240479
1682106464.73849392,729473121,2,0.5881187915802002,-0.019186755642294884,-0.0020170873031020164,0.8085444569587708
1682106464.83849597,729573123,2,0.5897330045700073,-0.014155381359159946,-0.0032100954558700323,0.8074678778648376
1682106464.93852806,729673155,2,0.5915018320083618,-0.008765121921896935,-0.0053663901053369045,0.8062381744384766
1682106465.03856111,729773188,2,0.5931228995323181,-0.007114707957953215,-0.005742271430790424,0.8050600290298462
1682106465.13857198,729873199,2,0.5943723320960999,-0.010956337675452232,-0.002095460658892989,0.8041126132011414
1682106465.23858404,729973211,2,0.5951018333435059,-0.01663900725543499,0.0014390122378244996,0.8034767508506775
1682106465.33855796,730073185,2,0.5950989723205566,-0.01831790804862976,0.0010274647502228618,0.8034429550170898
1682106465.43852496,730173152,2,0.5948904752731323,-0.01634380593895912,-0.0013267423491925001,0.8036395311355591
1682106465.53849506,730273122,2,0.594218909740448,-0.013873924501240253,-0.003416669787839055,0.804176390171051
1682106465.63849497,730373122,2,0.5931302309036255,-0.011119134724140167,-0.0057073552161455154,0.8050095438957214
1682106465.73849106,730473118,2,0.5919787883758545,-0.008005495183169842,-0.007012404967099428,0.8058832883834839
1682106465.83851290,730573140,2,0.590410053730011,-0.009224362671375275,-0.004792231600731611,0.8070365190505981
1682106465.93855906,730673186,2,0.5886827111244202,-0.01457080990076065,-0.000165111618116498,0.808232843875885
1682106466.03857708,730773204,2,0.5865526795387268,-0.019978871569037437,0.004210533574223518,0.8096536993980408
1682106466.13857603,730873203,2,0.5843403935432434,-0.02689240127801895,0.008552594110369682,0.8110178709030151
1682106466.23857188,730973199,2,0.5822542905807495,-0.030159903690218925,0.01118601392954588,0.8123701214790344
1682106466.33852601,731073153,2,0.5804722309112549,-0.026726892217993736,0.010681779123842716,0.8137711882591248
1682106466.43850398,731173131,2,0.5790604948997498,-0.019358022138476372,0.007718170061707497,0.8150181770324707
1682106466.53849888,731273126,2,0.5779609680175781,-0.010783864185214043,0.004196505062282085,0.8159823417663574
1682106466.63850093,731373128,2,0.5770471692085266,-0.003878020215779543,0.000869613781105727,0.8167011737823486
1682106466.73851800,731473145,2,0.5762811303138733,-0.002765050157904625,-0.002019366016611457,0.8172443509101868
1682106466.83857489,731573202,2,0.5759345293045044,-0.007677510846406221,-0.005796165205538273,0.8174391984939575
1682106466.93857789,731673205,2,0.5759603381156921,-0.011218776926398277,-0.007893645204603672,0.8173625469207764
1682106467.03857589,731773203,2,0.5762861371040344,-0.012769688852131367,-0.0071911257691681385,0.8171165585517883
1682106467.13855100,731873178,2,0.5768668055534363,-0.01487688347697258,-0.0064781587570905685,0.8166770339012146
1682106467.23852491,731973152,2,0.5778144001960754,-0.01589205302298069,-0.0042514195665717125,0.816002368927002
1682106467.33849692,732073124,2,0.5788922905921936,-0.01654561050236225,-0.002587193390354514,0.8152320384979248
1682106467.43849397,732173121,2,0.5800613760948181,-0.018533742055296898,-0.0025371008086949587,0.8143579363822937
1682106467.53849602,732273123,2,0.5811237096786499,-0.01987801305949688,-0.0025916944723576307,0.8135682940483093
1682106467.63852191,732373149,2,0.5821164846420288,-0.020119505003094673,-0.003000726690515876,0.8128508925437927
1682106467.73857093,732473198,2,0.5832709074020386,-0.020238151773810387,-0.0036145374178886414,0.8120175004005432
1682106467.83858109,732573208,2,0.5840901732444763,-0.020565960556268692,-0.003190179355442524,0.8114219307899475
1682106467.93858099,732673208,2,0.5850447416305542,-0.020749766379594803,-0.0031326727475970984,0.810729444026947
1682106468.03856301,732773190,2,0.5857337117195129,-0.020080508664250374,-0.002975709503516555,0.8102492690086365
1682106468.13852501,732873152,2,0.5861169695854187,-0.019899852573871613,-0.0024552629329264164,0.8099783062934875
1682106468.23849392,732973121,2,0.5865375399589539,-0.01773739419877529,-0.004467259161174297,0.8097154498100281
1682106468.33849597,733073123,2,0.5867369174957275,-0.010366127826273441,-0.008781900629401207,0.8096636533737183
1682106468.43849587,733173123,2,0.5866304039955139,-0.006096099503338337,-0.00926879234611988,0.8097788095474243
1682106468.53852797,733273155,2,0.5866106748580933,-0.002633454278111458,-0.007846006192266941,0.8098267912864685
1682106468.63857508,733373202,2,0.5865944623947144,0.0009504106710664928,-0.006029076408594847,0.8098578453063965
1682106468.73858190,733473209,2,0.5863695740699768,0.003696207655593753,-0.0033357448410242796,0.8100283145904541
1682106468.83857393,733573201,2,0.5859431028366089,0.01085472758859396,-0.003110395511612296,0.8102735280990601
1682106468.93858099,733673208,2,0.5854593515396118,0.019625527784228325,-0.005018653813749552,0.8104486465454102
1682106469.03855300,733773180,2,0.5847271680831909,0.019588744267821312,-0.0071910591796040535,0.8109616041183472
1682106469.13849998,733873127,2,0.58385169506073,0.016768524423241615,-0.009825239889323711,0.8116276860237122
1682106469.23849392,733973121,2,0.5827931761741638,0.013449993915855885,-0.011109189130365849,0.8124333024024963
1682106469.33850598,734073133,2,0.5816323757171631,0.0048654889687895775,-0.008690262213349342,0.8133907914161682
1682106469.43851709,734173144,2,0.5805924534797668,-0.0025233228225260973,-0.005228925962001085,0.8141736388206482
1682106469.53853202,734273159,2,0.5798904895782471,-0.005839994177222252,-0.0019463096978142858,0.8146712183952332
1682106469.63858199,734373209,2,0.5790511965751648,-0.010839213617146015,0.001005544327199459,0.8152185082435608
1682106469.73857808,734473205,2,0.5779394507408142,-0.01867535337805748,0.004040100611746311,0.8158559203147888
1682106469.83856106,734573188,2,0.5771591663360596,-0.02575751207768917,0.005994250997900963,0.8162033557891846
1682106469.93852997,734673157,2,0.5776395201683044,-0.027776416391134262,0.0019466187804937363,0.8158169388771057
1682106470.03849888,734773126,2,0.5795312523841858,-0.024518482387065887,-0.00486690504476428,0.8145665526390076
1682106470.13850093,734873128,2,0.582364559173584,-0.018844280391931534,-0.009444969706237316,0.8126543760299683
1682106470.23849392,734973121,2,0.5845158696174622,-0.014988332986831665,-0.01225284393876791,0.8111512660980225
1682106470.33852100,735073148,2,0.5858929753303528,-0.014731785282492638,-0.01859467476606369,0.8100411295890808
1682106470.43855190,735173179,2,0.5872001647949219,-0.0168832428753376,-0.019184958189725876,0.8090382218360901
1682106470.53858089,735273208,2,0.5887411236763,-0.020422590896487236,-0.011514795944094658,0.807981550693512
1682106470.63857508,735373202,2,0.5895751714706421,-0.024852272123098373,-0.004321088083088398,0.8073195219039917
1682106470.73857808,735473205,2,0.589690089225769,-0.028661072254180908,0.0026345227379351854,0.8071166276931763
1682106470.83853102,735573158,2,0.5899890065193176,-0.029497668147087097,0.01187655795365572,0.8067848682403564
1682106470.93849897,735673126,2,0.5909913778305054,-0.02048271894454956,0.01594255492091179,0.8062601685523987
1682106471.03850293,735773130,2,0.5922586917877197,-0.005626870319247246,0.014356992207467556,0.8056002855300903
1682106471.13850498,735873132,2,0.5933212637901306,0.009176145307719707,0.013619744218885899,0.8047981858253479
1682106471.23851299,735973140,2,0.5939987897872925,0.018898896872997284,0.015285919420421124,0.8040986657142639
1682106471.33856010,736073187,2,0.5945307612419128,0.023627305403351784,0.012178155593574047,0.8036333918571472
1682106471.43858290,736173210,2,0.5949302911758423,0.022046802565455437,0.007469311822205782,0.8034401535987854
1682106471.53859711,736273224,2,0.5950021147727966,0.014736911281943321,0.00448873545974493,0.8035764694213867
1682106471.63856888,736373196,2,0.5949791669845581,0.00543901976197958,0.0037555464077740908,0.8037139177322388
1682106471.73851895,736473146,2,0.5949342250823975,-0.004639192018657923,0.0037652484606951475,0.8037521839141846
1682106471.83849406,736573121,2,0.5954667329788208,-0.015543309040367603,0.0022968342527747154,0.8032262921333313
1682106471.93849301,736673120,2,0.5963276028633118,-0.02520344778895378,5.103694638819434e-05,0.8023453950881958
1682106472.03848910,736773116,2,0.5970755219459534,-0.032545607537031174,0.0012602303177118301,0.8015235662460327
1682106472.13852191,736873149,2,0.5979204773902893,-0.03725815191864967,0.005234389565885067,0.8006719350814819
1682106472.23857188,736973199,2,0.5982638597488403,-0.041665997356176376,0.009043755009770393,0.8001640439033508
1682106472.33858490,737073212,2,0.5987012386322021,-0.04028632864356041,0.011093229986727238,0.7998817563056946
1682106472.43857598,737173203,2,0.5989390015602112,-0.03483504429459572,0.010977360419929028,0.7999613285064697
1682106472.53855491,737273182,2,0.5990731120109558,-0.0291405338793993,0.010992425493896008,0.8000884056091309
1682106472.63852406,737373151,2,0.5993236899375916,-0.023850617930293083,0.010566611774265766,0.8000816106796265
1682106472.73849392,737473121,2,0.5996112823486328,-0.019152088090777397,0.009068340994417667,0.8000108003616333
1682106472.83849311,737573120,2,0.6005451083183289,-0.014825901947915554,0.007746284827589989,0.7994158864021301
1682106472.93850803,737673135,2,0.6012099385261536,-0.01122040394693613,0.006444889586418867,0.7989863157272339
1682106473.03852797,737773155,2,0.6020470261573792,-0.00981090497225523,0.004505175165832043,0.7983876466751099
1682106473.13856888,737873196,2,0.6029473543167114,-0.01053669024258852,0.0026511470787227154,0.7977069616317749
1682106473.23858809,737973215,2,0.6032341122627258,-0.013296219520270824,0.0007013147114776075,0.7974530458450317
1682106473.33857799,738073205,2,0.6032265424728394,-0.015330120921134949,-0.0002883654087781906,0.797422468662262
1682106473.43856311,738173190,2,0.6028112173080444,-0.01669747568666935,-0.00046378799015656114,0.7977089881896973
1682106473.53852105,738273148,2,0.601976215839386,-0.01823659986257553,-0.0006527493824250996,0.7983055114746094
1682106473.63850188,738373129,2,0.6009811758995056,-0.019950026646256447,-0.0002831499732565135,0.7990140914916992
1682106473.73848891,738473116,2,0.6003069877624512,-0.02060074172914028,-0.00041320102172903717,0.7995041608810425
1682106473.83849001,738573117,2,0.5997858643531799,-0.020963391289114952,-0.0008307023090310395,0.7998854517936707
1682106473.93855405,738673181,2,0.5993399024009705,-0.02045373246073723,-0.0014817166374996305,0.80023193359375
1682106474.03856397,738773191,2,0.5991828441619873,-0.020358096808195114,-0.0018207853427156806,0.8003512620925903
1682106474.13858509,738873212,2,0.5994945764541626,-0.02056150510907173,-0.0019510687561705709,0.8001123070716858
1682106474.23858404,738973211,2,0.6001631617546082,-0.020072365179657936,-0.0019431173568591475,0.7996233701705933
1682106474.33856606,739073193,2,0.6011683344841003,-0.019555209204554558,-0.0024674946907907724,0.7988793253898621
1682106474.43853092,739173158,2,0.6021934747695923,-0.02050030417740345,-0.0024823856074362993,0.7980830669403076
1682106474.53849006,739273117,2,0.6033604145050049,-0.021941479295492172,-0.0023447314742952585,0.7971632480621338
1682106474.63850093,739373128,2,0.6044725775718689,-0.022414403036236763,-0.0029253740794956684,0.7963051795959473
1682106474.73849797,739473125,2,0.6054555177688599,-0.021628661081194878,-0.0033442548010498285,0.7955781817436218
1682106474.83851290,739573140,2,0.6063332557678223,-0.020092016085982323,-0.004168493207544088,0.7949458956718445
1682106474.93855691,739673184,2,0.6069510579109192,-0.01656488887965679,-0.003960564732551575,0.7945566773414612
1682106475.03859401,739773221,2,0.6070224642753601,-0.014190366491675377,-0.004400678910315037,0.7945457696914673
1682106475.13857794,739873205,2,0.6070592999458313,-0.013350368477404118,-0.0036246248055249453,0.7945361137390137
1682106475.23856306,739973190,2,0.6070217490196228,-0.013345497660338879,-0.0015363559359684587,0.7945716977119446
1682106475.33852601,740073153,2,0.6069676280021667,-0.013122405856847763,-0.0009636771283112466,0.7946175932884216
1682106475.43849492,740173122,2,0.6070260405540466,-0.0125638572499156,-0.0013701599091291428,0.7945814728736877
1682106475.53849101,740273118,2,0.6070970892906189,-0.011626627296209335,-0.001647013472393155,0.7945408821105957
1682106475.63850307,740373130,2,0.6071385145187378,-0.010073849931359291,-0.0023911274038255215,0.7945285439491272
1682106475.73852396,740473151,2,0.6069652438163757,-0.010039329528808594,-0.002488403581082821,0.7946611046791077
1682106475.83855200,740573179,2,0.6067380309104919,-0.009167863987386227,-0.001454959507100284,0.7948476672172546
1682106475.93857694,740673204,2,0.6068122982978821,-0.008945790119469166,-0.00108926254324615,0.7947940826416016
1682106476.03858089,740773208,2,0.607248067855835,-0.008963547646999359,-0.00032518585794605315,0.7944616675376892
1682106476.13855696,740873184,2,0.6075415015220642,-0.008189462125301361,0.0001580088573973626,0.7942456603050232
1682106476.23852396,740973151,2,0.6079437732696533,-0.008059621788561344,0.0003034065885003656,0.7939391136169434
1682106476.33850002,741073127,2,0.6082121133804321,-0.008101917803287506,0.00015333671763073653,0.7937331795692444
1682106476.43850207,741173129,2,0.6086313128471375,-0.00783646758645773,-0.000585772271733731,0.7934142351150513
1682106476.53849196,741273119,2,0.6094601154327393,-0.007480545900762081,-0.0004936002078466117,0.7927812933921814
1682106476.63852406,741373151,2,0.6109333038330078,-0.007412791717797518,0.00014326303789857775,0.7916473746299744
1682106476.73855495,741473182,2,0.6126832962036133,-0.008227335289120674,0.0009366809972561896,0.7902851700782776
1682106476.83857894,741573206,2,0.6144517660140991,-0.009313417598605156,0.0009567413362674415,0.7888988256454468
1682106476.93857503,741673202,2,0.6168456077575684,-0.009454692713916302,0.0010842409683391452,0.7870266437530518
1682106477.03857088,741773198,2,0.6190222501754761,-0.009586682543158531,0.002335967728868127,0.7853114604949951
1682106477.13851810,741873145,2,0.6209477782249451,-0.009840335696935654,0.002929246285930276,0.7837846875190735
1682106477.23849392,741973121,2,0.6229367256164551,-0.009482641704380512,0.0024870906490832567,0.7822107672691345
1682106477.33850098,742073128,2,0.6246981620788574,-0.010000170208513737,0.0023307024966925383,0.7807987928390503
1682106477.43848991,742173117,2,0.6262685060501099,-0.009892369620501995,0.0032426738180220127,0.7795379161834717
1682106477.53852510,742273152,2,0.6274452805519104,-0.008657457306981087,0.0036408361047506332,0.7786039710044861
1682106477.63855910,742373186,2,0.6283305287361145,-0.007264633662998676,-0.0007170326425693929,0.7779122591018677
1682106477.73858690,742473214,2,0.6292099356651306,-0.003290165215730667,-0.006611845456063747,0.7772002816200256
1682106477.83858204,742573209,2,0.6299131512641907,0.002828896278515458,-0.01160857081413269,0.776573657989502
1682106477.93856192,742673189,2,0.6306368708610535,0.003580457763746381,-0.013001572340726852,0.7759608626365662
1682106478.03852987,742773157,2,0.6311457753181458,0.00041608719038777053,-0.010678731836378574,0.7755905985832214
1682106478.13849688,742873124,2,0.6313424110412598,-0.0014314394211396575,-0.011004253290593624,0.7754247784614563
1682106478.23849392,742973121,2,0.6315504908561707,-0.003908324986696243,-0.01235506683588028,0.7752264738082886
1682106478.33849406,743073121,2,0.6315546631813049,-0.006128400098532438,-0.013262949883937836,0.7751936912536621
1682106478.43852305,743173150,2,0.6316195726394653,-0.00408068997785449,-0.01460687629878521,0.7751301527023315
1682106478.53856707,743273194,2,0.6317048668861389,-0.0033709292765706778,-0.015195371583104134,0.7750527262687683
1682106478.63857388,743373201,2,0.6316562294960022,-0.00554652651771903,-0.013330944813787937,0.775114119052887
1682106478.73858809,743473215,2,0.6315876841545105,-0.005720711778849363,-0.013256008736789227,0.7751700282096863
1682106478.83854890,743573176,2,0.631401777267456,-0.006845509633421898,-0.013470596633851528,0.7753086090087891
1682106478.93852592,743673153,2,0.6312667727470398,-0.010965431109070778,-0.010862214490771294,0.7754121422767639
1682106479.03849602,743773123,2,0.6310778856277466,-0.012175951153039932,-0.010102852247655392,0.7755581140518188
1682106479.13849688,743873124,2,0.6306912899017334,-0.011142553761601448,-0.01156306080520153,0.7758676409721375
1682106479.23849702,743973124,2,0.6303907036781311,-0.010525006800889969,-0.01167623046785593,0.776118814945221
1682106479.33853507,744073162,2,0.629928708076477,-0.010412774048745632,-0.011868961155414581,0.7764924764633179
1682106479.43857193,744173199,2,0.6294522881507874,-0.0100611113011837,-0.012344824150204659,0.776875913143158
1682106479.53859401,744273221,2,0.6286715865135193,-0.012641774490475655,-0.015273723751306534,0.7774180769920349
1682106479.63857698,744373204,2,0.6280905604362488,-0.015704387798905373,-0.017483264207839966,0.7777852416038513
1682106479.73856807,744473195,2,0.6277952194213867,-0.013296755962073803,-0.015013541094958782,0.7781201004981995
1682106479.83852792,744573155,2,0.6276493072509766,-0.00748825678601861,-0.013642360456287861,0.7783406376838684
1682106479.93849206,744673119,2,0.6273890137672424,-0.004177640657871962,-0.008711382746696472,0.7786460518836975
1682106480.03850889,744773136,2,0.6270442605018616,-0.0019476605812087655,0.0007398297893814743,0.7789808511734009
1682106480.13849902,744873126,2,0.626790463924408,0.0021524112671613693,0.006916232407093048,0.7791541814804077
1682106480.23852611,744973153,2,0.6258068084716797,0.005312114953994751,0.012915349565446377,0.7798530459403992
1682106480.33854604,745073173,2,0.6243283152580261,0.009153907187283039,0.01835791766643524,0.7808926701545715
1682106480.43857908,745173206,2,0.622572124004364,0.011796114034950733,0.018901951611042023,0.7822452187538147
1682106480.53860903,745273236,2,0.6208613514900208,0.010223070159554482,0.01569114439189434,0.783696711063385
1682106480.63855290,745373180,2,0.6188135743141174,0.0057131643407046795,0.012754905968904495,0.7854135632514954
1682106480.73853302,745473160,2,0.6167844533920288,-0.0028942988719791174,0.011407324112951756,0.787044107913971
1682106480.83849907,745573126,2,0.61488938331604,-0.014335346408188343,0.009587571956217289,0.7884247899055481
1682106480.93849897,745673126,2,0.6136445999145508,-0.02289452962577343,0.008160077966749668,0.789208173751831
1682106481.03849411,745773121,2,0.6130431890487671,-0.025913292542099953,0.005097437649965286,0.7896078824996948
1682106481.13849902,745873126,2,0.6129304766654968,-0.024163471534848213,0.000691792054567486,0.7897669672966003
1682106481.23855710,745973184,2,0.6133477687835693,-0.020871778950095177,-0.00336519000120461,0.7895299196243286
1682106481.33858395,746073211,2,0.6139032244682312,-0.014296391047537327,-0.008860897272825241,0.789202094078064
1682106481.43858004,746173207,2,0.6146998405456543,-0.0055638570338487625,-0.013556048274040222,0.7886250019073486
1682106481.53855801,746273185,2,0.6154289245605469,-0.002477834699675441,-0.012798489071428776,0.7880845665931702
1682106481.63853407,746373161,2,0.6161593198776245,-0.0020112423226237297,-0.010631758719682693,0.7875471711158752
1682106481.73849487,746473122,2,0.6165224313735962,-0.0005342630902305245,-0.009132236242294312,0.7872841954231262
1682106481.83849406,746573121,2,0.6169794201850891,-0.0005428240401670337,-0.0072855232283473015,0.7869453430175781
1682106481.93849111,746673118,2,0.6171246767044067,-0.0009644864476285875,-0.006706638261675835,0.7868362069129944
1682106482.03852510,746773152,2,0.617097795009613,-0.0020553837530314922,-0.006728076376020908,0.7868550419807434
1682106482.13856196,746873189,2,0.6169610619544983,-0.006439707707613707,-0.009509289637207985,0.7869098782539368
1682106482.23857689,746973204,2,0.6166796088218689,-0.010952168144285679,-0.0168826412409544,0.7869570255279541
1682106482.33858991,747073217,2,0.6163234114646912,-0.007944611832499504,-0.020211458206176758,0.7871936559677124
1682106482.43857408,747173201,2,0.6157200932502747,-0.0043748714961111546,-0.01890971139073372,0.7877258658409119
1682106482.53852797,747273155,2,0.6151649355888367,-0.003949376754462719,-0.016023747622966766,0.7882257103919983
1682106482.63849807,747373125,2,0.6143299341201782,0.00036094957613386214,-0.013966016471385956,0.7889255881309509
1682106482.73849297,747473120,2,0.6137760877609253,0.005194330122321844,-0.010761860758066177,0.7893897294998169
1682106482.83850002,747573127,2,0.6128799319267273,0.0026665600016713142,-0.00632002018392086,0.7901462912559509
1682106482.93852210,747673149,2,0.6119166016578674,-0.0018137566512450576,-0.003496214747428894,0.7909125089645386
1682106483.03856492,747773192,2,0.6109674572944641,-0.0033533601090312004,-0.003000404918566346,0.791642963886261
1682106483.13858390,747873211,2,0.6100890636444092,-0.004573705140501261,-0.0030525762122124434,0.7923137545585632
1682106483.23859000,747973217,2,0.6089876294136047,-0.008842077106237411,-0.0010110924486070871,0.7931298017501831
1682106483.33855796,748073185,2,0.6077830195426941,-0.014263806864619255,0.0022018642630428076,0.7939720153808594
1682106483.43855190,748173179,2,0.606812596321106,-0.020263977348804474,0.0056190514005720615,0.7945666909217834
1682106483.53849196,748273119,2,0.6056221127510071,-0.026242319494485855,0.007900496944785118,0.7952803373336792
1682106483.63849306,748373120,2,0.6047633290290833,-0.029797060415148735,0.003812470706179738,0.7958385348320007
1682106483.73848891,748473116,2,0.6039827466011047,-0.032232169061899185,-0.005757456179708242,0.7963245511054993
1682106483.83853889,748573166,2,0.6036065220832825,-0.03264565393328667,-0.012454461306333542,0.7965163588523865
1682106483.93855810,748673185,2,0.6032926440238953,-0.029901696369051933,-0.016126303002238274,0.7967959642410278
1682106484.03857803,748773205,2,0.6032596230506897,-0.026837870478630066,-0.018906667828559875,0.7968689203262329
1682106484.13858700,748873214,2,0.6039367318153381,-0.027486400678753853,-0.0165180042386055,0.7963868975639343
1682106484.23856592,748973193,2,0.6045743227005005,-0.03161485120654106,-0.010422473773360252,0.7958528399467468
1682106484.33852911,749073156,2,0.6052573323249817,-0.03655734658241272,-0.005901065189391375,0.7951681017875671
1682106484.43849206,749173119,2,0.6059903502464294,-0.0413505919277668,-0.0015703024109825492,0.7943949699401855
1682106484.53849602,749273123,2,0.607040286064148,-0.040409982204437256,3.74409428332001e-05,0.7936429381370544
1682106484.63850188,749373129,2,0.6081655025482178,-0.03302064538002014,-0.0030154413543641567,0.7931174635887146
1682106484.73853588,749473163,2,0.6095637083053589,-0.02503332868218422,-0.006285599898546934,0.7923167943954468
1682106484.83855605,749573183,2,0.6108627319335938,-0.016967367380857468,-0.010330842807888985,0.7914872765541077
1682106484.93858194,749673209,2,0.6122288107872009,-0.009910739958286285,-0.01568358950316906,0.7904629707336426
1682106485.03858304,749773210,2,0.6136769652366638,-0.006001990754157305,-0.017695147544145584,0.789336085319519
1682106485.13856101,749873188,2,0.6150358319282532,-0.00602853624150157,-0.016201529651880264,0.788309633731842
1682106485.23852396,749973151,2,0.6158486008644104,-0.006253019906580448,-0.01295560784637928,0.7877331972122192
1682106485.33850503,750073132,2,0.6166341304779053,-0.00801248848438263,-0.005018685013055801,0.7871930599212646
1682106485.43850207,750173129,2,0.6169988512992859,-0.008980665355920792,0.006476897280663252,0.7868861556053162
1682106485.53850007,750273127,2,0.6175569295883179,-0.00463345879688859,0.01288305502384901,0.7864069938659668
1682106485.63852096,750373148,2,0.6183033585548401,0.0029146072920411825,0.016485638916492462,0.7857612371444702
1682106485.73858190,750473209,2,0.6188963651657104,0.008633960038423538,0.021140096709132195,0.7851406335830688
1682106485.83858490,750573212,2,0.6195144057273865,0.01663227006793022,0.02264385297894478,0.7844823598861694
1682106485.93857503,750673202,2,0.6200553178787231,0.029887422919273376,0.02052239514887333,0.7837199568748474
1682106486.03855991,750773187,2,0.6201617121696472,0.03243330493569374,0.02212817221879959,0.7834908366203308
1682106486.13852406,750873151,2,0.6202488541603088,0.021817225962877274,0.02368241734802723,0.7837439179420471
1682106486.23848891,750973116,2,0.6201920509338379,0.009353159926831722,0.02035706304013729,0.7841300368309021
1682106486.33849788,751073125,2,0.620056688785553,-0.003429840551689267,0.015641480684280396,0.7843935489654541
1682106486.43849897,751173126,2,0.6195967197418213,-0.01760260760784149,0.011610046960413456,0.7846370339393616
1682106486.53851604,751273143,2,0.6187978982925415,-0.031098008155822754,0.006333464290946722,0.7849088907241821
1682106486.63856411,751373191,2,0.6180450916290283,-0.04267832636833191,0.0032197153195738792,0.7849767208099365
1682106486.73858309,751473210,2,0.61723792552948,-0.050113875418901443,0.006066619418561459,0.7851554751396179
1682106486.83857894,751573206,2,0.6166735887527466,-0.05471865087747574,0.010663983412086964,0.7852425575256348
1682106486.93856001,751673187,2,0.6165516972541809,-0.054415974766016006,0.012989131733775139,0.7853242754936218
1682106487.03853202,751773159,2,0.6166688799858093,-0.04800606891512871,0.010662049055099487,0.7856851816177368
1682106487.13849497,751873122,2,0.6170521378517151,-0.039133261889219284,0.00578514626249671,0.7859272956848145
1682106487.23848891,751973116,2,0.6175411939620972,-0.03159739449620247,0.0013413378037512302,0.7859024405479431
1682106487.33850694,752073134,2,0.6181126236915588,-0.025293640792369843,-0.002595179248601198,0.7856782078742981
1682106487.43851495,752173142,2,0.6185383796691895,-0.01951351948082447,-0.0077269962057471275,0.7854742407798767
1682106487.53855991,752273187,2,0.6189187169075012,-0.01835210807621479,-0.009277796372771263,0.7851858139038086
1682106487.63858390,752373211,2,0.6189232468605042,-0.020276643335819244,-0.006536448374390602,0.7851625084877014
1682106487.73858809,752473215,2,0.6188892126083374,-0.019677357748150826,-0.006258242763578892,0.7852068543434143
1682106487.83856606,752573193,2,0.6188839673995972,-0.017744941636919975,-0.006849256344139576,0.785252034664154
1682106487.93852592,752673153,2,0.6192147731781006,-0.014561789110302925,-0.004549735225737095,0.785073459148407
1682106488.03849792,752773125,2,0.6198535561561584,-0.006613085512071848,-0.002341492334380746,0.7846861481666565
1682106488.13848996,752873117,2,0.6205574870109558,0.00044556285138241947,-0.005363087635487318,0.7841424942016602
1682106488.23849201,752973119,2,0.6213668584823608,-0.001477584708482027,-0.0056775654666125774,0.7834978103637695
1682106488.33851910,753073146,2,0.6222141981124878,-0.0062460750341415405,-0.003471231320872903,0.7828143835067749
1682106488.43855405,753173181,2,0.6229089498519897,-0.007378824520856142,-0.003974847495555878,0.7822494506835938
1682106488.53858089,753273208,2,0.6234584450721741,-0.008907695300877094,-0.004363196901977062,0.7817935347557068
1682106488.63859200,753373219,2,0.6240279078483582,-0.010728081688284874,-0.001749739982187748,0.781326413154602
1682106488.73858190,753473209,2,0.6243537664413452,-0.007462764158844948,0.0005040116375312209,0.7811059355735779
1682106488.83852601,753573153,2,0.6246138215065002,-0.000884023669641465,0.004507647827267647,0.7809202671051025
1682106488.93850303,753673130,2,0.6247748136520386,0.005289748311042786,0.008472785353660583,0.7807410955429077
1682106489.03849602,753773123,2,0.6246408820152283,0.01289334986358881,0.011784167028963566,0.7807167768478394
1682106489.13848901,753873116,2,0.6246565580368042,0.019003983587026596,0.014269338920712471,0.7805379033088684
1682106489.23854589,753973173,2,0.6245564818382263,0.0181721318513155,0.013286247849464417,0.7806551456451416
1682106489.33855605,754073183,2,0.6242498755455017,0.011920126155018806,0.01107626873999834,0.7810552716255188
1682106489.43857598,754173203,2,0.6239241361618042,0.0071467566303908825,0.006563926115632057,0.7814246416091919
1682106489.53858304,754273210,2,0.6235085129737854,0.0014597014524042606,-0.0006279918015934527,0.7818149328231812
1682106489.63855600,754373183,2,0.6227884292602539,-0.006900064647197723,-0.009137917309999466,0.7823064923286438
1682106489.73852301,754473150,2,0.6214163899421692,-0.006866521202027798,-0.017273973673582077,0.783259928226471
1682106489.83849001,754573117,2,0.6199269890785217,-0.0017732089618220925,-0.021545033901929855,0.7843616604804993
1682106489.93850088,754673128,2,0.6185218095779419,-0.0037677441723644733,-0.020353244617581367,0.7854949235916138
1682106490.03850889,754773136,2,0.6172914505004883,-0.00695250928401947,-0.01776530221104622,0.786503255367279
1682106490.13852811,754873155,2,0.6162340044975281,-0.00962516013532877,-0.01569286547601223,0.7873479127883911
1682106490.23855400,754973181,2,0.6153310537338257,-0.013966892845928669,-0.014701416715979576,0.788007915019989
1682106490.33858490,755073212,2,0.6145683526992798,-0.017042648047208786,-0.014568988233804703,0.7885448932647705
1682106490.43858409,755173211,2,0.6139194965362549,-0.017913799732923508,-0.015928465873003006,0.7890045642852783
1682106490.53856993,755273197,2,0.6135111451148987,-0.016819365322589874,-0.017438840121030807,0.789314329624176
1682106490.63853097,755373158,2,0.6131855845451355,-0.01731484942138195,-0.017118660733103752,0.7895635366439819
1682106490.73849297,755473120,2,0.6131221055984497,-0.01814219355583191,-0.015434542670845985,0.7896289825439453
1682106490.83850408,755573131,2,0.6132178902626038,-0.021422777324914932,-0.011470925994217396,0.7895399332046509
1682106490.93850088,755673128,2,0.6133588552474976,-0.02577165886759758,-0.0066001154482364655,0.7893561720848083
1682106491.03852201,755773149,2,0.6134716868400574,-0.029912348836660385,-0.0021879931446164846,0.7891469597816467
1682106491.13854790,755873175,2,0.613879382610321,-0.034943364560604095,0.0036695641465485096,0.7886175513267517
1682106491.23858404,755973211,2,0.6140919327735901,-0.038979481905698776,0.009679073467850685,0.7882119417190552
1682106491.33858109,756073208,2,0.6145707964897156,-0.041815806180238724,0.01528275478631258,0.7876043319702148
1682106491.43855500,756173182,2,0.6154934167861938,-0.042902082204818726,0.021444523707032204,0.7866812348365784
1682106491.53852510,756273152,2,0.6168026328086853,-0.03653289005160332,0.02424565702676773,0.7858956456184387
1682106491.63849211,756373119,2,0.6183006763458252,-0.026195399463176727,0.025785673409700394,0.7850816249847412
1682106491.73849106,756473118,2,0.6198561787605286,-0.01706031523644924,0.02732735127210617,0.7840538620948792
1682106491.83849597,756573123,2,0.6215389370918274,-0.008114988915622234,0.02794524095952511,0.7828425765037537
1682106491.93849993,756673127,2,0.6229339838027954,0.0009099699673242867,0.029482964426279068,0.7817180752754211
1682106492.03856397,756773191,2,0.6241773962974548,0.007932132109999657,0.031052738428115845,0.7806249856948853
1682106492.13858604,756873213,2,0.6250720024108887,0.011389466933906078,0.02937237359583378,0.7799311280250549
1682106492.23857999,756973207,2,0.6258712410926819,0.01084049604833126,0.02433139830827713,0.7794713973999023
1682106492.33855700,757073184,2,0.6262803673744202,0.007712007965892553,0.019864428788423538,0.7793065905570984
1682106492.43852711,757173154,2,0.6261560916900635,0.002237399108707905,0.015083692967891693,0.7795485854148865
1682106492.53849792,757273125,2,0.6255716681480408,-0.005405250936746597,0.009626639075577259,0.7800886034965515
1682106492.63849401,757373121,2,0.6241981387138367,-0.01213560439646244,0.004431470297276974,0.7811592221260071
1682106492.73849392,757473121,2,0.6225709915161133,-0.017205316573381424,6.430836219806224e-05,0.7823741436004639
1682106492.83850908,757573136,2,0.6206240057945251,-0.019948318600654602,-0.002196653513237834,0.7838514447212219
1682106492.93855190,757673179,2,0.6182467937469482,-0.020316099748015404,-0.0026018451899290085,0.7857171297073364
1682106493.03857803,757773205,2,0.6159231662750244,-0.019791873171925545,-0.0029088512528687716,0.7875522375106812
1682106493.13859510,757873222,2,0.6135015487670898,-0.01848224550485611,-0.0019225671421736479,0.7894748449325562
1682106493.23856306,757973190,2,0.611420750617981,-0.01760377362370491,0.0009020634461194277,0.7911093235015869
1682106493.33853292,758073160,2,0.6098601818084717,-0.01664566807448864,0.0027975677512586117,0.7923292517662048
1682106493.43849397,758173121,2,0.6085062026977539,-0.015878230333328247,0.0035392888821661472,0.7933823466300964
1682106493.53849006,758273117,2,0.6075730323791504,-0.015686077997088432,0.0046989815309643745,0.794094979763031
1682106493.63849306,758373120,2,0.6068352460861206,-0.015024681575596333,0.005601826123893261,0.7946658730506897
1682106493.73851609,758473143,2,0.6064805388450623,-0.014048760756850243,0.005833243951201439,0.7949528098106384
1682106493.83856487,758573192,2,0.6064534187316895,-0.01394116971641779,0.005320458672940731,0.7949789762496948
1682106493.93857598,758673203,2,0.6065478920936584,-0.013458569534122944,0.004669743590056896,0.7949193120002747
1682106494.03857899,758773206,2,0.6069467663764954,-0.013938742689788342,0.004292107652872801,0.7946086525917053
1682106494.13856506,758873192,2,0.6075379848480225,-0.014575082808732986,0.003997868858277798,0.7941468358039856
1682106494.23852396,758973151,2,0.6081928610801697,-0.01426623109728098,0.00401023356243968,0.7936509251594543
1682106494.33849907,759073126,2,0.6089720726013184,-0.014003312215209007,0.0030008202884346247,0.7930623888969421
1682106494.43850303,759173130,2,0.6096938848495483,-0.013269519433379173,0.002248571254312992,0.792522668838501
1682106494.53849697,759273124,2,0.6105005145072937,-0.012857109308242798,0.0019423355115577579,0.7919090986251831
1682106494.63852310,759373150,2,0.6112462878227234,-0.013058546930551529,0.002360306214541197,0.7913291454315186
1682106494.73857307,759473200,2,0.6119512319564819,-0.012439988553524017,0.0026860807556658983,0.7907930612564087
1682106494.83857489,759573202,2,0.612545907497406,-0.012303446419537067,0.002360885962843895,0.7903357148170471
1682106494.93858194,759673209,2,0.6133412718772888,-0.012186394073069096,0.0016811676323413849,0.789722204208374
1682106495.03856397,759773191,2,0.6141182780265808,-0.011419329792261124,0.000696416653227061,0.7891311049461365
1682106495.13852692,759873154,2,0.6147637963294983,-0.010450107976794243,0.0009314870112575591,0.7886415123939514
1682106495.23848891,759973116,2,0.6156044602394104,-0.00915995892137289,3.349029429955408e-05,0.7880020141601562
1682106495.33850002,760073127,2,0.6163350939750671,-0.008958338759839535,-0.00015624928346369416,0.7874330282211304
1682106495.43850803,760173135,2,0.6168670058250427,-0.009425535798072815,0.0003673754690680653,0.7870108485221863
1682106495.53852010,760273147,2,0.617332398891449,-0.009240880608558655,0.0007662732969038188,0.7866477966308594
1682106495.63856697,760373194,2,0.6178479790687561,-0.00930714700371027,0.0026663350872695446,0.7862379550933838
1682106495.73858190,760473209,2,0.6182114481925964,-0.008682560175657272,0.0025907692033797503,0.7859596014022827
1682106495.83859992,760573227,2,0.6185242533683777,-0.007579762022942305,0.002613720018416643,0.7857248187065125
1682106495.93856406,760673191,2,0.6187009811401367,-0.007016163319349289,0.001573538058437407,0.7855936288833618
1682106496.03853393,760773161,2,0.6189849972724915,-0.007075655274093151,0.0001165024223155342,0.7853708863258362
1682106496.13849092,760873118,2,0.6192677021026611,-0.007588780950754881,-0.0006133915740065277,0.7851430177688599
1682106496.23849010,760973117,2,0.6195334792137146,-0.009014006704092026,-0.002215457847341895,0.7849153280258179
1682106496.33850288,761073130,2,0.619774580001831,-0.009582449682056904,-0.0018196840537711978,0.7847192883491516
1682106496.43853498,761173162,2,0.619882345199585,-0.009809985756874084,-0.0018538542790338397,0.7846312522888184
1682106496.53854990,761273177,2,0.6198068857192993,-0.00965148862451315,-0.0010327467462047935,0.7846943140029907
1682106496.63858104,761373208,2,0.6197445392608643,-0.00943255890160799,-3.21703300869558e-05,0.7847469449043274
1682106496.73858595,761473213,2,0.6196361780166626,-0.009269184432923794,0.0002107498876284808,0.7848343849182129
1682106496.83856201,761573189,2,0.6193875074386597,-0.008272242732346058,0.00123791943769902,0.7850408554077148
1682106496.93852210,761673149,2,0.6192105412483215,-0.008380601182579994,0.0013932613655924797,0.785179078578949
1682106497.03849792,761773125,2,0.6190990209579468,-0.008764199912548065,0.001701914705336094,0.7852622270584106
1682106497.13849092,761873118,2,0.6190863847732544,-0.009144367650151253,0.00270682736299932,0.7852649688720703
1682106497.23849010,761973117,2,0.6191944479942322,-0.009630340151488781,0.0027833336498588324,0.7851737141609192
1682106497.33853388,762073161,2,0.6195289492607117,-0.009449937380850315,0.0034930019173771143,0.7849091291427612
1682106497.43855095,762173178,2,0.6199018359184265,-0.009283464401960373,0.003332568099722266,0.7846174240112305
1682106497.53857994,762273207,2,0.6203562021255493,-0.009198879823088646,0.002611671108752489,0.78426194190979
1682106497.63857388,762373201,2,0.6208371520042419,-0.009264323860406876,0.0015363655984401703,0.783883273601532
1682106497.73855710,762473184,2,0.621448278427124,-0.008936109021306038,0.0010116411140188575,0.7834035754203796
1682106497.83852506,762573152,2,0.6217221617698669,-0.009454989805817604,0.0016386373899877071,0.7831791043281555
1682106497.93850493,762673132,2,0.6220992207527161,-0.009620390832424164,0.0017141865100711584,0.7828774452209473
1682106498.03849697,762773124,2,0.6225725412368774,-0.00906295794993639,0.001998519292101264,0.782507061958313
1682106498.13849592,762873123,2,0.6228670477867126,-0.008726148866117,0.0023024724796414375,0.7822756171226501
1682106498.23853588,762973163,2,0.6231049299240112,-0.008307765237987041,0.0018788976594805717,0.7820918560028076
1682106498.33856201,763073189,2,0.6232358813285828,-0.008375313133001328,0.0022625746205449104,0.7819857597351074
1682106498.43858099,763173208,2,0.6234144568443298,-0.009612899273633957,0.001475418801419437,0.7818310856819153
1682106498.53858089,763273208,2,0.6235955357551575,-0.01015414297580719,0.0013207605807110667,0.7816801071166992
1682106498.63858390,763373211,2,0.6237232089042664,-0.010133597999811172,0.0012130511458963156,0.7815786600112915
