timestamp,TimeUS,DesRoll,Roll,DesPitch,Pitch,DesYaw,Yaw,ErrRP,ErrYaw,AEKF
10.60502500,10605025,0.0,0.1,0.0,-0.12,359.99,0.0,1.0,1.0,0
10.70470400,10704704,0.0,0.1,0.0,-0.12,348.06,348.07,1.0,0.8,0
10.80457100,10804571,0.0,0.1,0.0,-0.13,348.01,348.01,0.8,0.64,0
10.90456600,10904566,0.0,0.1,0.0,-0.13,348.02,348.03000000000003,0.8,0.51,0
11.00459200,11004592,0.0,0.1,0.0,-0.13,348.01,348.02,0.64,0.41000000000000003,0
11.10457900,11104579,0.0,0.1,0.0,-0.14,348.04,348.05,0.64,0.33,0
11.20462500,11204625,0.0,0.1,0.0,-0.14,347.98,347.99,0.51,0.26,0
11.30465800,11304658,0.0,0.09,0.0,-0.14,347.99,348.0,0.51,0.21,0
11.40476100,11404761,0.0,0.09,0.0,-0.14,348.07,348.08,0.4,0.17,0
11.50482100,11504821,0.0,0.09,0.0,-0.15,348.11,348.12,0.4,0.14,0
11.60485900,11604859,0.0,0.09,0.0,-0.15,348.15000000000003,348.16,0.32,0.11,0
11.70475500,11704755,0.0,0.09,0.0,-0.15,348.19,348.2,0.32,0.09,0
11.80472400,11804724,0.0,0.09,0.0,-0.15,348.07,348.08,0.26,0.07,0
11.90471700,11904717,0.0,0.09,0.0,-0.14,348.13,348.14,0.26,0.06,0
12.00471900,12004719,0.0,0.09,0.0,-0.14,348.14,348.15000000000003,0.2,0.05,0
12.10479400,12104794,0.0,0.09,0.0,-0.14,348.14,348.15000000000003,0.2,0.04,0
12.20482800,12204828,0.0,0.09,0.0,-0.14,348.22,348.23,0.16,0.03,0
12.30487400,12304874,0.0,0.09,0.0,-0.14,348.33,348.34000000000003,0.16,0.03,0
12.40492400,12404924,0.0,0.09,0.0,-0.14,348.33,348.34000000000003,0.13,0.02,0
12.50489600,12504896,0.0,0.09,0.0,-0.14,348.31,348.32,0.13,0.02,0
12.60510300,12605103,-0.28,-0.42,-0.06,-0.27,359.99,0.0,0.1,0.01,3
12.70524100,12705241,-0.14,-0.41000000000000003,-0.03,-0.27,359.99,0.0,0.1,0.01,3
12.80504500,12805045,-0.07,-0.41000000000000003,-0.01,-0.26,359.99,0.0,0.08,0.01,3
12.90504300,12905043,-0.03,-0.41000000000000003,0.0,-0.26,359.98,359.99,0.08,0.01,3
13.00502200,13005022,-0.01,-0.41000000000000003,0.0,-0.26,359.98,359.99,0.06,0.01,3
13.10500900,13105009,0.0,-0.41000000000000003,0.0,-0.26,359.97,359.98,0.06,0.0,3
13.20507800,13205078,0.0,-0.4,0.0,-0.26,359.97,359.98,0.05,0.0,3
13.30512800,13305128,0.0,-0.4,0.0,-0.25,359.97,359.98,0.05,0.0,3
13.40537700,13405377,0.0,-0.4,0.0,-0.25,359.97,359.98,0.04,0.0,3
13.50520000,13505200,0.0,-0.39,0.0,-0.24,359.96,359.97,0.04,0.0,3
13.60513000,13605130,0.0,-0.39,0.0,-0.24,359.96,359.97,0.03,0.0,3
13.70477700,13704777,0.0,-0.39,0.0,-0.25,359.95,359.96,0.03,0.0,3
13.80476300,13804763,0.0,-0.39,0.0,-0.25,359.95,359.96,0.02,0.0,3
13.90483100,13904831,0.0,-0.39,0.0,-0.25,359.95,359.96,0.02,0.01,3
14.00484500,14004845,0.0,-0.38,0.0,-0.25,359.95,359.96,0.02,0.01,3
14.10491400,14104914,0.0,-0.38,0.0,-0.24,347.72,347.73,0.02,0.01,3
14.20497700,14204977,0.0,-0.37,0.0,-0.24,347.74,347.75,0.01,0.01,3
14.30502800,14305028,0.0,-0.37,0.0,-0.24,347.78000000000003,347.79,0.01,0.01,3
14.40487200,14404872,0.0,-0.37,0.0,-0.24,347.83,347.84000000000003,0.01,0.01,3
14.50512300,14505123,0.0,-0.37,0.0,-0.24,347.82,347.83,0.01,0.01,3
14.60476400,14604764,0.0,-0.37,0.0,-0.24,347.75,347.76,0.01,0.01,3
14.70479500,14704795,0.0,-0.36,0.0,-0.24,347.64,347.65000000000003,0.01,0.01,3
14.80483800,14804838,0.0,-0.36,0.0,-0.24,347.56,347.57,0.0,0.01,3
14.90485100,14904851,0.0,-0.36,0.0,-0.24,347.52,347.53000000000003,0.0,0.01,3
15.00493600,15004936,0.0,-0.36,0.0,-0.23,347.49,347.5,0.0,0.01,3
15.10500400,15105004,0.0,-0.36,0.0,-0.23,347.48,347.49,0.0,0.01,3
15.20502800,15205028,0.0,-0.36,0.0,-0.23,347.47,347.48,0.0,0.01,3
15.30489700,15304897,0.0,-0.36,0.0,-0.23,347.45,347.46,0.0,0.01,3
15.40482000,15404820,0.0,-0.35000000000000003,0.0,-0.23,347.44,347.45,0.0,0.01,3
15.50480200,15504802,0.0,-0.35000000000000003,0.0,-0.23,347.44,347.45,0.0,0.01,3
15.60479200,15604792,0.0,-0.35000000000000003,0.0,-0.23,347.46,347.47,0.0,0.0,3
15.70485000,15704850,0.0,-0.34,0.0,-0.23,347.47,347.48,0.0,0.01,3
15.80512000,15805120,0.0,-0.34,0.0,-0.23,347.47,347.48,0.0,0.0,3
15.90510800,15905108,0.0,-0.33,0.0,-0.23,347.45,347.46,0.0,0.0,3
16.00516600,16005166,0.0,-0.33,0.0,-0.23,347.43,347.44,0.0,0.0,3
16.10521700,16105217,0.0,-0.32,0.0,-0.23,347.40000000000003,347.41,0.0,0.0,3
16.20488700,16204887,0.0,-0.32,0.0,-0.23,347.37,347.38,0.0,0.0,3
16.30504400,16305044,0.0,-0.32,0.0,-0.23,347.36,347.37,0.0,0.0,3
16.40504100,16405041,0.0,-0.31,0.0,-0.24,347.35,347.36,0.0,0.0,3
16.50506900,16505069,0.0,-0.31,0.0,-0.24,347.36,347.37,0.0,0.0,3
16.60502600,16605026,0.0,-0.3,0.0,-0.25,347.37,347.38,0.0,0.0,3
16.70500600,16705006,0.0,-0.3,0.0,-0.25,347.38,347.39,0.0,0.01,3
16.80508900,16805089,0.0,-0.3,0.0,-0.25,347.39,347.40000000000003,0.0,0.01,3
16.90514000,16905140,0.0,-0.3,0.0,-0.25,347.40000000000003,347.41,0.0,0.01,3
17.00519900,17005199,0.0,-0.3,0.0,-0.26,347.42,347.43,0.0,0.01,3
17.10514700,17105147,0.0,-0.3,0.0,-0.26,347.44,347.45,0.0,0.01,3
17.20506900,17205069,0.0,-0.3,0.0,-0.26,347.46,347.47,0.0,0.01,3
17.30499000,17304990,0.0,-0.29,0.0,-0.27,347.46,347.47,0.0,0.01,3
17.40503900,17405039,0.0,-0.29,0.0,-0.27,347.45,347.46,0.0,0.01,3
17.50487700,17504877,0.0,-0.29,0.0,-0.27,347.42,347.43,0.0,0.01,3
17.60487700,17604877,0.0,-0.29,0.0,-0.27,347.41,347.42,0.0,0.01,3
17.70493100,17704931,0.0,-0.29,0.0,-0.27,347.40000000000003,347.41,0.0,0.01,3
17.80498200,17804982,0.0,-0.29,0.0,-0.27,347.41,347.42,0.0,0.01,3
17.90505000,17905050,0.0,-0.3,0.0,-0.27,347.42,347.43,0.0,0.0,3
18.00479900,18004799,0.0,-0.3,0.0,-0.27,347.42,347.43,0.0,0.0,3
18.10477400,18104774,0.0,-0.3,0.0,-0.27,347.43,347.44,0.0,0.0,3
18.20481200,18204812,0.0,-0.3,0.0,-0.27,347.43,347.44,0.0,0.0,3
18.30481200,18304812,0.0,-0.31,0.0,-0.26,347.44,347.45,0.0,0.0,3
18.40484900,18404849,0.0,-0.31,0.0,-0.26,347.45,347.46,0.0,0.0,3
18.50489100,18504891,0.0,-0.31,0.0,-0.26,347.47,347.48,0.0,0.01,3
18.60494100,18604941,0.0,-0.31,0.0,-0.26,347.48,347.49,0.0,0.0,3
18.70498000,18704980,0.0,-0.32,0.0,-0.26,347.47,347.48,0.0,0.0,3
18.80523200,18805232,0.0,-0.32,0.0,-0.26,347.46,347.47,0.0,0.0,3
18.90516900,18905169,0.0,-0.33,0.0,-0.26,347.45,347.46,0.0,0.0,3
19.00511400,19005114,0.0,-0.33,0.0,-0.26,347.44,347.45,0.0,0.0,3
19.10474500,19104745,0.0,-0.33,0.0,-0.25,347.44,347.45,0.0,0.0,3
19.20476500,19204765,0.0,-0.33,0.0,-0.25,347.44,347.45,0.0,0.01,3
19.30485000,19304850,0.0,-0.33,0.0,-0.24,347.42,347.43,0.0,0.0,3
19.40485000,19404850,0.0,-0.33,0.0,-0.24,347.40000000000003,347.41,0.0,0.0,3
19.50495300,19504953,0.0,-0.33,0.0,-0.23,347.37,347.38,0.0,0.01,3
19.60498300,19604983,0.0,-0.34,0.0,-0.23,347.35,347.36,0.0,0.01,3
19.70502500,19705025,0.0,-0.34,0.0,-0.22,347.36,347.37,0.0,0.01,3
19.80481100,19804811,0.0,-0.33,0.0,-0.22,347.38,347.39,0.0,0.01,3
19.90507700,19905077,0.0,-0.33,0.0,-0.21,347.41,347.42,0.0,0.0,3
20.00479300,20004793,0.0,-0.33,0.0,-0.21,347.44,347.45,0.0,0.0,3
20.10479600,20104796,0.0,-0.33,0.0,-0.21,347.47,347.48,0.0,0.0,3
20.20485300,20204853,0.0,-0.33,0.0,-0.2,347.48,347.49,0.0,0.0,3
20.30486200,20304862,0.0,-0.32,0.0,-0.2,347.48,347.49,0.0,0.0,3
20.40492900,20404929,0.0,-0.32,0.0,-0.2,347.48,347.49,0.0,0.01,3
20.50500500,20505005,0.0,-0.31,0.0,-0.2,347.47,347.48,0.0,0.01,3
20.60523000,20605230,0.0,-0.31,0.0,-0.19,347.44,347.45,0.0,0.01,3
20.70515300,20705153,0.0,-0.31,0.0,-0.19,347.42,347.43,0.0,0.01,3
20.80513600,20805136,0.0,-0.31,0.0,-0.18,347.40000000000003,347.41,0.0,0.0,3
20.90506600,20905066,0.0,-0.31,0.0,-0.18,347.38,347.39,0.0,0.0,3
21.00508400,21005084,0.0,-0.3,0.0,-0.18,347.38,347.39,0.0,0.0,3
21.10506000,21105060,0.0,-0.3,0.0,-0.18,347.37,347.38,0.0,0.0,3
21.20535400,21205354,0.0,-0.3,0.0,-0.18,347.37,347.38,0.0,0.0,3
21.30531200,21305312,0.0,-0.3,0.0,-0.17,347.38,347.39,0.0,0.0,3
21.40515100,21405151,0.0,-0.3,0.0,-0.17,347.38,347.39,0.0,0.0,3
21.50524000,21505240,0.0,-0.3,0.0,-0.17,347.38,347.39,0.0,0.0,3
21.60515100,21605151,0.0,-0.29,0.0,-0.17,347.40000000000003,347.41,0.0,0.0,3
21.70508300,21705083,0.0,-0.29,0.0,-0.17,347.41,347.42,0.0,0.0,3
21.80507800,21805078,0.0,-0.29,0.0,-0.17,347.43,347.44,0.0,0.01,3
21.90532100,21905321,0.0,-0.29,0.0,-0.17,347.46,347.47,0.0,0.0,3
22.00505600,22005056,0.0,-0.29,0.0,-0.17,347.49,347.5,0.0,0.0,3
22.10490900,22104909,0.0,-0.29,0.0,-0.17,347.53000000000003,347.54,0.0,0.0,3
22.20493300,22204933,0.0,-0.29,0.0,-0.17,347.55,347.56,0.0,0.0,3
22.30498700,22304987,0.0,-0.29,0.0,-0.18,347.56,347.57,0.0,0.0,3
22.40504100,22405041,0.0,-0.29,0.0,-0.18,347.57,347.58,0.0,0.0,3
22.50491200,22504912,0.0,-0.29,0.0,-0.18,347.57,347.58,0.0,0.0,3
22.60479100,22604791,0.0,-0.28,0.0,-0.18,347.57,347.58,0.0,0.0,3
22.70475300,22704753,0.0,-0.28,0.0,-0.18,347.58,347.59000000000003,0.0,0.0,3
22.80480300,22804803,0.0,-0.28,0.0,-0.19,347.59000000000003,347.6,0.0,0.01,3
22.90484400,22904844,0.0,-0.28,0.0,-0.19,347.59000000000003,347.6,0.0,0.01,3
23.00504300,23005043,0.0,-0.28,0.0,-0.18,347.58,347.59000000000003,0.0,0.01,3
23.10509300,23105093,0.0,-0.27,0.0,-0.19,347.56,347.57,0.0,0.01,3
23.20514900,23205149,0.0,-0.27,0.0,-0.19,347.56,347.57,0.0,0.01,3
23.30520000,23305200,0.0,-0.27,0.0,-0.19,347.55,347.56,0.0,0.01,3
23.40487300,23404873,0.0,-0.27,0.0,-0.18,347.56,347.57,0.0,0.01,3
23.50483400,23504834,0.0,-0.27,0.0,-0.18,347.56,347.57,0.0,0.01,3
23.60475400,23604754,0.0,-0.27,0.0,-0.19,347.55,347.56,0.0,0.01,3
23.70475800,23704758,0.0,-0.27,0.0,-0.19,347.57,347.58,0.0,0.01,3
23.80484000,23804840,0.0,-0.27,0.0,-0.19,347.58,347.59000000000003,0.0,0.0,3
23.90505900,23905059,0.0,-0.27,0.0,-0.19,347.59000000000003,347.6,0.0,0.0,3
24.00509600,24005096,0.0,-0.26,0.0,-0.19,347.61,347.62,0.0,0.0,3
24.10499000,24104990,0.0,-0.25,0.0,-0.19,347.63,347.64,0.0,0.0,3
24.20505000,24205050,0.0,-0.25,0.0,-0.19,347.65000000000003,347.66,0.0,0.01,3
24.30488700,24304887,0.0,-0.25,0.0,-0.19,347.66,347.67,0.0,0.01,3
24.40480800,24404808,0.0,-0.24,0.0,-0.2,347.67,347.68,0.0,0.01,3
24.50480200,24504802,0.0,-0.25,0.0,-0.2,347.67,347.68,0.0,0.01,3
24.60508700,24605087,0.0,-0.24,0.0,-0.2,347.66,347.67,0.0,0.0,3
24.70484300,24704843,0.0,-0.24,0.0,-0.21,347.65000000000003,347.66,0.0,0.01,3
24.80485000,24804850,0.0,-0.24,0.0,-0.21,347.63,347.64,0.0,0.01,3
24.90492500,24904925,0.0,-0.24,0.0,-0.21,347.61,347.62,0.0,0.01,3
25.00496500,25004965,0.0,-0.24,0.0,-0.21,347.59000000000003,347.6,0.0,0.01,3
25.10502100,25105021,0.0,-0.24,0.0,-0.21,347.56,347.57,0.0,0.01,3
25.20488700,25204887,0.0,-0.24,0.0,-0.21,347.53000000000003,347.54,0.0,0.01,3
25.30481500,25304815,0.0,-0.23,0.0,-0.22,347.5,347.51,0.0,0.01,3
25.40476400,25404764,0.0,-0.23,0.0,-0.22,347.48,347.49,0.0,0.01,3
25.50511000,25505110,0.0,-0.23,0.0,-0.22,347.46,347.47,0.0,0.01,3
25.60505100,25605051,0.0,-0.22,0.0,-0.22,347.46,347.47,0.0,0.01,3
25.70504700,25705047,0.0,-0.22,0.0,-0.22,347.46,347.47,0.0,0.01,3
25.80510400,25805104,0.0,-0.22,0.0,-0.22,347.46,347.47,0.0,0.01,3
25.90499600,25904996,0.0,-0.23,0.0,-0.22,347.45,347.46,0.0,0.01,3
26.00503900,26005039,0.0,-0.23,0.0,-0.22,347.43,347.44,0.0,0.01,3
26.10481900,26104819,0.0,-0.22,0.0,-0.22,347.42,347.43,0.0,0.01,3
26.20505600,26205056,0.0,-0.22,0.0,-0.22,347.40000000000003,347.41,0.0,0.0,3
26.30511300,26305113,0.0,-0.22,0.0,-0.22,347.39,347.40000000000003,0.0,0.0,3
26.40504600,26405046,0.0,-0.22,0.0,-0.22,347.38,347.39,0.0,0.01,3
26.50505100,26505051,0.0,-0.22,0.0,-0.22,347.38,347.39,0.0,0.01,3
26.60500300,26605003,0.0,-0.21,0.0,-0.22,347.39,347.40000000000003,0.0,0.0,3
26.70507000,26705070,0.0,-0.21,0.0,-0.22,347.39,347.40000000000003,0.0,0.0,3
26.80512100,26805121,0.0,-0.22,0.0,-0.23,347.39,347.40000000000003,0.0,0.0,3
26.90522000,26905220,0.0,-0.21,0.0,-0.23,347.39,347.40000000000003,0.0,0.0,3
27.00488000,27004880,0.0,-0.21,0.0,-0.23,347.38,347.39,0.0,0.0,3
27.10482100,27104821,0.0,-0.21,0.0,-0.23,347.38,347.39,0.0,0.0,3
27.20475900,27204759,0.0,-0.21,0.0,-0.23,347.38,347.39,0.0,0.0,3
27.30475300,27304753,0.0,-0.21,0.0,-0.24,347.39,347.40000000000003,0.0,0.01,3
27.40483900,27404839,0.0,-0.21,0.0,-0.24,347.40000000000003,347.41,0.0,0.01,3
27.50509400,27505094,0.0,-0.21,0.0,-0.24,347.42,347.43,0.0,0.01,3
27.60510900,27605109,0.0,-0.21,0.0,-0.24,347.44,347.45,0.0,0.0,3
27.70498700,27704987,0.0,-0.21,0.0,-0.24,347.46,347.47,0.0,0.0,3
27.80503200,27805032,0.0,-0.21,0.0,-0.24,347.47,347.48,0.0,0.01,3
27.90488200,27904882,0.0,-0.21,0.0,-0.24,347.49,347.5,0.0,0.01,3
28.00480400,28004804,0.0,-0.21,0.0,-0.24,347.52,347.53000000000003,0.0,0.01,3
28.10475100,28104751,0.0,-0.2,0.0,-0.24,347.55,347.56,0.0,0.01,3
28.20508000,28205080,0.0,-0.21,0.0,-0.24,347.58,347.59000000000003,0.0,0.0,3
28.30484600,28304846,0.0,-0.21,0.0,-0.24,347.61,347.62,0.0,0.0,3
28.40489900,28404899,0.0,-0.2,0.0,-0.24,347.62,347.63,0.0,0.0,3
28.50494500,28504945,0.0,-0.2,0.0,-0.24,347.63,347.64,0.0,0.0,3
28.60498000,28604980,0.0,-0.2,0.0,-0.24,347.63,347.64,0.0,0.0,3
28.70503500,28705035,0.0,-0.2,0.0,-0.24,347.64,347.65000000000003,0.0,0.0,3
28.80516200,28805162,0.0,-0.2,0.0,-0.24,347.64,347.65000000000003,0.0,0.0,3
28.90509800,28905098,0.0,-0.2,0.0,-0.24,347.64,347.65000000000003,0.0,0.0,3
29.00507400,29005074,0.0,-0.2,0.0,-0.24,347.64,347.65000000000003,0.0,0.0,3
29.10508100,29105081,0.0,-0.2,0.0,-0.24,347.65000000000003,347.66,0.0,0.0,3
29.20505200,29205052,0.0,-0.21,0.0,-0.24,347.65000000000003,347.66,0.0,0.01,3
29.30535900,29305359,0.0,-0.2,0.0,-0.24,347.65000000000003,347.66,0.0,0.01,3
29.40531800,29405318,0.0,-0.2,0.0,-0.24,347.64,347.65000000000003,0.0,0.01,3
29.50518600,29505186,0.0,-0.2,0.0,-0.24,347.64,347.65000000000003,0.0,0.0,3
29.60521500,29605215,0.0,-0.2,0.0,-0.24,347.65000000000003,347.66,0.0,0.01,3
29.70515100,29705151,0.0,-0.2,0.0,-0.24,347.66,347.67,0.0,0.0,3
29.80506600,29805066,0.0,-0.2,0.0,-0.24,347.66,347.67,0.0,0.0,3
29.90509300,29905093,0.0,-0.19,0.0,-0.25,347.66,347.67,0.0,0.0,3
30.00505700,30005057,0.0,-0.19,0.0,-0.25,347.65000000000003,347.66,0.0,0.0,3
30.10482600,30104826,0.0,-0.19,0.0,-0.25,347.65000000000003,347.66,0.0,0.0,3
30.20483600,30204836,0.0,-0.19,0.0,-0.25,347.65000000000003,347.66,0.0,0.0,3
30.30490400,30304904,0.0,-0.19,0.0,-0.26,347.65000000000003,347.66,0.0,0.01,3
30.40493400,30404934,0.0,-0.18,0.0,-0.26,347.67,347.68,0.0,0.01,3
30.50506300,30505063,0.0,-0.18,0.0,-0.26,347.69,347.7,0.0,0.01,3
30.60515400,30605154,0.0,-0.18,0.0,-0.26,347.72,347.73,0.0,0.01,3
30.70509400,30705094,0.0,-0.18,0.0,-0.27,347.75,347.76,0.0,0.0,3
30.80474300,30804743,0.0,-0.18,0.0,-0.27,347.77,347.78000000000003,0.0,0.0,3
30.90474800,30904748,0.0,-0.17,0.0,-0.27,347.79,347.8,0.0,0.01,3
31.00483000,31004830,0.0,-0.17,0.0,-0.27,347.8,347.81,0.0,0.01,3
31.10483300,31104833,0.0,-0.17,0.0,-0.27,347.8,347.81,0.0,0.0,3
31.20490900,31204909,0.0,-0.17,0.0,-0.27,347.81,347.82,0.0,0.01,3
31.30495800,31304958,0.0,-0.17,0.0,-0.27,347.81,347.82,0.0,0.01,3
31.40519000,31405190,0.0,-0.17,0.0,-0.28,347.8,347.81,0.0,0.01,3
31.50488800,31504888,0.0,-0.17,0.0,-0.28,347.8,347.81,0.0,0.01,3
31.60478900,31604789,0.0,-0.17,0.0,-0.28,347.8,347.81,0.0,0.01,3
31.70474500,31704745,0.0,-0.17,0.0,-0.28,347.8,347.81,0.0,0.01,3
31.80474800,31804748,0.0,-0.17,0.0,-0.28,347.81,347.82,0.0,0.01,3
31.90482400,31904824,0.0,-0.17,0.0,-0.28,347.82,347.83,0.0,0.01,3
32.00502700,32005027,0.0,-0.17,0.0,-0.28,347.83,347.84000000000003,0.0,0.01,3
32.10508400,32105084,0.0,-0.17,0.0,-0.28,347.84000000000003,347.85,0.0,0.01,3
32.20497600,32204976,0.0,-0.17,0.0,-0.28,347.84000000000003,347.85,0.0,0.01,3
32.30504100,32305041,0.0,-0.17,0.0,-0.28,347.84000000000003,347.85,0.0,0.0,3
32.40479000,32404790,0.0,-0.17,0.0,-0.28,347.85,347.86,0.0,0.0,3
32.50484000,32504840,0.0,-0.17,0.0,-0.28,347.86,347.87,0.0,0.01,3
32.60486900,32604869,0.0,-0.16,0.0,-0.28,347.87,347.88,0.0,0.01,3
32.70474500,32704745,0.0,-0.16,0.0,-0.28,347.86,347.87,0.0,0.01,3
32.80482400,32804824,0.0,-0.16,0.0,-0.29,347.85,347.86,0.0,0.01,3
32.90483200,32904832,0.0,-0.16,0.0,-0.29,347.85,347.86,0.0,0.01,3
33.00490900,33004909,0.0,-0.16,0.0,-0.29,347.84000000000003,347.85,0.0,0.01,3
33.10496100,33104961,0.0,-0.15,0.0,-0.29,347.85,347.86,0.0,0.01,3
33.20519100,33205191,0.0,-0.15,0.0,-0.28,347.87,347.88,0.0,0.01,3
33.30480500,33304805,0.0,-0.15,0.0,-0.28,347.89,347.90000000000003,0.0,0.01,3
33.40505400,33405054,0.0,-0.15,0.0,-0.28,347.91,347.92,0.0,0.01,3
33.50505000,33505050,0.0,-0.15,0.0,-0.29,347.94,347.95,0.0,0.01,3
33.60497500,33604975,0.0,-0.15,0.0,-0.29,347.95,347.96,0.0,0.01,3
33.70526900,33705269,0.0,-0.14,0.0,-0.29,347.96,347.97,0.0,0.01,3
33.80502100,33805021,0.0,-0.14,0.0,-0.29,347.96,347.97,0.0,0.0,3
33.90509400,33905094,0.0,-0.14,0.0,-0.28,347.96,347.97,0.0,0.0,3
34.00499400,34004994,0.0,-0.14,0.0,-0.28,347.96,347.97,0.0,0.0,3
34.10500600,34105006,0.0,-0.14,0.0,-0.28,347.96,347.97,0.0,0.0,3
34.20489800,34204898,0.0,-0.14,0.0,-0.28,347.97,347.98,0.0,0.0,3
34.30477600,34304776,0.0,-0.13,0.0,-0.28,347.97,347.98,0.0,0.0,3
34.40473500,34404735,0.0,-0.13,0.0,-0.27,347.97,347.98,0.0,0.0,3
34.50480000,34504800,0.0,-0.13,0.0,-0.27,347.97,347.98,0.0,0.0,3
34.60483800,34604838,0.0,-0.13,0.0,-0.27,347.97,347.98,0.0,0.0,3
34.70509900,34705099,0.0,-0.12,0.0,-0.27,347.98,347.99,0.0,0.0,3
34.80508300,34805083,0.0,-0.12,0.0,-0.28,347.98,347.99,0.0,0.0,3
34.90496100,34904961,0.0,-0.12,0.0,-0.27,347.99,348.0,0.0,0.0,3
35.00489600,35004896,0.0,-0.12,0.0,-0.27,348.0,348.01,0.0,0.0,3
35.10478100,35104781,0.0,-0.11,0.0,-0.27,348.02,348.03000000000003,0.0,0.0,3
35.20480600,35204806,0.0,-0.11,0.0,-0.27,348.03000000000003,348.04,0.0,0.0,3
35.30474800,35304748,0.0,-0.11,0.0,-0.27,348.04,348.05,0.0,0.0,3
35.40507000,35405070,0.0,-0.11,0.0,-0.27,348.05,348.06,0.0,0.0,3
35.50485700,35504857,0.0,-0.11,0.0,-0.27,348.05,348.06,0.0,0.0,3
35.60485300,35604853,0.0,-0.1,0.0,-0.27,348.05,348.06,0.0,0.01,3
35.70490500,35704905,0.0,-0.1,0.0,-0.27,348.05,348.06,0.0,0.01,3
35.80496000,35804960,0.0,-0.1,0.0,-0.27,348.04,348.05,0.0,0.01,3
35.90499500,35904995,0.0,-0.1,0.0,-0.27,348.04,348.05,0.0,0.01,3
36.00482200,36004822,0.0,-0.1,0.0,-0.27,348.04,348.05,0.0,0.01,3
36.10506600,36105066,0.0,-0.1,0.0,-0.28,348.04,348.05,0.0,0.01,3
36.20498400,36204984,0.0,-0.1,0.0,-0.28,348.04,348.05,0.0,0.01,3
36.30498700,36304987,0.0,-0.1,0.0,-0.28,348.04,348.05,0.0,0.01,3
36.40501100,36405011,0.0,-0.1,0.0,-0.28,348.04,348.05,0.0,0.01,3
36.50501300,36505013,0.0,-0.1,0.0,-0.28,348.04,348.05,0.0,0.01,3
36.60526300,36605263,0.0,-0.1,0.0,-0.28,348.04,348.05,0.0,0.01,3
36.70509500,36705095,0.0,-0.1,0.0,-0.28,348.03000000000003,348.04,0.0,0.01,3
36.80518300,36805183,0.0,-0.1,0.0,-0.28,348.03000000000003,348.04,0.0,0.01,3
36.90511000,36905110,0.0,-0.1,0.0,-0.28,348.03000000000003,348.04,0.0,0.01,3
37.00503200,37005032,0.0,-0.1,0.0,-0.28,348.03000000000003,348.04,0.0,0.0,3
37.10506200,37105062,0.0,-0.1,0.0,-0.28,348.02,348.03000000000003,0.0,0.0,3
37.20496400,37204964,0.0,-0.1,0.0,-0.28,348.03000000000003,348.04,0.0,0.0,3
37.30482400,37304824,0.0,-0.1,0.0,-0.28,348.04,348.05,0.0,0.0,3
37.40484300,37404843,0.0,-0.1,0.0,-0.28,348.05,348.06,0.0,0.0,3
37.50493300,37504933,0.0,-0.1,0.0,-0.28,348.07,348.08,0.0,0.0,3
37.60495000,37604950,0.0,-0.1,0.0,-0.28,348.08,348.09000000000003,0.0,0.0,3
37.70489600,37704896,0.0,-0.1,0.0,-0.28,348.09000000000003,348.1,0.0,0.0,3
37.80479800,37804798,0.0,-0.1,0.0,-0.28,348.1,348.11,0.0,0.0,3
37.90505900,37905059,0.0,-0.09,0.0,-0.29,348.1,348.11,0.0,0.0,3
38.00474900,38004749,0.0,-0.09,0.0,-0.28,348.11,348.12,0.0,0.01,3
38.10475000,38104750,0.0,-0.1,0.0,-0.28,348.12,348.13,0.0,0.0,3
38.20482200,38204822,0.0,-0.09,0.0,-0.28,348.12,348.13,0.0,0.0,3
38.30483700,38304837,0.0,-0.09,0.0,-0.28,348.12,348.13,0.0,0.0,3
38.40496600,38404966,0.0,-0.09,0.0,-0.28,348.13,348.14,0.0,0.0,3
38.50500200,38505002,0.0,-0.09,0.0,-0.28,348.13,348.14,0.0,0.0,3
38.60490600,38604906,0.0,-0.09,0.0,-0.28,348.13,348.14,0.0,0.01,3
38.70481200,38704812,0.0,-0.09,0.0,-0.28,348.14,348.15000000000003,0.0,0.01,3
38.80480800,38804808,0.0,-0.09,0.0,-0.28,348.13,348.14,0.0,0.0,3
38.90475800,38904758,0.0,-0.09,0.0,-0.28,348.13,348.14,0.0,0.0,3
39.00507400,39005074,0.0,-0.09,0.0,-0.28,348.13,348.14,0.0,0.0,3
39.10483100,39104831,0.0,-0.09,0.0,-0.28,348.13,348.14,0.0,0.0,3
39.20483900,39204839,0.0,-0.09,0.0,-0.29,348.13,348.14,0.0,0.01,3
39.30490600,39304906,0.0,-0.09,0.0,-0.29,348.14,348.15000000000003,0.0,0.01,3
39.40496500,39404965,0.0,-0.08,0.0,-0.29,348.15000000000003,348.16,0.0,0.02,3
39.50504700,39505047,0.0,-0.08,0.0,-0.29,348.15000000000003,348.16,0.0,0.01,3
39.60478900,39604789,0.0,-0.08,0.0,-0.29,348.17,348.18,0.0,0.01,3
39.70480900,39704809,0.0,-0.08,0.0,-0.29,348.19,348.2,0.0,0.01,3
39.80474800,39804748,0.0,-0.08,0.0,-0.29,348.2,348.21,0.0,0.01,3
39.90507800,39905078,0.0,-0.08,0.0,-0.3,348.21,348.22,0.0,0.01,3
40.00503800,40005038,0.0,-0.07,0.0,-0.3,348.22,348.23,0.0,0.01,3
40.10502100,40105021,0.0,-0.07,0.0,-0.29,348.23,348.24,0.0,0.01,3
40.20510200,40205102,0.0,-0.07,0.0,-0.3,348.23,348.24,0.0,0.0,3
40.30499700,40304997,0.0,-0.07,0.0,-0.29,348.24,348.25,0.0,0.0,3
40.40518200,40405182,0.0,-0.06,0.0,-0.3,348.25,348.26,0.0,0.0,3
40.50513500,40505135,0.0,-0.06,0.0,-0.3,348.26,348.27,0.0,0.0,3
40.60502700,40605027,0.0,-0.06,0.0,-0.3,348.27,348.28000000000003,0.0,0.01,3
40.70503000,40705030,0.0,-0.06,0.0,-0.3,348.27,348.28000000000003,0.0,0.01,3
40.80508500,40805085,0.0,-0.06,0.0,-0.3,348.27,348.28000000000003,0.0,0.02,3
40.90483000,40904830,0.0,-0.06,0.0,-0.3,348.25,348.26,0.0,0.01,3
41.00490300,41004903,0.0,-0.06,0.0,-0.3,348.24,348.25,0.0,0.02,3
41.10491500,41104915,0.0,-0.06,0.0,-0.3,348.23,348.24,0.0,0.01,3
41.20496200,41204962,0.0,-0.06,0.0,-0.31,348.22,348.23,0.0,0.01,3
41.30489700,41304897,0.0,-0.06,0.0,-0.31,348.22,348.23,0.0,0.01,3
41.40479100,41404791,0.0,-0.06,0.0,-0.31,348.22,348.23,0.0,0.01,3
41.50483200,41504832,0.0,-0.06,0.0,-0.31,348.22,348.23,0.0,0.01,3
41.60474800,41604748,0.0,-0.06,0.0,-0.31,348.23,348.24,0.0,0.01,3
41.70474400,41704744,0.0,-0.06,0.0,-0.31,348.24,348.25,0.0,0.01,3
41.80482300,41804823,0.0,-0.06,0.0,-0.31,348.24,348.25,0.0,0.01,3
41.90502500,41905025,0.0,-0.06,0.0,-0.31,348.24,348.25,0.0,0.01,3
42.00508200,42005082,0.0,-0.06,0.0,-0.32,348.24,348.25,0.0,0.01,3
42.10497200,42104972,0.0,-0.06,0.0,-0.32,348.23,348.24,0.0,0.01,3
42.20501600,42205016,0.0,-0.06,0.0,-0.32,348.22,348.23,0.0,0.01,3
42.30478300,42304783,0.0,-0.06,0.0,-0.32,348.22,348.23,0.0,0.01,3
42.40477000,42404770,0.0,-0.06,0.0,-0.32,348.21,348.22,0.0,0.01,3
42.50482400,42504824,0.0,-0.06,0.0,-0.32,348.21,348.22,0.0,0.01,3
42.60475100,42604751,0.0,-0.06,0.0,-0.32,348.22,348.23,0.0,0.01,3
42.70482900,42704829,0.0,-0.06,0.0,-0.32,348.22,348.23,0.0,0.0,3
42.80502500,42805025,0.0,-0.06,0.0,-0.33,348.23,348.24,0.0,0.01,3
42.90509400,42905094,0.0,-0.06,0.0,-0.33,348.23,348.24,0.0,0.0,3
43.00496000,43004960,0.0,-0.06,0.0,-0.33,348.24,348.25,0.0,0.0,3
43.10501900,43105019,0.0,-0.06,0.0,-0.33,348.25,348.26,0.0,0.0,3
43.20481000,43204810,0.0,-0.06,0.0,-0.33,348.25,348.26,0.0,0.0,3
43.30480500,43304805,0.0,-0.06,0.0,-0.33,348.26,348.27,0.0,0.0,3
43.40475200,43404752,0.0,-0.06,0.0,-0.33,348.27,348.28000000000003,0.0,0.01,3
43.50484300,43504843,0.0,-0.07,0.0,-0.34,348.27,348.28000000000003,0.0,0.01,3
43.60483000,43604830,0.0,-0.07,0.0,-0.34,348.27,348.28000000000003,0.0,0.0,3
43.70502100,43705021,0.0,-0.06,0.0,-0.34,348.28000000000003,348.29,0.0,0.0,3
43.80489800,43804898,0.0,-0.06,0.0,-0.34,348.28000000000003,348.29,0.0,0.01,3
43.90496500,43904965,0.0,-0.07,0.0,-0.34,348.28000000000003,348.29,0.0,0.01,3
44.00501000,44005010,0.0,-0.07,0.0,-0.34,348.28000000000003,348.29,0.0,0.01,3
44.10478100,44104781,0.0,-0.07,0.0,-0.33,348.27,348.28000000000003,0.0,0.01,3
44.20510000,44205100,0.0,-0.07,0.0,-0.34,348.27,348.28000000000003,0.0,0.01,3
44.30474000,44304740,0.0,-0.07,0.0,-0.34,348.27,348.28000000000003,0.0,0.01,3
44.40479600,44404796,0.0,-0.07,0.0,-0.34,348.27,348.28000000000003,0.0,0.01,3
44.50486700,44504867,0.0,-0.07,0.0,-0.34,348.27,348.28000000000003,0.0,0.01,3
44.60486100,44604861,0.0,-0.07,0.0,-0.34,348.26,348.27,0.0,0.01,3
44.70491600,44704916,0.0,-0.07,0.0,-0.34,348.26,348.27,0.0,0.01,3
44.80498200,44804982,0.0,-0.06,0.0,-0.34,348.26,348.27,0.0,0.01,3
44.90520000,44905200,0.0,-0.06,0.0,-0.35000000000000003,348.27,348.28000000000003,0.0,0.01,3
45.00480900,45004809,0.0,-0.07,0.0,-0.35000000000000003,348.27,348.28000000000003,0.0,0.01,3
45.10510300,45105103,0.0,-0.07,0.0,-0.35000000000000003,348.28000000000003,348.29,0.0,0.01,3
45.20513400,45205134,0.0,-0.07,0.0,-0.35000000000000003,348.28000000000003,348.29,0.0,0.0,3
45.30506800,45305068,0.0,-0.07,0.0,-0.35000000000000003,348.29,348.3,0.0,0.01,3
45.40504600,45405046,0.0,-0.07,0.0,-0.35000000000000003,348.29,348.3,0.0,0.01,3
45.50535900,45505359,0.0,-0.07,0.0,-0.35000000000000003,348.29,348.3,0.0,0.01,3
45.60509300,45605093,0.0,-0.07,0.0,-0.35000000000000003,348.28000000000003,348.29,0.0,0.01,3
45.70513000,45705130,0.0,-0.07,0.0,-0.35000000000000003,348.27,348.28000000000003,0.0,0.01,3
45.80519700,45805197,0.0,-0.06,0.0,-0.35000000000000003,348.26,348.27,0.0,0.01,3
45.90514500,45905145,0.0,-0.06,0.0,-0.35000000000000003,348.25,348.26,0.0,0.01,3
46.00509400,46005094,0.0,-0.06,0.0,-0.35000000000000003,348.25,348.26,0.0,0.01,3
46.10474400,46104744,0.0,-0.05,0.0,-0.35000000000000003,348.25,348.26,0.0,0.0,3
46.20475400,46204754,0.0,-0.05,0.0,-0.35000000000000003,348.26,348.27,0.0,0.0,3
46.30484000,46304840,0.0,-0.05,0.0,-0.36,348.27,348.28000000000003,0.0,0.01,3
46.40484100,46404841,0.0,-0.05,0.0,-0.36,348.27,348.28000000000003,0.0,0.0,3
46.50493900,46504939,0.0,-0.05,0.0,-0.36,348.28000000000003,348.29,0.0,0.01,3
46.60514200,46605142,0.0,-0.05,0.0,-0.36,348.28000000000003,348.29,0.0,0.0,3
46.70518600,46705186,0.0,-0.05,0.0,-0.36,348.29,348.3,0.0,0.0,3
46.80478100,46804781,0.0,-0.04,0.0,-0.36,348.3,348.31,0.0,0.0,3
46.90475400,46904754,0.0,-0.04,0.0,-0.36,348.3,348.31,0.0,0.0,3
47.00474500,47004745,0.0,-0.04,0.0,-0.36,348.3,348.31,0.0,0.0,3
47.10479500,47104795,0.0,-0.04,0.0,-0.36,348.31,348.32,0.0,0.0,3
47.20485300,47204853,0.0,-0.04,0.0,-0.36,348.31,348.32,0.0,0.01,3
47.30490800,47304908,0.0,-0.03,0.0,-0.36,348.3,348.31,0.0,0.0,3
47.40492700,47404927,0.0,-0.03,0.0,-0.36,348.31,348.32,0.0,0.01,3
47.50499500,47504995,0.0,-0.03,0.0,-0.36,348.31,348.32,0.0,0.01,3
47.60522800,47605228,0.0,-0.03,0.0,-0.36,348.3,348.31,0.0,0.01,3
47.70512200,47705122,0.0,-0.02,0.0,-0.36,348.3,348.31,0.0,0.01,3
47.80503100,47805031,0.0,-0.02,0.0,-0.36,348.3,348.31,0.0,0.01,3
47.90498100,47904981,0.0,-0.02,0.0,-0.36,348.31,348.32,0.0,0.01,3
48.00502800,48005028,0.0,-0.02,0.0,-0.35000000000000003,348.31,348.32,0.0,0.01,3
48.10501700,48105017,0.0,-0.02,0.0,-0.36,348.32,348.33,0.0,0.0,3
48.20529400,48205294,0.0,-0.02,0.0,-0.36,348.32,348.33,0.0,0.01,3
48.30527800,48305278,0.0,-0.01,0.0,-0.36,348.32,348.33,0.0,0.01,3
48.40532100,48405321,0.0,-0.01,0.0,-0.35000000000000003,348.33,348.34000000000003,0.0,0.01,3
48.50536700,48505367,0.0,-0.01,0.0,-0.36,348.34000000000003,348.35,0.0,0.01,3
48.60510900,48605109,0.0,-0.01,0.0,-0.36,348.33,348.34000000000003,0.0,0.01,3
48.70502100,48705021,0.0,-0.01,0.0,-0.35000000000000003,348.33,348.34000000000003,0.0,0.01,3
48.80498200,48804982,0.0,-0.01,0.0,-0.35000000000000003,348.33,348.34000000000003,0.0,0.01,3
48.90501400,48905014,0.0,-0.01,0.0,-0.35000000000000003,348.32,348.33,0.0,0.01,3
49.00501800,49005018,0.0,0.0,0.0,-0.35000000000000003,348.32,348.33,0.0,0.01,3
49.10500700,49105007,0.0,0.0,0.0,-0.36,348.31,348.32,0.0,0.01,3
49.20508000,49205080,0.0,0.0,0.0,-0.36,348.31,348.32,0.0,0.01,3
49.30512300,49305123,0.0,0.0,0.0,-0.36,348.31,348.32,0.0,0.01,3
49.40544600,49405446,0.0,0.0,0.0,-0.36,348.3,348.31,0.0,0.01,3
49.50490600,49504906,0.0,0.01,0.0,-0.36,348.3,348.31,0.0,0.01,3
49.60479200,49604792,0.0,0.01,0.0,-0.36,348.29,348.3,0.0,0.01,3
49.70474600,49704746,0.0,0.01,0.0,-0.36,348.29,348.3,0.0,0.01,3
49.80475200,49804752,0.0,0.02,0.0,-0.36,348.3,348.31,0.0,0.01,3
49.90485200,49904852,0.0,0.02,0.0,-0.35000000000000003,348.3,348.31,0.0,0.01,3
50.00486000,50004860,0.0,0.02,0.0,-0.35000000000000003,348.3,348.31,0.0,0.01,3
50.10510100,50105101,0.0,0.03,0.0,-0.35000000000000003,348.3,348.31,0.0,0.01,3
50.20498100,50204981,0.0,0.03,0.0,-0.35000000000000003,348.3,348.31,0.0,0.01,3
50.30503700,50305037,0.0,0.03,0.0,-0.35000000000000003,348.3,348.31,0.0,0.01,3
50.40486500,50404865,0.0,0.03,0.0,-0.36,348.3,348.31,0.0,0.01,3
50.50482900,50504829,0.0,0.03,0.0,-0.36,348.3,348.31,0.0,0.01,3
50.60474400,50604744,0.0,0.03,0.0,-0.36,348.31,348.32,0.0,0.01,3
50.70475100,50704751,0.0,0.03,0.0,-0.36,348.32,348.33,0.0,0.01,3
50.80483200,50804832,0.0,0.03,0.0,-0.36,348.33,348.34000000000003,0.0,0.0,3
50.90483700,50904837,0.0,0.04,0.0,-0.36,348.33,348.34000000000003,0.0,0.0,3
51.00491700,51004917,0.0,0.05,0.0,-0.36,348.33,348.34000000000003,0.0,0.0,3
51.10497600,51104976,0.0,0.05,0.0,-0.36,348.34000000000003,348.35,0.0,0.0,3
51.20521000,51205210,0.0,0.05,0.0,-0.36,348.34000000000003,348.35,0.0,0.0,3
51.30481900,51304819,0.0,0.05,0.0,-0.36,348.34000000000003,348.35,0.0,0.0,3
51.40502000,51405020,0.0,0.05,0.0,-0.37,348.34000000000003,348.35,0.0,0.0,3
51.50511300,51505113,0.0,0.06,0.0,-0.37,348.34000000000003,348.35,0.0,0.01,3
51.60496000,51604960,0.0,0.06,0.0,-0.37,348.34000000000003,348.35,0.0,0.0,3
51.70503600,51705036,0.0,0.06,0.0,-0.37,348.33,348.34000000000003,0.0,0.01,3
51.80529800,51805298,0.0,0.06,0.0,-0.36,348.33,348.34000000000003,0.0,0.01,3
51.90528400,51905284,0.0,0.06,0.0,-0.36,348.34000000000003,348.35,0.0,0.0,3
52.00513100,52005131,0.0,0.06,0.0,-0.36,348.34000000000003,348.35,0.0,0.0,3
52.10518400,52105184,0.0,0.07,0.0,-0.36,348.35,348.36,0.0,0.0,3
52.20512900,52205129,0.0,0.06,0.0,-0.36,348.35,348.36,0.0,0.0,3
52.30511700,52305117,0.0,0.07,0.0,-0.36,348.36,348.37,0.0,0.0,3
52.40473500,52404735,0.0,0.07,0.0,-0.35000000000000003,348.36,348.37,0.0,0.0,3
52.50476500,52504765,0.0,0.07,0.0,-0.35000000000000003,348.36,348.37,0.0,0.01,3
52.60482900,52604829,0.0,0.08,0.0,-0.35000000000000003,348.36,348.37,0.0,0.0,3
52.70484800,52704848,0.0,0.08,0.0,-0.35000000000000003,348.37,348.38,0.0,0.0,3
52.80490900,52804909,0.0,0.08,0.0,-0.34,348.37,348.38,0.0,0.0,3
52.90496900,52904969,0.0,0.09,0.0,-0.34,348.37,348.38,0.0,0.0,3
53.00502200,53005022,0.0,0.09,0.0,-0.34,348.37,348.38,0.0,0.0,3
53.10478100,53104781,0.0,0.09,0.0,-0.34,348.37,348.38,0.0,0.01,3
53.20476400,53204764,0.0,0.09,0.0,-0.34,348.38,348.39,0.0,0.0,3
53.30473600,53304736,0.0,0.09,0.0,-0.33,348.38,348.39,0.0,0.01,3
53.40506700,53405067,0.0,0.09,0.0,-0.33,348.38,348.39,0.0,0.01,3
53.50485700,53504857,0.0,0.08,0.0,-0.33,348.38,348.39,0.0,0.01,3
53.60490100,53604901,0.0,0.09,0.0,-0.33,348.38,348.39,0.0,0.01,3
53.70491400,53704914,0.0,0.09,0.0,-0.33,348.38,348.39,0.0,0.0,3
53.80496300,53804963,0.0,0.09,0.0,-0.33,348.38,348.39,0.0,0.0,3
53.90490700,53904907,0.0,0.09,0.0,-0.33,348.37,348.38,0.0,0.01,3
54.00479500,54004795,0.0,0.09,0.0,-0.33,348.37,348.38,0.0,0.0,3
54.10508200,54105082,0.0,0.09,0.0,-0.33,348.37,348.38,0.0,0.0,3
54.20507200,54205072,0.0,0.08,0.0,-0.33,348.36,348.37,0.0,0.0,3
54.30507000,54305070,0.0,0.08,0.0,-0.33,348.35,348.36,0.0,0.01,3
54.40503700,54405037,0.0,0.08,0.0,-0.33,348.35,348.36,0.0,0.01,3
54.50508600,54505086,0.0,0.08,0.0,-0.32,348.35,348.36,0.0,0.01,3
54.60532000,54605320,0.0,0.08,0.0,-0.32,348.36,348.37,0.0,0.01,3
54.70514900,54705149,0.0,0.08,0.0,-0.32,348.36,348.37,0.0,0.01,3
54.80520400,54805204,0.0,0.08,0.0,-0.32,348.37,348.38,0.0,0.01,3
54.90515600,54905156,0.0,0.08,0.0,-0.32,348.38,348.39,0.0,0.01,3
55.00511300,55005113,0.0,0.08,0.0,-0.32,348.39,348.40000000000003,0.0,0.01,3
55.10507600,55105076,0.0,0.08,0.0,-0.32,348.39,348.40000000000003,0.0,0.01,3
55.20507200,55205072,0.0,0.08,0.0,-0.32,348.38,348.39,0.0,0.01,3
55.30485600,55304856,0.0,0.08,0.0,-0.32,348.38,348.39,0.0,0.01,3
55.40484200,55404842,0.0,0.08,0.0,-0.32,348.38,348.39,0.0,0.0,3
55.50492400,55504924,0.0,0.08,0.0,-0.32,348.38,348.39,0.0,0.01,3
55.60497100,55604971,0.0,0.08,0.0,-0.32,348.39,348.40000000000003,0.0,0.01,3
55.70501700,55705017,0.0,0.08,0.0,-0.33,348.40000000000003,348.41,0.0,0.0,3
55.80479100,55804791,0.0,0.08,0.0,-0.33,348.40000000000003,348.41,0.0,0.0,3
55.90505900,55905059,0.0,0.08,0.0,-0.31,348.40000000000003,348.41,0.0,0.0,3
56.00473400,56004734,0.0,0.09,0.0,-0.3,348.39,348.40000000000003,0.0,0.0,3
56.10475800,56104758,0.0,0.09,0.0,-0.32,348.40000000000003,348.41,0.0,0.0,3
56.20482800,56204828,0.0,0.08,0.0,-0.32,348.40000000000003,348.41,0.0,0.0,3
56.30485200,56304852,0.0,0.08,0.0,-0.31,348.40000000000003,348.41,0.0,0.0,3
56.40490800,56404908,0.0,0.08,0.0,-0.31,348.40000000000003,348.41,0.0,0.0,3
56.50500700,56505007,0.0,0.08,0.0,-0.31,348.40000000000003,348.41,0.0,0.0,3
56.60520700,56605207,0.0,0.08,0.0,-0.31,348.40000000000003,348.41,0.0,0.0,3
56.70478700,56704787,0.0,0.08,0.0,-0.31,348.40000000000003,348.41,0.0,0.0,3
56.80502700,56805027,0.0,0.08,0.0,-0.31,348.41,348.42,0.0,0.0,3
56.90497300,56904973,0.0,0.08,0.0,-0.31,348.41,348.42,0.0,0.0,3
57.00502200,57005022,0.0,0.08,0.0,-0.31,348.41,348.42,0.0,0.0,3
57.10502900,57105029,0.0,0.08,0.0,-0.31,348.41,348.42,0.0,0.0,3
57.20499200,57204992,0.0,0.08,0.0,-0.31,348.42,348.43,0.0,0.01,3
57.30528400,57305284,0.0,0.07,0.0,-0.31,348.42,348.43,0.0,0.01,3
57.40511400,57405114,0.0,0.07,0.0,-0.32,348.43,348.44,0.0,0.01,3
57.50520100,57505201,0.0,0.07,0.0,-0.31,348.42,348.43,0.0,0.01,3
57.60512100,57605121,0.0,0.06,0.0,-0.31,348.42,348.43,0.0,0.0,3
57.70503700,57705037,0.0,0.06,0.0,-0.31,348.42,348.43,0.0,0.0,3
57.80507600,57805076,0.0,0.06,0.0,-0.31,348.42,348.43,0.0,0.0,3
57.90503900,57905039,0.0,0.06,0.0,-0.3,348.42,348.43,0.0,0.0,3
58.00501100,58005011,0.0,0.06,0.0,-0.3,348.41,348.42,0.0,0.0,3
58.10498300,58104983,0.0,0.05,0.0,-0.3,348.41,348.42,0.0,0.0,3
58.20505600,58205056,0.0,0.05,0.0,-0.3,348.40000000000003,348.41,0.0,0.01,3
58.30510200,58305102,0.0,0.06,0.0,-0.3,348.40000000000003,348.41,0.0,0.01,3
58.40517000,58405170,0.0,0.06,0.0,-0.3,348.41,348.42,0.0,0.01,3
58.50512600,58505126,0.0,0.06,0.0,-0.3,348.41,348.42,0.0,0.01,3
58.60501600,58605016,0.0,0.06,0.0,-0.3,348.41,348.42,0.0,0.01,3
58.70497900,58704979,0.0,0.06,0.0,-0.3,348.42,348.43,0.0,0.01,3
58.80525700,58805257,0.0,0.06,0.0,-0.3,348.42,348.43,0.0,0.01,3
58.90502900,58905029,0.0,0.06,0.0,-0.3,348.43,348.44,0.0,0.01,3
59.00484800,59004848,0.0,0.06,0.0,-0.3,348.44,348.45,0.0,0.01,3
59.10492100,59104921,0.0,0.06,0.0,-0.3,348.45,348.46,0.0,0.01,3
59.20496800,59204968,0.0,0.06,0.0,-0.3,348.45,348.46,0.0,0.0,3
59.30500600,59305006,0.0,0.06,0.0,-0.3,348.46,348.47,0.0,0.0,3
59.40478300,59404783,0.0,0.07,0.0,-0.29,348.46,348.47,0.0,0.0,3
59.50512900,59505129,0.0,0.07,0.0,-0.29,348.46,348.47,0.0,0.0,3
59.60506100,59605061,0.0,0.07,0.0,-0.29,348.46,348.47,0.0,0.0,3
59.70505200,59705052,0.0,0.07,0.0,-0.29,348.45,348.46,0.0,0.0,3
59.80483600,59804836,0.0,0.07,0.0,-0.29,348.44,348.45,0.0,0.0,3
59.90490500,59904905,0.0,0.07,0.0,-0.29,348.44,348.45,0.0,0.0,3
60.00491800,60004918,0.0,0.07,0.0,-0.29,348.44,348.45,0.0,0.01,3
60.10496600,60104966,0.0,0.07,0.0,-0.29,348.43,348.44,0.0,0.01,3
60.20500300,60205003,0.0,0.07,0.0,-0.29,348.42,348.43,0.0,0.01,3
60.30515800,60305158,0.0,0.06,0.0,-0.29,348.42,348.43,0.0,0.01,3
60.40510300,60405103,0.0,0.06,0.0,-0.29,348.42,348.43,0.0,0.01,3
60.50479700,60504797,0.0,0.07,0.0,-0.29,348.41,348.42,0.0,0.01,3
60.60479700,60604797,0.0,0.06,0.0,-0.29,348.41,348.42,0.0,0.0,3
60.70482800,60704828,0.0,0.07,0.0,-0.29,348.41,348.42,0.0,0.0,3
60.80483600,60804836,0.0,0.06,0.0,-0.3,348.41,348.42,0.0,0.01,3
60.90491100,60904911,0.0,0.06,0.0,-0.3,348.41,348.42,0.0,0.0,3
61.00514200,61005142,0.0,0.05,0.0,-0.3,348.41,348.42,0.0,0.01,3
61.10520700,61105207,0.0,0.05,0.0,-0.3,348.40000000000003,348.41,0.0,0.0,3
61.20480400,61204804,0.0,0.05,0.0,-0.3,348.40000000000003,348.41,0.0,0.01,3
61.30478900,61304789,0.0,0.05,0.0,-0.3,348.39,348.40000000000003,0.0,0.01,3
61.40475300,61404753,0.0,0.05,0.0,-0.29,348.39,348.40000000000003,0.0,0.01,3
61.50479400,61504794,0.0,0.05,0.0,-0.29,348.39,348.40000000000003,0.0,0.01,3
61.60484400,61604844,0.0,0.05,0.0,-0.29,348.38,348.39,0.0,0.01,3
61.70507000,61705070,0.0,0.05,0.0,-0.29,348.39,348.40000000000003,0.0,0.01,3
61.80512400,61805124,0.0,0.05,0.0,-0.29,348.39,348.40000000000003,0.0,0.01,3
61.90497400,61904974,0.0,0.04,0.0,-0.29,348.39,348.40000000000003,0.0,0.01,3
62.00505600,62005056,0.0,0.04,0.0,-0.29,348.40000000000003,348.41,0.0,0.01,3
62.10478300,62104783,0.0,0.04,0.0,-0.3,348.40000000000003,348.41,0.0,0.01,3
62.20481100,62204811,0.0,0.04,0.0,-0.3,348.40000000000003,348.41,0.0,0.01,3
62.30475300,62304753,0.0,0.04,0.0,-0.3,348.40000000000003,348.41,0.0,0.0,3
62.40474500,62404745,0.0,0.04,0.0,-0.31,348.40000000000003,348.41,0.0,0.01,3
62.50486000,62504860,0.0,0.04,0.0,-0.31,348.40000000000003,348.41,0.0,0.01,3
62.60507300,62605073,0.0,0.04,0.0,-0.31,348.40000000000003,348.41,0.0,0.01,3
62.70492100,62704921,0.0,0.04,0.0,-0.31,348.41,348.42,0.0,0.01,3
62.80498800,62804988,0.0,0.04,0.0,-0.3,348.41,348.42,0.0,0.01,3
62.90504000,62905040,0.0,0.04,0.0,-0.31,348.41,348.42,0.0,0.0,3
63.00480200,63004802,0.0,0.04,0.0,-0.3,348.41,348.42,0.0,0.01,3
63.10478300,63104783,0.0,0.04,0.0,-0.3,348.41,348.42,0.0,0.01,3
63.20474400,63204744,0.0,0.04,0.0,-0.3,348.41,348.42,0.0,0.01,3
63.30508700,63305087,0.0,0.04,0.0,-0.3,348.41,348.42,0.0,0.01,3
63.40482100,63404821,0.0,0.04,0.0,-0.3,348.41,348.42,0.0,0.01,3
63.50487100,63504871,0.0,0.04,0.0,-0.31,348.41,348.42,0.0,0.01,3
63.60492700,63604927,0.0,0.04,0.0,-0.31,348.41,348.42,0.0,0.0,3
63.70498700,63704987,0.0,0.04,0.0,-0.31,348.41,348.42,0.0,0.0,3
63.80503400,63805034,0.0,0.04,0.0,-0.31,348.41,348.42,0.0,0.0,3
63.90478500,63904785,0.0,0.04,0.0,-0.31,348.40000000000003,348.41,0.0,0.0,3
64.00505300,64005053,0.0,0.04,0.0,-0.31,348.40000000000003,348.41,0.0,0.01,3
64.10508600,64105086,0.0,0.04,0.0,-0.31,348.40000000000003,348.41,0.0,0.01,3
64.20504200,64205042,0.0,0.05,0.0,-0.31,348.39,348.40000000000003,0.0,0.01,3
64.30501100,64305011,0.0,0.05,0.0,-0.31,348.39,348.40000000000003,0.0,0.01,3
64.40499100,64404991,0.0,0.05,0.0,-0.31,348.39,348.40000000000003,0.0,0.01,3
64.50529900,64505299,0.0,0.05,0.0,-0.31,348.40000000000003,348.41,0.0,0.01,3
64.60512500,64605125,0.0,0.05,0.0,-0.32,348.40000000000003,348.41,0.0,0.01,3
64.70519500,64705195,0.0,0.05,0.0,-0.32,348.41,348.42,0.0,0.01,3
64.80510900,64805109,0.0,0.05,0.0,-0.32,348.40000000000003,348.41,0.0,0.01,3
64.90503200,64905032,0.0,0.05,0.0,-0.32,348.40000000000003,348.41,0.0,0.01,3
65.00502800,65005028,0.0,0.05,0.0,-0.33,348.41,348.42,0.0,0.01,3
65.10496400,65104964,0.0,0.05,0.0,-0.33,348.41,348.42,0.0,0.01,3
65.20500400,65205004,0.0,0.05,0.0,-0.33,348.41,348.42,0.0,0.01,3
65.30528000,65305280,0.0,0.05,0.0,-0.33,348.41,348.42,0.0,0.01,3
65.40527400,65405274,0.0,0.05,0.0,-0.33,348.41,348.42,0.0,0.01,3
65.50514300,65505143,0.0,0.05,0.0,-0.33,348.41,348.42,0.0,0.01,3
65.60517800,65605178,0.0,0.05,0.0,-0.33,348.41,348.42,0.0,0.01,3
65.70511200,65705112,0.0,0.05,0.0,-0.32,348.41,348.42,0.0,0.0,3
65.80505400,65805054,0.0,0.05,0.0,-0.32,348.40000000000003,348.41,0.0,0.0,3
65.90498000,65904980,0.0,0.05,0.0,-0.32,348.40000000000003,348.41,0.0,0.0,3
66.00503200,66005032,0.0,0.05,0.0,-0.32,348.40000000000003,348.41,0.0,0.0,3
66.10500200,66105002,0.0,0.05,0.0,-0.32,348.40000000000003,348.41,0.0,0.0,3
66.20537900,66205379,0.0,0.05,0.0,-0.32,348.39,348.40000000000003,0.0,0.0,3
66.30526200,66305262,0.0,0.05,0.0,-0.32,348.39,348.40000000000003,0.0,0.0,3
66.40511500,66405115,0.0,0.05,0.0,-0.32,348.39,348.40000000000003,0.0,0.0,3
66.50518700,66505187,0.0,0.05,0.0,-0.32,348.39,348.40000000000003,0.0,0.0,3
66.60508300,66605083,0.0,0.05,0.0,-0.32,348.39,348.40000000000003,0.0,0.0,3
66.70503800,66705038,0.0,0.05,0.0,-0.32,348.40000000000003,348.41,0.0,0.0,3
66.80503800,66805038,0.0,0.05,0.0,-0.32,348.40000000000003,348.41,0.0,0.0,3
66.90526700,66905267,0.0,0.05,0.0,-0.33,348.40000000000003,348.41,0.0,0.0,3
67.00483200,67004832,0.0,0.04,0.0,-0.32,348.40000000000003,348.41,0.0,0.0,3
67.10484200,67104842,0.0,0.04,0.0,-0.32,348.41,348.42,0.0,0.01,3
67.20490700,67204907,0.0,0.04,0.0,-0.32,348.41,348.42,0.0,0.01,3
67.30495600,67304956,0.0,0.04,0.0,-0.32,348.41,348.42,0.0,0.01,3
67.40500200,67405002,0.0,0.04,0.0,-0.32,348.41,348.42,0.0,0.0,3
67.50489200,67504892,0.0,0.04,0.0,-0.32,348.42,348.43,0.0,0.01,3
67.60510100,67605101,0.0,0.04,0.0,-0.32,348.42,348.43,0.0,0.01,3
67.70473600,67704736,0.0,0.04,0.0,-0.32,348.42,348.43,0.0,0.01,3
67.80476200,67804762,0.0,0.04,0.0,-0.32,348.43,348.44,0.0,0.01,3
67.90483300,67904833,0.0,0.04,0.0,-0.32,348.43,348.44,0.0,0.01,3
68.00484900,68004849,0.0,0.03,0.0,-0.32,348.44,348.45,0.0,0.01,3
68.10511600,68105116,0.0,0.03,0.0,-0.32,348.44,348.45,0.0,0.01,3
68.20515800,68205158,0.0,0.03,0.0,-0.32,348.44,348.45,0.0,0.01,3
68.30523300,68305233,0.0,0.03,0.0,-0.31,348.43,348.44,0.0,0.01,3
68.40480200,68404802,0.0,0.03,0.0,-0.31,348.43,348.44,0.0,0.0,3
68.50513000,68505130,0.0,0.03,0.0,-0.31,348.43,348.44,0.0,0.01,3
68.60505900,68605059,0.0,0.03,0.0,-0.31,348.43,348.44,0.0,0.01,3
68.70507500,68705075,0.0,0.03,0.0,-0.31,348.43,348.44,0.0,0.01,3
68.80503400,68805034,0.0,0.03,0.0,-0.31,348.43,348.44,0.0,0.01,3
68.90531700,68905317,0.0,0.03,0.0,-0.31,348.43,348.44,0.0,0.01,3
69.00542300,69005423,0.0,0.03,0.0,-0.31,348.44,348.45,0.0,0.01,3
69.10513900,69105139,0.0,0.03,0.0,-0.31,348.44,348.45,0.0,0.01,3
69.20519600,69205196,0.0,0.03,0.0,-0.31,348.44,348.45,0.0,0.0,3
69.30513800,69305138,0.0,0.03,0.0,-0.31,348.44,348.45,0.0,0.01,3
69.40507800,69405078,0.0,0.03,0.0,-0.31,348.44,348.45,0.0,0.01,3
69.50509700,69505097,0.0,0.02,0.0,-0.31,348.44,348.45,0.0,0.01,3
69.60474400,69604744,0.0,0.02,0.0,-0.31,348.44,348.45,0.0,0.01,3
69.70483700,69704837,0.0,0.02,0.0,-0.31,348.45,348.46,0.0,0.01,3
69.80484600,69804846,0.0,0.02,0.0,-0.31,348.45,348.46,0.0,0.0,3
69.90491800,69904918,0.0,0.02,0.0,-0.3,348.45,348.46,0.0,0.0,3
70.00497200,70004972,0.0,0.02,0.0,-0.3,348.45,348.46,0.0,0.0,3
70.10520700,70105207,0.0,0.01,0.0,-0.3,348.45,348.46,0.0,0.0,3
70.20514800,70205148,0.0,0.02,0.0,-0.3,348.44,348.45,0.0,0.01,3
70.30510400,70305104,0.0,0.02,0.0,-0.3,348.44,348.45,0.0,0.01,3
70.40475400,70404754,0.0,0.02,0.0,-0.3,348.44,348.45,0.0,0.01,3
70.50479300,70504793,0.0,0.02,0.0,-0.3,348.45,348.46,0.0,0.01,3
70.60484400,70604844,0.0,0.01,0.0,-0.3,348.45,348.46,0.0,0.01,3
70.70486800,70704868,0.0,0.02,0.0,-0.29,348.46,348.47,0.0,0.01,3
70.80511100,70805111,0.0,0.02,0.0,-0.29,348.46,348.47,0.0,0.01,3
70.90498300,70904983,0.0,0.02,0.0,-0.29,348.47,348.48,0.0,0.0,3
71.00500600,71005006,0.0,0.02,0.0,-0.29,348.47,348.48,0.0,0.01,3
71.10486700,71104867,0.0,0.01,0.0,-0.29,348.47,348.48,0.0,0.0,3
71.20480200,71204802,0.0,0.01,0.0,-0.28,348.47,348.48,0.0,0.01,3
71.30474400,71304744,0.0,0.01,0.0,-0.28,348.47,348.48,0.0,0.0,3
71.40507700,71405077,0.0,0.01,0.0,-0.28,348.47,348.48,0.0,0.0,3
71.50506900,71505069,0.0,0.01,0.0,-0.28,348.47,348.48,0.0,0.01,3
71.60507300,71605073,0.0,0.01,0.0,-0.28,348.47,348.48,0.0,0.01,3
71.70510000,71705100,0.0,0.01,0.0,-0.28,348.47,348.48,0.0,0.01,3
71.80498900,71804989,0.0,0.01,0.0,-0.28,348.48,348.49,0.0,0.0,3
71.90503800,71905038,0.0,0.01,0.0,-0.28,348.48,348.49,0.0,0.0,3
72.00486800,72004868,0.0,0.01,0.0,-0.27,348.47,348.48,0.0,0.01,3
72.10477200,72104772,0.0,0.01,0.0,-0.28,348.47,348.48,0.0,0.01,3
72.20474500,72204745,0.0,0.01,0.0,-0.28,348.47,348.48,0.0,0.01,3
72.30507300,72305073,0.0,0.01,0.0,-0.28,348.48,348.49,0.0,0.01,3
72.40484100,72404841,0.0,0.01,0.0,-0.28,348.48,348.49,0.0,0.01,3
72.50493100,72504931,0.0,0.01,0.0,-0.28,348.48,348.49,0.0,0.0,3
72.60491800,72604918,0.0,0.01,0.0,-0.28,348.48,348.49,0.0,0.0,3
72.70496400,72704964,0.0,0.0,0.0,-0.28,348.48,348.49,0.0,0.0,3
72.80495000,72804950,0.0,0.0,0.0,-0.28,348.48,348.49,0.0,0.0,3
72.90482600,72904826,0.0,0.01,0.0,-0.28,348.48,348.49,0.0,0.0,3
73.00511200,73005112,0.0,0.01,0.0,-0.28,348.48,348.49,0.0,0.0,3
73.10473900,73104739,0.0,0.0,0.0,-0.28,348.47,348.48,0.0,0.0,3
73.20476000,73204760,0.0,0.01,0.0,-0.28,348.47,348.48,0.0,0.01,3
73.30482900,73304829,0.0,0.01,0.0,-0.27,348.48,348.49,0.0,0.01,3
73.40484500,73404845,0.0,0.01,0.0,-0.27,348.48,348.49,0.0,0.01,3
73.50493700,73504937,0.0,0.01,0.0,-0.27,348.49,348.5,0.0,0.01,3
73.60497700,73604977,0.0,0.02,0.0,-0.27,348.49,348.5,0.0,0.01,3
73.70520700,73705207,0.0,0.02,0.0,-0.27,348.49,348.5,0.0,0.01,3
73.80480100,73804801,0.0,0.01,0.0,-0.27,348.5,348.51,0.0,0.0,3
73.90504000,73905040,0.0,0.01,0.0,-0.28,348.5,348.51,0.0,0.0,3
74.00502800,74005028,0.0,0.01,0.0,-0.28,348.5,348.51,0.0,0.0,3
74.10528900,74105289,0.0,0.01,0.0,-0.28,348.5,348.51,0.0,0.0,3
74.20483200,74204832,0.0,0.01,0.0,-0.28,348.5,348.51,0.0,0.0,3
74.30485200,74304852,0.0,0.01,0.0,-0.27,348.5,348.51,0.0,0.0,3
74.40491200,74404912,0.0,0.0,0.0,-0.28,348.49,348.5,0.0,0.0,3
74.50501200,74505012,0.0,0.0,0.0,-0.27,348.49,348.5,0.0,0.0,3
74.60502400,74605024,0.0,0.0,0.0,-0.27,348.49,348.5,0.0,0.01,3
74.70488400,74704884,0.0,0.0,0.0,-0.27,348.48,348.49,0.0,0.01,3
74.80506200,74805062,0.0,0.01,0.0,-0.27,348.47,348.48,0.0,0.01,3
74.90473800,74904738,0.0,0.01,0.0,-0.27,348.47,348.48,0.0,0.01,3
75.00475900,75004759,0.0,0.01,0.0,-0.28,348.46,348.47,0.0,0.01,3
75.10482400,75104824,0.0,0.02,0.0,-0.28,348.46,348.47,0.0,0.01,3
75.20483700,75204837,0.0,0.02,0.0,-0.28,348.46,348.47,0.0,0.01,3
75.30490800,75304908,0.0,0.02,0.0,-0.27,348.46,348.47,0.0,0.01,3
75.40496500,75404965,0.0,0.02,0.0,-0.27,348.46,348.47,0.0,0.01,3
75.50503600,75505036,0.0,0.02,0.0,-0.27,348.47,348.48,0.0,0.01,3
75.60478500,75604785,0.0,0.01,0.0,-0.27,348.48,348.49,0.0,0.01,3
75.70509800,75705098,0.0,0.02,0.0,-0.27,348.48,348.49,0.0,0.0,3
75.80473500,75804735,0.0,0.02,0.0,-0.27,348.48,348.49,0.0,0.0,3
75.90475400,75904754,0.0,0.02,0.0,-0.27,348.48,348.49,0.0,0.0,3
76.00484100,76004841,0.0,0.02,0.0,-0.27,348.49,348.5,0.0,0.01,3
76.10483400,76104834,0.0,0.02,0.0,-0.27,348.49,348.5,0.0,0.01,3
76.20492300,76204923,0.0,0.02,0.0,-0.27,348.49,348.5,0.0,0.01,3
76.30513800,76305138,0.0,0.02,0.0,-0.27,348.49,348.5,0.0,0.0,3
76.40519500,76405195,0.0,0.02,0.0,-0.27,348.49,348.5,0.0,0.0,3
76.50489100,76504891,0.0,0.02,0.0,-0.27,348.49,348.5,0.0,0.0,3
76.60510100,76605101,0.0,0.03,0.0,-0.27,348.49,348.5,0.0,0.0,3
76.70512100,76705121,0.0,0.02,0.0,-0.27,348.49,348.5,0.0,0.01,3
76.80507700,76805077,0.0,0.02,0.0,-0.27,348.49,348.5,0.0,0.01,3
76.90505100,76905051,0.0,0.02,0.0,-0.27,348.5,348.51,0.0,0.01,3
77.00533400,77005334,0.0,0.03,0.0,-0.26,348.5,348.51,0.0,0.01,3
77.10530400,77105304,0.0,0.03,0.0,-0.27,348.49,348.5,0.0,0.0,3
77.20515600,77205156,0.0,0.03,0.0,-0.27,348.49,348.5,0.0,0.0,3
77.30520000,77305200,0.0,0.03,0.0,-0.27,348.48,348.49,0.0,0.0,3
77.40514600,77405146,0.0,0.03,0.0,-0.26,348.48,348.49,0.0,0.0,3
77.50511600,77505116,0.0,0.03,0.0,-0.26,348.48,348.49,0.0,0.0,3
77.60507800,77605078,0.0,0.03,0.0,-0.26,348.48,348.49,0.0,0.01,3
77.70532300,77705323,0.0,0.03,0.0,-0.26,348.48,348.49,0.0,0.01,3
77.80484300,77804843,0.0,0.03,0.0,-0.26,348.47,348.48,0.0,0.01,3
77.90485100,77904851,0.0,0.03,0.0,-0.26,348.48,348.49,0.0,0.01,3
78.00492200,78004922,0.0,0.03,0.0,-0.26,348.48,348.49,0.0,0.01,3
78.10497200,78104972,0.0,0.03,0.0,-0.26,348.48,348.49,0.0,0.0,3
78.20505500,78205055,0.0,0.03,0.0,-0.26,348.49,348.5,0.0,0.01,3
78.30479900,78304799,0.0,0.03,0.0,-0.26,348.48,348.49,0.0,0.01,3
78.40480200,78404802,0.0,0.03,0.0,-0.27,348.48,348.49,0.0,0.01,3
78.50480300,78504803,0.0,0.04,0.0,-0.27,348.48,348.49,0.0,0.0,3
78.60510400,78605104,0.0,0.04,0.0,-0.27,348.48,348.49,0.0,0.01,3
78.70486100,78704861,0.0,0.04,0.0,-0.27,348.48,348.49,0.0,0.01,3
78.80490600,78804906,0.0,0.04,0.0,-0.27,348.47,348.48,0.0,0.0,3
78.90492400,78904924,0.0,0.04,0.0,-0.27,348.47,348.48,0.0,0.0,3
79.00497400,79004974,0.0,0.04,0.0,-0.28,348.47,348.48,0.0,0.0,3
79.10501500,79105015,0.0,0.04,0.0,-0.28,348.47,348.48,0.0,0.0,3
79.20517100,79205171,0.0,0.04,0.0,-0.27,348.47,348.48,0.0,0.0,3
79.30511300,79305113,0.0,0.04,0.0,-0.27,348.47,348.48,0.0,0.0,3
79.40472800,79404728,0.0,0.04,0.0,-0.27,348.47,348.48,0.0,0.0,3
79.50482700,79504827,0.0,0.04,0.0,-0.27,348.46,348.47,0.0,0.0,3
79.60483500,79604835,0.0,0.04,0.0,-0.27,348.47,348.48,0.0,0.01,3
79.70485100,79704851,0.0,0.03,0.0,-0.28,348.46,348.47,0.0,0.0,3
79.80490600,79804906,0.0,0.04,0.0,-0.28,348.46,348.47,0.0,0.0,3
79.90515400,79905154,0.0,0.04,0.0,-0.28,348.47,348.48,0.0,0.01,3
80.00520800,80005208,0.0,0.03,0.0,-0.28,348.47,348.48,0.0,0.01,3
80.10478900,80104789,0.0,0.04,0.0,-0.28,348.47,348.48,0.0,0.0,3
80.20505200,80205052,0.0,0.04,0.0,-0.28,348.47,348.48,0.0,0.0,3
80.30497600,80304976,0.0,0.04,0.0,-0.28,348.47,348.48,0.0,0.0,3
80.40497600,80404976,0.0,0.04,0.0,-0.28,348.47,348.48,0.0,0.0,3
80.50503100,80505031,0.0,0.04,0.0,-0.28,348.47,348.48,0.0,0.0,3
80.60529000,80605290,0.0,0.04,0.0,-0.28,348.47,348.48,0.0,0.0,3
80.70510200,80705102,0.0,0.05,0.0,-0.28,348.48,348.49,0.0,0.0,3
80.80498500,80804985,0.0,0.05,0.0,-0.27,348.48,348.49,0.0,0.0,3
80.90506900,80905069,0.0,0.05,0.0,-0.27,348.48,348.49,0.0,0.0,3
81.00478500,81004785,0.0,0.05,0.0,-0.27,348.48,348.49,0.0,0.01,3
81.10477000,81104770,0.0,0.05,0.0,-0.27,348.49,348.5,0.0,0.01,3
81.20475000,81204750,0.0,0.05,0.0,-0.27,348.49,348.5,0.0,0.01,3
81.30507300,81305073,0.0,0.05,0.0,-0.27,348.49,348.5,0.0,0.01,3
81.40483000,81404830,0.0,0.05,0.0,-0.27,348.49,348.5,0.0,0.01,3
81.50487100,81504871,0.0,0.05,0.0,-0.27,348.49,348.5,0.0,0.0,3
81.60491100,81604911,0.0,0.04,0.0,-0.27,348.49,348.5,0.0,0.01,3
81.70495800,81704958,0.0,0.04,0.0,-0.27,348.49,348.5,0.0,0.01,3
81.80501800,81805018,0.0,0.04,0.0,-0.26,348.49,348.5,0.0,0.01,3
81.90480600,81904806,0.0,0.05,0.0,-0.26,348.49,348.5,0.0,0.01,3
82.00510800,82005108,0.0,0.05,0.0,-0.26,348.48,348.49,0.0,0.01,3
82.10474400,82104744,0.0,0.05,0.0,-0.26,348.47,348.48,0.0,0.01,3
82.20473900,82204739,0.0,0.05,0.0,-0.26,348.47,348.48,0.0,0.01,3
82.30482800,82304828,0.0,0.06,0.0,-0.26,348.47,348.48,0.0,0.01,3
82.40483800,82404838,0.0,0.05,0.0,-0.26,348.47,348.48,0.0,0.01,3
82.50493800,82504938,0.0,0.06,0.0,-0.26,348.46,348.47,0.0,0.01,3
82.60495800,82604958,0.0,0.06,0.0,-0.26,348.46,348.47,0.0,0.01,3
82.70519900,82705199,0.0,0.06,0.0,-0.26,348.46,348.47,0.0,0.01,3
82.80478400,82804784,0.0,0.06,0.0,-0.25,348.46,348.47,0.0,0.01,3
82.90480200,82904802,0.0,0.06,0.0,-0.25,348.46,348.47,0.0,0.01,3
83.00475800,83004758,0.0,0.06,0.0,-0.25,348.46,348.47,0.0,0.01,3
83.10474800,83104748,0.0,0.06,0.0,-0.25,348.45,348.46,0.0,0.01,3
83.20483200,83204832,0.0,0.06,0.0,-0.24,348.46,348.47,0.0,0.0,3
83.30484500,83304845,0.0,0.06,0.0,-0.25,348.45,348.46,0.0,0.01,3
83.40492400,83404924,0.0,0.07,0.0,-0.24,348.45,348.46,0.0,0.01,3
83.50500900,83505009,0.0,0.07,0.0,-0.24,348.45,348.46,0.0,0.01,3
83.60521000,83605210,0.0,0.07,0.0,-0.24,348.45,348.46,0.0,0.01,3
83.70479000,83704790,0.0,0.07,0.0,-0.24,348.45,348.46,0.0,0.01,3
83.80502800,83805028,0.0,0.07,0.0,-0.24,348.45,348.46,0.0,0.01,3
83.90502300,83905023,0.0,0.07,0.0,-0.23,348.44,348.45,0.0,0.01,3
84.00497600,84004976,0.0,0.07,0.0,-0.23,348.44,348.45,0.0,0.01,3
84.10501300,84105013,0.0,0.07,0.0,-0.23,348.44,348.45,0.0,0.01,3
84.20500100,84205001,0.0,0.07,0.0,-0.23,348.43,348.44,0.0,0.01,3
84.30528500,84305285,0.0,0.07,0.0,-0.23,348.43,348.44,0.0,0.01,3
84.40512300,84405123,0.0,0.07,0.0,-0.23,348.42,348.43,0.0,0.01,3
84.50521200,84505212,0.0,0.08,0.0,-0.23,348.42,348.43,0.0,0.01,3
84.60503100,84605031,0.0,0.08,0.0,-0.23,348.42,348.43,0.0,0.01,3
84.70505100,84705051,0.0,0.08,0.0,-0.23,348.41,348.42,0.0,0.01,3
84.80502700,84805027,0.0,0.08,0.0,-0.23,348.41,348.42,0.0,0.01,3
84.90496100,84904961,0.0,0.08,0.0,-0.23,348.41,348.42,0.0,0.01,3
85.00483400,85004834,0.0,0.08,0.0,-0.23,348.41,348.42,0.0,0.0,3
85.10491000,85104910,0.0,0.08,0.0,-0.23,348.41,348.42,0.0,0.0,3
85.20491300,85204913,0.0,0.08,0.0,-0.23,348.41,348.42,0.0,0.0,3
85.30497500,85304975,0.0,0.09,0.0,-0.23,348.41,348.42,0.0,0.01,3
85.40502200,85405022,0.0,0.09,0.0,-0.23,348.41,348.42,0.0,0.01,3
85.50481400,85504814,0.0,0.09,0.0,-0.23,348.42,348.43,0.0,0.01,3
85.60478900,85604789,0.0,0.09,0.0,-0.24,348.42,348.43,0.0,0.01,3
85.70474700,85704747,0.0,0.09,0.0,-0.23,348.43,348.44,0.0,0.01,3
85.80507200,85805072,0.0,0.09,0.0,-0.23,348.44,348.45,0.0,0.01,3
85.90483200,85904832,0.0,0.1,0.0,-0.23,348.44,348.45,0.0,0.01,3
86.00484600,86004846,0.0,0.1,0.0,-0.23,348.45,348.46,0.0,0.01,3
86.10491400,86104914,0.0,0.1,0.0,-0.23,348.45,348.46,0.0,0.01,3
86.20497400,86204974,0.0,0.1,0.0,-0.23,348.45,348.46,0.0,0.01,3
86.30501600,86305016,0.0,0.1,0.0,-0.24,348.46,348.47,0.0,0.01,3
86.40479400,86404794,0.0,0.09,0.0,-0.24,348.45,348.46,0.0,0.01,3
86.50512100,86505121,0.0,0.09,0.0,-0.24,348.45,348.46,0.0,0.01,3
86.60497900,86604979,0.0,0.09,0.0,-0.23,348.45,348.46,0.0,0.01,3
86.70498800,86704988,0.0,0.09,0.0,-0.23,348.44,348.45,0.0,0.01,3
86.80501100,86805011,0.0,0.09,0.0,-0.23,348.44,348.45,0.0,0.0,3
86.90498600,86904986,0.0,0.09,0.0,-0.23,348.44,348.45,0.0,0.01,3
87.00508500,87005085,0.0,0.09,0.0,-0.23,348.45,348.46,0.0,0.01,3
87.10527700,87105277,0.0,0.09,0.0,-0.23,348.44,348.45,0.0,0.01,3
87.20520900,87205209,0.0,0.1,0.0,-0.23,348.44,348.45,0.0,0.01,3
87.30479500,87304795,0.0,0.1,0.0,-0.22,348.45,348.46,0.0,0.01,3
87.40480900,87404809,0.0,0.09,0.0,-0.22,348.45,348.46,0.0,0.01,3
87.50480700,87504807,0.0,0.09,0.0,-0.22,348.45,348.46,0.0,0.0,3
87.60476200,87604762,0.0,0.09,0.0,-0.22,348.46,348.47,0.0,0.0,3
87.70483200,87704832,0.0,0.09,0.0,-0.22,348.46,348.47,0.0,0.01,3
87.80501900,87805019,0.0,0.1,0.0,-0.22,348.47,348.48,0.0,0.01,3
87.90509400,87905094,0.0,0.1,0.0,-0.22,348.46,348.47,0.0,0.0,3
88.00499000,88004990,0.0,0.1,0.0,-0.22,348.46,348.47,0.0,0.0,3
88.10501000,88105010,0.0,0.1,0.0,-0.22,348.46,348.47,0.0,0.0,3
88.20479800,88204798,0.0,0.1,0.0,-0.22,348.46,348.47,0.0,0.0,3
88.30477700,88304777,0.0,0.1,0.0,-0.22,348.46,348.47,0.0,0.0,3
88.40474200,88404742,0.0,0.1,0.0,-0.22,348.46,348.47,0.0,0.0,3
88.50476500,88504765,0.0,0.1,0.0,-0.22,348.46,348.47,0.0,0.01,3
88.60483200,88604832,0.0,0.1,0.0,-0.21,348.46,348.47,0.0,0.01,3
88.70502400,88705024,0.0,0.1,0.0,-0.21,348.46,348.47,0.0,0.01,3
88.80508900,88805089,0.0,0.1,0.0,-0.21,348.45,348.46,0.0,0.01,3
88.90496100,88904961,0.0,0.1,0.0,-0.21,348.45,348.46,0.0,0.0,3
89.00501000,89005010,0.0,0.1,0.0,-0.21,348.45,348.46,0.0,0.0,3
89.10479800,89104798,0.0,0.1,0.0,-0.21,348.46,348.47,0.0,0.0,3
89.20477700,89204777,0.0,0.1,0.0,-0.21,348.46,348.47,0.0,0.0,3
89.30476100,89304761,0.0,0.09,0.0,-0.21,348.46,348.47,0.0,0.0,3
89.40507600,89405076,0.0,0.09,0.0,-0.22,348.46,348.47,0.0,0.0,3
89.50508500,89505085,0.0,0.09,0.0,-0.21,348.46,348.47,0.0,0.0,3
89.60485200,89604852,0.0,0.09,0.0,-0.21,348.46,348.47,0.0,0.0,3
89.70491700,89704917,0.0,0.09,0.0,-0.21,348.46,348.47,0.0,0.01,3
89.80496500,89804965,0.0,0.09,0.0,-0.21,348.46,348.47,0.0,0.01,3
89.90496700,89904967,0.0,0.09,0.0,-0.21,348.46,348.47,0.0,0.0,3
90.00479300,90004793,0.0,0.09,0.0,-0.21,348.46,348.47,0.0,0.0,3
90.10506800,90105068,0.0,0.09,0.0,-0.21,348.46,348.47,0.0,0.01,3
90.20505800,90205058,0.0,0.09,0.0,-0.2,348.45,348.46,0.0,0.0,3
90.30508000,90305080,0.0,0.09,0.0,-0.21,348.45,348.46,0.0,0.0,3
90.40483000,90404830,0.0,0.09,0.0,-0.21,348.45,348.46,0.0,0.0,3
90.50487000,90504870,0.0,0.09,0.0,-0.21,348.45,348.46,0.0,0.0,3
90.60491600,90604916,0.0,0.09,0.0,-0.21,348.45,348.46,0.0,0.0,3
90.70498000,90704980,0.0,0.09,0.0,-0.21,348.45,348.46,0.0,0.0,3
90.80501200,90805012,0.0,0.09,0.0,-0.21,348.45,348.46,0.0,0.0,3
90.90478500,90904785,0.0,0.09,0.0,-0.21,348.45,348.46,0.0,0.0,3
91.00476800,91004768,0.0,0.09,0.0,-0.22,348.45,348.46,0.0,0.0,3
91.10474800,91104748,0.0,0.09,0.0,-0.22,348.45,348.46,0.0,0.0,3
91.20479700,91204797,0.0,0.09,0.0,-0.22,348.45,348.46,0.0,0.0,3
91.30485300,91304853,0.0,0.09,0.0,-0.22,348.45,348.46,0.0,0.0,3
91.40492600,91404926,0.0,0.08,0.0,-0.22,348.45,348.46,0.0,0.0,3
91.50495600,91504956,0.0,0.08,0.0,-0.21,348.44,348.45,0.0,0.0,3
91.60499200,91604992,0.0,0.09,0.0,-0.21,348.44,348.45,0.0,0.0,3
91.70503100,91705031,0.0,0.09,0.0,-0.21,348.44,348.45,0.0,0.0,3
91.80479000,91804790,0.0,0.09,0.0,-0.21,348.44,348.45,0.0,0.0,3
91.90481100,91904811,0.0,0.09,0.0,-0.21,348.44,348.45,0.0,0.0,3
92.00475400,92004754,0.0,0.09,0.0,-0.22,348.43,348.44,0.0,0.0,3
92.10508300,92105083,0.0,0.09,0.0,-0.21,348.43,348.44,0.0,0.01,3
92.20482800,92204828,0.0,0.09,0.0,-0.21,348.43,348.44,0.0,0.0,3
92.30484300,92304843,0.0,0.09,0.0,-0.21,348.42,348.43,0.0,0.01,3
92.40491600,92404916,0.0,0.09,0.0,-0.21,348.42,348.43,0.0,0.01,3
92.50501100,92505011,0.0,0.09,0.0,-0.21,348.42,348.43,0.0,0.01,3
92.60520500,92605205,0.0,0.09,0.0,-0.21,348.41,348.42,0.0,0.01,3
92.70479500,92704795,0.0,0.09,0.0,-0.2,348.41,348.42,0.0,0.01,3
92.80507200,92805072,0.0,0.09,0.0,-0.2,348.41,348.42,0.0,0.0,3
92.90506400,92905064,0.0,0.09,0.0,-0.2,348.41,348.42,0.0,0.0,3
93.00508300,93005083,0.0,0.09,0.0,-0.19,348.41,348.42,0.0,0.0,3
93.10504200,93105042,0.0,0.09,0.0,-0.19,348.41,348.42,0.0,0.01,3
93.20501200,93205012,0.0,0.09,0.0,-0.19,348.40000000000003,348.41,0.0,0.0,3
93.30509400,93305094,0.0,0.09,0.0,-0.19,348.40000000000003,348.41,0.0,0.01,3
93.40513100,93405131,0.0,0.09,0.0,-0.19,348.40000000000003,348.41,0.0,0.0,3
93.50523700,93505237,0.0,0.09,0.0,-0.19,348.40000000000003,348.41,0.0,0.0,3
93.60479000,93604790,0.0,0.09,0.0,-0.19,348.40000000000003,348.41,0.0,0.0,3
93.70479300,93704793,0.0,0.09,0.0,-0.18,348.39,348.40000000000003,0.0,0.01,3
93.80474500,93804745,0.0,0.09,0.0,-0.18,348.40000000000003,348.41,0.0,0.01,3
93.90475500,93904755,0.0,0.09,0.0,-0.18,348.40000000000003,348.41,0.0,0.01,3
94.00483600,94004836,0.0,0.09,0.0,-0.18,348.40000000000003,348.41,0.0,0.0,3
94.10484000,94104840,0.0,0.09,0.0,-0.18,348.41,348.42,0.0,0.0,3
94.20490700,94204907,0.0,0.09,0.0,-0.18,348.41,348.42,0.0,0.0,3
94.30496300,94304963,0.0,0.09,0.0,-0.18,348.41,348.42,0.0,0.0,3
94.40500800,94405008,0.0,0.09,0.0,-0.17,348.41,348.42,0.0,0.0,3
94.50488500,94504885,0.0,0.09,0.0,-0.17,348.41,348.42,0.0,0.01,3
94.60481300,94604813,0.0,0.09,0.0,-0.17,348.41,348.42,0.0,0.0,3
94.70476300,94704763,0.0,0.09,0.0,-0.17,348.41,348.42,0.0,0.01,3
94.80476200,94804762,0.0,0.09,0.0,-0.17,348.41,348.42,0.0,0.0,3
94.90481900,94904819,0.0,0.09,0.0,-0.17,348.41,348.42,0.0,0.0,3
95.00502800,95005028,0.0,0.1,0.0,-0.17,348.41,348.42,0.0,0.0,3
95.10508000,95105080,0.0,0.1,0.0,-0.17,348.41,348.42,0.0,0.0,3
95.20497100,95204971,0.0,0.1,0.0,-0.17,348.41,348.42,0.0,0.0,3
95.30494000,95304940,0.0,0.1,0.0,-0.16,348.41,348.42,0.0,0.0,3
95.40480100,95404801,0.0,0.1,0.0,-0.16,348.41,348.42,0.0,0.0,3
95.50481400,95504814,0.0,0.1,0.0,-0.16,348.41,348.42,0.0,0.01,3
95.60475800,95604758,0.0,0.1,0.0,-0.16,348.41,348.42,0.0,0.0,3
95.70506700,95705067,0.0,0.11,0.0,-0.16,348.41,348.42,0.0,0.0,3
95.80504300,95805043,0.0,0.11,0.0,-0.16,348.41,348.42,0.0,0.0,3
95.90484500,95904845,0.0,0.11,0.0,-0.15,348.41,348.42,0.0,0.0,3
96.00493400,96004934,0.0,0.11,0.0,-0.15,348.41,348.42,0.0,0.0,3
96.10497800,96104978,0.0,0.12,0.0,-0.15,348.41,348.42,0.0,0.0,3
96.20502700,96205027,0.0,0.12,0.0,-0.15,348.41,348.42,0.0,0.0,3
96.30487100,96304871,0.0,0.12,0.0,-0.14,348.41,348.42,0.0,0.0,3
96.40509700,96405097,0.0,0.12,0.0,-0.14,348.41,348.42,0.0,0.0,3
96.50515300,96505153,0.0,0.12,0.0,-0.14,348.41,348.42,0.0,0.0,3
96.60507400,96605074,0.0,0.13,0.0,-0.14,348.41,348.42,0.0,0.0,3
96.70484400,96704844,0.0,0.12,0.0,-0.13,348.41,348.42,0.0,0.0,3
96.80488200,96804882,0.0,0.13,0.0,-0.13,348.41,348.42,0.0,0.0,3
96.90492100,96904921,0.0,0.13,0.0,-0.13,348.40000000000003,348.41,0.0,0.0,3
97.00497400,97004974,0.0,0.13,0.0,-0.13,348.40000000000003,348.41,0.0,0.0,3
97.10506000,97105060,0.0,0.13,0.0,-0.13,348.40000000000003,348.41,0.0,0.01,3
97.20478700,97204787,0.0,0.14,0.0,-0.13,348.40000000000003,348.41,0.0,0.01,3
97.30511800,97305118,0.0,0.14,0.0,-0.13,348.40000000000003,348.41,0.0,0.01,3
97.40474300,97404743,0.0,0.14,0.0,-0.12,348.40000000000003,348.41,0.0,0.0,3
97.50484400,97504844,0.0,0.14,0.0,-0.12,348.41,348.42,0.0,0.0,3
97.60483400,97604834,0.0,0.14,0.0,-0.12,348.41,348.42,0.0,0.0,3
97.70491000,97704910,0.0,0.15,0.0,-0.12,348.41,348.42,0.0,0.0,3
97.80491200,97804912,0.0,0.15,0.0,-0.12,348.41,348.42,0.0,0.0,3
97.90497500,97904975,0.0,0.15,0.0,-0.12,348.41,348.42,0.0,0.0,3
98.00494500,98004945,0.0,0.15,0.0,-0.12,348.41,348.42,0.0,0.01,3
98.10514600,98105146,0.0,0.16,0.0,-0.12,348.42,348.43,0.0,0.0,3
98.20510500,98205105,0.0,0.16,0.0,-0.12,348.42,348.43,0.0,0.01,3
98.30472700,98304727,0.0,0.16,0.0,-0.12,348.42,348.43,0.0,0.0,3
98.40473900,98404739,0.0,0.16,0.0,-0.12,348.42,348.43,0.0,0.01,3
98.50485100,98504851,0.0,0.16,0.0,-0.11,348.42,348.43,0.0,0.01,3
98.60502600,98605026,0.0,0.16,0.0,-0.11,348.42,348.43,0.0,0.01,3
98.70508500,98705085,0.0,0.17,0.0,-0.11,348.42,348.43,0.0,0.0,3
