timestamp,TimeUS,C,Q1,Q2,Q3,Q4
11.60431700,11604317,2,1.0,0.0,0.0,0.0
11.70429300,11704293,2,1.0,0.0,0.0,0.0
11.80428600,11804286,2,1.0,0.0,0.0,0.0
11.90429300,11904293,2,1.0,0.0,0.0,0.0
12.00429200,12004292,2,1.0,0.0,0.0,0.0
12.10433400,12104334,2,1.0,0.0,0.0,0.0
12.20430600,12204306,2,1.0,0.0,0.0,0.0
12.30436800,12304368,2,1.0,0.0,0.0,0.0
12.40431300,12404313,2,1.0,0.0,0.0,0.0
12.50432600,12504326,2,1.0,0.0,0.0,0.0
12.60429900,12604299,2,0.9999938011169434,0.0026352338027209044,0.0023442564997822046,2.5271554477512836e-05
12.70429300,12704293,2,0.9999938607215881,0.0026214660611003637,0.002321072854101658,1.6243200661847368e-05
12.80428100,12804281,2,0.9999939203262329,0.0026071290485560894,0.0023098995443433523,6.7674882302526385e-06
12.90429800,12904298,2,0.9999940991401672,0.0025760403368622065,0.002270535798743367,1.1298287972749677e-05
13.00433900,13004339,2,0.9999942779541016,0.002544256392866373,0.002227963414043188,-7.594355793116847e-06
13.10429800,13104298,2,0.9999944567680359,0.0025105613749474287,0.0021913705859333277,-4.087967681698501e-05
13.20435300,13204353,2,0.9999945163726807,0.0024897779803723097,0.002190903527662158,1.2567934390972368e-06
13.30431300,13304313,2,0.9999944567680359,0.0024872636422514915,0.0022155262995511293,-9.864726962405257e-06
13.40432300,13404323,2,0.9999946355819702,0.002419527154415846,0.002195256995037198,-1.1932384040846955e-05
13.50429400,13504294,2,0.9999947547912598,0.0023683528415858746,0.002215665066614747,3.104226925643161e-05
13.60429400,13604294,2,0.9999948740005493,0.0023169219493865967,0.0022047371603548527,6.920970190549269e-05
13.70428100,13704281,2,0.9999950528144836,0.0022365304175764322,0.002217482542619109,0.00010212302004219964
13.80428100,13804281,2,0.9999951720237732,0.002112086396664381,0.0022805696353316307,0.00011696331057464704
13.90432600,13904326,2,0.9999953508377075,0.0020297302398830652,0.0022813996765762568,8.853447798173875e-05
14.00429800,14004298,2,0.9999953508377075,0.0019542681984603405,0.002334008226171136,3.9130813092924654e-05
14.10435100,14104351,2,0.9953175187110901,0.002128955675289035,0.0021742910612374544,-0.09661118686199188
14.20431800,14204318,2,0.9953398108482361,0.0020668429788202047,0.0021553831174969673,-0.09638337045907974
14.30432400,14304324,2,0.9953809380531311,0.0020380711648613214,0.0020940040703862906,-0.09595954418182373
14.40429100,14404291,2,0.9954210519790649,0.0020222400780767202,0.0020688010845333338,-0.09554366767406464
14.50429400,14504294,2,0.9954200983047485,0.0019820486195385456,0.0020725561771541834,-0.09555410593748093
14.60429900,14604299,2,0.9953601956367493,0.001978084212169051,0.002049167873337865,-0.09617651253938675
14.70429100,14704291,2,0.9952733516693115,0.001973735634237528,0.002034503035247326,-0.09707196056842804
14.80432300,14804323,2,0.9952046275138855,0.0019481981871649623,0.002091791247949004,-0.09777336567640305
14.90430400,14904304,2,0.9951698780059814,0.0019311049254611135,0.00212967861443758,-0.09812569618225098
15.00435900,15004359,2,0.9951413869857788,0.0018705405527725816,0.0021414693910628557,-0.0984150767326355
15.10430900,15104309,2,0.9951307773590088,0.0018844022415578365,0.002216820837929845,-0.0985204204916954
15.20429500,15204295,2,0.9951200485229492,0.0019269527401775122,0.0022938172332942486,-0.09862613677978516
15.30428100,15304281,2,0.9950994253158569,0.0019446765072643757,0.0023254642728716135,-0.09883297979831696
15.40428700,15404287,2,0.9950822591781616,0.0018944918410852551,0.002338921185582876,-0.0990065485239029
15.50428300,15504283,2,0.9950809478759766,0.0018652122234925628,0.0023504833225160837,-0.09901971369981766
15.60429400,15604294,2,0.9950838088989258,0.0018785292049869895,0.0024066169280558825,-0.09898945689201355
15.70432900,15704329,2,0.9950900673866272,0.0019071660935878754,0.002427274826914072,-0.09892511367797852
15.80429200,15804292,2,0.9950851202011108,0.0019770520739257336,0.0024361039977520704,-0.09897365421056747
15.90435600,15904356,2,0.9950711131095886,0.001956300577148795,0.0024673030711710453,-0.09911389648914337
16.00431500,16004315,2,0.9950514435768127,0.00196528946980834,0.0024584897328168154,-0.09931112825870514
16.10428000,16104280,2,0.9950339198112488,0.0020112518686801195,0.0025498014874756336,-0.09948365390300751
16.20429000,16204290,2,0.9950124025344849,0.0020526943262666464,0.002601159270852804,-0.09969612210988998
16.30428700,16304287,2,0.9950019717216492,0.002033889526501298,0.002590958261862397,-0.09980116039514542
16.40428200,16404282,2,0.9949973821640015,0.0020404800307005644,0.0026035394985228777,-0.09984608739614487
16.50428300,16504283,2,0.9950035810470581,0.0020638220012187958,0.0025757569819688797,-0.09978460520505905
16.60432900,16604329,2,0.9950143098831177,0.0020617046393454075,0.0025921321939677,-0.09967706352472305
16.70429100,16704291,2,0.9950240850448608,0.0021133371628820896,0.0026384671218693256,-0.09957760572433472
16.80435200,16804352,2,0.9950354099273682,0.0021056784316897392,0.0026422441005706787,-0.09946432709693909
16.90431900,16904319,2,0.9950379133224487,0.0020853388123214245,0.0026208343915641308,-0.09944001585245132
17.00427900,17004279,2,0.9950550198554993,0.0020864333491772413,0.002626149682328105,-0.09926863014698029
17.10428100,17104281,2,0.9950758814811707,0.0020587914623320103,0.0026399209164083004,-0.09905946999788284
17.20428700,17204287,2,0.99509596824646,0.002079700818285346,0.0026740734465420246,-0.0988563522696495
17.30427900,17304279,2,0.9951007962226868,0.00207030912861228,0.002633982105180621,-0.09880898147821426
17.40428000,17404280,2,0.9950850605964661,0.002093895338475704,0.0025914241559803486,-0.09896780550479889
17.50432800,17504328,2,0.9950656294822693,0.0021069913636893034,0.0025968009140342474,-0.09916236996650696
17.60429500,17604295,2,0.9950557351112366,0.0021218161564320326,0.0026177975814789534,-0.09926115721464157
17.70435800,17704358,2,0.9950541257858276,0.0021105040796101093,0.0025619263760745525,-0.09927903115749359
17.80431000,17804310,2,0.9950571060180664,0.0020928015001118183,0.0025401730090379715,-0.09924992173910141
17.90429400,17904294,2,0.9950636029243469,0.0020895544439554214,0.0025095203891396523,-0.09918554127216339
18.00428500,18004285,2,0.9950711131095886,0.002031967043876648,0.0024696316104382277,-0.09911235421895981
18.10428600,18104286,2,0.995077908039093,0.0020161126740276814,0.0024682246148586273,-0.09904447942972183
18.20430500,18204305,2,0.995075523853302,0.0020369940903037786,0.002434674883261323,-0.09906890243291855
18.30430700,18304307,2,0.9950809478759766,0.0020279635209590197,0.002373082097619772,-0.09901612997055054
18.40432400,18404324,2,0.9950864315032959,0.0020257956348359585,0.002345097018405795,-0.09896127134561539
18.50429800,18504298,2,0.9950895309448242,0.001980228116735816,0.002324881497770548,-0.09893181920051575
18.60435700,18604357,2,0.9950878620147705,0.0019792665261775255,0.002308276714757085,-0.09894870966672897
18.70430800,18704308,2,0.9950746297836304,0.0019865534268319607,0.002299400046467781,-0.09908201545476913
18.80429600,18804296,2,0.9950656294822693,0.002047954825684428,0.0022924747318029404,-0.09917154163122177
18.90428700,18904287,2,0.9950572848320007,0.0020608343183994293,0.0022888435050845146,-0.09925474226474762
19.00428100,19004281,2,0.9950509071350098,0.002077850978821516,0.002325282897800207,-0.09931743890047073
19.10428100,19104281,2,0.9950447678565979,0.002091260626912117,0.0022723781876266003,-0.09937973320484161
19.20429300,19204293,2,0.9950363636016846,0.002071521943435073,0.002285064896568656,-0.09946396201848984
19.30432700,19304327,2,0.9950225949287415,0.002063011284917593,0.0022972836159169674,-0.09960190206766129
19.40429200,19404292,2,0.9949965476989746,0.002116770949214697,0.0022844490595161915,-0.0998610183596611
19.50435500,19504355,2,0.9949778914451599,0.0021458379924297333,0.0023114820942282677,-0.10004505515098572
19.60431400,19604314,2,0.9949644207954407,0.0021631785202771425,0.002373887924477458,-0.10017753392457962
19.70429500,19704295,2,0.9949705600738525,0.002188360085710883,0.002373012714087963,-0.10011548548936844
19.80428500,19804285,2,0.9949895143508911,0.002223058370873332,0.0024023791775107384,-0.0999257043004036
19.90428400,19904284,2,0.9950119256973267,0.0022452182602137327,0.002443926176056266,-0.09970089793205261
20.00429300,20004293,2,0.995041012763977,0.002267167204990983,0.0023778227623552084,-0.09941139817237854
20.10430500,20104305,2,0.9950623512268066,0.0022888793610036373,0.002428763546049595,-0.09919566661119461
20.20432500,20204325,2,0.99507075548172,0.0023317779414355755,0.0025551451835781336,-0.09910741448402405
20.30429800,20304298,2,0.9950684905052185,0.00236019236035645,0.0025611165910959244,-0.09912912547588348
20.40435200,20404352,2,0.99506676197052,0.00234345649369061,0.002576054073870182,-0.09914641082286835
20.50431200,20504312,2,0.9950549006462097,0.0023613176308572292,0.002676715375855565,-0.09926208108663559
20.60430900,20604309,2,0.9950320720672607,0.002374894917011261,0.0027076592668890953,-0.0994899794459343
20.70428000,20704280,2,0.9950114488601685,0.0023759235627949238,0.002752800239250064,-0.09969437122344971
20.80430000,20804300,2,0.9949937462806702,0.002396767493337393,0.002722174860537052,-0.09987138211727142
20.90428900,20904289,2,0.9949783086776733,0.0024149140808731318,0.002737219212576747,-0.10002439469099045
21.00428100,21004281,2,0.9949698448181152,0.0024229150731116533,0.00280836527235806,-0.10010627657175064
21.10433200,21104332,2,0.9949648380279541,0.0024600098840892315,0.0028282972052693367,-0.10015469789505005
21.20429500,21204295,2,0.994959831237793,0.0025048956740647554,0.0028079247567802668,-0.10020365566015244
21.30436900,21304369,2,0.9949659109115601,0.0025141711812466383,0.0027835452929139137,-0.10014362633228302
21.40431900,21404319,2,0.9949720501899719,0.0025196829810738564,0.002745856996625662,-0.10008358955383301
21.50429600,21504296,2,0.9949740767478943,0.002512472216039896,0.0027656571473926306,-0.10006322711706161
21.60429300,21604293,2,0.9949860572814941,0.002556408988311887,0.0028017391450703144,-0.09994170069694519
21.70429500,21704295,2,0.995003879070282,0.002560459775850177,0.002873976482078433,-0.09976208955049515
21.80428400,21804284,2,0.9950252175331116,0.002562376670539379,0.0029462373349815607,-0.09954681992530823
21.90428600,21904286,2,0.9950552582740784,0.002600620035082102,0.0029798245523124933,-0.09924422949552536
22.00433200,22004332,2,0.9950870275497437,0.0026359320618212223,0.002993162954226136,-0.0989236980676651
22.10429900,22104299,2,0.9951100945472717,0.0025816322304308414,0.0029479695949703455,-0.09869435429573059
22.20437900,22204379,2,0.9951317310333252,0.0025632758624851704,0.0029881997033953667,-0.09847501665353775
22.30431700,22304317,2,0.995148777961731,0.0025632453616708517,0.0030063216108828783,-0.09830190986394882
22.40432200,22404322,2,0.9951574206352234,0.002526653930544853,0.0029937129002064466,-0.09821560233831406
22.50429500,22504295,2,0.9951615333557129,0.002533900085836649,0.002988475374877453,-0.09817429631948471
22.60429700,22604297,2,0.9951604604721069,0.0025411471724510193,0.003044885816052556,-0.09818284958600998
22.70428500,22704285,2,0.995166003704071,0.002605233807116747,0.0030671728309243917,-0.09812465310096741
22.80430200,22804302,2,0.9951782822608948,0.0025949093978852034,0.0030544952023774385,-0.09800047427415848
22.90433200,22904332,2,0.9951862692832947,0.0025540171191096306,0.003052458632737398,-0.097920723259449
23.00429100,23004291,2,0.9951785802841187,0.0025359138380736113,0.0031208267901092768,-0.09799709916114807
23.10437000,23104370,2,0.9951680898666382,0.002513243816792965,0.0032090565655380487,-0.09810113906860352
23.20431500,23204315,2,0.9951647520065308,0.002484392374753952,0.0032389929983764887,-0.09813465923070908
23.30432300,23304323,2,0.9951702356338501,0.002442672150209546,0.0032373550347983837,-0.09808063507080078
23.40428600,23404286,2,0.9951722025871277,0.0024141783360391855,0.0032760014291852713,-0.09805959463119507
23.50429200,23504292,2,0.9951684474945068,0.0023978000972419977,0.003240094520151615,-0.09809933602809906
23.60428600,23604286,2,0.9951662421226501,0.002447359496727586,0.0032297594007104635,-0.0981210470199585
23.70428800,23704288,2,0.9951719045639038,0.002409308450296521,0.0032405357342213392,-0.09806425124406815
23.80432400,23804324,2,0.9951832294464111,0.00234801578335464,0.003270962042734027,-0.09794986993074417
23.90430100,23904301,2,0.995193600654602,0.0023691614624112844,0.0033101625740528107,-0.09784220159053802
24.00436000,24004360,2,0.9952086806297302,0.002324014203622937,0.0033469784539192915,-0.0976884514093399
24.10431100,24104311,2,0.9952254891395569,0.002340438775718212,0.0033403399866074324,-0.09751690924167633
24.20429500,24204295,2,0.995246946811676,0.0022485386580228806,0.003283859696239233,-0.09730169177055359
24.30429700,24304297,2,0.995261013507843,0.002226544078439474,0.0033110356889665127,-0.09715729206800461
24.40429200,24404292,2,0.995263397693634,0.002262045629322529,0.0033381511457264423,-0.09713156521320343
24.50428100,24504281,2,0.9952583909034729,0.0022596546914428473,0.0033799363300204277,-0.09718124568462372
24.60429300,24604293,2,0.9952467083930969,0.002243397757411003,0.0033756098710000515,-0.09730125963687897
24.70432900,24704329,2,0.9952334761619568,0.0021971750538796186,0.003439931198954582,-0.09743525087833405
24.80429100,24804291,2,0.9952144026756287,0.00213879463262856,0.0034881916362792253,-0.09762965142726898
24.90435400,24904354,2,0.9951938390731812,0.002149450359866023,0.0034368312917649746,-0.09784051775932312
25.00431700,25004317,2,0.9951693415641785,0.0021290520671755075,0.0034252051264047623,-0.09809021651744843
25.10427900,25104279,2,0.9951399564743042,0.0020917379297316074,0.0033991991076618433,-0.09838946908712387
25.20428200,25204282,2,0.9951099157333374,0.002068969188258052,0.0033823426347225904,-0.09869392961263657
25.30428300,25304283,2,0.9950847029685974,0.002039669081568718,0.0033901354763656855,-0.09894859790802002
25.40428100,25404281,2,0.9950553178787231,0.0019962380174547434,0.003397773951292038,-0.09924402832984924
25.50429100,25504291,2,0.995032787322998,0.002000306500121951,0.0034009036608040333,-0.09946930408477783
25.60433300,25604333,2,0.9950233101844788,0.0019724464509636164,0.0034154956229031086,-0.09956449270248413
25.70429200,25704292,2,0.9950218200683594,0.0019591047894209623,0.0033872490748763084,-0.09958044439554214
25.80435100,25804351,2,0.9950191378593445,0.0019267966272309422,0.0032891221344470978,-0.09961119294166565
25.90431300,25904313,2,0.9950041174888611,0.0019450143445283175,0.0032553693745285273,-0.09976206719875336
26.00429900,26004299,2,0.9949852824211121,0.0019083466613665223,0.0032511171884834766,-0.0999506264925003
26.10428100,26104281,2,0.9949610829353333,0.0019104029051959515,0.003238048404455185,-0.1001913771033287
26.20428300,26204283,2,0.9949401021003723,0.0019019953906536102,0.0032071061432361603,-0.10040080547332764
26.30429000,26304290,2,0.9949275851249695,0.0018591205589473248,0.003216727403923869,-0.10052510350942612
26.40429800,26404298,2,0.994918942451477,0.0018320945091545582,0.0032453094609081745,-0.10060998052358627
26.50432300,26504323,2,0.9949190020561218,0.0017835538601502776,0.003221390536054969,-0.10061106830835342
26.60430600,26604306,2,0.9949195981025696,0.00172090670093894,0.0032161069102585316,-0.10060634464025497
26.70435400,26704354,2,0.9949154853820801,0.0017264650668948889,0.003241135273128748,-0.10064643621444702
26.80431200,26804312,2,0.9949144124984741,0.0017236887942999601,0.003222646890208125,-0.10065776109695435
26.90432300,26904323,2,0.9949104189872742,0.001752278534695506,0.00321158766746521,-0.10069707781076431
27.00429400,27004294,2,0.9949011206626892,0.001734836958348751,0.0032146240118891,-0.10078902542591095
27.10429000,27104290,2,0.9948909282684326,0.001674886792898178,0.003179386490955949,-0.10089153051376343
27.20428500,27204285,2,0.9948844909667969,0.001621711882762611,0.0031308396719396114,-0.10095754265785217
27.30428400,27304284,2,0.9948827624320984,0.0016116593033075333,0.0030987930949777365,-0.100975900888443
27.40432800,27404328,2,0.9948880076408386,0.0016001855256035924,0.003112601349130273,-0.10092388838529587
27.50430500,27504305,2,0.9949024319648743,0.0016072331927716732,0.003125893883407116,-0.10078086704015732
27.60436300,27604363,2,0.9949109554290771,0.0015584827633574605,0.0031258875969797373,-0.10069755464792252
27.70432100,27704321,2,0.9949201345443726,0.001498957397416234,0.003145466558635235,-0.10060680657625198
27.80427900,27804279,2,0.994927167892456,0.0014992498327046633,0.0031504163052886724,-0.10053738206624985
27.90428700,27904287,2,0.9949387311935425,0.0014290448743849993,0.0031383109744638205,-0.10042396187782288
28.00428300,28004283,2,0.9949499368667603,0.001420636777766049,0.0030566060449928045,-0.10031584650278091
28.10428100,28104281,2,0.9949728846549988,0.0014182939194142818,0.003031909465789795,-0.100088931620121
28.20428800,28204288,2,0.994998037815094,0.0013728209305554628,0.002999564865604043,-0.09984003752470016
28.30433000,28304330,2,0.9950130581855774,0.0013647043379023671,0.0029874832835048437,-0.09969060122966766
28.40428100,28404281,2,0.9950181245803833,0.0013710034545511007,0.002992315450683236,-0.09963963180780411
28.50435200,28504352,2,0.9950210452079773,0.0013390234671533108,0.003015558933839202,-0.09961016476154327
28.60431600,28604316,2,0.9950172305107117,0.0012979984749108553,0.0029654870741069317,-0.09965069591999054
28.70428100,28704281,2,0.9950122237205505,0.0012898201821371913,0.0029683022294193506,-0.09970074892044067
28.80429600,28804296,2,0.9950087666511536,0.0012733818730339408,0.0029549517203122377,-0.09973543137311935
28.90429400,28904294,2,0.995000958442688,0.0012869501952081919,0.002917605685070157,-0.09981458634138107
29.00428000,29004280,2,0.9949963688850403,0.0012788622407242656,0.002906631212681532,-0.09986080974340439
29.10428200,29104282,2,0.9949997663497925,0.001316869631409645,0.002834469312801957,-0.09982829540967941
29.20433500,29204335,2,0.9950027465820312,0.001300774049013853,0.0028204016853123903,-0.09979952871799469
29.30430000,29304300,2,0.9949951171875,0.0013208158779889345,0.002823800081387162,-0.09987515211105347
29.40436500,29404365,2,0.9949907660484314,0.0013407848309725523,0.002757471054792404,-0.09991984069347382
29.50431300,29504313,2,0.994986355304718,0.0013579903170466423,0.0027765885461121798,-0.09996282309293747
29.60429700,29604297,2,0.9949884414672852,0.001315457047894597,0.0027807599399238825,-0.09994257241487503
29.70429900,29704299,2,0.9949905872344971,0.0013275541132315993,0.002747427439317107,-0.09992218017578125
29.80429100,29804291,2,0.994986891746521,0.0013365178601816297,0.002741727279499173,-0.0999588742852211
29.90428400,29904284,2,0.9949788451194763,0.0013135381741449237,0.002774631604552269,-0.10003849864006042
30.00427200,30004272,2,0.9949716925621033,0.001295867608860135,0.002784856129437685,-0.10010943561792374
30.10431200,30104312,2,0.9949661493301392,0.0012975498102605343,0.0027649463154375553,-0.10016494989395142
30.20428400,30204284,2,0.9949672222137451,0.0012967929942533374,0.002838298911228776,-0.10015231370925903
30.30434500,30304345,2,0.9949700236320496,0.0012920305598527193,0.002827524673193693,-0.10012470930814743
30.40429800,30404298,2,0.9949787855148315,0.0012740175006911159,0.002853414975106716,-0.10003736615180969
30.50429300,30504293,2,0.9949964284896851,0.0012733981711789966,0.0028571966104209423,-0.09986124187707901
30.60428600,30604286,2,0.9950209259986877,0.001287396065890789,0.0028384560719132423,-0.0996173545718193
30.70429600,30704296,2,0.9950411915779114,0.0013049310073256493,0.002847477328032255,-0.0994141697883606
30.80427600,30804276,2,0.995060920715332,0.0012880441499873996,0.002884616842493415,-0.09921583533287048
30.90427300,30904273,2,0.9950723052024841,0.001299427356570959,0.002847788855433464,-0.09910248965024948
31.00431300,31004313,2,0.9950782060623169,0.0013130910228937864,0.00287326006218791,-0.09904225170612335
31.10427800,31104278,2,0.995077908039093,0.001307705882936716,0.002929899375885725,-0.09904351830482483
31.20434400,31204344,2,0.9950767755508423,0.0013172478647902608,0.0029224229510873556,-0.09905532002449036
31.30430200,31304302,2,0.9950727224349976,0.0013392692198976874,0.002952516544610262,-0.09909483045339584
31.40427800,31404278,2,0.9950677752494812,0.0013308175839483738,0.0029689189977943897,-0.09914414584636688
31.50427900,31504279,2,0.9950530529022217,0.0013366711791604757,0.002938265446573496,-0.09929271787405014
31.60427100,31604271,2,0.9950466156005859,0.0013478221371769905,0.0029364849906414747,-0.09935688972473145
31.70427400,31704274,2,0.9950461387634277,0.0013626599684357643,0.0029178541153669357,-0.09936200082302094
31.80427300,31804273,2,0.995051920413971,0.001378596411086619,0.002922628540545702,-0.09930381178855896
31.90431600,31904316,2,0.9950580596923828,0.0013840793399140239,0.0029315464198589325,-0.09924173355102539
32.00428200,32004282,2,0.9950606822967529,0.0014046436408534646,0.0029624244198203087,-0.09921453148126602
32.10434000,32104340,2,0.9950618743896484,0.0013970513828098774,0.0029324013739824295,-0.09920361638069153
32.20430500,32204305,2,0.9950594902038574,0.0014038755325600505,0.0029199037235230207,-0.09922761470079422
32.30427500,32304275,2,0.9950623512268066,0.0014115270460024476,0.0028796496335417032,-0.09920006990432739
32.40426800,32404268,2,0.9950703382492065,0.001369811943732202,0.0028497716411948204,-0.09912121295928955
32.50426800,32504268,2,0.9950822591781616,0.001385497278533876,0.0028563919477164745,-0.09900113940238953
32.60427600,32604276,2,0.9950854778289795,0.0014037261717021465,0.002861343091353774,-0.09896814078092575
32.70426900,32704269,2,0.9950807690620422,0.0014159521088004112,0.0028460007160902023,-0.09901602566242218
32.80431500,32804315,2,0.995068371295929,0.001375433406792581,0.002822167007252574,-0.09914179146289825
32.90428200,32904282,2,0.9950606822967529,0.0013813417172059417,0.0028519313782453537,-0.09921809285879135
33.00434500,33004345,2,0.995056688785553,0.0013766861520707607,0.0029121481347829103,-0.09925606101751328
33.10429800,33104298,2,0.9950588941574097,0.0014222862664610147,0.002858001971617341,-0.09923490136861801
33.20427100,33204271,2,0.9950631856918335,0.0013576798373833299,0.0028379426803439856,-0.09919345378875732
33.30427200,33304272,2,0.9950867295265198,0.0013424676144495606,0.002847562078386545,-0.09895699471235275
33.40427800,33404278,2,0.9951030015945435,0.0013584066182374954,0.0028696812223643064,-0.09879259765148163
33.50427100,33504271,2,0.9951277375221252,0.001370770507492125,0.0028176880441606045,-0.09854451566934586
33.60427300,33604273,2,0.9951402544975281,0.0013942712685093284,0.0028109722770750523,-0.0984177514910698
33.70431600,33704316,2,0.9951473474502563,0.0013347656931728125,0.0028179914224892855,-0.0983462706208229
33.80429000,33804290,2,0.9951500296592712,0.00133426149841398,0.002822037087753415,-0.09831926971673965
33.90437100,33904371,2,0.9951489567756653,0.0013038743054494262,0.0028024669736623764,-0.09833119064569473
34.00430300,34004303,2,0.9951465129852295,0.0013165511190891266,0.002749029081314802,-0.09835733473300934
34.10426900,34104269,2,0.9951478838920593,0.0012465448817238212,0.002716948976740241,-0.0983450636267662
34.20427200,34204272,2,0.9951490759849548,0.0012141068000346422,0.0027260046917945147,-0.09833309054374695
34.30428500,34304285,2,0.995147168636322,0.0012188524706289172,0.002728506689891219,-0.0983525887131691
34.40426700,34404267,2,0.9951496720314026,0.0011994821252301335,0.002773681888356805,-0.0983259528875351
34.50427600,34504276,2,0.9951503872871399,0.0012023384915664792,0.0027796593494713306,-0.09831875562667847
34.60432400,34604324,2,0.9951483011245728,0.001201718463562429,0.00284082954749465,-0.09833761304616928
34.70428100,34704281,2,0.9951484203338623,0.001186049310490489,0.002848338335752487,-0.09833649545907974
34.80434000,34804340,2,0.9951473474502563,0.0011959404218941927,0.0028884923085570335,-0.09834615886211395
34.90430400,34904304,2,0.9951475262641907,0.0011575953103601933,0.002922856481745839,-0.09834365546703339
35.00426900,35004269,2,0.9951550960540771,0.001132747856900096,0.0029587994795292616,-0.09826643764972687
35.10426700,35104267,2,0.9951657056808472,0.0011026352876797318,0.002962385769933462,-0.09815893322229385
35.20428800,35204288,2,0.9951781034469604,0.001065500546246767,0.0029216986149549484,-0.09803511202335358
35.30427000,35304270,2,0.995182454586029,0.0010562925599515438,0.0029065341223031282,-0.09799151122570038
35.40427600,35404276,2,0.9951884150505066,0.001081725931726396,0.002880016341805458,-0.09793126583099365
35.50431300,35504313,2,0.9951885938644409,0.0010562010575085878,0.002819381421431899,-0.09793145209550858
35.60429700,35604297,2,0.9951887726783752,0.0010466870153322816,0.0027973479591310024,-0.09793060272932053
35.70434600,35704346,2,0.9951774477958679,0.0010453268187120557,0.0027121833991259336,-0.09804782271385193
35.80429900,35804299,2,0.9951685667037964,0.0010347316274419427,0.002657896839082241,-0.09813991189002991
35.90427100,35904271,2,0.9951596856117249,0.0010180141543969512,0.002618079073727131,-0.09823069721460342
36.00428400,36004284,2,0.9951515197753906,0.0010412336559966207,0.0026006184052675962,-0.0983138158917427
36.10426900,36104269,2,0.9951444864273071,0.0010398284066468477,0.0026400445494800806,-0.09838392585515976
36.20427200,36204272,2,0.9951453804969788,0.0010140701197087765,0.0026012782473117113,-0.09837640821933746
36.30427500,36304275,2,0.9951406121253967,0.0010563109535723925,0.0025784189347177744,-0.09842439740896225
36.40431600,36404316,2,0.9951326847076416,0.001042002928443253,0.0025554157327860594,-0.09850534796714783
36.50428000,36504280,2,0.9951256513595581,0.0010534418979659677,0.002605169080197811,-0.09857535362243652
36.60434600,36604346,2,0.9951208829879761,0.0010794238187372684,0.0025639047380536795,-0.09862393885850906
36.70430100,36704301,2,0.9951152205467224,0.0010794602567330003,0.0025499025359749794,-0.09868142008781433
36.80427500,36804275,2,0.9951154589653015,0.0010015021543949842,0.002503510331735015,-0.0986809954047203
36.90427200,36904272,2,0.9951104521751404,0.0010309962090104818,0.002538368571549654,-0.09873035550117493
37.00427800,37004278,2,0.9951034784317017,0.001089115277864039,0.0025531535502523184,-0.0987996980547905
37.10427100,37104271,2,0.995100200176239,0.001059270347468555,0.0025287666358053684,-0.09883375465869904
37.20427200,37204272,2,0.9950987696647644,0.0010468600085005164,0.002510080812498927,-0.09884863346815109
37.30431500,37304315,2,0.9951029419898987,0.001126643968746066,0.0024864831939339638,-0.09880625456571579
37.40428000,37404280,2,0.9951151013374329,0.0011476189829409122,0.0024761336389929056,-0.09868406504392624
37.50434000,37504340,2,0.9951257109642029,0.0011398902861401439,0.0024639293551445007,-0.09857720881700516
37.60430100,37604301,2,0.9951371550559998,0.0011679641902446747,0.0024432726204395294,-0.09846198558807373
37.70429700,37704297,2,0.9951465725898743,0.0012127516092732549,0.002390718786045909,-0.09836741536855698
37.80429600,37804296,2,0.9951513409614563,0.001219026860781014,0.002386481501162052,-0.0983189269900322
37.90428200,37904282,2,0.9951561093330383,0.0012030837824568152,0.0023890899028629065,-0.09827060252428055
38.00427700,38004277,2,0.9951587319374084,0.001196904806420207,0.002335292287170887,-0.09824574738740921
38.10426800,38104268,2,0.9951640367507935,0.0012126488145440817,0.002317543141543865,-0.09819232672452927
38.20431500,38204315,2,0.9951605200767517,0.001255718758329749,0.0023411293514072895,-0.09822671115398407
38.30428600,38304286,2,0.9951590895652771,0.0012722527608275414,0.0023148213513195515,-0.09824185818433762
38.40439800,38404398,2,0.9951578974723816,0.0013033472932875156,0.002345866058021784,-0.09825272858142853
38.50430400,38504304,2,0.995159924030304,0.0013350558001548052,0.0023367847315967083,-0.09823176264762878
38.60427600,38604276,2,0.9951618313789368,0.0013621640391647816,0.0023031968157738447,-0.09821273386478424
38.70426900,38704269,2,0.9951592087745667,0.001366007374599576,0.002336963778361678,-0.09823860228061676
38.80427000,38804270,2,0.9951568245887756,0.0013811099343001842,0.0023160655982792377,-0.09826291352510452
38.90427900,38904279,2,0.9951539039611816,0.0013691073982045054,0.0023178793489933014,-0.09829255938529968
39.00427300,39004273,2,0.9951547384262085,0.0013529680436477065,0.002310764277353883,-0.09828484803438187
39.10431300,39104313,2,0.9951531291007996,0.0013116648187860847,0.002272543031722307,-0.0983026921749115
39.20428300,39204283,2,0.9951538443565369,0.0013411049731075764,0.002260298701003194,-0.09829529374837875
39.30434300,39304343,2,0.9951570630073547,0.0013572800671681762,0.002257009269669652,-0.0982624813914299
39.40430200,39404302,2,0.9951597452163696,0.001375629217363894,0.0022556243930011988,-0.09823470562696457
39.50427100,39504271,2,0.9951707124710083,0.0013614725321531296,0.0022488890681415796,-0.09812396764755249
39.60427700,39604277,2,0.9951831102371216,0.001353727886453271,0.0022654510103166103,-0.09799827635288239
39.70427200,39704272,2,0.9951995015144348,0.0013496082974597812,0.0022226206492632627,-0.09783228486776352
39.80426800,39804268,2,0.9952085018157959,0.0013834842247888446,0.0022762410808354616,-0.09773921221494675
39.90428400,39904284,2,0.99521404504776,0.0013578820507973433,0.002261690329760313,-0.09768346697092056
40.00432200,40004322,2,0.9952192306518555,0.0013792510144412518,0.002273467369377613,-0.09763012826442719
40.10429300,40104293,2,0.9952248334884644,0.001396646723151207,0.0022754427045583725,-0.09757260233163834
40.20437100,40204371,2,0.9952322840690613,0.0013910472625866532,0.002276042243465781,-0.09749682247638702
40.30430900,40304309,2,0.9952422380447388,0.001357072964310646,0.0022446236107498407,-0.09739638864994049
40.40426900,40404269,2,0.9952486753463745,0.001393924350850284,0.002255290048196912,-0.09732932597398758
40.50426900,40504269,2,0.9952541589736938,0.0014111485797911882,0.002281852765008807,-0.0972723588347435
40.60427800,40604278,2,0.9952573776245117,0.0014093288918957114,0.0023066357243806124,-0.09723886102437973
40.70427600,40704276,2,0.9952570199966431,0.001425346708856523,0.002231671242043376,-0.09724440425634384
40.80428900,40804289,2,0.9952512383460999,0.0014728533569723368,0.0022295876406133175,-0.09730256348848343
40.90431500,40904315,2,0.9952419996261597,0.0015240715583786368,0.00214762263931334,-0.09739810228347778
41.00427900,41004279,2,0.9952290058135986,0.0015516139101237059,0.0022064519580453634,-0.09752900153398514
41.10434400,41104344,2,0.9952171444892883,0.001540450262837112,0.0022041327320039272,-0.09765025228261948
41.20430500,41204305,2,0.9952093362808228,0.0015812903875485063,0.0022008323576301336,-0.09772946685552597
41.30427200,41304272,2,0.9952113628387451,0.001574469730257988,0.0022244020365178585,-0.09770837426185608
41.40427000,41404270,2,0.9952107667922974,0.0016296480316668749,0.002239704132080078,-0.09771326184272766
41.50426900,41504269,2,0.9952163100242615,0.0016773354727774858,0.0022818935103714466,-0.0976547971367836
41.60427600,41604276,2,0.9952237606048584,0.0016432779375463724,0.00228869984857738,-0.0975792184472084
41.70427700,41704277,2,0.9952307343482971,0.0016491588903591037,0.0022955830208957195,-0.09750805050134659
41.80431200,41804312,2,0.9952304363250732,0.0016703468281775713,0.002337242476642132,-0.0975097119808197
41.90430000,41904300,2,0.9952337145805359,0.0016733434749767184,0.0022657993249595165,-0.09747806936502457
42.00434500,42004345,2,0.9952343702316284,0.0016962927766144276,0.0022680554538965225,-0.09747062623500824
42.10429800,42104298,2,0.9952275156974792,0.001704281778074801,0.002312738448381424,-0.09753959625959396
42.20427100,42204271,2,0.9952171444892883,0.001726247719489038,0.0022810231894254684,-0.0976455807685852
42.30427500,42304275,2,0.9952111840248108,0.0017304167849943042,0.0022822730243206024,-0.09770595282316208
42.40427500,42404275,2,0.9952073693275452,0.0017190049402415752,0.0022900975309312344,-0.09774517267942429
42.50426900,42504269,2,0.9952089786529541,0.0017068592133000493,0.0022763048764318228,-0.09772903472185135
42.60427600,42604276,2,0.9952114224433899,0.0017143938457593322,0.002291413489729166,-0.09770400077104568
42.70431300,42704313,2,0.9952185750007629,0.0017012431053444743,0.002291919430717826,-0.09763123840093613
42.80428100,42804281,2,0.9952232241630554,0.001644117059186101,0.0022700978443026543,-0.09758545458316803
42.90434700,42904347,2,0.9952245950698853,0.0016335659893229604,0.00227347738109529,-0.0975714921951294
43.00430400,43004304,2,0.9952365756034851,0.0016169906593859196,0.0022328884806483984,-0.09745046496391296
43.10426800,43104268,2,0.9952412247657776,0.0015913599636405706,0.0022382696624845266,-0.09740303456783295
43.20428200,43204282,2,0.9952463507652283,0.0015814269427210093,0.002246696036309004,-0.09735057502985
43.30427200,43304272,2,0.9952439665794373,0.0016024266369640827,0.0022414433769881725,-0.09737460315227509
43.40426900,43404269,2,0.9952475428581238,0.0016278947005048394,0.002271269913762808,-0.09733742475509644
43.50428700,43504287,2,0.9952484965324402,0.0016284133307635784,0.002318024169653654,-0.0973261147737503
43.60431500,43604315,2,0.9952480792999268,0.0016592652536928654,0.0022902649361640215,-0.09733089804649353
43.70428400,43704284,2,0.9952446222305298,0.0016353329410776496,0.0022762862499803305,-0.0973670557141304
43.80434200,43804342,2,0.995248556137085,0.001697181141935289,0.002317725447937846,-0.09732447564601898
43.90431000,43904310,2,0.9952508807182312,0.00175292300991714,0.002337029669433832,-0.0972994938492775
44.00427300,44004273,2,0.9952558875083923,0.0017302304040640593,0.0023320182226598263,-0.09724853932857513
44.10427000,44104270,2,0.9952521920204163,0.001686982810497284,0.0022988319396972656,-0.09728796780109406
44.20427600,44204276,2,0.9952460527420044,0.0016808866057544947,0.0023023439571261406,-0.0973505899310112
44.30427600,44304276,2,0.9952427744865417,0.0017028950387611985,0.002363374922424555,-0.0973825454711914
44.40428800,44404288,2,0.9952413439750671,0.0017318405443802476,0.002344320062547922,-0.09739700704813004
44.50431200,44504312,2,0.9952425956726074,0.0017636918928474188,0.002399773569777608,-0.09738226234912872
44.60430000,44604300,2,0.9952383041381836,0.0017386708641424775,0.0023561532143503428,-0.09742787480354309
44.70434400,44704344,2,0.9952349066734314,0.001751648378558457,0.0023754644207656384,-0.09746149927377701
44.80430600,44804306,2,0.9952378273010254,0.0017348057590425014,0.0024128835648298264,-0.09743126481771469
44.90427300,44904273,2,0.9952405691146851,0.0017245238414034247,0.00242809415794909,-0.09740280359983444
45.00426900,45004269,2,0.9952394962310791,0.0017417650669813156,0.002443443750962615,-0.09741336852312088
45.10427400,45104274,2,0.9952396750450134,0.0017294457647949457,0.0025104295928031206,-0.09741004556417465
45.20427200,45204272,2,0.9952476620674133,0.0017109554028138518,0.002528504701331258,-0.09732840955257416
45.30427300,45304273,2,0.9952545762062073,0.0016777911223471165,0.002506933407858014,-0.09725846350193024
45.40431700,45404317,2,0.9952532052993774,0.0016679775435477495,0.0025447297375649214,-0.09727205336093903
45.50428300,45504283,2,0.9952489733695984,0.0016551106236875057,0.0025366118643432856,-0.09731535613536835
45.60434300,45604343,2,0.995238721370697,0.0016725404420867562,0.0025539130438119173,-0.09741955250501633
45.70430300,45704303,2,0.9952312111854553,0.001618746086023748,0.002587956842035055,-0.09749632328748703
45.80430800,45804308,2,0.9952240586280823,0.0016314409440383315,0.0026131588965654373,-0.09756822884082794
45.90428400,45904284,2,0.9952173829078674,0.0016459537437185645,0.0025899368338286877,-0.09763680398464203
46.00428400,46004284,2,0.9952142238616943,0.0016121136723086238,0.0026078782975673676,-0.09766937792301178
46.10426900,46104269,2,0.9952147006988525,0.00158574222587049,0.0026113148778676987,-0.09766467660665512
46.20427200,46204272,2,0.9952176809310913,0.0015705856494605541,0.002613625256344676,-0.09763418883085251
46.30431800,46304318,2,0.9952263236045837,0.001573497662320733,0.0026163526345044374,-0.09754633158445358
46.40428000,46404280,2,0.9952256679534912,0.001489149290136993,0.0026042761746793985,-0.0975545346736908
46.50435300,46504353,2,0.9952298402786255,0.0015075847040861845,0.002671576337888837,-0.09750966727733612
46.60430500,46604305,2,0.9952336549758911,0.0014562279684469104,0.0026394296437501907,-0.09747260808944702
46.70427900,46704279,2,0.9952380657196045,0.0013693775981664658,0.002625439316034317,-0.097429059445858
46.80426700,46804267,2,0.9952390789985657,0.001337576424703002,0.002581152366474271,-0.09742006659507751
46.90427200,46904272,2,0.9952447414398193,0.0013551812153309584,0.0026252190582454205,-0.09736095368862152
47.00427600,47004276,2,0.9952477216720581,0.001325767021626234,0.002597912447527051,-0.09733203053474426
47.10429500,47104295,2,0.9952520132064819,0.0013311044313013554,0.002584729576483369,-0.09728816896677017
47.20431500,47204315,2,0.9952477812767029,0.0012825666926801205,0.0025897701270878315,-0.09733212739229202
47.30429000,47304290,2,0.9952473044395447,0.0013184910640120506,0.0026036419440060854,-0.09733588993549347
47.40436400,47404364,2,0.9952454566955566,0.0013014237629249692,0.002592341275885701,-0.09735565632581711
47.50429800,47504298,2,0.9952423572540283,0.0013186001451686025,0.0025897754821926355,-0.09738704562187195
47.60427200,47604272,2,0.995239794254303,0.0013667048187926412,0.0025699774269014597,-0.09741289913654327
47.70427800,47704278,2,0.995236873626709,0.0013383476762101054,0.0026209859643131495,-0.09744206070899963
47.80426800,47804268,2,0.9952340126037598,0.0013206765288487077,0.002592787379398942,-0.09747181832790375
47.90427200,47904272,2,0.9952355623245239,0.0012501697055995464,0.0025654975324869156,-0.09745761752128601
48.00427300,48004273,2,0.9952375888824463,0.0011922261910513043,0.0025991492439061403,-0.09743703156709671
48.10431200,48104312,2,0.9952451586723328,0.001178308972157538,0.002653220435604453,-0.09735838323831558
48.20428100,48204281,2,0.995253324508667,0.001165935187600553,0.002660775324329734,-0.09727460145950317
48.30434500,48304345,2,0.9952565431594849,0.0012022837763652205,0.002638626378029585,-0.09724224358797073
48.40430100,48404301,2,0.995256781578064,0.0011768498225137591,0.002642757259309292,-0.09723982959985733
48.50427800,48504278,2,0.9952590465545654,0.0011947917519137263,0.0026677679270505905,-0.09721574932336807
48.60428000,48604280,2,0.9952595233917236,0.0011919892858713865,0.002649535657837987,-0.09721129387617111
48.70427000,48704270,2,0.9952580332756042,0.0011899080127477646,0.0026257073041051626,-0.09722694754600525
48.80427100,48804271,2,0.9952566623687744,0.0011166769545525312,0.0026265138294547796,-0.09724198281764984
48.90428400,48904284,2,0.9952532052993774,0.0011202176101505756,0.002604142064228654,-0.09727777540683746
49.00431900,49004319,2,0.995252251625061,0.0011068843305110931,0.0025987490080296993,-0.0972878560423851
49.10428600,49104286,2,0.9952452182769775,0.0010683706495910883,0.0025980297941714525,-0.09736037254333496
49.20434200,49204342,2,0.9952400922775269,0.0010751527734100819,0.00259543233551085,-0.09741292148828506
49.30430200,49304302,2,0.9952335953712463,0.001051788218319416,0.0025674353819340467,-0.09748002886772156
49.40430600,49404306,2,0.9952268004417419,0.0010193631751462817,0.0026474986225366592,-0.09754792600870132
49.50427500,49504275,2,0.9952229857444763,0.0009815238881856203,0.002624715678393841,-0.09758760780096054
49.60428200,49604282,2,0.9952204823493958,0.0009584901854395866,0.002663268940523267,-0.09761221706867218
49.70427600,49704276,2,0.9952189922332764,0.000972663692664355,0.0026691886596381664,-0.09762746840715408
49.80427100,49804271,2,0.9952210783958435,0.0009726121206767857,0.002708368469029665,-0.09760480374097824
49.90431500,49904315,2,0.9952213764190674,0.0009554337011650205,0.0026872840244323015,-0.09760294109582901
50.00428700,50004287,2,0.9952222108840942,0.0009528258233331144,0.0027116129640489817,-0.09759365022182465
50.10435700,50104357,2,0.9952175617218018,0.0009579048492014408,0.0027610233519226313,-0.09763934463262558
50.20430700,50204307,2,0.9952222108840942,0.0009196905302815139,0.0027136856224387884,-0.09759346395730972
50.30429600,50304296,2,0.9952237606048584,0.0009289797744713724,0.002683459548279643,-0.09757857769727707
50.40428200,50404282,2,0.9952309727668762,0.0009403086733072996,0.0027210121043026447,-0.09750388562679291
50.50428100,50504281,2,0.9952335357666016,0.0009242026135325432,0.0027509513311088085,-0.09747698903083801
50.60427900,50604279,2,0.9952331185340881,0.0009443811140954494,0.002770355436950922,-0.09748044610023499
50.70427500,50704275,2,0.9952361583709717,0.0009516713325865567,0.002825771691277623,-0.09744817763566971
50.80431200,50804312,2,0.9952405691146851,0.0009064464247785509,0.0028325654566287994,-0.09740326553583145
50.90428300,50904283,2,0.9952419996261597,0.0009022810845635831,0.0028532654978334904,-0.09738783538341522
51.00434700,51004347,2,0.9952532052993774,0.0008752502617426217,0.0029214753303676844,-0.0972718596458435
51.10429900,51104299,2,0.9952512979507446,0.0008608034695498645,0.002895328449085355,-0.09729187935590744
51.20427200,51204272,2,0.9952564239501953,0.0008589032804593444,0.002904733410105109,-0.09723947197198868
51.30427200,51304272,2,0.9952549934387207,0.0008180371369235218,0.002883831039071083,-0.09725495427846909
51.40426900,51404269,2,0.9952560067176819,0.0008248256053775549,0.002902247942984104,-0.09724396467208862
51.50427300,51504273,2,0.9952617883682251,0.0008579163695685565,0.0028833176475018263,-0.09718497842550278
51.60427200,51604272,2,0.9952598214149475,0.0008602587040513754,0.0029170629568398,-0.09720423817634583
51.70432700,51704327,2,0.9952532649040222,0.0007995027117431164,0.002984806662425399,-0.09726990014314651
51.80430400,51804304,2,0.9952550530433655,0.0008219492738135159,0.002980564022436738,-0.09725159406661987
51.90434300,51904343,2,0.9952570796012878,0.0008806588593870401,0.0029578402172774076,-0.097230464220047
52.00430700,52004307,2,0.9952589273452759,0.000865806476213038,0.0029149376787245274,-0.09721347689628601
52.10426900,52104269,2,0.9952638745307922,0.0008426786516793072,0.002900649793446064,-0.09716316312551498
52.20427200,52204272,2,0.9952656030654907,0.000809122750069946,0.0028841900639235973,-0.09714659303426743
52.30427500,52304275,2,0.9952661991119385,0.0007991830934770405,0.0029186299070715904,-0.0971393957734108
52.40426900,52404269,2,0.9952642917633057,0.0007464746595360339,0.002908717142418027,-0.09715975821018219
52.50426900,52504269,2,0.9952625036239624,0.0007614215719513595,0.0029370638076215982,-0.09717658907175064
52.60431600,52604316,2,0.9952654242515564,0.0007362946635112166,0.0029717592988163233,-0.09714622795581818
52.70428000,52704280,2,0.9952625036239624,0.000698746822308749,0.0030005453154444695,-0.09717534482479095
52.80434300,52804343,2,0.9952593445777893,0.0006823386647738516,0.0029947569128125906,-0.09720789641141891
52.90430200,52904302,2,0.9952592253684998,0.0006456730188801885,0.0030648603569716215,-0.09720709174871445
53.00427200,53004272,2,0.9952599406242371,0.0006338374805636704,0.0031172067392617464,-0.0971984937787056
53.10426900,53104269,2,0.995262861251831,0.000646363478153944,0.003089640522375703,-0.09716923534870148
53.20427000,53204270,2,0.9952653646469116,0.0006759903044439852,0.003123844275251031,-0.0971423089504242
53.30427100,53304271,2,0.9952645897865295,0.000682429876178503,0.00314670754596591,-0.09714941680431366
53.40428000,53404280,2,0.9952632188796997,0.0006802419666200876,0.0031314182560890913,-0.09716428071260452
53.50431300,53504313,2,0.995256781578064,0.0007062989752739668,0.003149377880617976,-0.09722900390625
53.60428300,53604283,2,0.995262086391449,0.00069510901812464,0.003178792539983988,-0.09717405587434769
53.70436100,53704361,2,0.9952599406242371,0.000705324171576649,0.003184923203662038,-0.09719600528478622
53.80430000,53804300,2,0.9952581524848938,0.000716016162186861,0.003122730413451791,-0.09721584618091583
53.90427200,53904272,2,0.995252788066864,0.0007217803504317999,0.003187366994097829,-0.09726864099502563
54.00428000,54004280,2,0.9952539205551147,0.0006880105356685817,0.0031840053852647543,-0.09725747257471085
54.10426900,54104269,2,0.9952533841133118,0.0006473996327258646,0.003166042035445571,-0.09726394712924957
54.20426900,54204269,2,0.9952507615089417,0.0006489941151812673,0.0031659691594541073,-0.0972905382514
54.30428000,54304280,2,0.9952449202537537,0.0006520274328067899,0.0031427480280399323,-0.0973513051867485
54.40431300,54404313,2,0.9952399134635925,0.0006597974570468068,0.0031549641862511635,-0.09740179777145386
54.50428500,54504285,2,0.9952379465103149,0.0006656533223576844,0.0032389825209975243,-0.09741903841495514
54.60435300,54604353,2,0.995233416557312,0.0006216648616828024,0.003288364503532648,-0.09746401011943817
54.70429800,54704298,2,0.995236873626709,0.0006354175857268274,0.0032538583036512136,-0.09742959588766098
54.80426900,54804269,2,0.995235800743103,0.0006595543236471713,0.003242878243327141,-0.09744095057249069
54.90427200,54904272,2,0.9952385425567627,0.0006876795087009668,0.0032011065632104874,-0.09741421043872833
55.00426900,55004269,2,0.9952419996261597,0.0006538881571032107,0.003206504974514246,-0.09737884253263474
55.10426800,55104268,2,0.9952431917190552,0.0006797569803893566,0.0031743748113512993,-0.09736732393503189
55.20426900,55204269,2,0.9952349662780762,0.0006796736270189285,0.003186102258041501,-0.09745141118764877
55.30432000,55304320,2,0.9952338337898254,0.0006863382295705378,0.0031568361446261406,-0.09746360778808594
55.40428400,55404284,2,0.9952308535575867,0.0007543101091869175,0.003201741725206375,-0.09749240428209305
55.50434000,55504340,2,0.9952312707901001,0.0007297088159248233,0.0031770842615514994,-0.09748900681734085
55.60431100,55604311,2,0.9952320456504822,0.0006838182453066111,0.0031526058446615934,-0.09748199582099915
55.70427200,55704272,2,0.9952354431152344,0.0007374787819571793,0.0031734732910990715,-0.0974462628364563
55.80427000,55804270,2,0.9952360987663269,0.0007398694870062172,0.003197783837094903,-0.09743911027908325
55.90427200,55904272,2,0.9952316880226135,0.0008303612121380866,0.0032199895940721035,-0.09748245030641556
56.00427500,56004275,2,0.9952236413955688,0.0008847428252920508,0.0032778296153992414,-0.09756232798099518
56.10429300,56104293,2,0.9952234029769897,0.000813804566860199,0.0031301367562264204,-0.09757009893655777
56.20431200,56204312,2,0.995221734046936,0.000821207242552191,0.00310583901591599,-0.09758772701025009
56.30429400,56304294,2,0.9952189922332764,0.0008981865830719471,0.0031160067301243544,-0.09761486947536469
56.40434300,56404343,2,0.9952146410942078,0.0008787867263890803,0.0030692853033542633,-0.09766079485416412
56.50430200,56504302,2,0.9952128529548645,0.0008645844063721597,0.003087097778916359,-0.09767874330282211
56.60427600,56604276,2,0.9952142834663391,0.0008983305306173861,0.0030948068015277386,-0.09766346961259842
56.70427100,56704271,2,0.9952161312103271,0.0008629585499875247,0.0031291258055716753,-0.09764375537633896
56.80427900,56804279,2,0.9952130913734436,0.0008376047480851412,0.0031226028222590685,-0.09767543524503708
56.90427300,56904273,2,0.9952178001403809,0.0007916595786809921,0.003095029853284359,-0.09762819856405258
57.00427400,57004274,2,0.9952248334884644,0.0007921081851236522,0.0031067521777004004,-0.0975566878914833
57.10431800,57104318,2,0.9952268600463867,0.0008016559877432883,0.0030175449792295694,-0.09753860533237457
57.20428700,57204287,2,0.9952260851860046,0.0008215312263928354,0.0030028384644538164,-0.09754656255245209
57.30434700,57304347,2,0.9952277541160583,0.000870978576131165,0.0030288195703178644,-0.09752829372882843
57.40430000,57404300,2,0.9952305555343628,0.0009096701978705823,0.003009712090715766,-0.09750008583068848
57.50427800,57504278,2,0.9952300190925598,0.0009274622425436974,0.002952791750431061,-0.09750699996948242
57.60429100,57604291,2,0.9952325224876404,0.0009367769816890359,0.0029557030647993088,-0.0974816232919693
57.70428400,57704284,2,0.9952344298362732,0.0009413814404979348,0.0029738519806414843,-0.09746155142784119
57.80426800,57804268,2,0.9952297210693359,0.0009899215074256063,0.0030134825501590967,-0.09750764071941376
57.90428400,57904284,2,0.995226263999939,0.0009852087823674083,0.003010760061442852,-0.0975431576371193
58.00431800,58004318,2,0.9952247142791748,0.0010317097185179591,0.003063848940655589,-0.09755699336528778
58.10427900,58104279,2,0.9952244758605957,0.0010417276062071323,0.0030892728827893734,-0.09755833446979523
58.20434400,58204344,2,0.9952207803726196,0.0010447665117681026,0.0031089859548956156,-0.09759508818387985
58.30430900,58304309,2,0.9952166676521301,0.001059632864780724,0.0031345514580607414,-0.09763631969690323
58.40427800,58404278,2,0.9952203631401062,0.0010639140382409096,0.0030627609230577946,-0.09760088473558426
58.50428200,58504282,2,0.9952203631401062,0.0010674792574718595,0.0030332899186760187,-0.097601518034935
58.60428200,58604282,2,0.9952196478843689,0.0010996380588039756,0.0029882569797337055,-0.09761019051074982
58.70426800,58704268,2,0.9952256679534912,0.0011774314334616065,0.0030233480501919985,-0.0975465327501297
58.80426900,58804269,2,0.9952298402786255,0.0012024297611787915,0.002965811872854829,-0.0975053608417511
58.90432300,58904323,2,0.9952329993247986,0.0011953968787565827,0.0029844893142580986,-0.09747302532196045
59.00428900,59004289,2,0.9952432513237,0.001190488925203681,0.002937138779088855,-0.09736982733011246
59.10435600,59104356,2,0.9952495694160461,0.0011657767463475466,0.0029414964374154806,-0.09730483591556549
59.20429700,59204297,2,0.9952542185783386,0.0012056874111294746,0.0029382919892668724,-0.09725718200206757
59.30429400,59304294,2,0.9952583909034729,0.0012607361422851682,0.002934253541752696,-0.09721377491950989
59.40427900,59404279,2,0.9952555894851685,0.0012665074318647385,0.0029073513578623533,-0.09724346548318863
59.50427600,59504276,2,0.9952592849731445,0.0013124479446560144,0.0029230916406959295,-0.0972045361995697
59.60428200,59604282,2,0.9952568411827087,0.0013369491789489985,0.003012010594829917,-0.09722612798213959
59.70427400,59704274,2,0.9952558279037476,0.001316728419624269,0.003023785538971424,-0.09723687916994095
59.80431000,59804310,2,0.9952532649040222,0.001350879785604775,0.0029926435090601444,-0.09726361185312271
59.90428700,59904287,2,0.9952527284622192,0.0013399705057963729,0.0030194304417818785,-0.0972679853439331
60.00434500,60004345,2,0.9952542781829834,0.0013496221508830786,0.0029814753215759993,-0.09725318104028702
60.10429900,60104299,2,0.9952531456947327,0.0013889509718865156,0.0029882618691772223,-0.09726404398679733
60.20429400,60204294,2,0.9952489137649536,0.0014076989609748125,0.0030078624840825796,-0.09730641543865204
60.30429100,60304291,2,0.9952457547187805,0.0013989686267450452,0.0030552877578884363,-0.0973377525806427
60.40428000,60404280,2,0.9952437281608582,0.0014039335073903203,0.0030223503708839417,-0.09735894948244095
60.50426900,60504269,2,0.9952414631843567,0.001332760090008378,0.0030315197072923183,-0.09738282114267349
60.60429500,60604295,2,0.9952414035797119,0.0013294651871547103,0.0030194895807653666,-0.09738415479660034
60.70431400,60704314,2,0.9952363967895508,0.0013239291729405522,0.002967157168313861,-0.09743689745664597
60.80427900,60804279,2,0.9952355623245239,0.0013452951097860932,0.0029700740706175566,-0.097445048391819
60.90434600,60904346,2,0.9952357411384583,0.0013445516815409064,0.0029538085218518972,-0.09744392335414886
61.00431000,61004310,2,0.9952297210693359,0.0013626771979033947,0.0029298460576683283,-0.09750568121671677
61.10426900,61104269,2,0.9952273368835449,0.001385400420986116,0.0028145865071564913,-0.09753338247537613
61.20427000,61204270,2,0.9952183961868286,0.0013937691692262888,0.002808408346027136,-0.09762456268072128
61.30427100,61304271,2,0.9952164888381958,0.001406366005539894,0.0027916086837649345,-0.09764396399259567
61.40428000,61404280,2,0.995212972164154,0.001434322097338736,0.002807932673022151,-0.09767914563417435
61.50427500,61504275,2,0.9952101111412048,0.001407607109285891,0.002822831505909562,-0.09770806133747101
61.60432000,61604320,2,0.9952125549316406,0.0013900506310164928,0.002868653740733862,-0.09768188744783401
61.70429000,61704290,2,0.9952191710472107,0.0014188216300681233,0.0028117785695940256,-0.09761597961187363
61.80434400,61804344,2,0.9952230453491211,0.0013689108891412616,0.002846075687557459,-0.0975763350725174
61.90430400,61904304,2,0.9952234029769897,0.0013667185558006167,0.0028632753528654575,-0.09757188707590103
62.00427700,62004277,2,0.9952249526977539,0.001368816359899938,0.0029089893214404583,-0.09755491465330124
62.10427600,62104276,2,0.9952262043952942,0.0013529271818697453,0.0028741711284965277,-0.0975436195731163
62.20427000,62204270,2,0.9952293038368225,0.0014126235619187355,0.0028150277212262154,-0.09751269221305847
62.30427600,62304276,2,0.9952336549758911,0.001418930827639997,0.002797636203467846,-0.09746839106082916
62.40427000,62404270,2,0.9952356815338135,0.0013883120846003294,0.0027705917600542307,-0.0974493995308876
62.50431500,62504315,2,0.9952389001846313,0.0013945348327979445,0.0027865448500961065,-0.09741552174091339
62.60429100,62604291,2,0.9952374696731567,0.0014312915736809373,0.0027765792328864336,-0.09743012487888336
62.70434400,62704344,2,0.9952378273010254,0.0014706420479342341,0.0028012082912027836,-0.09742488712072372
62.80431000,62804310,2,0.9952392578125,0.0014421924715861678,0.0027532412204891443,-0.09741223603487015
62.90427300,62904273,2,0.9952396750450134,0.0014759942423552275,0.0027477764524519444,-0.09740789234638214
63.00427200,63004272,2,0.9952402114868164,0.0014975888188928366,0.002776042791083455,-0.09740093350410461
63.10426900,63104269,2,0.9952386021614075,0.0014872592873871326,0.002773524960502982,-0.09741795063018799
63.20427000,63204270,2,0.9952357411384583,0.00146822864189744,0.00279266107827425,-0.09744688123464584
63.30429000,63304290,2,0.995229184627533,0.0015047051711007953,0.002742927521467209,-0.09751442074775696
63.40431800,63404318,2,0.9952282309532166,0.0014656342100352049,0.002675882074981928,-0.09752681851387024
63.50428000,63504280,2,0.9952266216278076,0.00149833457544446,0.0026540798135101795,-0.09754341095685959
63.60436000,63604360,2,0.9952231049537659,0.0014350108103826642,0.0026568451430648565,-0.09757997840642929
63.70430400,63704304,2,0.9952248334884644,0.0014721985207870603,0.0026993865612894297,-0.09756043553352356
63.80427400,63804274,2,0.9952236413955688,0.001466815359890461,0.0027297737542539835,-0.09757201373577118
63.90427100,63904271,2,0.9952211380004883,0.0014375528553500772,0.002713988069444895,-0.09759843349456787
64.00427500,64004275,2,0.995216429233551,0.0013849843526259065,0.0027369612362235785,-0.09764683246612549
64.10427100,64104271,2,0.9952182173728943,0.0013742907904088497,0.00270846881903708,-0.0976291298866272
64.20428300,64204283,2,0.9952250123023987,0.0013286287430673838,0.002714332193136215,-0.0975603312253952
64.30432100,64304321,2,0.9952324628829956,0.0013226198498159647,0.0026763835921883583,-0.0974852666258812
64.40428600,64404286,2,0.9952382445335388,0.0013404099736362696,0.002681570826098323,-0.09742602705955505
64.50434400,64504344,2,0.9952425360679626,0.001326326048001647,0.002631579525768757,-0.09738393872976303
64.60430000,64604300,2,0.9952431917190552,0.0012910879449918866,0.002590565010905266,-0.09737854450941086
64.70427000,64704270,2,0.9952435493469238,0.0012902469607070088,0.002579343505203724,-0.09737537801265717
64.80427800,64804278,2,0.9952431321144104,0.0012419214472174644,0.0026279003359377384,-0.09737894684076309
64.90428300,64904283,2,0.9952418208122253,0.0012563021155074239,0.002646822016686201,-0.09739140421152115
65.00427100,65004271,2,0.9952434301376343,0.0011925800936296582,0.0026944875717163086,-0.0973748192191124
65.10426900,65104269,2,0.9952462911605835,0.0011917093070223927,0.002727747894823551,-0.097344309091568
65.20431300,65204313,2,0.9952481985092163,0.001150454510934651,0.002673013601452112,-0.09732726961374283
65.30428900,65304289,2,0.9952507019042969,0.0011427204590290785,0.0027564638294279575,-0.09729897975921631
65.40434600,65404346,2,0.9952511787414551,0.0011337866308167577,0.002782887313514948,-0.0972939059138298
65.50430100,65504301,2,0.9952510595321655,0.0010783158941194415,0.00274284859187901,-0.09729697555303574
65.60427100,65604271,2,0.9952540397644043,0.0010706586763262749,0.002766340970993042,-0.09726542979478836
65.70428000,65704280,2,0.995250403881073,0.0010472576832398772,0.0027548111975193024,-0.09730317443609238
65.80428600,65804286,2,0.9952475428581238,0.0010029786499217153,0.0027746912091970444,-0.09733240306377411
65.90427100,65904271,2,0.9952468276023865,0.000986236147582531,0.00284514669328928,-0.09733809530735016
66.00427500,66004275,2,0.9952438473701477,0.0010083604138344526,0.002798517234623432,-0.09736946225166321
66.10431200,66104312,2,0.9952401518821716,0.0009634126327000558,0.002790577244013548,-0.09740814566612244
66.20427900,66204279,2,0.995235800743103,0.0009645293466746807,0.0028307735919952393,-0.09745129197835922
66.30434500,66304345,2,0.9952388405799866,0.00096496770856902,0.0027927737683057785,-0.0974215716123581
66.40429900,66404299,2,0.9952386617660522,0.0009096132125705481,0.0027916787657886744,-0.09742368757724762
66.50426900,66504269,2,0.9952381253242493,0.0008753315778449178,0.0028468973468989134,-0.09742821007966995
66.60427100,66604271,2,0.9952375292778015,0.0008683092892169952,0.0027969146613031626,-0.09743544459342957
66.70426800,66704268,2,0.9952361583709717,0.0008413683972321451,0.002787088742479682,-0.0974503606557846
66.80427000,66804270,2,0.9952402710914612,0.0008569497149437666,0.0027508330531418324,-0.09740868210792542
66.90428300,66904283,2,0.9952445030212402,0.0008928748429752886,0.0027357840444892645,-0.09736592322587967
67.00431600,67004316,2,0.9952476024627686,0.0008959146216511726,0.0026903897523880005,-0.09733562916517258
67.10428300,67104283,2,0.9952473044395447,0.0009199729538522661,0.002707435516640544,-0.09733767062425613
67.20434000,67204340,2,0.9952457547187805,0.000910598726477474,0.002711477456614375,-0.09735369682312012
67.30430200,67304302,2,0.9952462911605835,0.0008803390082903206,0.002712115179747343,-0.09734831750392914
67.40427200,67404272,2,0.9952466487884521,0.0008624687907285988,0.0027067961636930704,-0.0973450317978859
67.50427600,67504276,2,0.9952510595321655,0.0008671141695231199,0.002642521634697914,-0.09730148315429688
67.60427300,67604273,2,0.9952514171600342,0.0008801206131465733,0.002692301757633686,-0.09729614853858948
67.70427300,67704273,2,0.9952527284622192,0.0008873539045453072,0.002718058181926608,-0.09728249907493591
67.80428000,67804280,2,0.9952594041824341,0.0008723881328478456,0.0027473957743495703,-0.0972130075097084
67.90431500,67904315,2,0.9952622652053833,0.0008298877510242164,0.0027222682256251574,-0.09718511253595352
68.00429300,68004293,2,0.9952611327171326,0.000854784098919481,0.0027420746628195047,-0.09719596803188324
68.10434600,68104346,2,0.9952624440193176,0.0008876370848156512,0.0026961362455040216,-0.09718353301286697
68.20429700,68204297,2,0.9952611923217773,0.0008433979237452149,0.0026864975225180387,-0.09719687700271606
68.30427500,68304275,2,0.9952578544616699,0.0008564029703848064,0.0027356769423931837,-0.09722935408353806
68.40427600,68404276,2,0.9952534437179565,0.0008757582399994135,0.0027807767037302256,-0.09727338701486588
68.50428100,68504281,2,0.9952513575553894,0.0008860815432853997,0.0027689968701452017,-0.09729482233524323
68.60427100,68604271,2,0.9952540993690491,0.0009041145094670355,0.0027481436263769865,-0.0972672775387764
