timestamp,TimeUS,C,Roll,Pitch,Yaw,VN,VE,VD,dPD,PN,PE,PD,GX,GY,GZ,OH
11.60431700,11604317,2,0.0,0.0,0.0,0.0,0.0,0.0,0.0,0.0,0.0,0.0,0.0,0.0,0.0,0.0
11.70429300,11704293,2,0.0,0.0,0.0,0.0,0.0,0.0,0.0,0.0,0.0,0.0,0.0,0.0,0.0,0.0
11.80428600,11804286,2,0.0,0.0,0.0,0.0,0.0,0.0,0.0,0.0,0.0,0.0,0.0,0.0,0.0,0.0
11.90429300,11904293,2,0.0,0.0,0.0,0.0,0.0,0.0,0.0,0.0,0.0,0.0,0.0,0.0,0.0,0.0
12.00429200,12004292,2,0.0,0.0,0.0,0.0,0.0,0.0,0.0,0.0,0.0,0.0,0.0,0.0,0.0,0.0
12.10433400,12104334,2,0.0,0.0,0.0,0.0,0.0,0.0,0.0,0.0,0.0,0.0,0.0,0.0,0.0,0.0
12.20430600,12204306,2,0.0,0.0,0.0,0.0,0.0,0.0,0.0,0.0,0.0,0.0,0.0,0.0,0.0,0.0
12.30436800,12304368,2,0.0,0.0,0.0,0.0,0.0,0.0,0.0,0.0,0.0,0.0,0.0,0.0,0.0,0.0
12.40431300,12404313,2,0.0,0.0,0.0,0.0,0.0,0.0,0.0,0.0,0.0,0.0,0.0,0.0,0.0,0.0
12.50432600,12504326,2,0.0,0.0,0.0,0.0,0.0,0.0,0.0,0.0,0.0,0.0,0.0,0.0,0.0,0.0
12.60429900,12604299,2,0.3,0.26,0.0,0.0004499352362472564,0.0013701926218345761,0.01513355690985918,0.0004893827135674655,0.0,0.0,0.00046624179231002927,0.0,0.0,0.0,0.0
12.70429300,12704293,2,0.3,0.26,0.0,0.0013590012677013874,0.0028840303421020508,0.056262604892253876,0.02661433257162571,0.0,0.0,0.003997727297246456,0.0,0.0,0.0,0.0
12.80428100,12804281,2,0.29,0.26,0.0,0.0010530054569244385,0.00426971260458231,0.09803137928247452,1.5700167417526245,0.0,0.0,0.20631586015224457,0.0,0.0,0.0,0.0
12.90429800,12904298,2,0.29,0.26,0.0,0.00224179495126009,0.005664976313710213,0.12702567875385284,2.4716126918792725,0.0,0.0,0.40916159749031067,0.0,0.0,0.0,0.0
13.00433900,13004339,2,0.29,0.25,359.99,0.002798312809318304,0.006229941733181477,0.14733794331550598,2.310195207595825,0.0,0.0,0.5938079953193665,0.0,0.0,0.0,0.0
13.10429800,13104298,2,0.28,0.25,359.99,0.0034171303268522024,0.007300850003957748,0.16157877445220947,1.8485881090164185,0.0,0.0,0.7523660659790039,0.0,0.0,0.0,0.0
13.20435300,13204353,2,0.28,0.25,0.0,0.004747089464217424,0.0077033271081745625,0.17130079865455627,1.4126272201538086,0.0,0.0,0.8875458836555481,0.0,0.0,0.0,0.0
13.30431300,13304313,2,0.28,0.25,359.99,0.006000637076795101,0.008231878280639648,0.17841438949108124,1.0731252431869507,0.0,0.0,0.9984703063964844,0.0,0.0,0.0,0.0
13.40432300,13404323,2,0.27,0.25,359.99,0.0068966844119131565,0.008161009289324284,0.18209555745124817,0.808820903301239,0.0,0.0,1.0888006687164307,0.0,0.0,0.0,0.0
13.50429400,13504294,2,0.27,0.25,0.0,0.0075301798060536385,0.007567206397652626,0.18340684473514557,0.614380419254303,0.0,0.0,1.1563037633895874,0.0,0.0,0.0,0.0
13.60429400,13604294,2,0.26,0.25,0.0,0.009076030924916267,0.007238544058054686,0.18619929254055023,0.5101404190063477,0.0,0.0,1.2200348377227783,0.0,0.0,0.0,0.0
13.70428100,13704281,2,0.25,0.25,0.01,0.009812476113438606,0.006634626537561417,0.18747127056121826,0.43451225757598877,0.0,0.0,1.273285150527954,0.0,0.0,0.0,0.0
13.80428100,13804281,2,0.24,0.26,0.01,0.009448538534343243,0.005040633026510477,0.186534583568573,0.33286163210868835,0.0,0.0,1.3141556978225708,0.0,0.0,0.0,0.0
13.90432600,13904326,2,0.23,0.26,0.01,0.010032330639660358,0.0035257411655038595,0.1846901923418045,0.2473403662443161,0.0,0.0,1.3467329740524292,0.0,0.0,0.0,0.0
14.00429800,14004298,2,0.22,0.26,0.0,0.009777773171663284,0.0023505217395722866,0.18142060935497284,0.1984388679265976,0.0,0.0,1.372984528541565,0.0,0.0,0.0,0.0
14.10435100,14104351,2,0.21,0.27,348.91,0.009379730559885502,0.0009171441197395325,0.17493869364261627,0.13972440361976624,0.0,0.0,1.39188551902771,0.0,0.0,0.0,0.0
14.20431800,14204318,2,0.21,0.26,348.93,0.009503796696662903,-0.0008349146228283644,0.16900207102298737,0.09788718819618225,0.0,0.0,1.4066592454910278,0.0,0.0,0.0,0.0
14.30432400,14304324,2,0.2,0.26,348.98,0.009817720390856266,-0.0023532016202807426,0.16321969032287598,0.0903090387582779,0.0,0.0,1.4197388887405396,0.0,0.0,0.0,0.0
14.40429100,14404291,2,0.2,0.25,349.03000000000003,0.010378343984484673,-0.003372536040842533,0.15762865543365479,0.09213241934776306,0.0,0.0,1.4317536354064941,0.0,0.0,0.0,0.0
14.50429400,14504294,2,0.2,0.25,349.03000000000003,0.011259518563747406,-0.003932636231184006,0.15398584306240082,0.11859243363142014,0.0,0.0,1.4460742473602295,0.0,0.0,0.0,0.0
14.60429900,14604299,2,0.2,0.25,348.96,0.011342387646436691,-0.005307826213538647,0.148781418800354,0.12536299228668213,0.0,0.0,1.4584004878997803,0.0,0.0,0.0,0.0
14.70429100,14704291,2,0.2,0.25,348.85,0.01166935171931982,-0.006410329136997461,0.14376498758792877,0.10228202491998672,0.0,0.0,1.4691245555877686,0.0,0.0,0.0,0.0
14.80432300,14804323,2,0.19,0.26,348.77,0.012299044989049435,-0.006428729742765427,0.13934801518917084,0.0802290290594101,0.0,0.0,1.4770787954330444,0.0,0.0,0.0,0.0
14.90430400,14904304,2,0.19,0.26,348.73,0.012829408049583435,-0.006857294589281082,0.13329355418682098,0.06468252092599869,0.0,0.0,1.485068917274475,0.0,0.0,0.0,0.0
15.00435900,15004359,2,0.18,0.26,348.7,0.011595450341701508,-0.006778637878596783,0.12885728478431702,0.08073443919420242,0.0,0.0,1.4942634105682373,0.0,0.0,0.0,0.0
15.10430900,15104309,2,0.18,0.27,348.69,0.011362003162503242,-0.006086742039769888,0.12628298997879028,0.11717046052217484,0.0,0.0,1.5070604085922241,0.0,0.0,0.0,0.0
15.20429500,15204295,2,0.19,0.28,348.68,0.009787069633603096,-0.006559385918080807,0.12494789808988571,0.16570280492305756,0.0,0.0,1.5233824253082275,0.0,0.0,0.0,0.0
15.30428100,15304281,2,0.19,0.28,348.65000000000003,0.009274793788790703,-0.006963183172047138,0.12488900125026703,0.19166742265224457,0.0,0.0,1.5410218238830566,0.0,0.0,0.01,0.0
15.40428700,15404287,2,0.18,0.28,348.63,0.008359568193554878,-0.0069656712003052235,0.12532202899456024,0.2050275057554245,0.0,0.0,1.56017005443573,0.0,0.0,0.0,0.0
15.50428300,15504283,2,0.18,0.28,348.63,0.0076125189661979675,-0.007027327548712492,0.12356396019458771,0.17272117733955383,0.0,0.0,1.575089693069458,0.0,0.0,0.0,0.0
15.60429400,15604294,2,0.18,0.29,348.63,0.005320856813341379,-0.005887691397219896,0.12084555625915527,0.12565872073173523,0.0,0.0,1.5875778198242188,0.0,-0.01,0.0,0.0
15.70432900,15704329,2,0.18,0.29,348.64,0.003892462234944105,-0.006043005734682083,0.11650115251541138,0.09468433260917664,0.0,0.0,1.5976793766021729,0.0,-0.01,0.0,0.0
15.80429200,15804292,2,0.19,0.3,348.64,0.0029425364919006824,-0.006094023585319519,0.1126556396484375,0.08465240150690079,0.0,0.0,1.6077289581298828,0.0,-0.01,0.01,0.0
15.90435600,15904356,2,0.19,0.3,348.62,0.0018123534973710775,-0.0065954914316535,0.10939148813486099,0.09482887387275696,0.0,0.0,1.618471622467041,0.0,-0.01,0.01,0.0
16.00431500,16004315,2,0.19,0.3,348.6,0.00041756921564228833,-0.006523138843476772,0.10641465336084366,0.11184611916542053,0.0,0.0,1.6303505897521973,0.0,-0.01,0.01,0.0
16.10428000,16104280,2,0.2,0.31,348.58,0.00023164467711467296,-0.005832438822835684,0.10349034518003464,0.10634394735097885,0.0,0.0,1.640289545059204,0.0,-0.01,0.01,0.0
16.20429000,16204290,2,0.2,0.32,348.55,-7.86182499723509e-05,-0.00572307500988245,0.10105008631944656,0.10185360908508301,0.0,0.0,1.6510159969329834,0.0,-0.01,0.01,0.0
16.30428700,16304287,2,0.2,0.31,348.54,-0.0005851662717759609,-0.005159619729965925,0.09896115213632584,0.125761017203331,0.0,0.0,1.6644686460494995,0.0,-0.01,0.01,0.0
16.40428200,16404282,2,0.2,0.32,348.53000000000003,-0.001349162426777184,-0.0045461575500667095,0.09738615155220032,0.1452399343252182,0.0,0.0,1.6784414052963257,0.0,-0.01,0.01,0.0
16.50428300,16504283,2,0.2,0.31,348.54,-0.0020554494112730026,-0.003855990944430232,0.09894104301929474,0.16918818652629852,0.0,0.0,1.6953362226486206,0.0,-0.01,0.0,0.0
16.60432900,16604329,2,0.2,0.31,348.55,-0.0024012774229049683,-0.004024045541882515,0.10275956988334656,0.19878792762756348,0.0,0.0,1.7141797542572021,-0.01,-0.01,0.01,0.0
16.70429100,16704291,2,0.21,0.32,348.57,-0.003150397911667824,-0.0036886874586343765,0.10336356610059738,0.17248335480690002,0.0,0.0,1.7286826372146606,-0.01,-0.01,0.0,0.0
16.80435200,16804352,2,0.2,0.32,348.58,-0.004356939811259508,-0.002407566411420703,0.09788287431001663,0.07695387303829193,0.0,0.0,1.7345079183578491,-0.01,-0.01,0.01,0.0
16.90431900,16904319,2,0.2,0.32,348.58,-0.004292516503483057,-0.0018096414860337973,0.09270434826612473,0.01813146285712719,0.0,0.0,1.739087700843811,-0.01,-0.01,0.0,0.0
17.00427900,17004279,2,0.2,0.32,348.6,-0.004390242975205183,-0.00044575065840035677,0.08806255459785461,0.021557416766881943,0.0,0.0,1.7439161539077759,-0.01,-0.01,0.0,0.0
17.10428100,17104281,2,0.2,0.32,348.63,-0.004516383167356253,0.0005357812042348087,0.0832006186246872,0.03156699985265732,0.0,0.0,1.7486039400100708,-0.01,-0.01,0.0,0.0
17.20428700,17204287,2,0.2,0.32,348.65000000000003,-0.004201873671263456,0.0008546742028556764,0.07649258524179459,0.013216220773756504,0.0,0.0,1.7498337030410767,-0.01,-0.01,0.0,0.0
17.30427900,17304279,2,0.2,0.32,348.65000000000003,-0.004405294544994831,0.0016063036164268851,0.06882888078689575,-0.017763812094926834,0.0,0.0,1.748942494392395,-0.01,-0.01,0.0,0.0
17.40428000,17404280,2,0.2,0.31,348.64,-0.005099426954984665,0.0017582203727215528,0.06326282024383545,-0.008249708451330662,0.0,0.0,1.7502332925796509,-0.01,-0.01,0.02,0.0
17.50432800,17504328,2,0.21,0.32,348.61,-0.0033257887698709965,0.0013037569588050246,0.056343406438827515,-0.01140864472836256,0.0,0.0,1.7494237422943115,-0.01,-0.01,0.01,0.0
17.60429500,17604295,2,0.21,0.32,348.6,-0.0031371277291327715,0.0014302136842161417,0.048452503979206085,-0.044570572674274445,0.0,0.0,1.745456337928772,-0.01,-0.01,0.0,0.0
17.70435800,17704358,2,0.21,0.31,348.6,-0.0028009633533656597,0.0015651233261451125,0.0409625843167305,-0.0496998205780983,0.0,0.0,1.7418869733810425,-0.01,-0.01,0.0,0.0
17.80431000,17804310,2,0.2,0.31,348.6,-0.0026304838247597218,0.0007542495150119066,0.03438336402177811,-0.037832677364349365,0.0,0.0,1.7388917207717896,-0.01,-0.01,0.0,0.0
17.90429400,17904294,2,0.2,0.3,348.61,-0.0019862172193825245,0.0008394368342123926,0.029015446081757545,-0.01975111849606037,0.0,0.0,1.737300157546997,-0.01,-0.01,0.0,0.0
18.00428500,18004285,2,0.2,0.3,348.62,-0.0014509507454931736,0.00043680344242602587,0.022843291983008385,-0.01728075183928013,0.0,0.0,1.7350202798843384,-0.01,-0.01,0.0,0.0
18.10428600,18104286,2,0.2,0.3,348.63,-0.00016799192235339433,-0.0008679800666868687,0.01625266671180725,-0.029765726998448372,0.0,0.0,1.7319064140319824,-0.01,-0.01,0.0,0.0
18.20430500,18204305,2,0.2,0.3,348.62,0.001227036351338029,-0.002750712214037776,0.012245193123817444,0.010438085533678532,0.0,0.0,1.7340940237045288,-0.01,-0.01,0.0,0.0
18.30430700,18304307,2,0.2,0.29,348.63,0.002248397096991539,-0.003671961138024926,0.010978508740663528,0.07014448195695877,0.0,0.0,1.7401080131530762,-0.01,-0.01,0.0,0.0
18.40432400,18404324,2,0.2,0.29,348.64,0.003757685422897339,-0.005258820950984955,0.0077553391456604,0.05082150176167488,0.0,0.0,1.7423049211502075,-0.01,-0.01,-0.01,0.0
18.50429800,18504298,2,0.19,0.28,348.64,0.004787567537277937,-0.0070280758664011955,0.0015456919791176915,-0.008502277545630932,0.0,0.0,1.7406084537506104,-0.01,-0.01,0.0,0.0
18.60435700,18604357,2,0.19,0.28,348.64,0.005802738480269909,-0.009156386367976665,-0.007114213425666094,-0.07533077895641327,0.0,0.0,1.7331427335739136,-0.01,-0.01,0.0,0.0
18.70430800,18704308,2,0.2,0.28,348.62,0.0069231134839355946,-0.010118511505424976,-0.0149847948923707,-0.11005646735429764,0.0,0.0,1.7248469591140747,-0.01,-0.01,0.0,0.0
18.80429600,18804296,2,0.2,0.28,348.61,0.0075936587527394295,-0.011414427310228348,-0.024029340595006943,-0.11805940419435501,0.0,0.0,1.714557409286499,-0.01,-0.01,0.0,0.0
18.90428700,18904287,2,0.2,0.28,348.6,0.008061778731644154,-0.012250740081071854,-0.0342736653983593,-0.14799310266971588,0.0,0.0,1.7010807991027832,-0.01,-0.01,0.0,0.0
19.00428100,19004281,2,0.21,0.28,348.6,0.00803333055227995,-0.011385804042220116,-0.04198579117655754,-0.1455322653055191,0.0,0.0,1.688596248626709,-0.01,-0.01,0.0,0.0
19.10428100,19104281,2,0.21,0.28,348.59000000000003,0.007577367592602968,-0.011368833482265472,-0.05185633525252342,-0.1621376872062683,0.0,0.0,1.6723607778549194,-0.01,-0.01,0.0,0.0
19.20429300,19204293,2,0.21,0.28,348.58,0.007960161194205284,-0.010884895920753479,-0.06008594110608101,-0.16807077825069427,0.0,0.0,1.6576424837112427,-0.01,-0.01,0.01,0.0
19.30432700,19304327,2,0.2,0.28,348.56,0.00770726939663291,-0.01028431486338377,-0.0698108822107315,-0.1670626550912857,0.0,0.0,1.6408145427703857,-0.01,-0.01,0.02,0.0
19.40429200,19404292,2,0.21,0.28,348.53000000000003,0.007483477238565683,-0.008815288543701172,-0.07928668707609177,-0.19395124912261963,0.0,0.0,1.622122883796692,-0.02,-0.02,0.02,0.0
19.50435500,19504355,2,0.21,0.28,348.51,0.00733608053997159,-0.008460145443677902,-0.08804672211408615,-0.19476120173931122,0.0,0.0,1.6036946773529053,-0.02,-0.02,0.02,0.0
19.60431400,19604314,2,0.21,0.29,348.5,0.00691593624651432,-0.007164411712437868,-0.0970136821269989,-0.20037630200386047,0.0,0.0,1.5840495824813843,-0.02,-0.02,0.01,0.0
19.70429500,19704295,2,0.22,0.29,348.5,0.006586369592696428,-0.006639455910772085,-0.10350415855646133,-0.1683891862630844,0.0,0.0,1.568791389465332,-0.02,-0.02,0.0,0.0
19.80428500,19804285,2,0.22,0.29,348.53000000000003,0.006775044370442629,-0.005650881677865982,-0.10792692005634308,-0.11193019151687622,0.0,0.0,1.557046890258789,-0.02,-0.02,0.0,0.0
19.90428400,19904284,2,0.22,0.3,348.55,0.006185770500451326,-0.00495338998734951,-0.11182639747858047,-0.0817062184214592,0.0,0.0,1.5475671291351318,-0.02,-0.02,0.0,0.0
20.00429300,20004293,2,0.23,0.29,348.59000000000003,0.006604190915822983,-0.0042933509685099125,-0.11628604680299759,-0.07974843680858612,0.0,0.0,1.5375365018844604,-0.02,-0.02,0.0,0.0
20.10430500,20104305,2,0.23,0.3,348.61,0.005919544957578182,-0.0035921980161219835,-0.1208886131644249,-0.09787426888942719,0.0,0.0,1.5267698764801025,-0.02,-0.02,0.0,0.0
20.20432500,20204325,2,0.23,0.31,348.62,0.005419118329882622,-0.003502408741042018,-0.12478744238615036,-0.10981687903404236,0.0,0.0,1.5154170989990234,-0.02,-0.02,0.0,0.0
20.30429800,20304298,2,0.24,0.31,348.62,0.004082906991243362,-0.0020601775031536818,-0.1293918788433075,-0.12304669618606567,0.0,0.0,1.5029925107955933,-0.02,-0.02,0.0,0.0
20.40435200,20404352,2,0.23,0.32,348.62,0.0031877816654741764,-0.000751712650526315,-0.1339186429977417,-0.13886024057865143,0.0,0.0,1.4891326427459717,-0.02,-0.02,0.0,0.0
20.50431200,20504312,2,0.23,0.33,348.6,0.003134015714749694,-0.000579316692892462,-0.13841935992240906,-0.12246361374855042,0.0,0.0,1.4782941341400146,-0.02,-0.02,0.01,0.0
20.60430900,20604309,2,0.23,0.33,348.58,0.0029416473116725683,-0.00022114931198302656,-0.14116153120994568,-0.07044517248868942,0.0,0.0,1.47149658203125,-0.02,-0.02,0.01,0.0
20.70428000,20704280,2,0.23,0.34,348.55,0.0019824388436973095,-0.0005070018814876676,-0.14267446100711823,-0.04510188102722168,0.0,0.0,1.4653154611587524,-0.02,-0.02,0.01,0.0
20.80430000,20804300,2,0.24,0.33,348.53000000000003,0.002289474941790104,-0.000286884285742417,-0.14415982365608215,-0.05568899214267731,0.0,0.0,1.4580078125,-0.02,-0.02,0.01,0.0
20.90428900,20904289,2,0.24,0.33,348.51,0.0019485701341181993,-0.000902579165995121,-0.1452748328447342,-0.06426946818828583,0.0,0.0,1.451086401939392,-0.02,-0.02,0.01,0.0
21.00428100,21004281,2,0.24,0.34,348.51,0.0013089819112792611,-0.0007129421574063599,-0.14591732621192932,-0.047509148716926575,0.0,0.0,1.4463673830032349,-0.02,-0.02,0.01,0.0
21.10433200,21104332,2,0.24,0.35000000000000003,348.5,0.001048533827997744,-0.0014107006136327982,-0.14689671993255615,-0.026647338643670082,0.0,0.0,1.4434112310409546,-0.02,-0.02,0.01,0.0
21.20429500,21204295,2,0.25,0.34,348.49,0.0008832458988763392,-0.0016418172745034099,-0.14650507271289825,0.004531928338110447,0.0,0.0,1.4436612129211426,-0.02,-0.02,0.01,0.0
21.30436900,21304369,2,0.25,0.34,348.5,0.0006340396939776838,-0.001379135763272643,-0.14393605291843414,0.04562128335237503,0.0,0.0,1.4467662572860718,-0.02,-0.02,0.01,0.0
21.40431900,21404319,2,0.25,0.34,348.51,0.0003260234370827675,-0.0010693436488509178,-0.1415126472711563,0.04733671993017197,0.0,0.0,1.4489705562591553,-0.02,-0.02,0.01,0.0
21.50429600,21504296,2,0.25,0.34,348.51,8.22315487312153e-05,-0.001715446007438004,-0.139033704996109,0.05563827604055405,0.0,0.0,1.454201579093933,-0.02,-0.02,0.0,0.0
21.60429300,21604293,2,0.25,0.34,348.52,-0.00012854659871663898,-0.0013436888111755252,-0.13460591435432434,0.09275142103433609,0.0,0.0,1.462186574935913,-0.02,-0.02,0.0,0.0
21.70429500,21704295,2,0.25,0.35000000000000003,348.54,-0.0006265445845201612,-0.0015800355467945337,-0.12884539365768433,0.10987505316734314,0.0,0.0,1.4713516235351562,-0.02,-0.02,0.0,0.0
21.80428400,21804284,2,0.25,0.36,348.57,-0.0007354917470365763,-0.0014060174580663443,-0.12601079046726227,0.07322782278060913,0.0,0.0,1.4758291244506836,-0.02,-0.02,0.0,0.0
21.90428600,21904286,2,0.26,0.36,348.6,-0.0012689988361671567,-0.0014030534075573087,-0.12499144673347473,0.01898282580077648,0.0,0.0,1.4778505563735962,-0.02,-0.02,-0.01,0.0
22.00433200,22004332,2,0.26,0.37,348.64,-0.0017761541530489922,-0.0002791330043692142,-0.12373637408018112,0.01070392969995737,0.0,0.0,1.4803283214569092,-0.02,-0.02,-0.01,0.0
22.10429900,22104299,2,0.26,0.36,348.67,-0.002693143440410495,-0.00077858503209427,-0.1233643889427185,0.0067900922149419785,0.0,0.0,1.481322169303894,-0.02,-0.02,-0.02,0.0
22.20437900,22204379,2,0.25,0.36,348.69,-0.0020149885676801205,-0.0002456252695992589,-0.12203146517276764,0.003873769659548998,0.0,0.0,1.482312798500061,-0.02,-0.02,-0.01,0.0
22.30431700,22304317,2,0.25,0.37,348.71,-0.00246712239459157,0.0002825018600560725,-0.12050686031579971,0.02404726855456829,0.0,0.0,1.4854583740234375,-0.02,-0.02,-0.01,0.0
22.40432200,22404322,2,0.25,0.36,348.72,-0.0026984135620296,-0.00018951771198771894,-0.12033291161060333,0.024255279451608658,0.0,0.0,1.486793041229248,-0.02,-0.02,-0.01,0.0
22.50429500,22504295,2,0.25,0.36,348.73,-0.003559952136129141,0.0005727746756747365,-0.1204276978969574,-0.020661352202296257,0.0,0.0,1.4838042259216309,-0.02,-0.02,-0.01,0.0
22.60429700,22604297,2,0.25,0.37,348.73,-0.0038023197557777166,0.001327295321971178,-0.12016384303569794,-0.0584946945309639,0.0,0.0,1.478793740272522,-0.02,-0.02,-0.02,0.0
22.70428500,22704285,2,0.26,0.37,348.73,-0.004950568545609713,0.001279684598557651,-0.11990248411893845,-0.04681939631700516,0.0,0.0,1.4761043787002563,-0.02,-0.02,-0.02,0.0
22.80430200,22804302,2,0.26,0.37,348.75,-0.005362116266041994,0.002045000670477748,-0.1187361627817154,-0.007129506673663855,0.0,0.0,1.4761767387390137,-0.02,-0.02,-0.02,0.0
22.90433200,22904332,2,0.25,0.37,348.76,-0.006395617499947548,0.0026845301035791636,-0.1169658824801445,0.0004365424392744899,0.0,0.0,1.4748539924621582,-0.02,-0.02,-0.01,0.0
23.00429100,23004291,2,0.25,0.38,348.75,-0.007377331145107746,0.003977205138653517,-0.1161830723285675,-0.0326090082526207,0.0,0.0,1.470515251159668,-0.02,-0.02,0.0,0.0
23.10437000,23104370,2,0.25,0.39,348.74,-0.008830235339701176,0.005432140082120895,-0.1170012503862381,-0.055070437490940094,0.0,0.0,1.4656773805618286,-0.02,-0.02,-0.01,0.0
23.20431500,23204315,2,0.24,0.39,348.73,-0.009685787372291088,0.006470315624028444,-0.11692284792661667,-0.03199370205402374,0.0,0.0,1.463853120803833,-0.02,-0.02,-0.01,0.0
23.30432300,23304323,2,0.24,0.39,348.74,-0.010290910489857197,0.00693296967074275,-0.11612799018621445,-0.018736811354756355,0.0,0.0,1.4609766006469727,-0.02,-0.02,-0.01,0.0
23.40428600,23404286,2,0.23,0.4,348.74,-0.01064231339842081,0.006957629229873419,-0.11534447222948074,-0.03867366164922714,0.0,0.0,1.456549882888794,-0.02,-0.02,-0.01,0.0
23.50429200,23504292,2,0.23,0.39,348.74,-0.012413146905601025,0.006341369356960058,-0.11334310472011566,-0.02100641094148159,0.0,0.0,1.4553520679473877,-0.02,-0.02,-0.01,0.0
23.60428600,23604286,2,0.24,0.39,348.73,-0.013495516031980515,0.006767197512090206,-0.10955452173948288,0.043066561222076416,0.0,0.0,1.4599425792694092,-0.02,-0.02,-0.01,0.0
23.70428800,23704288,2,0.23,0.39,348.74,-0.014841154217720032,0.008253430016338825,-0.10499398410320282,0.08066151291131973,0.0,0.0,1.4655327796936035,-0.02,-0.02,-0.02,0.0
23.80432400,23804324,2,0.23,0.39,348.75,-0.016489213332533836,0.00786545779556036,-0.10238469392061234,0.043767739087343216,0.0,0.0,1.4669872522354126,-0.02,-0.02,-0.01,0.0
23.90430100,23904301,2,0.23,0.4,348.77,-0.017310354858636856,0.008716688491404057,-0.10068731009960175,-0.005088106729090214,0.0,0.0,1.4661121368408203,-0.02,-0.02,-0.02,0.0
24.00436000,24004360,2,0.22,0.4,348.78000000000003,-0.018722809851169586,0.009512144140899181,-0.09905610233545303,-0.019969318062067032,0.0,0.0,1.464927315711975,-0.02,-0.02,-0.02,0.0
24.10431100,24104311,2,0.22,0.4,348.8,-0.018928473815321922,0.010356246493756771,-0.09643673896789551,0.0037921913899481297,0.0,0.0,1.4667294025421143,-0.02,-0.02,-0.02,0.0
24.20429500,24204295,2,0.21,0.39,348.83,-0.019612444564700127,0.010513892397284508,-0.09435205906629562,0.026902342215180397,0.0,0.0,1.4687309265136719,-0.02,-0.02,-0.02,0.0
24.30429700,24304297,2,0.21,0.4,348.84000000000003,-0.020483998581767082,0.010844030417501926,-0.09249042719602585,0.009182034060359001,0.0,0.0,1.4685593843460083,-0.02,-0.02,-0.02,0.0
24.40429200,24404292,2,0.22,0.4,348.85,-0.021224237978458405,0.010971125215291977,-0.09047532081604004,-0.009276438504457474,0.0,0.0,1.4676176309585571,-0.02,-0.02,-0.02,0.0
24.50428100,24504281,2,0.22,0.41000000000000003,348.84000000000003,-0.02230134792625904,0.010807204060256481,-0.08767068386077881,0.004178925883024931,0.0,0.0,1.468793272972107,-0.02,-0.02,-0.01,0.0
24.60429300,24604293,2,0.21,0.4,348.83,-0.02354622446000576,0.011926159262657166,-0.08353308588266373,0.04471283406019211,0.0,0.0,1.4733757972717285,-0.02,-0.02,-0.01,0.0
24.70432900,24704329,2,0.21,0.41000000000000003,348.81,-0.025113418698310852,0.011865655891597271,-0.08024121075868607,0.05467813089489937,0.0,0.0,1.4771184921264648,-0.02,-0.02,-0.01,0.0
24.80429100,24804291,2,0.2,0.42,348.79,-0.025424448773264885,0.011716771870851517,-0.07866404205560684,0.020713629201054573,0.0,0.0,1.477907419204712,-0.02,-0.02,0.0,0.0
24.90435400,24904354,2,0.2,0.41000000000000003,348.77,-0.026584958657622337,0.011956310831010342,-0.07685937732458115,0.0072128321044147015,0.0,0.0,1.479312539100647,-0.02,-0.02,0.0,0.0
25.00431700,25004317,2,0.2,0.41000000000000003,348.74,-0.026864640414714813,0.012716852128505707,-0.07480672746896744,0.016877686604857445,0.0,0.0,1.4812450408935547,-0.02,-0.02,0.0,0.0
25.10427900,25104279,2,0.2,0.41000000000000003,348.7,-0.027366412803530693,0.012490794062614441,-0.07213515788316727,0.022015035152435303,0.0,0.0,1.483747124671936,-0.02,-0.02,0.0,0.0
25.20428200,25204282,2,0.19,0.4,348.67,-0.02795049361884594,0.011500939726829529,-0.0704759880900383,0.02391785942018032,0.0,0.0,1.485693335533142,-0.02,-0.02,0.0,0.0
25.30428300,25304283,2,0.19,0.4,348.64,-0.027975549921393394,0.0106925368309021,-0.06894481182098389,0.01719232276082039,0.0,0.0,1.4872426986694336,-0.02,-0.02,0.0,0.0
25.40428100,25404281,2,0.18,0.41000000000000003,348.6,-0.02921874076128006,0.009347239509224892,-0.06712142378091812,0.03188314661383629,0.0,0.0,1.4907759428024292,-0.02,-0.02,0.01,0.0
25.50429100,25504291,2,0.18,0.41000000000000003,348.58,-0.02937282621860504,0.007906544953584671,-0.06546904891729355,0.022152235731482506,0.0,0.0,1.4917982816696167,-0.02,-0.02,0.01,0.0
25.60433300,25604333,2,0.18,0.41000000000000003,348.57,-0.02995804324746132,0.007793349679559469,-0.0646466463804245,-0.00840150099247694,0.0,0.0,1.4907985925674438,-0.02,-0.02,0.0,0.0
25.70429200,25704292,2,0.18,0.4,348.57,-0.030385121703147888,0.006295000668615103,-0.06457597017288208,-0.02405145950615406,0.0,0.0,1.4891268014907837,-0.02,-0.02,0.0,0.0
25.80435100,25804351,2,0.18,0.39,348.56,-0.03029157593846321,0.0060523077845573425,-0.06284794956445694,-0.012403544969856739,0.0,0.0,1.4889546632766724,-0.02,-0.02,0.01,0.0
25.90431300,25904313,2,0.18,0.39,348.54,-0.02977782115340233,0.005691147409379482,-0.06314096599817276,-0.026286019012331963,0.0,0.0,1.4855791330337524,-0.02,-0.02,0.02,0.0
26.00429900,26004299,2,0.18,0.39,348.52,-0.02990354411303997,0.00403734901919961,-0.06266339123249054,-0.03250535950064659,0.0,0.0,1.4834210872650146,-0.02,-0.02,0.02,0.0
26.10428100,26104281,2,0.18,0.39,348.5,-0.030107662081718445,0.003795637981966138,-0.06134810298681259,0.0033052251674234867,0.0,0.0,1.484703779220581,-0.02,-0.02,0.02,0.0
26.20428300,26204283,2,0.17,0.38,348.47,-0.031087426468729973,0.0033267999533563852,-0.05937163531780243,0.020539233461022377,0.0,0.0,1.4859391450881958,-0.02,-0.02,0.02,0.0
26.30429000,26304290,2,0.17,0.38,348.46,-0.032152969390153885,0.0032093781046569347,-0.058456722646951675,0.006172098219394684,0.0,0.0,1.4853323698043823,-0.02,-0.02,0.02,0.0
26.40429800,26404298,2,0.17,0.39,348.45,-0.03200875595211983,0.002153318142518401,-0.05780318006873131,-0.017020514234900475,0.0,0.0,1.4832723140716553,-0.02,-0.01,0.02,0.0
26.50432300,26504323,2,0.16,0.38,348.45,-0.03222910687327385,0.001483765197917819,-0.05755976215004921,-0.032753076404333115,0.0,0.0,1.480312705039978,-0.02,-0.01,0.02,0.0
26.60430600,26604306,2,0.15,0.38,348.45,-0.03195604681968689,0.0012885374017059803,-0.05761735513806343,-0.042401913553476334,0.0,0.0,1.476552128791809,-0.02,-0.01,0.02,0.0
26.70435400,26704354,2,0.15,0.38,348.44,-0.03173122555017471,0.0007493462762795389,-0.057901542633771896,-0.06381762027740479,0.0,0.0,1.4701050519943237,-0.02,-0.01,0.02,0.0
26.80431200,26804312,2,0.15,0.38,348.44,-0.031625762581825256,-0.0004520523070823401,-0.05809353291988373,-0.0597897432744503,0.0,0.0,1.4659292697906494,-0.02,-0.01,0.02,0.0
26.90432300,26904323,2,0.16,0.38,348.44,-0.03232085704803467,-0.000795692962128669,-0.05701722577214241,-0.022436894476413727,0.0,0.0,1.4639992713928223,-0.02,-0.01,0.02,0.0
27.00429400,27004294,2,0.16,0.38,348.43,-0.03300444781780243,-0.0016911266138777137,-0.055833518505096436,0.00396308209747076,0.0,0.0,1.4636751413345337,-0.02,-0.01,0.02,0.0
27.10429000,27104290,2,0.15,0.38,348.41,-0.033201664686203,-0.0029787004459649324,-0.05438796058297157,0.0067146411165595055,0.0,0.0,1.4632019996643066,-0.02,-0.01,0.02,0.0
27.20428500,27204285,2,0.14,0.37,348.41,-0.03405620902776718,-0.003149216528981924,-0.053679101169109344,-0.00737039977684617,0.0,0.0,1.4617061614990234,-0.02,-0.01,0.02,0.0
27.30428400,27304284,2,0.14,0.37,348.40000000000003,-0.034004125744104385,-0.003891157452017069,-0.0537281334400177,-0.024494154378771782,0.0,0.0,1.4591200351715088,-0.02,-0.01,0.02,0.0
27.40432800,27404328,2,0.14,0.37,348.41,-0.03324246406555176,-0.004764048382639885,-0.0532926544547081,-0.02151441015303135,0.0,0.0,1.4575684070587158,-0.02,-0.01,0.02,0.0
27.50430500,27504305,2,0.14,0.37,348.43,-0.03202103078365326,-0.005102558061480522,-0.05239754542708397,-0.020534906536340714,0.0,0.0,1.4553121328353882,-0.02,-0.01,0.02,0.0
27.60436300,27604363,2,0.14,0.37,348.44,-0.031323306262493134,-0.005697012413293123,-0.050618648529052734,-0.028407122939825058,0.0,0.0,1.4524286985397339,-0.02,-0.01,0.02,0.0
27.70432100,27704321,2,0.13,0.37,348.45,-0.03148774802684784,-0.006020624656230211,-0.049972422420978546,-0.005266539286822081,0.0,0.0,1.4527727365493774,-0.02,-0.01,0.02,0.0
27.80427900,27804279,2,0.13,0.37,348.46,-0.030965285375714302,-0.006108654197305441,-0.048315055668354034,0.006027575116604567,0.0,0.0,1.4522117376327515,-0.02,-0.01,0.01,0.0
27.90428700,27904287,2,0.12,0.37,348.47,-0.030539080500602722,-0.007338028401136398,-0.04739167168736458,-0.017537754029035568,0.0,0.0,1.4498668909072876,-0.02,-0.01,0.01,0.0
28.00428300,28004283,2,0.12,0.36,348.48,-0.030319660902023315,-0.008984524756669998,-0.04572559893131256,-0.0032628278713673353,0.0,0.0,1.450400471687317,-0.02,-0.01,0.0,0.0
28.10428100,28104281,2,0.12,0.36,348.51,-0.02923264354467392,-0.010112767107784748,-0.044654712080955505,0.008791300468146801,0.0,0.0,1.4504613876342773,-0.02,-0.01,0.0,0.0
28.20428800,28204288,2,0.12,0.35000000000000003,348.54,-0.028670936822891235,-0.010971078649163246,-0.043073587119579315,0.020151639357209206,0.0,0.0,1.452698826789856,-0.02,-0.01,0.0,0.0
28.30433000,28304330,2,0.12,0.35000000000000003,348.55,-0.028553828597068787,-0.011647296138107777,-0.04117969051003456,0.06468488276004791,0.0,0.0,1.4590221643447876,-0.02,-0.01,0.0,0.0
28.40428100,28404281,2,0.12,0.35000000000000003,348.56,-0.02868635766208172,-0.012444961816072464,-0.038320790976285934,0.06916798651218414,0.0,0.0,1.4636260271072388,-0.02,-0.01,0.0,0.0
28.50435200,28504352,2,0.11,0.35000000000000003,348.56,-0.028172584250569344,-0.014105659909546375,-0.03712734952569008,0.039443690329790115,0.0,0.0,1.4668759107589722,-0.02,-0.01,0.01,0.0
28.60431600,28604316,2,0.11,0.35000000000000003,348.56,-0.027336692437529564,-0.014648878946900368,-0.03353375196456909,0.05659759044647217,0.0,0.0,1.4732396602630615,-0.02,-0.01,0.01,0.0
28.70428100,28704281,2,0.11,0.35000000000000003,348.55,-0.026794306933879852,-0.016381243243813515,-0.030423182994127274,0.0832567811012268,0.0,0.0,1.4807485342025757,-0.02,-0.01,0.0,0.0
28.80429600,28804296,2,0.11,0.35000000000000003,348.55,-0.0262916199862957,-0.017840124666690826,-0.028477627784013748,0.07068490236997604,0.0,0.0,1.48641037940979,-0.02,-0.01,0.01,0.0
28.90429400,28904294,2,0.11,0.34,348.54,-0.025795944035053253,-0.01931881159543991,-0.02691389061510563,0.04006589576601982,0.0,0.0,1.4897929430007935,-0.02,-0.01,0.01,0.0
29.00428000,29004280,2,0.11,0.34,348.53000000000003,-0.02526259422302246,-0.01976991444826126,-0.025233756750822067,0.035655125975608826,0.0,0.0,1.4943270683288574,-0.02,-0.01,0.0,0.0
29.10428200,29104282,2,0.11,0.33,348.54,-0.02397632971405983,-0.021215708926320076,-0.023163380101323128,0.07078185677528381,0.0,0.0,1.502152681350708,-0.02,-0.01,0.0,0.0
29.20433500,29204335,2,0.11,0.33,348.54,-0.02236510068178177,-0.02302423305809498,-0.02139410190284252,0.09740113466978073,0.0,0.0,1.5111360549926758,-0.02,-0.01,0.01,0.0
29.30430000,29304300,2,0.11,0.33,348.53000000000003,-0.02065208926796913,-0.02422507293522358,-0.019423987716436386,0.09505666792392731,0.0,0.0,1.5193850994110107,-0.02,-0.01,0.01,0.0
29.40436500,29404365,2,0.12,0.32,348.53000000000003,-0.019829319790005684,-0.025507044047117233,-0.017586588859558105,0.05758849158883095,0.0,0.0,1.5236088037490845,-0.02,-0.01,0.01,0.0
29.50431300,29504313,2,0.12,0.33,348.52,-0.018907370045781136,-0.026529287919402122,-0.01539486926048994,0.012292320840060711,0.0,0.0,1.5251944065093994,-0.02,-0.01,0.0,0.0
29.60429700,29604297,2,0.11,0.33,348.52,-0.018733074888586998,-0.026397300884127617,-0.013522030785679817,0.004284542053937912,0.0,0.0,1.527146816253662,-0.02,-0.01,0.0,0.0
29.70429900,29704299,2,0.11,0.32,348.53000000000003,-0.01824130117893219,-0.026740197092294693,-0.012711817398667336,0.004919147118926048,0.0,0.0,1.5282962322235107,-0.02,-0.01,0.01,0.0
29.80429100,29804291,2,0.12,0.32,348.52,-0.017633380368351936,-0.02587216906249523,-0.011907326057553291,0.007455727085471153,0.0,0.0,1.5299391746520996,-0.02,-0.01,0.01,0.0
29.90428400,29904284,2,0.11,0.33,348.51,-0.016538934782147408,-0.026688240468502045,-0.011097202077507973,0.025369275361299515,0.0,0.0,1.5329333543777466,-0.02,-0.01,0.01,0.0
30.00427200,30004272,2,0.11,0.33,348.5,-0.01588715985417366,-0.02760697342455387,-0.008926858194172382,0.05654444918036461,0.0,0.0,1.5388239622116089,-0.02,-0.01,0.01,0.0
30.10431200,30104312,2,0.11,0.33,348.5,-0.014929392375051975,-0.02908872440457344,-0.0077451057732105255,0.06734804064035416,0.0,0.0,1.544067144393921,-0.02,-0.01,0.01,0.0
30.20428400,30204284,2,0.11,0.33,348.5,-0.014302844181656837,-0.02958448976278305,-0.006155164446681738,0.044462330639362335,0.0,0.0,1.5475016832351685,-0.02,-0.01,0.01,0.0
30.30434500,30304345,2,0.11,0.33,348.5,-0.014870465733110905,-0.029495155438780785,-0.005160551518201828,0.028019482269883156,0.0,0.0,1.5503665208816528,-0.02,-0.01,0.01,0.0
30.40429800,30404298,2,0.11,0.33,348.51,-0.014520901255309582,-0.029471032321453094,-0.0043038008734583855,0.0176182109862566,0.0,0.0,1.55230712890625,-0.02,-0.01,0.0,0.0
30.50429300,30504293,2,0.11,0.34,348.53000000000003,-0.01456462126225233,-0.030155174434185028,-0.0021332891192287207,0.01980563998222351,0.0,0.0,1.554971694946289,-0.02,-0.01,0.0,0.0
30.60428600,30604286,2,0.11,0.33,348.56,-0.014417612925171852,-0.02998889796435833,-0.0021253458689898252,0.022102413699030876,0.0,0.0,1.5571272373199463,-0.02,-0.01,0.0,0.0
30.70429600,30704296,2,0.11,0.33,348.58,-0.013541645370423794,-0.030299540609121323,-0.0019000484608113766,-0.006758793257176876,0.0,0.0,1.55592942237854,-0.02,-0.01,0.0,0.0
30.80427600,30804276,2,0.11,0.34,348.61,-0.014039232395589352,-0.02983124740421772,-0.002030646428465843,-0.029960954561829567,0.0,0.0,1.554030418395996,-0.02,-0.01,0.0,0.0
30.90427300,30904273,2,0.11,0.33,348.62,-0.014142114669084549,-0.030138321220874786,-0.0022068065591156483,-0.03453995659947395,0.0,0.0,1.5513100624084473,-0.02,-0.01,0.0,0.0
31.00431300,31004313,2,0.11,0.34,348.63,-0.01473941095173359,-0.029143577441573143,-0.0034648270811885595,-0.03233881667256355,0.0,0.0,1.5492262840270996,-0.02,-0.01,0.0,0.0
31.10427800,31104278,2,0.11,0.34,348.63,-0.014813970774412155,-0.029717402532696724,-0.0031266415026038885,-0.01814095303416252,0.0,0.0,1.5477328300476074,-0.02,-0.01,0.0,0.0
31.20434400,31204344,2,0.11,0.34,348.63,-0.014920533634722233,-0.02933770976960659,-0.003716901643201709,-0.023435216397047043,0.0,0.0,1.54501473903656,-0.03,-0.01,0.0,0.0
31.30430200,31304302,2,0.11,0.35000000000000003,348.62,-0.015562997199594975,-0.029259944334626198,-0.0035694458056241274,-0.02964293770492077,0.0,0.0,1.54237961769104,-0.03,0.0,0.0,0.0
31.40427800,31404278,2,0.11,0.35000000000000003,348.62,-0.01660591922700405,-0.02909931167960167,-0.002384827472269535,-0.009207017719745636,0.0,0.0,1.542101263999939,-0.03,0.0,0.0,0.0
31.50427900,31504279,2,0.11,0.35000000000000003,348.6,-0.0169986505061388,-0.028531508520245552,-0.0019663763232529163,-0.0024679226335138083,0.0,0.0,1.540962815284729,-0.03,0.0,0.0,0.0
31.60427100,31604271,2,0.12,0.35000000000000003,348.59000000000003,-0.017368553206324577,-0.028432078659534454,-0.0019173492910340428,-0.023520899936556816,0.0,0.0,1.5381838083267212,-0.03,0.0,0.0,0.0
31.70427400,31704274,2,0.12,0.34,348.59000000000003,-0.0183103010058403,-0.027272790670394897,-0.0004780960734933615,-0.02026292309165001,0.0,0.0,1.5368655920028687,-0.03,0.0,0.0,0.0
31.80427300,31804273,2,0.12,0.34,348.6,-0.018845485523343086,-0.026050088927149773,-0.00024789886083453894,-0.0012320511741563678,0.0,0.0,1.5368883609771729,-0.03,0.0,0.0,0.0
31.90431600,31904316,2,0.12,0.35000000000000003,348.6,-0.01908627338707447,-0.025723345577716827,0.0012436856050044298,0.02195318043231964,0.0,0.0,1.539139747619629,-0.03,0.0,0.0,0.0
32.00428200,32004282,2,0.12,0.35000000000000003,348.61,-0.019634420052170753,-0.0250882338732481,0.002503722906112671,0.02651127241551876,0.0,0.0,1.5403907299041748,-0.03,0.0,0.0,0.0
32.10434000,32104340,2,0.12,0.35000000000000003,348.61,-0.020375844091176987,-0.024950489401817322,0.002649574773386121,-0.0009345961734652519,0.0,0.0,1.5395724773406982,-0.03,0.0,0.0,0.0
32.20430500,32204305,2,0.12,0.34,348.61,-0.021227089688181877,-0.02426285296678543,0.0022085458040237427,-0.024264579638838768,0.0,0.0,1.53733229637146,-0.03,0.0,0.0,0.0
32.30427500,32304275,2,0.12,0.34,348.61,-0.021750357002019882,-0.02410208061337471,0.001932644983753562,-0.029525671154260635,0.0,0.0,1.5352507829666138,-0.03,0.0,0.0,0.0
32.40426800,32404268,2,0.12,0.34,348.62,-0.02197343297302723,-0.023806001991033554,0.002075771801173687,-0.02085530199110508,0.0,0.0,1.5337904691696167,-0.03,0.0,0.0,0.0
32.50426800,32504268,2,0.12,0.34,348.63,-0.021669859066605568,-0.023533562198281288,0.0029837945476174355,-0.007033192086964846,0.0,0.0,1.5333919525146484,-0.03,0.0,0.0,0.0
32.60427600,32604276,2,0.12,0.34,348.64,-0.021749578416347504,-0.023234516382217407,0.0040802969597280025,0.006609177682548761,0.0,0.0,1.5338976383209229,-0.03,0.0,0.0,0.0
32.70426900,32704269,2,0.12,0.34,348.63,-0.021251756697893143,-0.023400569334626198,0.00544381607323885,0.027043558657169342,0.0,0.0,1.536538004875183,-0.03,0.0,0.0,0.0
32.80431500,32804315,2,0.12,0.33,348.62,-0.02028091438114643,-0.02266058698296547,0.005470865406095982,0.016861192882061005,0.0,0.0,1.5367015600204468,-0.03,0.0,0.0,0.0
32.90428200,32904282,2,0.12,0.34,348.61,-0.019879251718521118,-0.022342151030898094,0.006343480199575424,-0.005758471321314573,0.0,0.0,1.5359770059585571,-0.03,0.0,0.0,0.0
33.00434500,33004345,2,0.12,0.34,348.6,-0.020274363458156586,-0.021692905575037003,0.006163216196000576,-0.005001944024115801,0.0,0.0,1.5361703634262085,-0.03,0.0,0.0,0.0
33.10429800,33104298,2,0.12,0.34,348.61,-0.020766545087099075,-0.020931953564286232,0.006313110701739788,0.0020211022347211838,0.0,0.0,1.5365229845046997,-0.03,0.0,0.0,0.0
33.20427100,33204271,2,0.12,0.33,348.61,-0.020294271409511566,-0.020440474152565002,0.0065537323243916035,0.0019326576730236411,0.0,0.0,1.5365824699401855,-0.03,0.0,0.0,0.0
33.30427200,33304272,2,0.12,0.33,348.64,-0.020221788436174393,-0.02018655650317669,0.008091414347290993,0.002881473395973444,0.0,0.0,1.536826729774475,-0.03,0.0,0.0,0.0
33.40427800,33404278,2,0.12,0.34,348.66,-0.02098918706178665,-0.019738519564270973,0.008610528893768787,-0.00970243290066719,0.0,0.0,1.5352894067764282,-0.03,0.0,0.0,0.0
33.50427100,33504271,2,0.12,0.33,348.68,-0.02170787751674652,-0.019549448043107986,0.009050006978213787,-0.013074100017547607,0.0,0.0,1.5347731113433838,-0.03,0.0,0.0,0.0
33.60427300,33604273,2,0.12,0.33,348.7,-0.02191244252026081,-0.01957857981324196,0.009847338311374187,0.0011674314737319946,0.0,0.0,1.5352333784103394,-0.03,0.0,0.0,0.0
33.70431600,33704316,2,0.12,0.33,348.71,-0.021159766241908073,-0.01995762251317501,0.009712454862892628,0.0037693113554269075,0.0,0.0,1.535282850265503,-0.03,0.0,0.0,0.0
33.80429000,33804290,2,0.12,0.33,348.71,-0.02057582512497902,-0.02056330069899559,0.010225369594991207,-0.012060092762112617,0.0,0.0,1.5337649583816528,-0.03,0.0,0.0,0.0
33.90437100,33904371,2,0.11,0.33,348.71,-0.020430361852049828,-0.02037220448255539,0.010008430108428001,-0.038493767380714417,0.0,0.0,1.5300887823104858,-0.03,0.0,0.0,0.0
34.00430300,34004303,2,0.11,0.32,348.71,-0.020500337705016136,-0.020544597879052162,0.010130083188414574,-0.05106695741415024,0.0,0.0,1.5258936882019043,-0.03,0.0,0.0,0.0
34.10426900,34104269,2,0.11,0.32,348.71,-0.020191460847854614,-0.02037419192492962,0.009608407504856586,-0.052869830280542374,0.0,0.0,1.5213878154754639,-0.03,0.0,0.0,0.0
34.20427200,34204272,2,0.1,0.32,348.71,-0.019646478816866875,-0.019589748233556747,0.008662610314786434,-0.044059742242097855,0.0,0.0,1.5177984237670898,-0.03,0.0,0.0,0.0
34.30428500,34304285,2,0.1,0.32,348.71,-0.019601743668317795,-0.019998405128717422,0.008381727151572704,-0.025483757257461548,0.0,0.0,1.5155097246170044,-0.03,0.0,0.0,0.0
34.40426700,34404267,2,0.1,0.32,348.71,-0.020411083474755287,-0.019940268248319626,0.008577842265367508,-0.01951577700674534,0.0,0.0,1.5131103992462158,-0.03,0.0,0.0,0.0
34.50427600,34504276,2,0.1,0.33,348.71,-0.019333988428115845,-0.0202054250985384,0.008398503065109253,-0.012540041469037533,0.0,0.0,1.511799693107605,-0.03,0.0,0.0,0.0
34.60432400,34604324,2,0.1,0.33,348.71,-0.01931079849600792,-0.020353248342871666,0.008431698195636272,0.0013016449520364404,0.0,0.0,1.511588215827942,-0.03,0.0,0.0,0.0
34.70428100,34704281,2,0.1,0.33,348.71,-0.01986091397702694,-0.021196912974119186,0.008923526853322983,0.007581167388707399,0.0,0.0,1.5117475986480713,-0.03,0.0,0.0,0.0
34.80434000,34804340,2,0.1,0.34,348.71,-0.019605806097388268,-0.02201691083610058,0.008323490619659424,-0.0003831912763416767,0.0,0.0,1.511076807975769,-0.03,0.0,0.0,0.0
34.90430400,34904304,2,0.09,0.34,348.71,-0.020320506766438484,-0.023075886070728302,0.008856344036757946,-0.00966633204370737,0.0,0.0,1.5100539922714233,-0.03,0.0,0.0,0.0
35.00426900,35004269,2,0.09,0.35000000000000003,348.72,-0.02104722149670124,-0.023164283484220505,0.008881260640919209,-0.012595131061971188,0.0,0.0,1.5089285373687744,-0.03,0.0,0.0,0.0
35.10426700,35104267,2,0.09,0.35000000000000003,348.73,-0.0206972174346447,-0.023075861856341362,0.008411355316638947,-0.008131803013384342,0.0,0.0,1.508462905883789,-0.03,0.0,0.0,0.0
35.20428800,35204288,2,0.08,0.34,348.74,-0.021401045843958855,-0.024072790518403053,0.009183132089674473,0.0030006011947989464,0.0,0.0,1.5087634325027466,-0.03,0.0,0.0,0.0
35.30427000,35304270,2,0.08,0.34,348.75,-0.021781031042337418,-0.0249724630266428,0.009040897712111473,-0.0018864766461774707,0.0,0.0,1.508063793182373,-0.03,0.0,0.0,0.0
35.40427600,35404276,2,0.09,0.34,348.76,-0.02150789089500904,-0.024699024856090546,0.007942864671349525,-0.02031521126627922,0.0,0.0,1.5059901475906372,-0.03,0.0,0.0,0.0
35.50431300,35504313,2,0.08,0.33,348.76,-0.020923538133502007,-0.025079529732465744,0.008822022937238216,-0.020613715052604675,0.0,0.0,1.5045607089996338,-0.03,0.0,0.0,0.0
35.60429700,35604297,2,0.08,0.33,348.76,-0.021391961723566055,-0.025111816823482513,0.009434975683689117,-0.0076873344369232655,0.0,0.0,1.5040720701217651,-0.03,0.0,0.0,0.0
35.70434600,35704346,2,0.08,0.32,348.74,-0.02166352979838848,-0.025419482961297035,0.009939557872712612,-0.02114817127585411,0.0,0.0,1.501260757446289,-0.03,0.0,0.0,0.0
35.80429900,35804299,2,0.08,0.31,348.73,-0.02137836627662182,-0.02624943107366562,0.010143974795937538,-0.03363381326198578,0.0,0.0,1.4985969066619873,-0.03,0.0,0.0,0.0
35.90427100,35904271,2,0.08,0.31,348.72,-0.021563304588198662,-0.0278767179697752,0.009811559692025185,-0.020043713971972466,0.0,0.0,1.497002363204956,-0.03,0.0,0.0,0.0
36.00428400,36004284,2,0.08,0.3,348.71,-0.021118946373462677,-0.02810598909854889,0.01010980736464262,-0.0039535509422421455,0.0,0.0,1.4969122409820557,-0.03,0.0,0.0,0.0
36.10426900,36104269,2,0.08,0.31,348.7,-0.022078562527894974,-0.02885514870285988,0.011196466162800789,0.015704846009612083,0.0,0.0,1.498216986656189,-0.03,0.0,0.0,0.0
36.20427200,36204272,2,0.08,0.3,348.7,-0.021663522347807884,-0.029222525656223297,0.011755130253732204,0.03671513870358467,0.0,0.0,1.501631736755371,-0.03,0.0,0.0,0.0
36.30427500,36304275,2,0.09,0.3,348.7,-0.021463625133037567,-0.03023897483944893,0.012435432523488998,0.03630175068974495,0.0,0.0,1.5037966966629028,-0.03,0.0,0.0,0.0
36.40431600,36404316,2,0.08,0.3,348.69,-0.020305681973695755,-0.030104774981737137,0.013375435024499893,0.025464028120040894,0.0,0.0,1.505929946899414,-0.03,0.0,0.0,0.0
36.50428000,36504280,2,0.09,0.3,348.68,-0.019976628944277763,-0.031089315190911293,0.014138654805719852,0.03538014739751816,0.0,0.0,1.5097758769989014,-0.03,0.0,0.0,0.0
36.60434600,36604346,2,0.09,0.3,348.68,-0.019353622570633888,-0.030284803360700607,0.015590699389576912,0.05191474035382271,0.0,0.0,1.5146842002868652,-0.03,0.0,0.0,0.0
36.70430100,36704301,2,0.09,0.3,348.67,-0.019125506281852722,-0.03089570626616478,0.016833895817399025,0.03489840030670166,0.0,0.0,1.516631841659546,-0.03,0.0,0.0,0.0
36.80427500,36804275,2,0.08,0.29,348.67,-0.018106786534190178,-0.03190341591835022,0.018277283757925034,0.009256158955395222,0.0,0.0,1.5176801681518555,-0.03,0.0,0.0,0.0
36.90427200,36904272,2,0.08,0.3,348.66,-0.01803993619978428,-0.03224866837263107,0.020130757242441177,0.02172897942364216,0.0,0.0,1.5211107730865479,-0.03,0.0,0.0,0.0
37.00427800,37004278,2,0.09,0.3,348.66,-0.01811053976416588,-0.03284766897559166,0.021408433094620705,0.0410756953060627,0.0,0.0,1.5252028703689575,-0.03,0.0,0.0,0.0
37.10427100,37104271,2,0.09,0.3,348.65000000000003,-0.017332781106233597,-0.03374392166733742,0.022536957636475563,0.03456868231296539,0.0,0.0,1.527858853340149,-0.03,0.0,0.0,0.0
37.20427200,37204272,2,0.09,0.29,348.65000000000003,-0.016705745831131935,-0.03391723334789276,0.023352032527327538,0.03610556945204735,0.0,0.0,1.5319812297821045,-0.03,0.0,0.0,0.0
37.30431500,37304315,2,0.1,0.29,348.65000000000003,-0.015773000195622444,-0.03454170748591423,0.023819053545594215,0.04726294055581093,0.0,0.0,1.5363528728485107,-0.03,0.0,0.0,0.0
37.40428000,37404280,2,0.1,0.29,348.67,-0.014551092870533466,-0.03459479659795761,0.02408500947058201,0.058540016412734985,0.0,0.0,1.5420538187026978,-0.03,0.0,0.0,0.0
37.50434000,37504340,2,0.1,0.29,348.68,-0.014123409986495972,-0.035101354122161865,0.025426847860217094,0.07627112418413162,0.0,0.0,1.5492788553237915,-0.03,0.0,0.0,0.0
37.60430100,37604301,2,0.1,0.29,348.69,-0.012417791411280632,-0.036020051687955856,0.026614803820848465,0.053437866270542145,0.0,0.0,1.5531243085861206,-0.03,0.0,0.0,0.0
37.70429700,37704297,2,0.11,0.28,348.7,-0.010959693230688572,-0.03631987050175667,0.02707279846072197,0.010690711438655853,0.0,0.0,1.5543577671051025,-0.03,0.0,0.0,0.0
37.80429600,37804296,2,0.11,0.28,348.71,-0.010737642645835876,-0.03615326061844826,0.027803197503089905,0.0005534719093702734,0.0,0.0,1.5555706024169922,-0.03,0.0,0.0,0.0
37.90428200,37904282,2,0.11,0.28,348.72,-0.010423611849546432,-0.03631488233804703,0.027284953743219376,-0.0027886279858648777,0.0,0.0,1.556012749671936,-0.03,0.0,0.0,0.0
38.00427700,38004277,2,0.11,0.27,348.72,-0.008922364562749863,-0.03701844438910484,0.026289958506822586,-0.0002950486959889531,0.0,0.0,1.5568912029266357,-0.03,0.0,0.0,0.0
38.10426800,38104268,2,0.11,0.27,348.73,-0.007899328134953976,-0.0376441515982151,0.02572062984108925,0.011321809142827988,0.0,0.0,1.558410882949829,-0.03,0.0,0.0,0.0
38.20431500,38204315,2,0.11,0.28,348.72,-0.007198752835392952,-0.037828657776117325,0.02611014060676098,0.01694346033036709,0.0,0.0,1.5599795579910278,-0.03,0.0,0.0,0.0
38.30428600,38304286,2,0.11,0.27,348.72,-0.006254267413169146,-0.03680601716041565,0.025874456390738487,0.010597474873065948,0.0,0.0,1.5607503652572632,-0.04,0.0,0.0,0.0
38.40439800,38404398,2,0.12,0.28,348.72,-0.005838598124682903,-0.036959610879421234,0.026011914014816284,0.010253976099193096,0.0,0.0,1.5621007680892944,-0.04,0.0,0.0,0.0
38.50430400,38504304,2,0.12,0.28,348.72,-0.005286300554871559,-0.03701683133840561,0.02690526656806469,0.023007940500974655,0.0,0.0,1.5644601583480835,-0.04,0.0,0.0,0.0
38.60427600,38604276,2,0.12,0.27,348.72,-0.004388041328638792,-0.036644063889980316,0.027383308857679367,0.03212277591228485,0.0,0.0,1.5674433708190918,-0.04,0.0,0.0,0.0
38.70426900,38704269,2,0.12,0.28,348.72,-0.0037143693771213293,-0.03567316383123398,0.027479153126478195,0.024631552398204803,0.0,0.0,1.5690646171569824,-0.04,0.0,0.0,0.0
38.80427000,38804270,2,0.13,0.27,348.72,-0.002627959242090583,-0.03595295920968056,0.027461687102913857,0.01374876219779253,0.0,0.0,1.5706737041473389,-0.04,0.0,0.0,0.0
38.90427900,38904279,2,0.13,0.27,348.71,-0.002052303170785308,-0.035223010927438736,0.027622630819678307,0.02459658309817314,0.0,0.0,1.573599100112915,-0.04,0.0,0.0,0.0
39.00427300,39004273,2,0.12,0.27,348.71,-0.0009008441120386124,-0.03452012315392494,0.02837882563471794,0.03661299869418144,0.0,0.0,1.5771191120147705,-0.04,0.0,0.0,0.0
39.10431300,39104313,2,0.12,0.27,348.71,0.0004627120797522366,-0.0349438302218914,0.02871074713766575,0.03571036830544472,0.0,0.0,1.5801922082901,-0.04,0.0,0.0,0.0
39.20428300,39204283,2,0.12,0.27,348.71,0.00038940683589316905,-0.034684594720602036,0.030339794233441353,0.05062389746308327,0.0,0.0,1.5855978727340698,-0.04,0.0,0.0,0.0
39.30434300,39304343,2,0.12,0.27,348.72,0.000930093985516578,-0.034135960042476654,0.030505452305078506,0.056078508496284485,0.0,0.0,1.5903395414352417,-0.04,0.0,0.0,0.0
39.40430200,39404302,2,0.13,0.27,348.72,0.0008320053457282484,-0.03389478102326393,0.032115060836076736,0.05231133848428726,0.0,0.0,1.5952609777450562,-0.04,0.0,0.0,0.0
39.50427100,39504271,2,0.12,0.27,348.73,0.000984027748927474,-0.03351252153515816,0.033453505486249924,0.056186653673648834,0.0,0.0,1.6007276773452759,-0.04,0.0,0.0,0.0
39.60427700,39604277,2,0.12,0.27,348.75,0.0011384006356820464,-0.0332970954477787,0.033859383314847946,0.05634014680981636,0.0,0.0,1.6060870885849,-0.04,0.0,0.0,0.0
39.70427200,39704272,2,0.12,0.26,348.77,0.0015098968287929893,-0.03289169445633888,0.03411215916275978,0.057617440819740295,0.0,0.0,1.6118507385253906,-0.04,0.0,0.0,0.0
39.80426800,39804268,2,0.13,0.27,348.78000000000003,0.0024482666049152613,-0.03239306062459946,0.03380955755710602,0.03921307995915413,0.0,0.0,1.6150388717651367,-0.04,0.0,0.0,0.0
39.90428400,39904284,2,0.12,0.27,348.78000000000003,0.0026284828782081604,-0.031949788331985474,0.034625157713890076,0.022205952554941177,0.0,0.0,1.617745041847229,-0.04,0.0,0.0,0.0
40.00432200,40004322,2,0.13,0.27,348.79,0.00365908513776958,-0.031796716153621674,0.03437933325767517,0.026149209588766098,0.0,0.0,1.621156930923462,-0.04,0.0,0.0,0.0
40.10429300,40104293,2,0.13,0.27,348.8,0.00486773531883955,-0.03188769519329071,0.0350232757627964,0.03809403255581856,0.0,0.0,1.6253092288970947,-0.04,0.0,0.0,0.0
40.20437100,40204371,2,0.13,0.27,348.81,0.004771718289703131,-0.03213808313012123,0.03521610051393509,0.035885270684957504,0.0,0.0,1.6284862756729126,-0.04,0.0,0.0,0.0
40.30430900,40304309,2,0.12,0.27,348.82,0.005044376477599144,-0.03237733244895935,0.036567315459251404,0.039916861802339554,0.0,0.0,1.6328176259994507,-0.04,0.0,0.0,0.0
40.40426900,40404269,2,0.13,0.27,348.82,0.005743448622524738,-0.032329484820365906,0.037794988602399826,0.0396280437707901,0.0,0.0,1.6362859010696411,-0.04,0.0,0.0,0.0
40.50426900,40504269,2,0.13,0.27,348.83,0.005964258220046759,-0.03249364718794823,0.03677505627274513,0.007239823695272207,0.0,0.0,1.6362229585647583,-0.04,0.0,0.0,0.0
40.60427800,40604278,2,0.13,0.27,348.83,0.005559626966714859,-0.03174646571278572,0.03579775616526604,-0.02468058466911316,0.0,0.0,1.6344399452209473,-0.04,0.0,0.0,0.0
40.70427600,40704276,2,0.13,0.27,348.83,0.005696016829460859,-0.031049976125359535,0.033677104860544205,-0.04888010397553444,0.0,0.0,1.630368709564209,-0.04,0.0,0.0,0.0
40.80428900,40804289,2,0.14,0.27,348.83,0.006174243055284023,-0.03133636340498924,0.033774249255657196,-0.043490417301654816,0.0,0.0,1.628431797027588,-0.04,0.0,0.0,0.0
40.90431500,40904315,2,0.14,0.26,348.82,0.006875967141240835,-0.0314013734459877,0.03330075368285179,-0.025231346487998962,0.0,0.0,1.6265538930892944,-0.04,0.0,0.0,0.0
41.00427900,41004279,2,0.15,0.26,348.8,0.006195806432515383,-0.030820060521364212,0.033373478800058365,-0.023422300815582275,0.0,0.0,1.624133825302124,-0.04,0.0,0.0,0.0
41.10434400,41104344,2,0.15,0.26,348.79,0.006761978380382061,-0.0301546361297369,0.03338558226823807,-0.02339635230600834,0.0,0.0,1.6219854354858398,-0.04,0.0,0.0,0.0
41.20430500,41204305,2,0.15,0.26,348.78000000000003,0.00615680543705821,-0.02982366271317005,0.03311128541827202,-0.006896005943417549,0.0,0.0,1.6216297149658203,-0.04,0.0,0.0,0.0
41.30427200,41304272,2,0.15,0.27,348.78000000000003,0.00544142397120595,-0.029302190989255905,0.033072978258132935,-0.00025390865630470216,0.0,0.0,1.621011734008789,-0.04,0.0,0.0,0.0
41.40427000,41404270,2,0.16,0.27,348.78000000000003,0.006065092049539089,-0.02836233377456665,0.031043022871017456,-0.02290094457566738,0.0,0.0,1.618221640586853,-0.04,0.0,0.0,0.0
41.50426900,41504269,2,0.16,0.27,348.79,0.005562662612646818,-0.028114793822169304,0.030512334778904915,-0.03687291219830513,0.0,0.0,1.615033745765686,-0.04,0.0,0.0,0.0
41.60427600,41604276,2,0.16,0.27,348.8,0.005371070001274347,-0.027020495384931564,0.030868040397763252,-0.03733322396874428,0.0,0.0,1.611732006072998,-0.04,0.0,0.0,0.0
41.70427700,41704277,2,0.16,0.28,348.8,0.005207163747400045,-0.026691127568483353,0.029939308762550354,-0.035913024097681046,0.0,0.0,1.6086167097091675,-0.04,0.0,0.0,0.0
41.80431200,41804312,2,0.16,0.28,348.8,0.005332119297236204,-0.026083994656801224,0.0296171847730875,-0.035047732293605804,0.0,0.0,1.6050193309783936,-0.04,0.0,0.0,0.0
41.90430000,41904300,2,0.16,0.27,348.81,0.005714010447263718,-0.02462209202349186,0.02870277687907219,-0.05457361415028572,0.0,0.0,1.59938645362854,-0.04,0.0,0.0,0.0
42.00434500,42004345,2,0.16,0.27,348.81,0.0058218142949044704,-0.024226274341344833,0.026974303647875786,-0.0795513391494751,0.0,0.0,1.592050552368164,-0.04,0.0,0.0,0.0
42.10429800,42104298,2,0.16,0.28,348.8,0.0054701268672943115,-0.023259319365024567,0.0257607139647007,-0.06955134868621826,0.0,0.0,1.5867087841033936,-0.04,0.0,0.0,0.0
42.20427100,42204271,2,0.17,0.27,348.79,0.00574892433360219,-0.022878002375364304,0.025293488055467606,-0.030381135642528534,0.0,0.0,1.5842947959899902,-0.04,0.0,0.0,0.0
42.30427500,42304275,2,0.17,0.27,348.78000000000003,0.006170192267745733,-0.022187083959579468,0.025830211117863655,0.0036684907972812653,0.0,0.0,1.584159016609192,-0.04,0.0,0.0,0.0
42.40427500,42404275,2,0.17,0.28,348.78000000000003,0.006072290241718292,-0.020539015531539917,0.026373669505119324,0.015546392649412155,0.0,0.0,1.5843391418457031,-0.04,0.0,0.0,0.0
42.50426900,42504269,2,0.16,0.27,348.78000000000003,0.006108424626290798,-0.020052460953593254,0.02671157382428646,0.022571222856640816,0.0,0.0,1.5859665870666504,-0.04,0.0,0.0,0.0
42.60427600,42604276,2,0.16,0.28,348.78000000000003,0.006056652870029211,-0.018409498035907745,0.02734631858766079,0.024184737354516983,0.0,0.0,1.5872843265533447,-0.04,0.0,0.0,0.0
42.70431300,42704313,2,0.16,0.28,348.79,0.005929218605160713,-0.017046965658664703,0.028638474643230438,0.023651957511901855,0.0,0.0,1.5894662141799927,-0.04,0.0,0.0,0.0
42.80428100,42804281,2,0.16,0.27,348.8,0.005154547281563282,-0.015721391886472702,0.028814995661377907,0.029186483472585678,0.0,0.0,1.591943621635437,-0.04,0.0,0.0,0.0
42.90434700,42904347,2,0.16,0.27,348.8,0.004689245950430632,-0.015496366657316685,0.028916815295815468,0.01744920201599598,0.0,0.0,1.5931010246276855,-0.04,0.0,0.0,0.0
43.00430400,43004304,2,0.15,0.27,348.81,0.004853192251175642,-0.014232656918466091,0.030660225078463554,0.018452955409884453,0.0,0.0,1.59542977809906,-0.04,0.0,0.0,0.0
43.10426800,43104268,2,0.15,0.27,348.82,0.003917279653251171,-0.01237649004906416,0.03130418062210083,0.02402929775416851,0.0,0.0,1.5975689888000488,-0.04,0.0,0.0,0.0
43.20428200,43204282,2,0.15,0.27,348.82,0.003567258594557643,-0.011743055656552315,0.03180176019668579,0.004467293620109558,0.0,0.0,1.5975768566131592,-0.04,0.0,0.0,0.0
43.30427200,43304272,2,0.15,0.27,348.82,0.0031271728221327066,-0.011046557687222958,0.03212028369307518,-0.016171693801879883,0.0,0.0,1.5963528156280518,-0.04,0.0,0.0,0.0
43.40426900,43404269,2,0.16,0.27,348.82,0.0035300967283546925,-0.011127875186502934,0.03148243576288223,-0.03357560187578201,0.0,0.0,1.5935447216033936,-0.04,0.0,0.0,0.0
43.50428700,43504287,2,0.15,0.28,348.82,0.0036474403459578753,-0.010709528811275959,0.030418865382671356,-0.0211999099701643,0.0,0.0,1.5932462215423584,-0.04,0.0,0.0,0.0
43.60431500,43604315,2,0.16,0.27,348.82,0.0031036043073982,-0.010699020698666573,0.030121471732854843,-0.003404444782063365,0.0,0.0,1.5925694704055786,-0.04,0.0,0.0,0.0
43.70428400,43704284,2,0.16,0.27,348.82,0.0023526097647845745,-0.01066945493221283,0.030543357133865356,-0.019055362790822983,0.0,0.0,1.5903277397155762,-0.04,0.0,0.0,0.0
43.80434200,43804342,2,0.16,0.28,348.83,0.0018185353837907314,-0.010338623076677322,0.03019781969487667,-0.04511142894625664,0.0,0.0,1.585639476776123,-0.04,0.0,0.0,0.0
43.90431000,43904310,2,0.17,0.28,348.83,0.0014355059247463942,-0.009836526587605476,0.028072243556380272,-0.07586848735809326,0.0,0.0,1.578845500946045,-0.04,0.0,0.0,0.0
44.00427300,44004273,2,0.17,0.28,348.83,0.001373997307382524,-0.009063322097063065,0.02669859491288662,-0.09182295203208923,0.0,0.0,1.570908546447754,-0.04,0.0,0.0,0.0
44.10427000,44104270,2,0.16,0.28,348.83,0.0009255254990421236,-0.00856977328658104,0.024934154003858566,-0.10504713654518127,0.0,0.0,1.5614744424819946,-0.04,0.0,0.0,0.0
44.20427600,44204276,2,0.16,0.28,348.82,0.0010105378460139036,-0.008971970528364182,0.021808436140418053,-0.10094337165355682,0.0,0.0,1.5531091690063477,-0.04,0.0,0.0,0.0
44.30427600,44304276,2,0.16,0.28,348.82,0.0011644500773400068,-0.009287740103900433,0.02026638202369213,-0.08473142236471176,0.0,0.0,1.5451548099517822,-0.04,0.0,0.0,0.0
44.40428800,44404288,2,0.17,0.28,348.82,0.0009870730573311448,-0.008697080425918102,0.019178947433829308,-0.06702545285224915,0.0,0.0,1.538982629776001,-0.04,0.0,0.0,0.0
44.50431200,44504312,2,0.17,0.29,348.82,0.0010263302829116583,-0.007677481044083834,0.01852898672223091,-0.05607084929943085,0.0,0.0,1.5326581001281738,-0.04,0.0,0.0,0.0
44.60430000,44604300,2,0.17,0.28,348.81,-0.00047377325245179236,-0.007241754326969385,0.01746273972094059,-0.05885430425405502,0.0,0.0,1.5266770124435425,-0.04,0.0,0.0,0.0
44.70434400,44704344,2,0.17,0.29,348.81,-0.0009446471813134849,-0.006589467171579599,0.016567237675189972,-0.03983002528548241,0.0,0.0,1.5229971408843994,-0.04,0.0,0.0,0.0
44.80430600,44804306,2,0.17,0.29,348.81,-0.0015290232840925455,-0.0062996684573590755,0.016049763187766075,-0.031093090772628784,0.0,0.0,1.5189028978347778,-0.04,0.0,0.0,0.0
44.90427300,44904273,2,0.16,0.29,348.82,-0.0015848207985982299,-0.005945845507085323,0.014521031640470028,-0.057695772498846054,0.0,0.0,1.5123329162597656,-0.04,0.0,0.0,0.0
45.00426900,45004269,2,0.17,0.29,348.81,-0.0027808407321572304,-0.005543078295886517,0.013435730710625648,-0.08078636229038239,0.0,0.0,1.5047777891159058,-0.04,0.0,0.0,0.0
45.10427400,45104274,2,0.16,0.3,348.82,-0.0038420145865529776,-0.005948580335825682,0.012953091412782669,-0.0800662711262703,0.0,0.0,1.4976743459701538,-0.04,0.0,0.0,0.0
45.20427200,45204272,2,0.16,0.3,348.82,-0.005040094722062349,-0.004955786280333996,0.01235689502209425,-0.05887018144130707,0.0,0.0,1.4927328824996948,-0.04,0.0,0.0,0.0
45.30427300,45304273,2,0.16,0.3,348.83,-0.005861937999725342,-0.0044868336990475655,0.012553476728498936,-0.01866082288324833,0.0,0.0,1.491173505783081,-0.04,0.0,0.0,0.0
45.40431700,45404317,2,0.16,0.3,348.83,-0.00633367570117116,-0.0035480670630931854,0.014154407195746899,0.012772656977176666,0.0,0.0,1.4913303852081299,-0.04,0.0,0.0,0.0
45.50428300,45504283,2,0.16,0.3,348.83,-0.007054066751152277,-0.0025496575981378555,0.016469528898596764,0.018946878612041473,0.0,0.0,1.4917043447494507,-0.04,0.0,0.0,0.0
45.60434300,45604343,2,0.16,0.3,348.81,-0.007472744677215815,-0.00240785232745111,0.016715282574295998,0.02187098190188408,0.0,0.0,1.4933182001113892,-0.04,0.0,0.0,0.0
45.70430300,45704303,2,0.15,0.31,348.81,-0.00880906730890274,-0.002195558976382017,0.017887677997350693,0.023060187697410583,0.0,0.0,1.4946444034576416,-0.04,0.0,0.0,0.0
45.80430800,45804308,2,0.15,0.31,348.8,-0.009273430332541466,-0.002319600433111191,0.018156500533223152,0.010714258998632431,0.0,0.0,1.4952486753463745,-0.04,0.0,0.0,0.0
45.90428400,45904284,2,0.15,0.31,348.79,-0.009910445660352707,-0.0022265398874878883,0.01910226233303547,0.0012250158470124006,0.0,0.0,1.495293140411377,-0.04,0.0,0.0,0.0
46.00428400,46004284,2,0.15,0.31,348.79,-0.010744715109467506,-0.0024776365607976913,0.019636768847703934,0.0034841063898056746,0.0,0.0,1.4961767196655273,-0.04,0.0,0.0,0.0
46.10426900,46104269,2,0.15,0.31,348.79,-0.010987689718604088,-0.0026288859080523252,0.02104366011917591,0.00957450084388256,0.0,0.0,1.4969843626022339,-0.04,0.0,0.0,0.0
46.20427200,46204272,2,0.14,0.31,348.79,-0.012647655792534351,-0.0030655530281364918,0.021832473576068878,0.018563702702522278,0.0,0.0,1.499123454093933,-0.04,0.0,0.0,0.0
46.30431800,46304318,2,0.15,0.31,348.8,-0.012414748780429363,-0.0031989184208214283,0.023512184619903564,0.03757530078291893,0.0,0.0,1.502671480178833,-0.04,0.0,0.0,0.0
46.40428000,46404280,2,0.14,0.31,348.8,-0.01394522376358509,-0.0029294872656464577,0.02455008029937744,0.04598580300807953,0.0,0.0,1.5066636800765991,-0.04,0.0,0.0,0.0
46.50435300,46504353,2,0.14,0.32,348.8,-0.014020032249391079,-0.0027874046936631203,0.025618882849812508,0.03365620598196983,0.0,0.0,1.5090349912643433,-0.04,0.0,0.0,0.0
46.60430500,46604305,2,0.13,0.31,348.81,-0.01511918380856514,-0.002884532790631056,0.025579320266842842,-0.0017103885766118765,0.0,0.0,1.5083873271942139,-0.04,0.0,0.0,0.0
46.70427900,46704279,2,0.12,0.31,348.81,-0.01542067714035511,-0.0024368762969970703,0.02611147053539753,-0.025435088202357292,0.0,0.0,1.5068632364273071,-0.04,0.0,0.0,0.0
