timestamp,TimeUS,DesRoll,Roll,DesPitch,Pitch,DesYaw,Yaw,ErrRP,ErrYaw,AEKF
1682339547.63987684,61720377,0.0,0.36,0.0,1.87,97.5,97.49000000000001,0.0,0.03,3
1682339547.73987293,61820373,0.0,0.36,0.0,1.8800000000000001,97.5,97.47,0.0,0.03,3
1682339547.83999085,61920491,0.0,0.35000000000000003,0.0,1.8800000000000001,97.5,97.44,0.0,0.03,3
1682339547.93991494,62020415,0.0,0.35000000000000003,0.0,1.8800000000000001,97.5,97.42,0.0,0.03,3
1682339548.03993988,62120440,0.0,0.35000000000000003,0.0,1.8800000000000001,97.5,97.39,0.0,0.02,3
1682339548.14001989,62220520,0.0,0.35000000000000003,0.0,1.87,97.5,97.37,0.0,0.02,3
1682339548.23996782,62320468,0.0,0.35000000000000003,0.0,1.87,97.5,97.35000000000001,0.0,0.02,3
1682339548.33994293,62420443,0.0,0.34,0.0,1.87,97.5,97.33,0.0,0.02,3
1682339548.43985796,62520358,0.0,0.34,0.0,1.87,97.5,97.31,0.0,0.03,3
1682339548.54020095,62620701,0.0,0.35000000000000003,0.0,1.87,97.5,97.3,0.0,0.03,3
1682339548.63993979,62720440,0.0,0.35000000000000003,0.0,1.86,97.5,97.27,0.01,0.03,3
1682339548.73989892,62820399,0.0,0.35000000000000003,0.0,1.86,97.5,97.25,0.01,0.03,3
1682339548.84018993,62920690,0.0,0.34,0.0,1.86,97.5,97.23,0.01,0.03,3
1682339548.94010496,63020605,0.0,0.34,0.0,1.87,97.5,97.21000000000001,0.01,0.03,3
1682339549.04014897,63120649,0.0,0.34,0.0,1.87,97.5,97.18,0.01,0.02,3
1682339549.14013696,63220637,0.0,0.34,0.0,1.86,97.5,97.16,0.01,0.02,3
1682339549.24012876,63320629,0.0,0.34,0.0,1.86,97.5,97.14,0.01,0.02,3
1682339549.34008288,63420583,0.0,0.34,0.0,1.86,97.5,97.13,0.01,0.02,3
1682339549.43983483,63520335,0.0,0.34,0.0,1.86,97.5,97.12,0.01,0.02,3
1682339549.53987288,63620373,0.0,0.33,0.0,1.86,97.5,97.11,0.01,0.02,3
1682339549.63989377,63720394,0.0,0.34,0.0,1.86,97.10000000000001,97.10000000000001,0.0,0.02,3
1682339549.73990083,63820401,0.0,0.33,0.0,1.86,97.09,97.09,0.0,0.02,3
1682339549.84020185,63920702,0.0,0.33,0.0,1.86,97.09,97.09,0.0,0.02,3
1682339549.94018984,64020690,0.0,0.33,0.0,1.86,97.09,97.09,0.0,0.03,3
1682339550.03996086,64120461,0.0,0.33,0.0,1.86,97.09,97.09,0.0,0.02,3
1682339550.13996387,64220464,0.0,0.33,0.0,1.86,97.09,97.09,0.0,0.02,3
1682339550.23985195,64320352,0.0,0.33,0.0,1.86,97.09,97.09,0.0,0.01,3
1682339550.33982778,64420328,0.0,0.33,0.0,1.86,97.09,97.08,0.0,0.01,3
1682339550.43993092,64520431,0.0,0.33,0.0,1.86,97.09,97.07000000000001,0.0,0.01,3
1682339550.53999782,64620498,0.0,0.33,0.0,1.85,97.09,97.06,0.0,0.02,3
1682339550.63991594,64720416,0.0,0.33,0.0,1.86,97.09,97.04,0.0,0.02,3
1682339550.73997879,64820479,0.0,0.32,0.0,1.86,97.09,97.03,0.0,0.02,3
1682339550.84006190,64920562,0.0,0.33,0.0,1.86,97.09,97.01,0.0,0.02,3
1682339550.93995786,65020458,0.0,0.31,0.0,1.84,97.09,97.02,0.0,0.02,3
1682339551.04027295,65120773,0.0,0.3,0.0,1.8,97.09,96.97,0.01,0.02,3
1682339551.13985777,65220358,0.0,0.28,0.0,1.76,97.09,96.96000000000001,0.01,0.04,3
1682339551.24008298,65320583,0.0,0.28,0.0,1.77,97.09,96.97,0.0,0.04,3
1682339551.34011483,65420615,0.0,0.31,0.0,1.75,97.09,96.98,0.0,0.05,3
1682339551.44008780,65520588,0.0,0.29,0.0,1.76,97.09,97.0,0.0,0.04,3
1682339551.54015684,65620657,0.0,0.32,0.0,1.77,97.09,97.02,0.0,0.05,3
1682339551.64009786,65720598,0.0,0.3,0.0,1.75,97.09,97.03,0.01,0.05,3
1682339551.74014378,65820644,0.0,0.31,0.0,1.76,97.09,97.04,0.01,0.05,3
1682339551.84026098,65920761,0.0,0.29,0.0,1.75,97.09,97.06,0.01,0.05,3
1682339551.94034982,66020850,0.0,0.29,0.0,1.74,97.09,97.07000000000001,0.01,0.06,3
1682339552.04009986,66120600,0.0,0.3,0.0,1.75,97.09,97.09,0.01,0.06,3
1682339552.14009190,66220592,0.0,0.32,0.0,1.74,97.09,97.11,0.01,0.05,3
1682339552.24009895,66320599,0.0,0.3,0.0,1.75,97.09,97.13,0.01,0.05,3
1682339552.34013796,66420638,0.0,0.28,0.0,1.76,97.09,97.14,0.01,0.05,3
1682339552.44016886,66520669,0.0,0.29,0.0,1.74,97.09,97.13,0.01,0.06,3
1682339552.54011393,66620614,0.0,0.31,0.0,1.75,97.09,97.17,0.01,0.06,3
1682339552.64015388,66720654,0.0,0.4,0.0,1.6,97.09,97.18,0.01,0.09,3
1682339552.74015284,66820653,0.0,0.4,0.0,1.11,97.09,97.12,0.01,0.14,3
1682339552.84027696,66920777,-0.02,0.43,0.17,0.04,97.09,97.13,0.01,0.2,3
1682339552.93986893,67020369,-0.03,0.27,0.59,-0.09,97.09,97.15,0.01,0.25,3
1682339553.04024196,67120742,-0.12,0.2,0.92,0.04,97.09,97.22,0.01,0.26,3
1682339553.14029694,67220797,-0.23,0.07,1.17,0.14,97.09,97.27,0.01,0.24,3
1682339553.24022889,67320729,-0.28,-0.25,1.34,0.53,97.09,97.33,0.02,0.23,3
1682339553.34022784,67420728,-0.23,-0.64,1.44,0.88,97.09,97.35000000000001,0.02,0.21,3
1682339553.44017482,67520675,-0.18,-0.38,1.3,1.04,97.09,97.34,0.03,0.22,3
1682339553.54022098,67620721,-0.12,-0.07,0.9500000000000001,0.8300000000000001,97.09,97.29,0.03,0.21,3
1682339553.64020491,67720705,-0.03,-0.02,0.28,0.48,97.09,97.21000000000001,0.04,0.2,3
1682339553.74042392,67820924,-0.01,0.19,-0.35000000000000003,-0.4,97.09,97.10000000000001,0.04,0.2,3
1682339553.84021783,67920718,0.0,0.27,-0.8300000000000001,-1.26,97.09,96.95,0.03,0.21,3
1682339553.94028187,68020782,-0.03,0.13,-1.57,-1.59,97.09,96.76,0.03,0.2,3
1682339554.04017687,68120677,-0.15,0.03,-1.8,-2.1,105.62,105.11,0.03,0.19,3
1682339554.13991380,68220414,0.01,0.09,-1.79,-2.39,105.62,104.89,0.03,0.19,3
1682339554.23990893,68320409,0.07,0.24,-1.62,-2.15,105.63,104.71000000000001,0.02,0.18,3
1682339554.33998084,68420481,0.07,0.18,-1.42,-1.87,106.11,104.69,0.02,0.16,3
1682339554.44002390,68520524,-0.01,0.34,-1.17,-1.56,106.26,104.73,0.02,0.15,3
1682339554.53996587,68620466,-0.02,0.14,-0.85,-1.11,106.26,104.76,0.02,0.16,3
1682339554.63996291,68720463,-0.01,-0.04,-0.59,-0.54,106.26,104.79,0.03,0.14,3
1682339554.73989892,68820399,0.03,-0.06,-0.48,-0.19,106.26,104.82000000000001,0.03,0.14,3
1682339554.84026098,68920761,0.25,-0.11,-0.5700000000000001,-0.03,106.26,104.85000000000001,0.03,0.14,3
1682339554.94018793,69020688,0.59,0.21,-1.02,-0.32,106.26,104.94,0.03,0.13,3
1682339555.03991485,69120415,0.91,0.84,-1.21,-1.1400000000000001,106.26,105.0,0.03,0.15,3
1682339555.13991594,69220416,1.1400000000000001,1.24,-0.98,-1.31,106.26,105.08,0.03,0.14,3
1682339555.23993897,69320439,1.25,1.31,-0.62,-0.71,106.26,105.16,0.03,0.14,3
1682339555.34001899,69420519,1.31,1.3800000000000001,-0.05,-0.28,106.26,105.24000000000001,0.03,0.14,3
1682339555.43996978,69520470,1.34,1.62,0.62,0.37,106.26,105.32000000000001,0.03,0.13,3
1682339555.54022598,69620726,1.35,1.54,1.35,1.3800000000000001,106.26,105.39,0.03,0.14,3
1682339555.64016581,69720666,1.36,1.45,1.69,2.15,106.26,105.45,0.03,0.13,3
1682339555.74011087,69820611,1.34,1.3900000000000001,1.56,2.21,106.26,105.56,0.03,0.13,3
1682339555.84031081,69920811,1.1400000000000001,1.03,1.01,1.81,106.26,105.67,0.04,0.13,3
1682339555.93991280,70020413,0.61,0.63,0.2,0.89,106.26,105.74000000000001,0.04,0.14,3
1682339556.04019094,70120691,-0.08,-0.04,-0.5700000000000001,-0.32,106.26,105.79,0.04,0.15,3
1682339556.14013696,70220637,-0.75,-0.8200000000000001,-0.85,-1.07,106.26,105.78,0.04,0.18,3
1682339556.24016595,70320666,-1.01,-1.32,-0.99,-1.18,106.26,105.77,0.03,0.18,3
1682339556.34015679,70420657,-0.9500000000000001,-1.37,-1.09,-1.26,106.26,105.76,0.03,0.18,3
1682339556.44019389,70520694,-0.77,-0.96,-1.12,-1.36,106.26,105.74000000000001,0.03,0.17,3
1682339556.54010582,70620606,-0.44,-0.5700000000000001,-1.25,-1.24,106.28,105.73,0.03,0.16,3
1682339556.64011192,70720612,0.01,-0.01,-1.25,-1.31,106.72,105.68,0.04,0.14,3
1682339556.74018979,70820690,0.5,0.65,-1.11,-1.28,107.12,105.67,0.04,0.14,3
1682339556.84025693,70920757,0.9400000000000001,1.16,-1.08,-1.1,107.12,105.72,0.04,0.12,3
1682339556.94023895,71020739,1.28,1.34,-1.06,-1.0,107.12,105.74000000000001,0.04,0.11,3
1682339557.04018092,71120681,1.42,1.45,-0.96,-0.9400000000000001,107.12,105.72,0.05,0.12,3
1682339557.14022088,71220721,1.41,1.45,-0.91,-0.77,107.12,105.72,0.05,0.12,3
1682339557.24021196,71320712,1.43,1.4000000000000001,-0.79,-0.8,107.12,105.73,0.04,0.11,3
1682339557.34021592,71420716,1.44,1.36,-0.55,-0.59,107.12,105.75,0.04,0.12,3
1682339557.44018698,71520687,1.42,1.46,-0.53,-0.24,107.12,105.79,0.04,0.11,3
1682339557.54012799,71620628,1.44,1.51,-0.64,-0.39,107.12,105.81,0.04,0.11,3
1682339557.64017582,71720676,1.46,1.53,-0.63,-0.67,107.12,105.84,0.05,0.1,3
1682339557.74053788,71821038,1.45,1.52,-0.9500000000000001,-0.54,107.12,105.85000000000001,0.05,0.1,3
1682339557.84004188,71920542,1.41,1.46,-1.32,-0.99,107.12,105.84,0.06,0.11,3
1682339557.93993378,72020434,1.32,1.42,-1.33,-1.57,107.12,105.76,0.06,0.11,3
1682339558.04001880,72120519,1.27,1.41,-1.28,-1.32,107.12,105.75,0.05,0.12,3
1682339558.14007878,72220579,1.19,1.19,-1.3900000000000001,-1.1400000000000001,107.25,105.73,0.05,0.12,3
1682339558.23996687,72320467,0.98,1.11,-1.49,-1.48,107.36,105.71000000000001,0.06,0.11,3
1682339558.33986688,72420367,0.5700000000000001,0.86,-1.5,-1.53,107.53,105.75,0.06,0.11,3
1682339558.43986392,72520364,-0.06,0.15,-1.72,-1.42,107.60000000000001,105.79,0.06,0.11,3
1682339558.53988290,72620383,-0.78,-0.6,-2.16,-1.87,107.60000000000001,105.84,0.06,0.11,3
1682339558.64019990,72720700,-1.54,-1.46,-2.14,-2.54,107.60000000000001,105.89,0.05,0.13,3
1682339558.73991990,72820420,-2.23,-2.21,-1.86,-2.22,107.60000000000001,105.93,0.05,0.14,3
1682339558.84016776,72920668,-2.39,-2.98,-1.45,-1.59,107.60000000000001,105.94,0.05,0.13,3
1682339558.94018388,73020684,-2.11,-2.81,-1.1400000000000001,-1.12,107.60000000000001,106.03,0.05,0.13,3
1682339559.04017282,73120673,-1.32,-1.8900000000000001,-1.04,-0.87,107.60000000000001,106.13,0.04,0.11,3
1682339559.14019299,73220693,-0.19,-0.7000000000000001,-1.0,-0.86,107.72,106.25,0.04,0.1,3
1682339559.24011898,73320619,0.78,0.77,-0.8300000000000001,-0.91,107.86,106.37,0.05,0.1,3
1682339559.34000278,73420503,1.2,1.77,-0.75,-0.59,107.86,106.55,0.05,0.1,3
1682339559.44013882,73520639,1.4000000000000001,1.9100000000000001,-0.7000000000000001,-0.5,107.86,106.66,0.07,0.1,3
1682339559.54047585,73620976,1.48,1.8,-0.7000000000000001,-0.53,107.86,106.8,0.07,0.1,3
1682339559.64022779,73720728,1.49,1.78,-0.8,-0.61,107.86,106.97,0.07,0.1,3
1682339559.74019098,73820691,1.3800000000000001,1.6600000000000001,-0.81,-0.8300000000000001,107.86,107.11,0.07,0.13,3
1682339559.84026790,73920768,1.18,1.31,-0.78,-0.74,107.86,107.26,0.07,0.14,3
1682339559.94003081,74020531,0.75,1.0,-0.75,-0.6900000000000001,107.86,107.45,0.07,0.14,3
1682339560.04024982,74120750,0.37,0.51,-0.64,-0.72,107.86,107.60000000000001,0.08,0.15,3
1682339560.14019084,74220691,-0.2,-0.05,-0.54,-0.49,107.86,107.73,0.08,0.14,3
1682339560.24028492,74320785,-0.51,-0.59,-0.56,-0.32,107.86,107.81,0.09,0.15,3
1682339560.34018683,74420687,-0.5,-0.72,-0.62,-0.37,107.86,107.87,0.09,0.15,3
1682339560.44020581,74520706,-0.34,-0.45,-0.51,-0.44,107.86,107.88,0.09,0.15,3
1682339560.54021478,74620715,0.02,-0.1,-0.11,-0.11,107.86,107.84,0.09,0.16,3
1682339560.64048386,74720984,0.8300000000000001,0.56,0.48,0.46,107.86,107.81,0.08,0.16,3
1682339560.74042392,74820924,1.57,1.68,1.18,1.19,107.86,107.74000000000001,0.08,0.12,3
1682339560.84005594,74920556,1.95,2.42,1.93,2.0100000000000002,107.86,107.65,0.08,0.11,3
1682339560.93996787,75020468,1.71,2.33,2.7,2.81,107.86,107.53,0.08,0.12,3
1682339561.03986478,75120365,1.19,1.56,3.49,3.62,107.86,107.39,0.07,0.12,3
1682339561.13981676,75220317,0.47000000000000003,0.8200000000000001,4.28,4.45,107.86,107.25,0.07,0.12,3
1682339561.23988199,75320382,-0.29,-0.15,5.08,5.23,107.86,107.13,0.07,0.11,3
1682339561.34020877,75420709,-1.07,-1.07,5.88,5.98,107.86,106.96000000000001,0.07,0.11,3
1682339561.44022679,75520727,-1.85,-2.0100000000000002,6.68,6.78,107.86,106.79,0.06,0.11,3
1682339561.54018378,75620684,-2.25,-2.79,7.26,7.46,107.86,106.64,0.06,0.1,3
1682339561.64020586,75720706,-2.21,-3.0300000000000002,7.24,7.71,107.86,106.53,0.06,0.1,3
1682339561.74026895,75820769,-1.9100000000000001,-2.65,6.86,7.18,107.86,106.49000000000001,0.06,0.1,3
1682339561.84001994,75920520,-1.41,-1.98,6.25,6.32,107.85000000000001,106.48,0.07,0.1,3
1682339561.93986583,76020366,-0.88,-1.1400000000000001,5.3500000000000005,5.46,107.85000000000001,106.46000000000001,0.07,0.1,3
1682339562.03985882,76120359,-0.45,-0.41000000000000003,4.15,4.2,107.9,106.44,0.06,0.11,3
1682339562.13992476,76220425,-0.17,0.03,2.71,2.59,108.10000000000001,106.39,0.06,0.12,3
1682339562.23990488,76320405,-0.08,0.32,1.35,0.85,108.18,106.34,0.06,0.12,3
1682339562.33993196,76420432,-0.22,0.24,0.32,-0.4,108.18,106.26,0.06,0.14,3
1682339562.44018698,76520687,-0.39,-0.21,-0.43,-1.21,108.18,106.22,0.05,0.15,3
1682339562.54022884,76620729,-0.61,-0.47000000000000003,-1.02,-1.68,108.18,106.23,0.05,0.14,3
1682339562.64002776,76720528,-0.81,-0.8200000000000001,-1.34,-1.96,108.18,106.3,0.06,0.13,3
1682339562.74025679,76820757,-0.92,-1.03,-1.47,-2.0,108.18,106.43,0.06,0.12,3
1682339562.84017181,76920672,-0.93,-1.1,-1.68,-1.9100000000000001,108.18,106.61,0.06,0.1,3
1682339562.94007683,77020577,-0.88,-0.92,-1.79,-2.05,108.18,106.86,0.06,0.09,3
1682339563.04009080,77120591,-0.78,-0.81,-1.8,-2.06,108.18,107.10000000000001,0.05,0.08,3
1682339563.14013982,77220640,-0.67,-0.79,-1.85,-1.9000000000000001,108.18,107.33,0.05,0.08,3
1682339563.24016476,77320665,-0.54,-0.67,-2.05,-1.94,108.18,107.56,0.05,0.08,3
1682339563.34011483,77420615,-0.46,-0.51,-2.39,-2.21,108.18,107.8,0.05,0.09,3
1682339563.44016385,77520664,-0.38,-0.4,-2.84,-2.69,108.18,108.04,0.05,0.09,3
1682339563.54017186,77620672,-0.27,-0.38,-3.08,-3.18,108.18,108.26,0.05,0.08,3
1682339563.64024091,77720741,-0.15,-0.3,-3.44,-3.34,108.18,108.49000000000001,0.04,0.09,3
1682339563.74017692,77820677,-0.03,-0.13,-3.61,-3.63,108.18,108.69,0.04,0.1,3
1682339563.83984995,77920350,0.06,0.04,-3.5300000000000002,-3.67,108.18,108.87,0.05,0.1,3
1682339563.93988085,78020381,0.16,0.12,-3.44,-3.41,108.18,109.02,0.05,0.1,3
1682339564.03990197,78120402,0.24,0.28,-3.47,-3.33,108.18,109.16,0.05,0.09,3
1682339564.13992286,78220423,0.27,0.4,-3.54,-3.4,108.18,109.25,0.05,0.08,3
1682339564.23992682,78320427,0.3,0.35000000000000003,-3.62,-3.43,108.18,109.28,0.06,0.1,3
1682339564.34002590,78420526,0.39,0.32,-4.14,-3.5300000000000002,108.18,109.27,0.06,0.11,3
1682339564.44009995,78520600,0.47000000000000003,0.49,-4.41,-4.26,108.18,109.24000000000001,0.06,0.11,3
1682339564.54024482,78620745,0.55,0.61,-4.18,-4.61,108.18,109.19,0.06,0.14,3
1682339564.64016581,78720666,0.59,0.63,-4.01,-3.84,108.18,109.14,0.05,0.14,3
1682339564.74026299,78820763,0.64,0.62,-3.7800000000000002,-3.41,108.18,109.08,0.05,0.13,3
1682339564.84019589,78920696,0.65,0.65,-3.58,-3.34,108.18,109.01,0.07,0.13,3
1682339564.94023085,79020731,0.63,0.58,-3.48,-3.0700000000000003,108.18,108.96000000000001,0.07,0.13,3
1682339565.04024792,79120748,0.58,0.67,-3.41,-3.08,108.18,108.92,0.07,0.14,3
1682339565.14018083,79220681,0.51,0.64,-3.23,-3.08,108.18,108.85000000000001,0.07,0.14,3
1682339565.24004793,79320548,0.42,0.59,-2.92,-2.75,108.18,108.78,0.07,0.15,3
1682339565.34004188,79420542,0.35000000000000003,0.46,-2.41,-2.27,108.18,108.69,0.07,0.13,3
1682339565.44025183,79520752,0.31,0.36,-1.95,-1.6600000000000001,108.18,108.58,0.07,0.12,3
1682339565.54019380,79620694,0.31,0.25,-1.3800000000000001,-1.21,108.18,108.47,0.07,0.1,3
1682339565.64009190,79720592,0.33,0.33,-0.66,-0.61,108.18,108.32000000000001,0.06,0.08,3
1682339565.74017978,79820680,0.36,0.27,0.11,0.24,108.18,108.16,0.06,0.06,3
1682339565.84019279,79920693,0.41000000000000003,0.25,0.9,1.03,108.18,108.03,0.06,0.07,3
1682339565.94019294,80020693,0.47000000000000003,0.35000000000000003,1.7,1.79,108.18,107.92,0.06,0.08,3
1682339566.04012680,80120627,0.54,0.45,2.5,2.62,108.18,107.85000000000001,0.05,0.07,3
1682339566.14017677,80220677,0.5700000000000001,0.63,3.3000000000000003,3.41,108.18,107.83,0.05,0.07,3
1682339566.24017787,80320678,0.53,0.73,4.1,4.23,108.18,107.86,0.05,0.07,3
1682339566.34017897,80420679,0.22,0.65,4.9,5.04,108.18,107.93,0.05,0.08,3
1682339566.44011378,80520614,-0.26,0.14,5.7,5.76,108.18,107.98,0.06,0.07,3
1682339566.54048085,80620981,-1.06,-0.7000000000000001,6.5,6.5600000000000005,108.18,108.03,0.06,0.07,3
1682339566.64018989,80720690,-1.8900000000000001,-1.87,7.3,7.3100000000000005,108.18,108.05,0.05,0.07,3
1682339566.73991299,80820413,-2.45,-2.85,8.06,8.040000000000001,108.18,108.03,0.05,0.06,3
1682339566.84003592,80920536,-2.68,-3.2,8.290000000000001,8.68,108.18,108.04,0.06,0.06,3
1682339566.93993092,81020431,-2.71,-3.12,8.03,8.45,108.18,108.04,0.06,0.07,3
1682339567.04004288,81120543,-2.29,-2.86,7.11,7.51,108.18,108.08,0.05,0.09,3
1682339567.13997293,81220473,-1.67,-2.04,5.8500000000000005,6.04,108.18,108.13,0.05,0.09,3
1682339567.23996997,81320470,-0.93,-1.02,4.46,4.3,108.18,108.14,0.05,0.1,3
1682339567.33988595,81420386,-0.18,-0.16,3.15,2.71,108.18,108.08,0.05,0.1,3
1682339567.44020176,81520702,0.15,0.55,1.79,1.32,108.18,107.99000000000001,0.05,0.12,3
1682339567.54019499,81620695,0.22,0.7000000000000001,1.21,0.09,108.18,107.84,0.05,0.13,3
1682339567.64022899,81720729,0.14,0.65,1.31,0.0,108.18,107.71000000000001,0.05,0.13,3
1682339567.74026680,81820767,-0.02,0.42,1.75,0.99,108.18,107.58,0.05,0.13,3
1682339567.84027290,81920773,-0.35000000000000003,0.0,2.37,1.8,108.18,107.48,0.06,0.13,3
1682339567.94022894,82020729,-0.55,-0.38,3.0100000000000002,2.59,108.18,107.41,0.06,0.12,3
1682339568.04022884,82120729,-0.62,-0.68,3.24,3.37,108.18,107.35000000000001,0.06,0.1,3
1682339568.14024997,82220750,-0.71,-0.61,3.16,3.2800000000000002,108.18,107.35000000000001,0.06,0.08,3
1682339568.24025178,82320752,-0.99,-0.66,2.86,2.89,108.18,107.36,0.06,0.09,3
1682339568.34045291,82420953,-1.21,-1.1500000000000001,2.42,2.45,108.18,107.4,0.06,0.09,3
1682339568.44018698,82520687,-1.28,-1.41,1.98,1.87,108.18,107.46000000000001,0.05,0.1,3
1682339568.53988981,82620390,-0.97,-1.36,1.5,1.43,108.18,107.56,0.05,0.1,3
1682339568.63991880,82720419,-0.36,-0.78,1.04,0.98,108.18,107.66,0.04,0.1,3
1682339568.74000692,82820507,0.34,0.23,0.62,0.55,108.18,107.79,0.04,0.1,3
1682339568.84007382,82920574,1.1,1.09,0.17,0.17,108.18,107.89,0.03,0.08,3
1682339568.94002676,83020527,1.8800000000000001,1.9100000000000001,-0.45,-0.34,108.18,108.01,0.03,0.07,3
1682339569.03996396,83120464,2.47,2.7,-0.78,-1.08,108.18,108.10000000000001,0.03,0.06,3
1682339569.13988280,83220383,2.52,3.09,-0.74,-1.25,108.18,108.19,0.03,0.09,3
1682339569.23981881,83320319,2.2600000000000002,2.67,-0.42,-0.75,108.18,108.31,0.02,0.08,3
1682339569.33989596,83420396,1.8,2.0,0.17,-0.17,108.18,108.44,0.02,0.07,3
1682339569.44022298,83520723,1.23,1.3800000000000001,0.86,0.72,108.18,108.57000000000001,0.02,0.07,3
1682339569.54030895,83620809,0.67,0.62,1.56,1.61,108.18,108.66,0.02,0.07,3
1682339569.63999081,83720491,0.22,0.03,1.8900000000000001,2.2600000000000002,108.18,108.75,0.02,0.07,3
1682339569.74004793,83820548,-0.07,-0.31,1.9100000000000001,2.31,108.18,108.84,0.02,0.07,3
1682339569.84007382,83920574,-0.22,-0.55,1.74,1.99,108.18,108.9,0.02,0.08,3
1682339569.93994784,84020448,-0.23,-0.6,1.48,1.61,108.18,108.98,0.02,0.09,3
1682339570.03990579,84120406,-0.16,-0.36,1.22,1.23,108.18,109.04,0.02,0.09,3
1682339570.13984585,84220346,-0.05,-0.2,1.01,0.9400000000000001,108.18,109.07000000000001,0.02,0.09,3
1682339570.23995376,84320454,0.07,0.0,0.89,0.76,108.18,109.08,0.02,0.09,3
1682339570.34024978,84420750,0.17,0.14,0.87,0.72,108.18,109.09,0.02,0.09,3
1682339570.44003987,84520540,0.25,0.23,0.89,0.8300000000000001,108.18,109.08,0.01,0.09,3
1682339570.54002380,84620524,0.32,0.28,0.96,0.97,108.18,109.06,0.01,0.08,3
1682339570.64021683,84720717,0.36,0.35000000000000003,1.0,1.1,108.18,109.04,0.01,0.07,3
1682339570.74029279,84820793,0.38,0.3,1.05,1.1500000000000001,108.18,109.01,0.01,0.07,3
1682339570.84023976,84920740,0.4,0.37,1.08,1.18,108.18,108.98,0.01,0.07,3
1682339570.94014287,85020643,0.41000000000000003,0.3,1.1,1.16,108.18,108.92,0.01,0.07,3
1682339571.04008579,85120586,0.44,0.25,1.1,1.1300000000000001,108.18,108.86,0.01,0.06,3
1682339571.14015293,85220653,0.48,0.26,1.1500000000000001,1.09,108.18,108.8,0.01,0.06,3
1682339571.24048591,85320986,0.53,0.37,1.2,1.09,108.18,108.73,0.01,0.05,3
1682339571.34046698,85420967,0.61,0.4,1.28,1.09,108.18,108.65,0.01,0.05,3
1682339571.44020891,85520709,0.6900000000000001,0.47000000000000003,1.31,1.21,108.18,108.61,0.01,0.05,3
1682339571.54024577,85620746,0.85,0.6,1.32,1.23,108.18,108.55,0.01,0.06,3
1682339571.64002895,85720529,0.9,0.6900000000000001,1.2,1.26,108.18,108.5,0.01,0.06,3
1682339571.74000096,85820501,0.9500000000000001,0.66,1.1,1.1300000000000001,108.18,108.47,0.01,0.05,3
1682339571.83994699,85920447,0.93,0.74,0.9400000000000001,0.98,108.18,108.43,0.01,0.05,3
1682339571.93982983,86020330,0.89,0.71,0.8200000000000001,0.81,108.18,108.41,0.01,0.06,3
1682339572.03994489,86120445,0.87,0.72,0.6900000000000001,0.6900000000000001,108.18,108.42,0.01,0.05,3
1682339572.14023590,86220736,0.86,0.78,0.61,0.6,108.18,108.4,0.01,0.05,3
1682339572.24024296,86320743,0.87,0.8,0.51,0.5,108.18,108.39,0.01,0.06,3
1682339572.34000897,86420509,0.87,0.71,0.46,0.39,108.18,108.37,0.01,0.05,3
1682339572.44025493,86520755,0.9,0.78,0.4,0.34,108.18,108.35000000000001,0.01,0.05,3
1682339572.54021883,86620719,0.96,0.8200000000000001,0.41000000000000003,0.28,108.18,108.32000000000001,0.01,0.04,3
1682339572.64023685,86720737,0.9400000000000001,0.87,0.38,0.29,108.18,108.28,0.0,0.05,3
1682339572.74020386,86820704,0.99,0.92,0.43,0.31,108.18,108.24000000000001,0.0,0.05,3
1682339572.84036589,86920866,0.92,0.98,0.42,0.33,108.18,108.21000000000001,0.0,0.05,3
1682339572.94020486,87020705,0.97,0.87,0.45,0.37,108.18,108.18,0.0,0.05,3
1682339573.04000092,87120501,0.91,0.98,0.44,0.42,108.18,108.14,0.01,0.04,3
1682339573.14004493,87220545,0.92,0.93,0.46,0.41000000000000003,108.18,108.12,0.01,0.04,3
1682339573.24001098,87320511,0.86,0.88,0.45,0.44,108.18,108.07000000000001,0.0,0.04,3
1682339573.34024692,87420747,0.84,0.7000000000000001,0.5,0.47000000000000003,108.18,108.04,0.0,0.04,3
1682339573.44005084,87520551,0.8200000000000001,0.72,0.48,0.53,108.18,107.99000000000001,0.0,0.04,3
1682339573.53997779,87620478,0.85,0.73,0.5,0.45,108.18,107.98,0.0,0.04,3
1682339573.64011788,87720618,0.84,0.8,0.47000000000000003,0.47000000000000003,108.18,107.96000000000001,0.01,0.04,3
1682339573.74008989,87820590,0.88,0.84,0.48,0.38,108.18,107.97,0.01,0.04,3
1682339573.84017992,87920680,0.84,0.92,0.44,0.38,108.18,107.96000000000001,0.01,0.03,3
1682339573.94018078,88020681,0.92,0.75,0.49,0.34,108.18,107.95,0.01,0.03,3
1682339574.04019880,88120699,0.86,0.9400000000000001,0.5,0.4,108.18,107.95,0.0,0.03,3
1682339574.14046383,88220964,0.93,0.74,0.56,0.41000000000000003,108.18,107.96000000000001,0.0,0.03,3
1682339574.24022794,88320728,0.81,0.9,0.56,0.49,108.18,107.97,0.0,0.02,3
1682339574.34003592,88420536,0.84,0.77,0.6,0.48,108.18,107.98,0.0,0.02,3
1682339574.44027376,88520774,0.63,0.79,0.5,0.47000000000000003,108.29,107.99000000000001,0.01,0.03,3
1682339574.54025698,88620757,0.06,0.39,0.44,0.29,109.18,108.04,0.01,0.03,3
1682339574.64026093,88720761,0.04,-0.35000000000000003,0.13,0.21,110.60000000000001,108.26,0.01,0.04,3
1682339574.74030399,88820804,0.43,-0.2,-1.09,-0.32,111.24000000000001,108.71000000000001,0.01,0.04,3
1682339574.84039378,88920894,0.75,0.84,-1.48,-2.0100000000000002,111.26,109.27,0.01,0.04,3
1682339574.94038582,89020886,1.1400000000000001,1.5,-1.6500000000000001,-2.39,111.26,109.75,0.01,0.06,3
1682339575.04021883,89120719,1.12,1.5,-1.35,-1.78,111.27,110.19,0.01,0.06,3
1682339575.14026093,89220761,1.05,1.27,-0.61,-1.18,111.28,110.61,0.01,0.06,3
1682339575.24022198,89320722,0.8200000000000001,1.1,-0.21,-0.09,111.29,111.01,0.01,0.06,3
1682339575.34044886,89420949,0.76,0.74,0.24,0.37,111.29,111.36,0.01,0.06,3
1682339575.43991590,89520416,0.65,0.71,0.46,0.67,111.3,111.64,0.02,0.06,3
1682339575.53996992,89620470,0.68,0.66,0.55,0.92,111.3,111.88,0.02,0.05,3
1682339575.63994789,89720448,0.63,0.66,0.66,0.81,111.3,112.08,0.02,0.06,3
1682339575.74000192,89820502,0.62,0.62,0.6900000000000001,0.87,111.3,112.21000000000001,0.02,0.07,3
1682339575.84008288,89920583,0.58,0.67,0.78,0.86,111.3,112.28,0.02,0.07,3
1682339575.94001484,90020515,0.6,0.68,0.89,0.98,111.3,112.32000000000001,0.02,0.08,3
1682339576.04008198,90120582,0.55,0.59,0.97,1.07,111.3,112.3,0.01,0.08,3
1682339576.14005089,90220551,0.54,0.48,1.1,1.1300000000000001,111.3,112.24000000000001,0.01,0.09,3
1682339576.24026895,90320769,0.44,0.53,1.12,1.25,111.3,112.15,0.01,0.1,3
1682339576.33991194,90420412,0.42,0.44,1.18,1.18,111.3,112.06,0.01,0.11,3
1682339576.43984485,90520345,0.33,0.42,1.1400000000000001,1.17,111.3,111.94,0.01,0.11,3
1682339576.53993583,90620436,0.33,0.42,1.1300000000000001,1.12,111.3,111.82000000000001,0.01,0.1,3
1682339576.63993979,90720440,0.25,0.34,1.1,1.04,111.3,111.7,0.01,0.1,3
1682339576.74003482,90820535,0.22,0.19,1.09,1.01,111.3,111.58,0.01,0.1,3
1682339576.84005880,90920559,0.17,0.14,1.05,0.99,111.3,111.45,0.01,0.1,3
1682339576.94005179,91020552,0.12,0.18,1.03,0.93,111.3,111.34,0.01,0.09,3
1682339577.04012179,91120622,0.06,0.1,0.98,0.87,111.3,111.26,0.01,0.1,3
1682339577.14027596,91220776,0.06,0.1,0.9400000000000001,0.8300000000000001,111.3,111.17,0.01,0.1,3
1682339577.24025893,91320759,0.02,0.05,0.89,0.78,111.3,111.11,0.01,0.09,3
1682339577.34025884,91420759,0.06,-0.07,0.85,0.77,111.3,111.07000000000001,0.01,0.09,3
1682339577.44031286,91520813,0.03,-0.02,0.8200000000000001,0.73,111.3,111.03,0.01,0.09,3
1682339577.54001188,91620512,0.05,-0.03,0.8200000000000001,0.76,111.3,111.01,0.01,0.08,3
1682339577.64020896,91720709,0.01,0.16,0.8,0.86,111.3,111.02,0.01,0.07,3
1682339577.74019790,91820698,0.02,0.1,0.75,0.8200000000000001,111.3,111.0,0.01,0.06,3
1682339577.84023476,91920735,-0.02,0.13,0.7000000000000001,0.74,111.3,111.01,0.01,0.06,3
1682339577.94018292,92020683,0.0,0.0,0.62,0.73,111.3,111.04,0.01,0.06,3
1682339578.04025984,92120760,0.0,0.08,0.56,0.67,111.3,111.05,0.01,0.06,3
1682339578.14024377,92220744,0.0,0.02,0.55,0.58,111.3,111.08,0.01,0.06,3
1682339578.24025893,92320759,0.02,-0.09,0.49,0.55,111.3,111.11,0.01,0.07,3
1682339578.34031796,92420818,0.0,0.03,0.55,0.45,111.3,111.12,0.01,0.06,3
1682339578.44026685,92520767,-0.03,-0.03,0.53,0.49,111.3,111.15,0.01,0.07,3
1682339578.54034185,92620842,0.0,-0.15,0.54,0.44,111.3,111.17,0.01,0.06,3
1682339578.64020491,92720705,-0.01,0.0,0.53,0.4,111.3,111.18,0.01,0.06,3
1682339578.74026179,92820762,0.04,0.0,0.48,0.52,111.3,111.2,0.01,0.06,3
1682339578.84027481,92920775,0.05,0.01,0.54,0.46,111.3,111.21000000000001,0.01,0.07,3
1682339578.94025683,93020757,0.06,-0.03,0.51,0.53,111.3,111.21000000000001,0.01,0.06,3
1682339579.04028296,93120783,0.08,0.0,0.53,0.49,111.3,111.2,0.0,0.05,3
1682339579.14059591,93221096,0.14,0.11,0.51,0.43,111.3,111.21000000000001,0.0,0.06,3
1682339579.24020290,93320703,0.21,0.23,0.45,0.37,111.3,111.2,0.01,0.06,3
1682339579.33993888,93420439,0.23,0.28,0.5,0.31,111.3,111.18,0.01,0.06,3
1682339579.44003177,93520532,0.23,0.27,0.51,0.47000000000000003,111.3,111.16,0.01,0.06,3
1682339579.54002595,93620526,0.23,0.26,0.55,0.52,111.3,111.14,0.01,0.05,3
1682339579.64004493,93720545,0.17,0.15,0.56,0.63,111.3,111.10000000000001,0.01,0.04,3
1682339579.74005079,93820551,0.15,0.11,0.56,0.68,111.3,111.10000000000001,0.01,0.04,3
1682339579.84029698,93920797,0.13,0.04,0.61,0.5,111.3,111.11,0.01,0.04,3
1682339579.94041181,94020912,0.16,-0.01,0.56,0.51,111.3,111.12,0.01,0.03,3
1682339580.04026198,94120762,0.21,0.05,0.5700000000000001,0.5,111.3,111.14,0.01,0.03,3
1682339580.14030695,94220807,0.29,0.19,0.59,0.5700000000000001,111.3,111.17,0.01,0.03,3
1682339580.24025083,94320751,0.39,0.28,0.58,0.68,111.3,111.19,0.01,0.04,3
1682339580.34033799,94420838,0.43,0.42,0.51,0.64,111.3,111.21000000000001,0.01,0.04,3
1682339580.44020987,94520710,0.37,0.66,0.46,0.46,111.3,111.23,0.01,0.04,3
1682339580.54029489,94620795,0.35000000000000003,0.56,0.42,0.35000000000000003,111.3,111.26,0.01,0.03,3
1682339580.64023590,94720736,0.32,0.4,0.46,0.29,111.3,111.28,0.01,0.03,3
1682339580.74027085,94820771,0.3,0.3,0.51,0.31,111.3,111.31,0.01,0.03,3
1682339580.84030485,94920805,0.33,0.17,0.54,0.33,111.3,111.33,0.01,0.03,3
1682339580.94023991,95020740,0.29,0.25,0.56,0.4,111.3,111.34,0.01,0.03,3
1682339581.04030776,95120808,0.29,0.24,0.56,0.51,111.3,111.36,0.01,0.02,3
1682339581.14056087,95221061,0.3,0.25,0.59,0.51,111.3,111.36,0.01,0.02,3
1682339581.24029994,95320800,0.27,0.31,0.54,0.55,111.3,111.38,0.01,0.03,3
1682339581.34001493,95420515,0.32,0.24,0.54,0.5,111.3,111.39,0.01,0.02,3
1682339581.44007087,95520571,0.24,0.37,0.55,0.41000000000000003,111.3,111.41,0.01,0.02,3
1682339581.54007697,95620577,0.36,0.28,0.51,0.49,111.3,111.43,0.01,0.03,3
1682339581.63999581,95720496,0.31,0.12,0.59,0.37,111.3,111.47,0.01,0.03,3
1682339581.73991084,95820411,0.33,0.01,0.6,0.38,111.3,111.51,0.01,0.02,3
1682339581.83996296,95920463,0.33,0.14,0.6,0.55,111.3,111.52,0.01,0.02,3
1682339581.93996596,96020466,0.36,0.27,0.62,0.58,111.3,111.53,0.01,0.03,3
1682339582.03993297,96120433,0.33,0.34,0.55,0.68,111.3,111.51,0.01,0.02,3
1682339582.14002991,96220530,0.29,0.39,0.52,0.59,111.3,111.46000000000001,0.01,0.02,3
1682339582.24000978,96320510,0.28,0.35000000000000003,0.44,0.52,111.3,111.38,0.01,0.03,3
1682339582.34004998,96420550,0.31,0.41000000000000003,0.37,0.46,111.3,111.29,0.01,0.03,3
1682339582.44005179,96520552,0.3,0.44,0.37,0.28,111.3,111.22,0.01,0.02,3
1682339582.54026294,96620763,0.26,0.47000000000000003,0.34,0.28,111.3,111.15,0.01,0.02,3
1682339582.63991594,96720416,0.23,0.45,0.34,0.18,111.3,111.12,0.01,0.03,3
1682339582.73985982,96820360,0.23,0.37,0.38,0.08,111.3,111.05,0.01,0.02,3
1682339582.83997393,96920474,0.34,0.12,0.36,0.42,111.3,111.03,0.01,0.02,3
1682339582.93993783,97020438,0.36,0.2,0.41000000000000003,0.56,111.3,111.01,0.01,0.02,3
1682339583.04003382,97120534,0.27,0.38,0.32,0.7000000000000001,111.3,111.02,0.01,0.01,3
1682339583.14001799,97220518,0.31,0.37,0.27,0.52,111.3,111.02,0.01,0.03,3
1682339583.24006176,97320562,0.2,0.5,0.18,0.41000000000000003,111.3,111.0,0.01,0.03,3
1682339583.34010196,97420602,0.08,0.56,0.19,0.14,111.3,110.96000000000001,0.01,0.03,3
1682339583.44026589,97520766,0.07,0.29,0.26,-0.01,111.3,110.93,0.01,0.02,3
1682339583.53992486,97620425,-0.03,0.17,0.23,0.24,111.3,110.89,0.01,0.02,3
1682339583.64005876,97720559,-0.03,-0.03,0.33,0.23,111.3,110.85000000000001,0.0,0.02,3
1682339583.74016881,97820669,0.03,-0.18,0.39,0.07,111.3,110.83,0.0,0.02,3
1682339583.84024286,97920743,0.06,-0.13,0.35000000000000003,0.39,111.3,110.78,0.0,0.02,3
1682339583.94019890,98020699,0.14,-0.19,0.43,0.47000000000000003,111.3,110.76,0.0,0.02,3
1682339584.04017591,98120676,0.17,0.11,0.41000000000000003,0.56,111.3,110.79,0.01,0.02,3
1682339584.14021087,98220711,0.18,0.26,0.28,0.66,111.3,110.81,0.01,0.02,3
1682339584.24019098,98320691,0.14,0.33,0.34,0.23,111.3,110.8,0.01,0.02,3
1682339584.34021997,98420720,0.06,0.4,0.31,0.12,111.3,110.82000000000001,0.01,0.02,3
1682339584.44017076,98520671,0.04,0.4,0.37,0.2,111.3,110.84,0.01,0.02,3
1682339584.54048276,98620983,-0.32,-0.4,0.46,0.67,111.3,110.84,0.01,0.03,3
1682339584.64030695,98720807,-0.29,-0.5700000000000001,0.5,0.54,111.3,110.86,0.0,0.03,3
1682339584.73999882,98820499,0.02,-0.77,0.8,0.24,111.3,110.88,0.0,0.03,3
1682339584.84006596,98920566,0.66,-0.8300000000000001,0.75,0.55,111.3,111.14,0.0,0.02,3
1682339584.94002676,99020527,0.0,-1.1400000000000001,0.06,0.11,111.29,111.29,0.0,0.04,3
1682339585.04005480,99120555,-0.05,-0.76,0.17,0.14,111.29,111.36,0.01,0.04,3
1682339585.14003897,99220539,-0.09,-1.08,0.0,0.14,111.29,111.53,0.01,0.05,3
1682339585.23999977,99320500,0.02,-0.79,0.08,0.07,111.29,111.45,0.01,0.06,3
1682339585.33991194,99420412,-0.27,-0.85,0.08,0.02,111.29,111.41,0.01,0.07,3
1682339585.44032979,99520830,-0.05,-0.84,0.24,-0.04,111.29,111.52,0.01,0.09,3
1682339585.54029489,99620795,-0.12,-0.72,0.04,-0.07,111.29,111.46000000000001,0.01,0.11,3
1682339585.64023590,99720736,0.01,-0.68,0.07,-0.07,111.29,111.43,0.01,0.13,3
1682339585.74029589,99820796,-0.04,-0.85,-0.04,-0.05,111.29,111.47,0.01,0.13,3
1682339585.84027791,99920778,0.0,-0.77,-0.01,-0.02,111.29,111.44,0.01,0.14,3
1682339585.94023585,100020736,-0.01,-0.86,-0.03,0.03,111.29,111.36,0.01,0.16,3
1682339586.04024196,100120742,-0.08,-0.86,0.02,0.04,111.29,111.36,0.0,0.18,3
1682339586.14027691,100220777,-0.08,-0.85,-0.03,0.04,111.29,111.33,0.0,0.18,3
1682339586.24019885,100320699,-0.09,-0.86,0.01,0.03,111.29,111.25,0.0,0.18,3
1682339586.34048676,100420987,-0.09,-0.85,-0.07,0.01,111.29,111.25,0.0,0.19,3
1682339586.44029593,100520796,-0.04,-0.84,-0.07,0.01,111.29,111.19,0.0,0.2,3
1682339586.54023886,100620739,-0.03,-0.86,-0.09,0.0,111.29,111.12,0.0,0.2,3
1682339586.64033389,100720834,0.0,-0.86,-0.09,0.03,111.29,111.08,0.0,0.2,3
1682339586.74003482,100820535,-0.05,-0.87,0.0,0.02,111.29,111.06,0.0,0.19,3
1682339586.84009981,100920600,-0.04,-0.84,-0.04,0.02,111.29,110.98,0.0,0.18,3
1682339586.93997598,101020476,-0.1,-0.88,0.06,0.02,111.29,110.95,0.0,0.19,3
1682339587.04000688,101120507,-0.05,-0.8200000000000001,0.03,0.02,110.91,110.91,0.0,0.18,3
1682339587.13989186,101220392,-0.02,-0.9,0.01,0.0,110.82000000000001,110.82000000000001,0.0,0.18,3
1682339587.23980880,101320309,-0.01,-0.87,0.0,0.0,110.83,110.83,0.0,0.18,3
1682339587.33988786,101420388,0.0,-0.9500000000000001,0.0,0.03,110.81,110.81,0.0,0.19,3
1682339587.43991089,101520411,0.0,-0.92,0.0,0.02,110.72,110.72,0.0,0.19,3
1682339587.54003191,101620532,0.0,-0.96,0.0,0.03,110.71000000000001,110.71000000000001,0.0,0.2,3
1682339587.63993979,101720440,0.0,-0.96,0.0,0.04,110.67,110.67,0.0,0.2,3
1682339587.74001884,101820519,0.0,-0.96,0.0,0.04,110.58,110.58,0.0,0.21,3
1682339587.84006381,101920564,0.0,-0.97,0.0,0.03,110.55,110.55,0.0,0.21,3
1682339587.94023585,102020736,0.0,-0.96,0.0,0.05,110.52,110.52,0.0,0.2,3
1682339588.04013181,102120632,0.0,-0.98,0.0,0.04,110.43,110.43,0.0,0.2,3
1682339588.14010286,102220603,0.0,-0.97,0.0,0.04,110.38,110.38,0.0,0.21,3
1682339588.24009895,102320599,0.0,-0.99,0.0,0.05,110.37,110.37,0.0,0.21,3
1682339588.34014392,102420644,0.0,-0.98,0.0,0.04,110.26,110.26,0.0,0.2,3
1682339588.44017887,102520679,0.0,-0.98,0.0,0.04,110.21000000000001,110.21000000000001,0.0,0.19,3
1682339588.54012799,102620628,0.0,-0.98,0.0,0.05,110.21000000000001,110.21000000000001,0.0,0.2,3
1682339588.64016986,102720670,0.0,-0.99,0.0,0.04,110.11,110.11,0.0,0.19,3
1682339588.74016881,102820669,0.0,-0.98,0.0,0.03,110.05,110.05,0.0,0.2,3
1682339588.84029579,102920796,0.0,-0.99,0.0,0.05,110.05,110.05,0.0,0.19,3
1682339588.93985796,103020358,0.0,-0.99,0.0,0.04,109.96000000000001,109.96000000000001,0.0,0.18,3
1682339589.03984594,103120346,0.0,-0.99,0.0,0.04,109.89,109.89,0.0,0.17,3
1682339589.13993382,103220434,0.0,-1.0,0.0,0.05,109.91,109.91,0.0,0.17,3
1682339589.23990583,103320406,0.0,-0.99,0.0,0.04,109.84,109.84,0.0,0.18,3
1682339589.33990979,103420410,0.0,-0.99,0.0,0.03,109.77,109.77,0.0,0.18,3
1682339589.43993878,103520439,0.0,-0.99,0.0,0.04,109.76,109.76,0.0,0.18,3
1682339589.54003978,103620540,0.0,-1.0,0.0,0.03,109.71000000000001,109.71000000000001,0.0,0.18,3
1682339589.64007497,103720575,0.0,-0.98,0.0,0.03,109.63,109.63,0.0,0.19,3
1682339589.74026299,103820763,0.0,-0.99,0.0,0.04,109.61,109.61,0.0,0.18,3
1682339589.84029698,103920797,0.0,-0.99,0.0,0.03,109.56,109.56,0.0,0.18,3
1682339589.94018793,104020688,0.0,-0.99,0.0,0.02,109.47,109.47,0.0,0.17,3
1682339590.04020596,104120706,0.0,-0.99,0.0,0.03,109.45,109.45,0.0,0.17,3
1682339590.13990879,104220409,0.0,-0.99,0.0,0.03,109.41,109.41,0.0,0.17,3
1682339590.23991299,104320413,0.0,-0.99,0.0,0.02,109.33,109.33,0.0,0.17,3
1682339590.33993983,104420440,0.0,-0.99,0.0,0.03,109.3,109.3,0.0,0.17,3
1682339590.44003391,104520534,0.0,-0.99,0.0,0.03,109.27,109.27,0.0,0.17,3
1682339590.53996897,104620469,0.0,-0.99,0.0,0.02,109.19,109.19,0.0,0.17,3
1682339590.63998389,104720484,0.0,-1.0,0.0,0.02,109.15,109.15,0.0,0.17,3
1682339590.73991394,104820414,0.0,-1.0,0.0,0.02,109.12,109.12,0.0,0.17,3
1682339590.84025598,104920756,0.0,-1.0,0.0,0.02,109.05,109.05,0.0,0.16,3
1682339590.94019079,105020691,0.0,-1.0,0.0,0.02,109.0,109.0,0.0,0.15,3
1682339591.04022789,105120728,0.0,-1.0,0.0,0.03,108.98,108.98,0.0,0.15,3
1682339591.14023495,105220735,0.0,-1.0,0.0,0.02,108.91,108.91,0.0,0.15,3
1682339591.24019384,105320694,0.0,-1.0,0.0,0.03,108.86,108.86,0.0,0.15,3
1682339591.34021878,105420719,0.0,-1.0,0.0,0.02,108.84,108.84,0.0,0.14,3
1682339591.44024396,105520744,0.0,-1.0,0.0,0.02,108.77,108.77,0.0,0.16,3
1682339591.54022288,105620723,0.0,-1.0,0.0,0.02,108.72,108.72,0.0,0.16,3
1682339591.64047980,105720980,0.0,-1.0,0.0,0.02,108.7,108.7,0.0,0.16,3
1682339591.74059296,105821093,0.0,-1.0,0.0,0.01,108.63,108.63,0.0,0.16,3
1682339591.84032989,105920830,0.0,-1.0,0.0,0.01,108.56,108.56,0.0,0.15,3
1682339591.93990493,106020405,0.0,-1.0,0.0,0.02,108.53,108.53,0.0,0.15,3
1682339592.04019094,106120691,0.0,-1.0,0.0,0.01,108.47,108.47,0.0,0.14,3
1682339592.14013481,106220635,0.0,-1.01,0.0,0.01,108.41,108.41,0.0,0.14,3
1682339592.24017096,106320671,0.0,-1.01,0.0,0.01,108.39,108.39,0.0,0.13,3
1682339592.34017277,106420673,0.0,-1.01,0.0,0.0,108.35000000000001,108.35000000000001,0.0,0.13,3
1682339592.44019389,106520694,0.0,-1.01,0.0,0.0,108.29,108.29,0.0,0.13,3
1682339592.54012585,106620626,0.0,-1.01,0.0,0.0,108.27,108.27,0.0,0.13,3
1682339592.64009786,106720598,0.0,-1.0,0.0,0.0,108.23,108.23,0.0,0.12,3
1682339592.74020195,106820702,0.0,-1.0,0.0,0.0,108.17,108.17,0.0,0.12,3
1682339592.83993793,106920438,0.0,-1.0,0.0,0.0,108.15,108.15,0.0,0.11,3
1682339592.93990088,107020401,0.0,-1.0,0.0,0.0,108.11,108.11,0.0,0.1,3
1682339593.03999496,107120495,0.0,-1.0,0.0,0.0,108.05,108.05,0.0,0.09,3
1682339593.14001989,107220520,0.0,-1.0,0.0,0.0,108.03,108.03,0.0,0.09,3
1682339593.24001384,107320514,0.0,-1.0,0.0,0.0,108.01,108.01,0.0,0.1,3
1682339593.33997893,107420479,0.0,-1.0,0.0,0.0,107.96000000000001,107.96000000000001,0.0,0.09,3
1682339593.43988776,107520388,0.0,-1.0,0.0,0.01,107.93,107.93,0.0,0.1,3
1682339593.53981996,107620320,0.0,-1.0,0.0,0.01,107.9,107.9,0.0,0.09,3
1682339593.63988590,107720386,0.0,-1.0,0.0,0.0,107.85000000000001,107.85000000000001,0.0,0.1,3
1682339593.74021578,107820716,0.0,-1.01,0.0,0.0,107.82000000000001,107.82000000000001,0.0,0.11,3
1682339593.84006095,107920561,0.0,-1.01,0.0,0.0,107.79,107.79,0.0,0.11,3
1682339593.93993592,108020436,0.0,-1.01,0.0,0.0,107.73,107.73,0.0,0.11,3
1682339594.04003978,108120540,0.0,-1.01,0.0,0.0,107.68,107.68,0.0,0.12,3
1682339594.14003277,108220533,0.0,-1.01,0.0,0.0,107.65,107.65,0.0,0.12,3
1682339594.23995495,108320455,0.0,-1.01,0.0,0.0,107.58,107.58,0.0,0.11,3
1682339594.33988976,108420390,0.0,-1.02,0.0,0.0,107.54,107.54,0.0,0.11,3
1682339594.43983197,108520332,0.0,-1.01,0.0,0.0,107.51,107.51,0.0,0.1,3
1682339594.53992987,108620430,0.0,-1.01,0.0,0.0,107.45,107.45,0.0,0.1,3
1682339594.64021277,108720713,0.0,-1.01,0.0,0.0,107.41,107.41,0.0,0.11,3
1682339594.74020195,108820702,0.0,-1.02,0.0,0.0,107.39,107.39,0.0,0.11,3
1682339594.84026098,108920761,0.0,-1.02,0.0,0.0,107.34,107.34,0.0,0.1,3
1682339594.94002795,109020528,0.0,-1.02,0.0,0.0,107.29,107.29,0.0,0.1,3
1682339595.04028296,109120783,0.0,-1.02,0.0,0.0,107.26,107.26,0.0,0.11,3
1682339595.13996196,109220462,0.0,-1.02,0.0,0.0,107.21000000000001,107.21000000000001,0.0,0.09,3
1682339595.23987889,109320379,0.0,-1.02,0.0,0.0,107.16,107.16,0.0,0.1,3
1682339595.33987498,109420375,0.0,-1.02,0.0,0.0,107.14,107.14,0.0,0.1,3
1682339595.43988395,109520384,0.0,-1.02,0.0,0.0,107.10000000000001,107.10000000000001,0.0,0.12,3
1682339595.54020977,109620710,0.0,-1.02,0.0,0.0,107.05,107.05,0.0,0.11,3
1682339595.64021778,109720718,0.0,-1.02,0.0,0.0,107.01,107.01,0.0,0.1,3
1682339595.74017882,109820679,0.0,-1.02,0.0,0.0,106.97,106.97,0.0,0.09,3
1682339595.84025979,109920760,0.0,-1.03,0.0,0.0,106.92,106.92,0.0,0.09,3
1682339595.94007492,110020575,0.0,-1.03,0.0,0.0,106.89,106.89,0.0,0.09,3
1682339596.04026484,110120765,0.0,-1.03,0.0,0.0,106.86,106.86,0.0,0.09,3
1682339596.13988376,110220384,0.0,-1.04,0.0,0.0,106.81,106.81,0.0,0.08,3
1682339596.23981190,110320312,0.0,-1.04,0.0,0.0,106.78,106.78,0.0,0.09,3
1682339596.33987498,110420375,0.0,-1.04,0.0,0.0,106.75,106.75,0.0,0.08,3
1682339596.44023180,110520732,0.0,-1.04,0.0,0.0,106.71000000000001,106.71000000000001,0.0,0.08,3
1682339596.54022789,110620728,0.0,-1.04,0.0,0.0,106.68,106.68,0.0,0.08,3
1682339596.63992977,110720430,0.0,-1.03,0.0,0.0,106.65,106.65,0.0,0.07,3
1682339596.74004197,110820542,0.0,-1.03,0.0,0.0,106.60000000000001,106.60000000000001,0.0,0.07,3
1682339596.84020591,110920706,0.0,-1.04,0.0,0.0,106.58,106.58,0.0,0.07,3
1682339596.94018292,111020683,0.0,-1.04,0.0,0.0,106.55,106.55,0.0,0.06,3
1682339597.04041076,111120911,0.0,-1.04,0.0,0.0,106.51,106.51,0.0,0.07,3
1682339597.14009595,111220596,0.0,-1.04,0.0,0.0,106.48,106.48,0.0,0.06,3
1682339597.24013686,111320637,0.0,-1.04,0.0,0.0,106.45,106.45,0.0,0.06,3
1682339597.34012794,111420628,0.0,-1.04,0.0,0.0,106.41,106.41,0.0,0.06,3
1682339597.44019485,111520695,0.0,-1.04,0.0,0.0,106.38,106.38,0.0,0.06,3
1682339597.54038978,111620890,0.0,-1.03,0.0,0.0,106.36,106.36,0.0,0.07,3
1682339597.64023876,111720739,0.0,-1.04,0.0,0.0,106.32000000000001,106.32000000000001,0.0,0.07,3
1682339597.74003077,111820531,0.0,-1.04,0.0,0.0,106.28,106.28,0.0,0.07,3
1682339597.84028387,111920784,0.0,-1.04,0.0,0.0,106.25,106.25,0.0,0.06,3
1682339597.94018292,112020683,0.0,-1.03,0.0,0.0,106.21000000000001,106.21000000000001,0.0,0.06,3
1682339598.04044890,112120949,0.0,-1.03,0.0,-0.01,106.17,106.17,0.0,0.06,3
1682339598.14018583,112220686,0.0,-1.03,0.0,-0.01,106.15,106.15,0.0,0.06,3
1682339598.24020982,112320710,0.0,-1.03,0.0,-0.01,106.12,106.12,0.0,0.05,3
1682339598.34022284,112420723,0.0,-1.03,0.0,-0.01,106.08,106.08,0.0,0.05,3
1682339598.44049382,112520994,0.0,-1.03,0.0,-0.01,106.06,106.06,0.0,0.06,3
1682339598.54045177,112620952,0.0,-1.03,0.0,0.0,106.03,106.03,0.0,0.07,3
1682339598.63996983,112720470,0.0,-1.03,0.0,-0.01,106.0,106.0,0.0,0.07,3
1682339598.73996782,112820468,0.0,-1.03,0.0,-0.01,105.97,105.97,0.0,0.07,3
1682339598.83993983,112920440,0.0,-1.03,0.0,-0.01,105.93,105.93,0.0,0.07,3
1682339598.93981385,113020314,0.0,-1.03,0.0,-0.01,105.89,105.89,0.0,0.08,3
1682339599.03993678,113120437,0.0,-1.03,0.0,-0.01,105.85000000000001,105.85000000000001,0.0,0.08,3
1682339599.13989878,113220399,0.0,-1.03,0.0,-0.01,105.82000000000001,105.82000000000001,0.0,0.07,3
1682339599.23993778,113320438,0.0,-1.02,0.0,-0.01,105.77,105.77,0.0,0.07,3
1682339599.33993697,113420437,0.0,-1.03,0.0,-0.01,105.74000000000001,105.74000000000001,0.0,0.07,3
1682339599.44003677,113520537,0.0,-1.03,0.0,-0.01,105.71000000000001,105.71000000000001,0.0,0.07,3
1682339599.54002595,113620526,0.0,-1.03,0.0,-0.01,105.67,105.67,0.0,0.06,3
1682339599.64022398,113720724,0.0,-1.03,0.0,-0.02,105.64,105.64,0.0,0.06,3
1682339599.73986888,113820369,0.0,-1.03,0.0,-0.01,105.61,105.61,0.0,0.06,3
1682339599.83986378,113920364,0.0,-1.03,0.0,-0.01,105.58,105.58,0.0,0.06,3
1682339599.93991685,114020417,0.0,-1.03,0.0,-0.01,105.56,105.56,0.0,0.05,3
1682339600.03992176,114120422,0.0,-1.03,0.0,-0.01,105.53,105.53,0.0,0.06,3
1682339600.14002681,114220527,0.0,-1.03,0.0,-0.01,105.49000000000001,105.49000000000001,0.0,0.06,3
1682339600.23999095,114320491,0.0,-1.03,0.0,-0.01,105.46000000000001,105.46000000000001,0.0,0.07,3
1682339600.34003997,114420540,0.0,-1.03,0.0,-0.01,105.43,105.43,0.0,0.07,3
1682339600.44003677,114520537,0.0,-1.03,0.0,-0.01,105.39,105.39,0.0,0.07,3
1682339600.54022598,114620726,0.0,-1.04,0.0,-0.01,105.35000000000001,105.35000000000001,0.0,0.06,3
1682339600.64009690,114720597,0.0,-1.04,0.0,-0.01,105.32000000000001,105.32000000000001,0.0,0.05,3
1682339600.74005795,114820558,0.0,-1.04,0.0,0.0,105.28,105.28,0.0,0.05,3
1682339600.84014988,114920650,0.0,-1.04,0.0,0.0,105.25,105.25,0.0,0.05,3
1682339600.94010592,115020606,0.0,-1.04,0.0,0.0,105.23,105.23,0.0,0.05,3
1682339601.04017282,115120673,0.0,-1.04,0.0,0.0,105.19,105.19,0.0,0.05,3
1682339601.14012885,115220629,0.0,-1.04,0.0,0.0,105.16,105.16,0.0,0.06,3
1682339601.24016881,115320669,0.0,-1.04,0.0,0.0,105.13,105.13,0.0,0.06,3
1682339601.34017086,115420671,0.0,-1.04,0.0,0.0,105.10000000000001,105.10000000000001,0.0,0.05,3
1682339601.44026184,115520762,0.0,-1.04,0.0,-0.01,105.07000000000001,105.07000000000001,0.0,0.05,3
1682339601.54023790,115620738,0.0,-1.04,0.0,0.0,105.04,105.04,0.0,0.05,3
1682339601.64009976,115720600,0.0,-1.04,0.0,0.0,105.01,105.01,0.0,0.05,3
1682339601.74017787,115820678,0.0,-1.05,0.0,0.0,104.98,104.98,0.0,0.05,3
1682339601.84000278,115920503,0.0,-1.05,0.0,0.0,104.95,104.95,0.0,0.05,3
1682339601.93991184,116020412,0.0,-1.04,0.0,0.0,104.91,104.91,0.0,0.05,3
1682339636.64015293,150720653,0.0,-0.99,0.0,0.02,99.58,99.57000000000001,0.0,0.02,3
1682339636.74020195,150820702,0.0,-0.99,0.0,0.02,99.58,99.56,0.0,0.02,3
1682339636.84018779,150920688,0.0,-0.99,0.0,0.02,99.58,99.55,0.0,0.02,3
1682339636.94020081,151020701,0.0,-0.99,0.0,0.02,99.58,99.54,0.0,0.02,3
1682339637.04021692,151120717,0.0,-0.99,0.0,0.01,99.58,99.53,0.0,0.02,3
1682339637.14015985,151220660,0.0,-0.99,0.0,0.02,99.58,99.53,0.0,0.02,3
1682339637.24020076,151320701,0.0,-0.99,0.0,0.02,99.58,99.53,0.0,0.02,3
1682339637.34019399,151420694,0.0,-0.99,0.0,0.02,99.58,99.52,0.0,0.03,3
1682339637.44022298,151520723,0.0,-0.99,0.0,0.02,99.58,99.52,0.0,0.03,3
1682339637.53986192,151620362,0.0,-1.0,0.0,0.02,99.58,99.53,0.0,0.02,3
1682339637.64007282,151720573,0.0,-1.0,0.0,0.02,99.58,99.53,0.0,0.02,3
1682339637.74012685,151820627,0.0,-1.0,0.0,0.02,99.58,99.53,0.0,0.02,3
1682339637.84020185,151920702,0.0,-1.0,0.0,0.02,99.58,99.53,0.0,0.02,3
1682339637.94017076,152020671,0.0,-1.0,0.0,0.02,99.58,99.53,0.0,0.02,3
1682339638.04012680,152120627,0.0,-1.0,0.0,0.02,99.58,99.53,0.0,0.02,3
1682339638.14016080,152220661,0.0,-1.0,0.0,0.02,99.58,99.52,0.0,0.02,3
1682339638.24014688,152320647,0.0,-1.0,0.0,0.02,99.58,99.52,0.0,0.02,3
1682339638.34037590,152420876,0.0,-1.0,0.0,0.02,99.58,99.51,0.0,0.03,3
1682339638.44015384,152520654,0.0,-1.0,0.0,0.02,99.58,99.52,0.0,0.03,3
1682339638.54020095,152620701,0.0,-1.01,0.0,0.01,99.58,99.52,0.0,0.02,3
1682339638.64017296,152720673,0.0,-1.01,0.0,0.01,99.52,99.52,0.01,0.02,3
1682339638.73992682,152820427,0.0,-1.01,0.0,0.01,99.53,99.53,0.01,0.02,3
1682339638.84002590,152920526,0.0,-1.0,0.0,0.01,99.53,99.53,0.01,0.02,3
1682339638.94016981,153020670,0.0,-1.01,0.0,0.01,99.53,99.53,0.01,0.02,3
1682339639.04020786,153120708,0.0,-1.01,0.0,0.01,99.52,99.52,0.01,0.03,3
1682339639.14020896,153220709,0.0,-1.0,0.0,0.01,99.52,99.52,0.01,0.02,3
1682339639.24021292,153320713,0.0,-1.0,0.0,0.01,99.52,99.52,0.01,0.02,3
1682339639.34020376,153420704,0.0,-1.0,0.0,0.01,99.52,99.52,0.01,0.02,3
1682339639.43981576,153520316,0.0,-1.0,0.0,0.01,99.52,99.52,0.01,0.02,3
1682339639.53988194,153620382,0.0,-1.0,0.0,0.01,99.52,99.52,0.01,0.03,3
1682339639.63991380,153720414,0.0,-1.01,0.0,0.02,99.52,99.55,0.01,0.03,3
1682339639.73991895,153820419,0.0,-1.01,0.0,0.01,99.52,99.55,0.01,0.03,3
1682339639.84001899,153920519,0.0,-0.9400000000000001,0.0,0.01,99.52,99.57000000000001,0.01,0.02,3
1682339639.94000697,154020507,0.0,-0.89,0.0,-0.01,99.52,99.51,0.01,0.03,3
1682339640.04007196,154120572,0.0,-0.9,0.0,-0.04,99.52,99.53,0.01,0.04,3
1682339640.13997078,154220471,0.0,-0.9,0.0,0.0,99.52,99.52,0.01,0.04,3
1682339640.23986197,154320362,0.0,-0.91,0.0,0.0,99.52,99.49000000000001,0.01,0.04,3
1682339640.34022379,154420724,0.0,-0.89,0.0,-0.01,99.52,99.52,0.01,0.04,3
1682339640.44019198,154520692,0.0,-0.9,0.0,-0.04,99.52,99.53,0.01,0.04,3
1682339640.54000783,154620508,0.0,-0.88,0.0,-0.02,99.52,99.53,0.01,0.04,3
1682339640.64000797,154720508,0.0,-0.88,0.0,-0.03,99.52,99.54,0.01,0.04,3
1682339640.74000192,154820502,0.0,-0.89,0.0,-0.03,99.52,99.54,0.01,0.04,3
1682339640.84007287,154920573,0.0,-0.89,0.0,-0.03,99.52,99.55,0.01,0.04,3
1682339640.94003296,155020533,0.0,-0.91,0.0,-0.05,99.52,99.56,0.01,0.04,3
1682339641.03998590,155120486,0.0,-0.89,0.0,-0.06,99.52,99.56,0.01,0.04,3
1682339641.13990593,155220406,0.0,-0.93,0.0,-0.06,99.52,99.55,0.01,0.03,3
1682339641.24012494,155320625,0.0,-0.88,0.0,-0.06,99.52,99.57000000000001,0.02,0.04,3
1682339641.34019399,155420694,0.0,-0.88,0.0,-0.07,99.52,99.58,0.02,0.04,3
1682339641.44014192,155520642,0.0,-0.85,0.0,-0.12,99.52,99.52,0.01,0.06,3
1682339641.54018378,155620684,0.0,-0.71,0.0,-0.16,99.52,99.49000000000001,0.01,0.11,3
1682339641.64013577,155720636,-0.09,-0.17,0.08,-0.11,99.52,99.48,0.01,0.15,3
1682339641.74018383,155820684,-0.33,0.16,0.19,0.22,99.52,99.43,0.01,0.19,3
1682339641.84021997,155920720,-0.47000000000000003,0.36,0.25,0.6,99.52,99.34,0.01,0.21,3
1682339641.94017386,156020674,-0.58,0.43,0.31,0.6,99.52,99.26,0.01,0.22,3
1682339642.04014683,156120647,-0.61,0.19,0.33,0.4,99.52,99.15,0.02,0.21,3
1682339642.14027882,156220779,-0.59,0.0,0.33,0.25,99.52,99.02,0.02,0.22,3
1682339642.24012399,156320624,-0.6900000000000001,-0.02,0.3,0.3,99.52,98.9,0.03,0.22,3
1682339642.34048676,156420987,-0.98,-0.21,0.32,0.33,99.52,98.79,0.03,0.21,3
1682339642.43991685,156520417,-1.27,-0.77,0.36,0.37,99.52,98.66,0.03,0.21,3
1682339642.53999996,156620500,-1.36,-1.17,0.55,0.37,99.52,98.55,0.03,0.2,3
1682339642.64004183,156720542,-1.27,-1.19,1.05,0.7000000000000001,99.52,98.44,0.03,0.19,3
1682339642.73999190,156820492,-1.2,-0.96,1.62,1.4000000000000001,99.52,98.31,0.03,0.18,3
1682339642.84002376,156920524,-1.1400000000000001,-0.88,2.2,2.1,99.52,98.2,0.03,0.17,3
1682339642.93989778,157020398,-1.01,-0.85,2.73,2.75,99.52,98.10000000000001,0.03,0.16,3
1682339643.03983092,157120331,-0.97,-0.88,2.84,3.36,99.52,98.01,0.03,0.16,3
1682339643.13988686,157220387,-1.04,-0.92,2.68,3.21,99.52,97.97,0.03,0.14,3
1682339643.24023795,157320738,-1.03,-1.06,2.42,2.6,99.52,97.94,0.04,0.15,3
1682339643.34003782,157420538,-0.8300000000000001,-0.87,2.08,2.2,99.52,97.93,0.04,0.17,3
1682339643.44019890,157520699,-0.8,-0.51,2.08,1.8,99.52,97.94,0.04,0.17,3
1682339643.54024291,157620743,-0.75,-0.41000000000000003,2.29,1.86,99.52,97.96000000000001,0.04,0.18,3
1682339643.64022398,157720724,-0.72,-0.51,2.41,2.2600000000000002,99.52,97.98,0.04,0.17,3
1682339643.74026084,157820761,-0.75,-0.43,2.5100000000000002,2.31,99.52,98.04,0.04,0.16,3
1682339643.84029484,157920795,-0.75,-0.52,2.5500000000000003,2.4,99.52,98.08,0.03,0.17,3
1682339643.94019079,158020691,-0.78,-0.51,2.45,2.36,99.47,98.15,0.03,0.17,3
1682339644.04019094,158120691,-0.84,-0.65,2.35,2.08,98.73,98.23,0.04,0.17,3
1682339644.14053583,158221036,-0.98,-0.88,2.43,2.09,97.7,98.16,0.04,0.18,3
1682339644.24023080,158320731,-1.05,-1.17,2.81,2.45,97.26,97.89,0.05,0.18,3
1682339644.34018397,158420684,-0.98,-1.27,3.27,2.99,97.13,97.57000000000001,0.05,0.17,3
1682339644.44020486,158520705,-0.76,-1.0,3.5100000000000002,3.65,96.85000000000001,97.32000000000001,0.05,0.16,3
1682339644.54003286,158620533,-0.64,-0.56,3.5500000000000003,3.81,96.57000000000001,97.02,0.05,0.13,3
1682339644.63996482,158720465,-0.68,-0.42,3.41,3.5700000000000003,96.48,96.68,0.05,0.13,3
1682339644.73989391,158820394,-0.68,-0.42,3.27,3.34,96.48,96.34,0.05,0.12,3
1682339644.83987284,158920373,-0.68,-0.41000000000000003,3.23,3.09,96.43,96.05,0.06,0.12,3
1682339644.93991995,159020420,-0.68,-0.46,3.22,3.04,95.9,95.78,0.06,0.14,3
1682339645.04022098,159120721,-0.68,-0.63,3.18,2.97,95.41,95.42,0.06,0.13,3
1682339645.14024091,159220741,-0.59,-0.65,3.18,2.8000000000000003,94.98,94.99,0.06,0.13,3
1682339645.24017477,159320675,-0.46,-0.4,3.18,2.83,94.12,94.57000000000001,0.06,0.12,3
1682339645.34022379,159420724,-0.29,-0.21,3.08,2.85,93.13,94.05,0.06,0.11,3
1682339645.43997979,159520480,-0.25,-0.11,3.04,2.82,92.07000000000001,93.39,0.06,0.09,3
1682339645.53997898,159620479,-0.27,-0.09,2.96,2.81,90.88,92.58,0.06,0.08,3
1682339645.63989592,159720396,-0.28,-0.05,2.74,2.7600000000000002,89.87,91.67,0.07,0.08,3
1682339645.73980594,159820306,-0.48,-0.21,2.38,2.36,89.13,90.65,0.07,0.07,3
1682339645.83998680,159920487,-0.65,-0.51,2.23,1.93,88.67,89.60000000000001,0.07,0.07,3
1682339645.93991494,160020415,-0.72,-0.6900000000000001,2.06,1.9100000000000001,88.47,88.57000000000001,0.07,0.06,3
1682339646.03992295,160120423,-0.79,-0.59,1.98,1.74,88.47,87.64,0.07,0.05,3
1682339646.13999796,160220498,-0.8300000000000001,-0.71,1.93,1.49,88.47,86.8,0.07,0.05,3
1682339646.24024177,160320742,-0.86,-0.77,1.87,1.47,88.47,86.08,0.07,0.05,3
1682339646.34011388,160420614,-0.97,-0.76,1.72,1.55,88.47,85.5,0.07,0.07,3
1682339646.44017577,160520676,-1.1,-1.06,1.6300000000000001,1.43,88.47,85.05,0.06,0.09,3
1682339646.54014492,160620645,-1.19,-1.11,1.71,1.4000000000000001,88.47,84.75,0.06,0.09,3
1682339646.64009976,160720600,-1.22,-1.25,1.73,1.6,88.47,84.5,0.05,0.11,3
1682339646.74012685,160820627,-1.12,-1.25,1.6500000000000001,1.56,88.47,84.39,0.05,0.12,3
1682339646.84019780,160920698,-0.89,-1.1,1.49,1.41,88.47,84.38,0.05,0.14,3
1682339646.94016194,161020662,-0.42,-0.72,1.05,1.23,88.47,84.42,0.05,0.14,3
1682339647.04035592,161120856,0.0,0.06,0.77,0.65,88.32000000000001,84.56,0.05,0.14,3
1682339647.14039993,161220900,0.11,0.53,0.8200000000000001,0.51,87.66,84.74,0.05,0.14,3
1682339647.24020982,161320710,0.08,0.58,0.85,0.73,86.93,84.83,0.04,0.14,3
1682339647.34025192,161420752,-0.11,0.3,0.9,0.81,86.38,84.84,0.04,0.15,3
1682339647.44017887,161520679,-0.47000000000000003,-0.19,1.04,0.89,85.87,84.81,0.04,0.16,3
1682339647.54009080,161620591,-0.77,-0.75,1.12,1.11,85.16,84.77,0.04,0.15,3
1682339647.64016581,161720666,-0.92,-1.08,1.16,1.21,84.34,84.62,0.04,0.15,3
1682339647.74020576,161820706,-0.9500000000000001,-1.08,1.16,1.22,83.51,84.34,0.04,0.16,3
1682339647.84034395,161920844,-0.96,-0.9500000000000001,1.16,1.26,82.68,83.96000000000001,0.04,0.16,3
1682339647.94027376,162020774,-0.97,-0.99,1.19,1.19,81.37,83.47,0.04,0.17,3
1682339648.04023695,162120737,-0.98,-0.92,1.28,1.27,79.88,82.8,0.05,0.17,3
1682339648.14021897,162220719,-1.02,-0.97,1.32,1.43,78.56,81.89,0.05,0.18,3
1682339648.24024391,162320744,-1.04,-1.0,1.32,1.42,77.7,80.82000000000001,0.05,0.19,3
1682339648.33986783,162420368,-1.05,-1.01,1.33,1.29,76.95,79.74,0.05,0.2,3
1682339648.43989182,162520392,-1.06,-0.9500000000000001,1.34,1.41,76.65,78.59,0.05,0.21,3
1682339648.53989482,162620395,-1.07,-0.99,1.29,1.45,76.61,77.48,0.05,0.22,3
1682339648.63989496,162720395,-1.04,-1.03,1.2,1.33,76.61,76.48,0.05,0.23,3
1682339648.73991489,162820415,-0.98,-0.93,1.1,1.1400000000000001,76.61,75.56,0.05,0.23,3
1682339648.84001899,162920519,-0.93,-0.9,1.04,0.9400000000000001,76.61,74.76,0.07,0.24,3
1682339648.94021487,163020715,-0.88,-0.68,1.02,0.9,76.61,74.07000000000001,0.07,0.26,3
1682339649.04002786,163120528,-0.8300000000000001,-0.59,0.99,1.04,76.61,73.57000000000001,0.07,0.28,3
1682339649.13998079,163220481,-0.8,-0.49,0.87,0.8200000000000001,76.61,73.18,0.07,0.29,3
1682339649.23987579,163320376,-0.74,-0.5,0.76,0.49,76.61,72.89,0.07,0.29,3
1682339649.33986092,163420361,-0.71,-0.48,0.73,0.42,76.61,72.71000000000001,0.07,0.3,3
1682339649.43987894,163520379,-0.6900000000000001,-0.41000000000000003,0.72,0.43,76.61,72.64,0.07,0.3,3
1682339649.53990483,163620405,-0.5700000000000001,-0.28,0.71,0.45,76.61,72.72,0.07,0.31,3
1682339649.63990188,163720402,-0.41000000000000003,-0.27,0.72,0.63,76.45,72.87,0.08,0.32,3
1682339649.74001694,163820517,-0.22,-0.14,0.71,0.6900000000000001,75.8,73.05,0.08,0.32,3
1682339649.84006596,163920566,0.2,0.0,0.67,0.68,75.01,73.15,0.06,0.32,3
1682339649.93997788,164020478,0.81,0.33,0.5700000000000001,0.62,74.23,73.14,0.06,0.34,3
1682339650.04025078,164120751,1.52,1.19,0.49,0.5,73.27,73.07000000000001,0.05,0.33,3
1682339650.13991189,164220412,2.27,1.95,0.38,0.52,71.64,72.86,0.05,0.32,3
1682339650.24004793,164320548,3.04,2.81,0.26,0.35000000000000003,69.59,72.36,0.05,0.32,3
1682339650.34014297,164420643,3.83,3.88,0.05,-0.1,67.86,71.53,0.05,0.32,3
1682339650.44014192,164520642,4.33,4.89,-0.44,-0.56,66.16,70.5,0.04,0.31,3
1682339650.54021287,164620713,3.97,5.01,-1.08,-1.27,64.53,69.26,0.04,0.31,3
1682339650.64014792,164720648,3.0500000000000003,3.94,-1.8,-2.06,63.51,67.83,0.08,0.3,3
1682339650.74019480,164820695,1.9100000000000001,2.4,-2.56,-2.69,62.7,66.39,0.08,0.31,3
1682339650.84023094,164920731,0.6,0.9,-3.11,-3.24,62.120000000000005,64.98,0.08,0.33,3
1682339650.94039297,165020893,-0.47000000000000003,-0.71,-2.93,-3.66,61.550000000000004,63.59,0.08,0.35000000000000003,3
1682339651.04018879,165120689,-0.99,-1.79,-2.31,-2.98,60.99,62.18,0.07,0.38,3
1682339651.14021492,165220715,-1.1400000000000001,-1.81,-1.4000000000000001,-1.6500000000000001,60.68,60.81,0.07,0.42,3
1682339651.24019098,165320691,-1.0,-1.68,-0.33,-0.38,60.67,59.52,0.07,0.43,3
1682339651.33990598,165420406,-0.89,-1.3900000000000001,0.49,0.8200000000000001,60.63,58.45,0.07,0.44,3
1682339651.43992877,165520429,-0.89,-1.18,0.65,1.53,60.53,57.56,0.06,0.45,3
1682339651.54000187,165620502,-0.9,-1.19,0.56,1.24,60.410000000000004,56.82,0.06,0.45,3
1682339651.64002681,165720527,-0.84,-1.04,0.5,0.6,60.11,56.21,0.07,0.46,3
1682339651.74002099,165820521,-0.72,-0.84,0.53,0.47000000000000003,59.27,55.730000000000004,0.07,0.46,3
1682339651.84002280,165920523,-0.3,-0.61,0.68,0.68,57.78,55.32,0.07,0.47000000000000003,3
1682339651.94016194,166020662,0.32,-0.02,0.72,1.07,56.03,54.74,0.07,0.47000000000000003,3
1682339652.04008579,166120586,1.03,0.98,0.73,1.1500000000000001,54.230000000000004,54.04,0.06,0.48,3
1682339652.14018798,166220688,1.78,1.82,0.7000000000000001,1.05,52.08,53.15,0.06,0.47000000000000003,3
1682339652.23990679,166320407,2.56,2.5300000000000002,0.65,0.8200000000000001,49.85,52.02,0.07,0.48,3
1682339652.33991790,166420418,3.35,3.37,0.64,0.49,47.69,50.63,0.07,0.48,3
1682339652.43993878,166520439,3.71,4.16,0.65,0.4,45.57,49.09,0.06,0.47000000000000003,3
1682339652.54002690,166620527,3.37,4.34,0.7000000000000001,0.44,43.52,47.37,0.06,0.46,3
1682339652.64008784,166720588,2.67,3.48,0.73,0.6,41.77,45.480000000000004,0.05,0.48,3
1682339652.73997593,166820476,1.79,2.24,0.73,0.8200000000000001,40.02,43.5,0.05,0.5,3
1682339652.84027076,166920771,0.79,0.87,0.71,1.0,38.300000000000004,41.43,0.06,0.51,3
1682339652.94021082,167020711,0.06,-0.38,0.76,1.0,36.550000000000004,39.31,0.06,0.51,3
1682339653.04021192,167120712,-0.33,-1.01,0.79,0.96,34.79,37.08,0.06,0.53,3
1682339653.13992691,167220427,-0.52,-1.11,0.8200000000000001,0.93,33.05,34.82,0.06,0.53,3
1682339653.24017692,167320677,-0.59,-1.1,0.85,0.9500000000000001,31.470000000000002,32.52,0.05,0.53,3
1682339653.34013796,167420638,-0.54,-0.91,0.96,1.05,30.47,30.25,0.05,0.53,3
1682339653.44018388,167520684,-0.49,-0.65,1.05,1.26,30.080000000000002,28.14,0.06,0.53,3
1682339653.54018784,167620688,-0.51,-0.5700000000000001,1.09,1.3,29.990000000000002,26.26,0.06,0.53,3
1682339653.64018488,167720685,-0.5700000000000001,-0.64,1.12,1.2,29.990000000000002,24.71,0.05,0.52,3
1682339653.74010277,167820603,-0.68,-0.8,1.1,1.11,29.990000000000002,23.44,0.05,0.52,3
1682339653.84009385,167920594,-0.64,-0.93,0.9500000000000001,0.97,29.990000000000002,22.43,0.06,0.52,3
1682339653.94012976,168020630,-0.44,-0.75,0.8200000000000001,0.8300000000000001,29.97,21.62,0.06,0.52,3
1682339654.04044390,168120944,0.06,-0.27,0.65,0.74,29.36,21.02,0.06,0.52,3
1682339654.14045382,168220954,0.71,0.47000000000000003,0.46,0.66,28.490000000000002,20.490000000000002,0.06,0.51,3
1682339654.24012589,168320626,1.43,1.24,0.13,0.49,27.7,19.990000000000002,0.07,0.51,3
1682339654.34019089,168420691,2.2,2.14,-0.12,0.15,26.97,19.580000000000002,0.07,0.51,3
1682339654.44017196,168520672,2.98,2.97,-0.2,-0.01,26.3,19.27,0.06,0.5,3
1682339654.54018784,168620688,3.77,3.79,-0.21,0.17,25.76,19.09,0.06,0.49,3
1682339654.64009976,168720600,4.5600000000000005,4.48,-0.16,0.3,25.29,18.98,0.05,0.49,3
1682339654.74010396,168820604,4.97,5.34,-0.11,0.44,24.830000000000002,18.97,0.05,0.48,3
1682339654.84017587,168920676,4.69,5.4,-0.06,0.53,24.37,19.04,0.05,0.48,3
1682339654.94046283,169020963,4.01,4.5600000000000005,-0.04,0.37,23.86,19.11,0.05,0.48,3
1682339655.04023790,169120738,3.06,3.39,-0.03,0.25,23.37,19.21,0.04,0.49,3
1682339655.14020395,169220704,2.0100000000000002,2.17,-0.02,0.15,22.900000000000002,19.34,0.04,0.5,3
1682339655.24020886,169320709,0.98,0.81,0.04,0.03,22.44,19.490000000000002,0.04,0.51,3
1682339655.34021378,169420714,0.39,-0.23,0.12,0.09,21.97,19.62,0.04,0.51,3
1682339655.44022584,169520726,0.42,-0.56,0.13,0.15,21.45,19.73,0.04,0.51,3
1682339655.54017782,169620678,0.76,0.01,0.19,0.14,21.14,19.8,0.04,0.5,3
