timestamp,TimeUS,I,Status,GMS,GWk,NSats,HDop,Lat,Lng,Alt,Spd,GCrs,VZ,Yaw,U
1682339547.59999990,61680500,0,3,131565600,2259,16,0.66,42.6899425,-84.48894039999999,267.84000000000003,0.023345235735177994,226.73570251464844,0.11000000685453415,0.0,1
1682339547.79998994,61880490,0,3,131565800,2259,16,0.66,42.6899425,-84.4889402,267.85,0.009000000543892384,0.0,0.02500000037252903,0.0,1
1682339547.99959683,62080097,0,3,131566000,2259,16,0.66,42.6899424,-84.4889401,267.86,0.017888544127345085,243.43496704101562,0.049000002443790436,0.0,1
1682339548.18006587,62260566,0,3,131566200,2259,16,0.66,42.6899424,-84.48894,267.86,0.006324555724859238,341.5650634765625,0.04500000178813934,0.0,1
1682339548.39987087,62480371,0,3,131566400,2259,16,0.66,42.6899424,-84.4889398,267.87,0.0344383530318737,205.8209991455078,0.0990000069141388,0.0,1
1682339548.59989977,62680400,0,3,131566600,2259,15,0.68,42.6899423,-84.4889397,267.88,0.0298328697681427,320.4403381347656,-0.05400000140070915,0.0,1
1682339548.79971385,62880214,0,3,131566800,2259,15,0.68,42.6899423,-84.4889397,267.91,0.015524175018072128,284.9314270019531,0.01600000075995922,0.0,1
1682339548.97954392,63060044,0,3,131567000,2259,15,0.68,42.6899422,-84.4889396,267.92,0.009219544008374214,229.39871215820312,-0.01900000125169754,0.0,1
1682339549.18011999,63260620,0,3,131567200,2259,16,0.68,42.6899422,-84.4889395,267.92,0.009433981962502003,122.00537109375,0.03700000047683716,0.0,1
1682339549.37967491,63460175,0,3,131567400,2259,16,0.68,42.689942099999996,-84.4889393,267.93,0.027166156098246574,173.65980529785156,0.06700000166893005,0.0,1
1682339549.58042479,63660925,0,3,131567600,2259,16,0.66,42.689941999999995,-84.48893919999999,267.93,0.021931713446974754,204.22775268554688,0.03100000135600567,0.0,1
1682339549.78055692,63861057,0,3,131567800,2259,16,0.66,42.6899419,-84.4889391,267.93,0.030413813889026642,207.4075927734375,0.08500000089406967,0.0,1
1682339549.99990892,64080409,0,3,131568000,2259,16,0.66,42.6899418,-84.4889391,267.93,0.033526111394166946,197.35403442382812,0.09700000286102295,0.0,1
1682339550.17967892,64260179,0,3,131568200,2259,16,0.66,42.6899417,-84.4889389,267.93,0.017464250326156616,113.6293716430664,0.0020000000949949026,0.0,1
1682339550.39966178,64480162,0,3,131568400,2259,16,0.66,42.6899417,-84.4889388,267.93,0.006708203814923763,243.43496704101562,0.058000002056360245,0.0,1
1682339550.59973097,64680231,0,3,131568600,2259,16,0.66,42.6899417,-84.48893869999999,267.93,0.027730850502848625,205.64100646972656,0.08500000089406967,0.0,1
1682339550.79983592,64880336,0,3,131568800,2259,16,0.66,42.6899416,-84.4889386,267.95,0.037589892745018005,208.61045837402344,0.049000002443790436,0.0,1
1682339550.98013186,65060632,0,3,131569000,2259,16,0.66,42.6899416,-84.4889385,267.97,0.02102379873394966,272.726318359375,0.09800000488758087,0.0,1
1682339551.20014691,65280647,0,3,131569200,2259,16,0.66,42.6899416,-84.4889384,267.98,0.013152946718037128,278.74615478515625,0.015000000596046448,0.0,1
1682339551.39957595,65480076,0,3,131569400,2259,16,0.66,42.6899416,-84.4889384,268.0,0.026476405560970306,259.1144714355469,0.006000000052154064,0.0,1
1682339551.59958076,65680081,0,3,131569600,2259,16,0.66,42.689941499999996,-84.4889383,268.02,0.03584690019488335,149.8585968017578,0.03500000014901161,0.0,1
1682339551.79968381,65880184,0,3,131569800,2259,16,0.66,42.689941499999996,-84.4889381,268.04,0.015000000596046448,36.86989974975586,0.009000000543892384,0.0,1
1682339551.99993896,66080439,0,3,131570000,2259,16,0.66,42.689941499999996,-84.48893799999999,268.07,0.011045361869037151,354.8055725097656,-0.00800000037997961,0.0,1
1682339552.17969084,66260191,0,3,131570200,2259,16,0.66,42.689941499999996,-84.4889379,268.11,0.021931713446974754,316.84759521484375,0.06100000441074371,0.0,1
1682339552.39988279,66480383,0,3,131570400,2259,16,0.66,42.689941499999996,-84.4889378,268.13,0.021095024421811104,301.4295654296875,0.006000000052154064,0.0,1
1682339552.59991598,66680416,0,3,131570600,2259,16,0.66,42.6899416,-84.4889377,268.18,0.02024845778942108,147.09475708007812,0.046000003814697266,0.0,1
1682339552.79992390,66880424,0,3,131570800,2259,16,0.66,42.6899416,-84.48893749999999,268.2,0.040718547999858856,114.67684936523438,-0.02800000086426735,0.0,1
1682339553.00023079,67080731,0,3,131571000,2259,16,0.66,42.6899416,-84.48893729999999,268.29,0.05108816176652908,49.763641357421875,-0.5,0.0,1
1682339553.19959188,67280092,0,3,131571200,2259,16,0.66,42.6899417,-84.4889371,268.41,0.1008414626121521,82.59307861328125,-0.6010000109672546,0.0,1
1682339553.38047099,67460971,0,3,131571400,2259,15,0.66,42.6899419,-84.48893679999999,268.71,0.07912015914916992,200.72557067871094,-0.6020000576972961,0.0,1
1682339553.58008289,67660583,0,3,131571600,2259,14,0.72,42.6899416,-84.4889367,268.74,0.11640017479658127,143.03164672851562,-0.28700000047683716,0.0,1
1682339553.79970980,67880210,0,3,131571800,2259,15,0.72,42.6899416,-84.48893629999999,268.88,0.09321480989456177,99.26021575927734,-0.1550000011920929,0.0,1
1682339553.99968982,68080190,0,3,131572000,2259,16,0.72,42.689941499999996,-84.4889359,268.95,0.0814923346042633,104.20675659179688,-0.0860000029206276,0.0,1
1682339554.19956493,68280065,0,3,131572200,2259,16,0.72,42.689941399999995,-84.4889355,269.02,0.13824616372585297,104.23727416992188,-0.010000000707805157,0.0,1
1682339554.39966083,68480161,0,3,131572400,2259,16,0.72,42.6899413,-84.48893509999999,269.03000000000003,0.18015550076961517,112.864501953125,0.08700000494718552,0.0,1
1682339554.59969091,68680191,0,3,131572600,2259,16,0.66,42.6899412,-84.4889345,269.09000000000003,0.28744566440582275,86.80911254882812,-0.026000000536441803,0.0,1
1682339554.79974484,68880245,0,3,131572800,2259,16,0.66,42.6899411,-84.4889338,269.12,0.30342215299606323,93.022705078125,0.024000000208616257,0.0,1
1682339554.97980499,69060305,0,3,131573000,2259,16,0.66,42.689941,-84.488933,269.12,0.4064984619617462,83.64424133300781,-0.02200000174343586,0.0,1
1682339555.19958186,69280082,0,3,131573200,2259,16,0.66,42.689940899999996,-84.4889319,269.15,0.4155406355857849,102.9325942993164,0.03800000250339508,0.0,1
1682339555.39988780,69480388,0,3,131573400,2259,16,0.66,42.689940799999995,-84.48893079999999,269.21,0.3998362123966217,98.92047119140625,-0.11700000613927841,0.0,1
1682339555.59989285,69680393,0,3,131573600,2259,16,0.66,42.6899407,-84.4889299,269.33,0.3489369750022888,102.24383544921875,-0.23900000751018524,0.0,1
1682339555.77969885,69860199,0,3,131573800,2259,16,0.66,42.6899404,-84.4889291,269.36,0.443842351436615,111.13018035888672,-0.09600000083446503,0.0,1
1682339556.00013280,70080633,0,3,131574000,2259,16,0.66,42.6899401,-84.4889281,269.41,0.4448752701282501,110.39022827148438,-0.10700000822544098,0.0,1
1682339556.19987988,70280380,0,3,131574200,2259,16,0.66,42.6899399,-84.4889268,269.48,0.4311473071575165,115.85186004638672,-0.30800002813339233,0.0,1
1682339556.37964082,70460141,0,3,131574400,2259,16,0.66,42.6899395,-84.4889257,269.49,0.4527471959590912,105.63249206542969,-0.1990000158548355,0.0,1
1682339556.60001493,70680515,0,3,131574600,2259,15,0.72,42.6899393,-84.48892479999999,269.56,0.3764704763889313,97.78572082519531,-0.33000001311302185,0.0,1
1682339556.80023098,70880731,0,3,131574800,2259,15,0.72,42.6899392,-84.48892359999999,269.66,0.5952428579330444,91.6365737915039,-0.41700002551078796,0.0,1
1682339556.98012280,71060623,0,3,131575000,2259,15,0.72,42.6899389,-84.4889223,269.71,0.5471178889274597,105.58576202392578,-0.328000009059906,0.0,1
1682339557.18003392,71260534,0,3,131575200,2259,14,0.72,42.6899385,-84.4889209,269.8,0.6200395822525024,111.97299194335938,-0.4000000059604645,0.0,1
1682339557.38059783,71461098,0,3,131575400,2259,14,0.72,42.6899381,-84.4889194,269.92,0.6241001486778259,113.11420440673828,-0.46700000762939453,0.0,1
1682339557.58017182,71660672,0,3,131575600,2259,15,0.7000000000000001,42.6899375,-84.4889177,270.01,0.8435223698616028,110.32549285888672,-0.4390000104904175,0.0,1
1682339557.77967191,71860172,0,3,131575800,2259,15,0.7000000000000001,42.6899369,-84.4889158,270.09000000000003,0.8153147101402283,121.25299835205078,-0.20100000500679016,0.0,1
1682339557.97957277,72060073,0,3,131576000,2259,15,0.7000000000000001,42.6899361,-84.4889139,270.14,0.8808825016021729,118.1069107055664,-0.1860000044107437,0.0,1
1682339558.17966485,72260165,0,3,131576200,2259,15,0.7000000000000001,42.689935399999996,-84.488912,270.19,0.8193901181221008,113.7494888305664,-0.0990000069141388,0.0,1
1682339558.37968278,72460183,0,3,131576400,2259,15,0.7000000000000001,42.6899346,-84.48890999999999,270.2,1.035443902015686,119.63506317138672,-0.009000000543892384,0.0,1
1682339558.58018088,72660681,0,3,131576600,2259,15,0.7000000000000001,42.6899337,-84.48890759999999,270.22,1.0742071866989136,116.54119110107422,0.10900000482797623,0.0,1
1682339558.77959299,72860093,0,3,131576800,2259,15,0.7000000000000001,42.6899328,-84.4889053,270.18,1.090293526649475,114.26128387451172,0.15200001001358032,0.0,1
1682339558.97958779,73060088,0,3,131577000,2259,15,0.7000000000000001,42.689932,-84.4889027,270.09000000000003,1.2021522521972656,110.907470703125,0.32500001788139343,0.0,1
1682339559.18016982,73260670,0,3,131577200,2259,15,0.7000000000000001,42.6899313,-84.4889001,270.08,1.0415397882461548,104.7967529296875,0.19100001454353333,0.0,1
1682339559.38013577,73460636,0,3,131577400,2259,15,0.7000000000000001,42.6899306,-84.4888976,270.03000000000003,1.1363754272460938,116.38465118408203,0.27400001883506775,0.0,1
1682339559.59985685,73680357,0,3,131577600,2259,15,0.7000000000000001,42.6899298,-84.4888947,270.01,1.1737738847732544,107.24626922607422,0.20900000631809235,0.0,1
1682339559.78008986,73860590,0,3,131577800,2259,14,0.7000000000000001,42.689929,-84.48889179999999,269.99,1.3209285736083984,110.65757751464844,0.10900000482797623,0.0,1
1682339559.98010182,74060602,0,3,131578000,2259,15,0.7000000000000001,42.6899278,-84.4888888,269.97,1.3828973770141602,121.66720581054688,0.18300001323223114,0.0,1
1682339560.19974089,74280241,0,3,131578200,2259,16,0.7000000000000001,42.6899267,-84.4888857,269.93,1.4182358980178833,110.08319091796875,0.25200000405311584,0.0,1
1682339560.39960289,74480103,0,3,131578400,2259,16,0.7000000000000001,42.6899259,-84.48888269999999,269.88,1.2957531213760376,106.86865234375,0.13900001347064972,0.0,1
1682339560.59958196,74680082,0,3,131578600,2259,16,0.66,42.689925099999996,-84.4888795,269.83,1.460891842842102,107.40548706054688,0.26100000739097595,0.0,1
1682339560.77957177,74860072,0,3,131578800,2259,16,0.66,42.689924399999995,-84.4888761,269.82,1.2995326519012451,107.5565414428711,0.23500001430511475,0.0,1
1682339560.98019290,75060693,0,3,131579000,2259,16,0.66,42.6899237,-84.488873,269.82,1.321635365486145,110.73870849609375,0.203000009059906,0.0,1
1682339561.19969082,75280191,0,3,131579200,2259,16,0.66,42.6899227,-84.4888701,269.89,1.2335907220840454,122.62079620361328,-0.07000000029802322,0.0,1
1682339561.38017392,75460674,0,3,131579400,2259,15,0.66,42.6899216,-84.4888675,270.03000000000003,1.1680840253829956,127.5566177368164,-0.3240000009536743,0.0,1
1682339561.59965992,75680160,0,3,131579600,2259,15,0.7000000000000001,42.6899206,-84.48886569999999,270.12,0.7365487813949585,125.7185287475586,-0.4540000259876251,0.0,1
1682339561.78013682,75860637,0,3,131579800,2259,16,0.7000000000000001,42.6899198,-84.4888643,270.1,0.6949374079704285,130.6817626953125,-0.18200001120567322,0.0,1
1682339562.01958585,76100086,0,3,131580000,2259,16,0.7000000000000001,42.6899191,-84.48886329999999,270.16,0.4542994797229767,146.30992126464844,-0.22600001096725464,0.0,1
1682339562.18018579,76260686,0,3,131580200,2259,16,0.7000000000000001,42.689918399999996,-84.4888627,270.2,0.48139485716819763,159.19320678710938,-0.1510000079870224,0.0,1
1682339562.38057280,76461073,0,3,131580400,2259,16,0.7000000000000001,42.689917699999995,-84.4888623,270.19,0.43324360251426697,161.14683532714844,-0.04800000041723251,0.0,1
1682339562.57958388,76660084,0,3,131580600,2259,15,0.7000000000000001,42.689917099999995,-84.48886189999999,270.29,0.2777516841888428,171.92822265625,-0.10300000756978989,0.0,1
1682339562.77969289,76860193,0,3,131580800,2259,15,0.7000000000000001,42.689916499999995,-84.4888615,270.31,0.40632131695747375,146.54458618164062,-0.11600000411272049,0.0,1
1682339562.97970796,77060208,0,3,131581000,2259,15,0.7000000000000001,42.689915899999995,-84.48886089999999,270.35,0.4089498817920685,140.15855407714844,-0.14100000262260437,0.0,1
1682339563.17971492,77260215,0,3,131581200,2259,15,0.7000000000000001,42.6899152,-84.4888603,270.38,0.4499289095401764,139.8683319091797,0.07400000095367432,0.0,1
1682339563.38014197,77460642,0,3,131581400,2259,15,0.7000000000000001,42.6899148,-84.4888592,270.48,0.5831912755966187,116.03780364990234,-0.18700000643730164,0.0,1
1682339563.59968090,77680181,0,3,131581600,2259,15,0.7000000000000001,42.6899143,-84.4888577,270.49,0.6432076096534729,108.49127960205078,-0.07200000435113907,0.0,1
1682339563.78014088,77860641,0,3,131581800,2259,15,0.7000000000000001,42.6899138,-84.48885589999999,270.6,0.6847087144851685,116.07853698730469,-0.2370000183582306,0.0,1
1682339563.98015189,78060652,0,3,131582000,2259,15,0.7000000000000001,42.6899133,-84.4888539,270.69,0.8739485144615173,101.95279693603516,-0.31800001859664917,0.0,1
1682339564.18013287,78260633,0,3,131582200,2259,15,0.7000000000000001,42.6899131,-84.48885159999999,270.72,0.9854269027709961,91.68638610839844,-0.22600001096725464,0.0,1
1682339564.38051796,78461018,0,3,131582400,2259,15,0.7000000000000001,42.689912899999996,-84.4888488,270.85,1.1371842622756958,100.53917694091797,-0.3230000138282776,0.0,1
1682339564.57964897,78660149,0,3,131582600,2259,15,0.7000000000000001,42.6899125,-84.4888457,270.89,1.3469736576080322,100.82608032226562,-0.1850000023841858,0.0,1
1682339564.77969480,78860195,0,3,131582800,2259,15,0.7000000000000001,42.6899119,-84.4888426,270.85,1.2521586418151855,107.37858581542969,0.09400000423192978,0.0,1
1682339564.97969580,79060196,0,3,131583000,2259,15,0.7000000000000001,42.6899112,-84.48883939999999,270.83,1.3890029191970825,103.9561996459961,0.06300000101327896,0.0,1
1682339565.18045878,79260959,0,3,131583200,2259,15,0.7000000000000001,42.689910499999996,-84.4888357,270.84000000000003,1.6466116905212402,101.5965347290039,0.0430000014603138,0.0,1
1682339565.38015079,79460651,0,3,131583400,2259,15,0.7000000000000001,42.689909799999995,-84.4888318,270.77,1.5603083372116089,101.12268829345703,0.18900001049041748,0.0,1
1682339565.57967782,79660178,0,3,131583600,2259,15,0.7000000000000001,42.6899093,-84.48882789999999,270.71,1.5822076797485352,99.82546997070312,0.3270000219345093,0.0,1
1682339565.77980590,79860306,0,3,131583800,2259,15,0.7000000000000001,42.6899087,-84.4888237,270.69,1.7178897857666016,103.84209442138672,0.22100001573562622,0.0,1
1682339565.97959495,80060095,0,3,131584000,2259,15,0.7000000000000001,42.6899081,-84.4888194,270.75,1.6594632863998413,102.98943328857422,0.07000000029802322,0.0,1
1682339566.17961478,80260115,0,3,131584200,2259,15,0.7000000000000001,42.6899072,-84.4888154,270.73,1.6434491872787476,108.66645812988281,0.026000000536441803,0.0,1
1682339566.38017488,80460675,0,3,131584400,2259,15,0.7000000000000001,42.6899064,-84.4888117,270.7,1.4458389282226562,106.68025970458984,0.19100001454353333,0.0,1
1682339566.60003686,80680537,0,3,131584600,2259,15,0.7000000000000001,42.6899057,-84.4888084,270.81,1.2265398502349854,114.05734252929688,-0.12700000405311584,0.0,1
1682339566.78013587,80860636,0,3,131584800,2259,15,0.7000000000000001,42.689904899999995,-84.48880559999999,270.76,1.0512508153915405,107.60762023925781,0.06100000441074371,0.0,1
1682339566.98007894,81060579,0,3,131585000,2259,15,0.7000000000000001,42.689904399999996,-84.4888034,270.76,0.7360489368438721,102.71455383300781,0.03200000151991844,0.0,1
1682339567.18010283,81260603,0,3,131585200,2259,15,0.7000000000000001,42.6899041,-84.4888016,270.75,0.6133726835250854,99.47766876220703,-0.0950000062584877,0.0,1
1682339567.40003896,81480539,0,3,131585400,2259,15,0.7000000000000001,42.689904,-84.48880009999999,270.73,0.4842860996723175,95.56932067871094,0.03500000014901161,0.0,1
1682339567.58014989,81660650,0,3,131585600,2259,15,0.7000000000000001,42.689903799999996,-84.488799,270.74,0.37079375982284546,110.19432830810547,0.0560000017285347,0.0,1
1682339567.78013182,81860632,0,3,131585800,2259,15,0.7000000000000001,42.689903699999995,-84.48879819999999,270.76,0.21694698929786682,97.68190002441406,0.027000000700354576,0.0,1
1682339567.99965692,82080157,0,3,131586000,2259,15,0.7000000000000001,42.6899036,-84.48879749999999,270.78000000000003,0.33863404393196106,105.06219482421875,-0.020000001415610313,0.0,1
1682339568.18057585,82261076,0,3,131586200,2259,15,0.7000000000000001,42.6899036,-84.4887967,270.81,0.20206187665462494,91.41791534423828,-0.09300000220537186,0.0,1
1682339568.38003397,82460534,0,3,131586400,2259,16,0.7000000000000001,42.6899036,-84.4887962,270.84000000000003,0.16259460151195526,77.92985534667969,-0.004000000189989805,0.0,1
1682339568.58018398,82660684,0,3,131586600,2259,16,0.66,42.689903799999996,-84.48879579999999,270.84000000000003,0.11868025362491608,69.2744369506836,-0.052000001072883606,0.0,1
1682339568.78012276,82860623,0,3,131586800,2259,16,0.66,42.6899039,-84.4887954,270.86,0.12525175511837006,51.483070373535156,-0.027000000700354576,0.0,1
1682339568.98016095,83060661,0,3,131587000,2259,16,0.66,42.689904,-84.48879509999999,270.85,0.14673104882240295,55.55180740356445,-0.10500000417232513,0.0,1
1682339569.18070793,83261208,0,3,131587200,2259,16,0.66,42.6899041,-84.4887947,270.85,0.1540292352437973,91.11600494384766,-0.007000000216066837,0.0,1
1682339569.38018799,83460688,0,3,131587400,2259,16,0.66,42.6899041,-84.4887942,270.81,0.16801191866397858,90.68205261230469,0.0020000000949949026,0.0,1
1682339569.57959795,83660098,0,3,131587600,2259,16,0.66,42.6899041,-84.4887938,270.8,0.1337946206331253,109.65381622314453,-0.06700000166893005,0.0,1
1682339569.77962589,83860126,0,3,131587800,2259,16,0.66,42.689904,-84.48879339999999,270.8,0.1529705971479416,115.55996704101562,-0.006000000052154064,0.0,1
1682339569.97970796,84060208,0,3,131588000,2259,16,0.66,42.6899039,-84.488793,270.81,0.12553884088993073,112.47942352294922,0.01600000075995922,0.0,1
1682339570.19993782,84280438,0,3,131588200,2259,16,0.66,42.689904,-84.48879269999999,270.82,0.067601777613163,97.65064239501953,0.049000002443790436,0.0,1
1682339570.37969398,84460194,0,3,131588400,2259,16,0.66,42.689904,-84.4887924,270.81,0.06040695682168007,70.66519165039062,0.015000000596046448,0.0,1
1682339570.57957482,84660075,0,3,131588600,2259,16,0.66,42.6899041,-84.4887923,270.79,0.03220248594880104,53.84181213378906,0.04700000211596489,0.0,1
1682339570.77967381,84860174,0,3,131588800,2259,16,0.66,42.6899042,-84.4887921,270.79,0.037336308509111404,69.6235580444336,0.03500000014901161,0.0,1
1682339570.99981284,85080313,0,3,131589000,2259,16,0.66,42.689904299999995,-84.48879199999999,270.8,0.0598163865506649,38.21102523803711,-0.01100000087171793,0.0,1
1682339571.18019891,85260699,0,3,131589200,2259,16,0.66,42.689904399999996,-84.4887918,270.82,0.06217717006802559,27.801454544067383,0.03800000250339508,0.0,1
1682339571.37960291,85460103,0,3,131589400,2259,16,0.66,42.6899045,-84.4887916,270.83,0.07200000435113907,0.0,-0.03100000135600567,0.0,1
1682339571.58009481,85660595,0,3,131589600,2259,16,0.66,42.6899046,-84.48879149999999,270.85,0.048373546451330185,352.8749694824219,0.04100000113248825,0.0,1
1682339571.78011179,85860612,0,3,131589800,2259,16,0.66,42.6899046,-84.48879149999999,270.85,0.0760263130068779,333.4349365234375,0.027000000700354576,0.0,1
1682339571.98062491,86061125,0,3,131590000,2259,16,0.66,42.6899048,-84.48879149999999,270.87,0.10076706856489182,319.8304138183594,0.03700000047683716,0.0,1
1682339572.17967486,86260175,0,3,131590200,2259,16,0.66,42.689904999999996,-84.48879149999999,270.87,0.10541822761297226,313.07806396484375,0.04500000178813934,0.0,1
1682339572.37958789,86460088,0,3,131590400,2259,16,0.66,42.6899051,-84.4887916,270.89,0.09818350523710251,326.6336364746094,0.06599999964237213,0.0,1
1682339572.57966876,86660169,0,3,131590600,2259,16,0.66,42.6899053,-84.4887916,270.9,0.07592760026454926,319.8079528808594,0.06700000166893005,0.0,1
1682339572.77968097,86860181,0,3,131590800,2259,16,0.66,42.689905499999995,-84.4887916,270.9,0.067119300365448,335.3441162109375,0.0650000050663948,0.0,1
1682339572.97976494,87060265,0,3,131591000,2259,16,0.66,42.689905599999996,-84.4887916,270.87,0.04393176734447479,311.3086242675781,0.09700000286102295,0.0,1
1682339573.18056178,87261062,0,3,131591200,2259,16,0.66,42.689905599999996,-84.4887916,270.85,0.02080865204334259,305.21759033203125,0.10700000822544098,0.0,1
1682339573.37962389,87460124,0,3,131591400,2259,16,0.66,42.6899057,-84.4887916,270.85,0.036674242466688156,295.8663635253906,0.13900001347064972,0.0,1
1682339573.57970977,87660210,0,3,131591600,2259,16,0.66,42.6899059,-84.4887916,270.84000000000003,0.06747592240571976,320.411865234375,0.11800000816583633,0.0,1
1682339573.77972794,87860228,0,3,131591800,2259,16,0.66,42.689906,-84.4887916,270.84000000000003,0.027802878990769386,322.3057556152344,0.09800000488758087,0.0,1
1682339573.97969484,88060195,0,3,131592000,2259,16,0.66,42.689906099999995,-84.48879149999999,270.83,0.030016662552952766,268.0908508300781,0.06400000303983688,0.0,1
1682339574.19993281,88280433,0,3,131592200,2259,16,0.66,42.689906099999995,-84.48879149999999,270.82,0.033526111394166946,252.64598083496094,0.036000002175569534,0.0,1
1682339574.38009381,88460594,0,3,131592400,2259,16,0.66,42.689906199999996,-84.4887914,270.83,0.017691805958747864,227.29061889648438,0.0560000017285347,0.0,1
1682339574.58020782,88660708,0,3,131592600,2259,16,0.66,42.689906199999996,-84.4887913,270.82,0.02376973070204258,292.2490234375,-0.02800000086426735,0.0,1
1682339574.78017378,88860674,0,3,131592800,2259,16,0.66,42.6899063,-84.4887912,270.84000000000003,0.031048350036144257,345.0685729980469,0.08100000023841858,0.0,1
1682339574.98055291,89061053,0,3,131593000,2259,16,0.66,42.6899063,-84.4887909,270.84000000000003,0.1320037990808487,102.24633026123047,0.07800000160932541,0.0,1
1682339575.19972897,89280229,0,3,131593200,2259,16,0.66,42.6899063,-84.4887905,270.82,0.12500399351119995,113.07821655273438,0.14800000190734863,0.0,1
1682339575.37970686,89460207,0,3,131593400,2259,16,0.66,42.689906199999996,-84.4887901,270.81,0.10778682678937912,115.85186004638672,0.18200001120567322,0.0,1
1682339575.59969878,89680199,0,3,131593600,2259,16,0.66,42.689906099999995,-84.4887897,270.79,0.14589037001132965,118.67313385009766,0.13900001347064972,0.0,1
1682339575.78029585,89860796,0,3,131593800,2259,16,0.66,42.689906099999995,-84.4887892,270.77,0.17317044734954834,104.0362319946289,0.04000000283122063,0.0,1
1682339575.98057294,90061073,0,3,131594000,2259,16,0.66,42.689906,-84.4887887,270.76,0.1637192666530609,115.31287384033203,0.13500000536441803,0.0,1
1682339576.18016887,90260669,0,3,131594200,2259,16,0.66,42.6899059,-84.4887883,270.77,0.1669640839099884,129.41012573242188,0.13700000941753387,0.0,1
1682339576.37971878,90460219,0,3,131594400,2259,16,0.66,42.6899057,-84.48878789999999,270.76,0.13245755434036255,131.63352966308594,0.01100000087171793,0.0,1
1682339576.59960580,90680106,0,3,131594600,2259,16,0.66,42.689905599999996,-84.4887876,270.76,0.1156633049249649,146.99688720703125,0.10300000756978989,0.0,1
1682339576.77962589,90860126,0,3,131594800,2259,16,0.66,42.689905499999995,-84.48878739999999,270.77,0.07083079218864441,149.45242309570312,0.08100000023841858,0.0,1
1682339576.99989486,91080395,0,3,131595000,2259,16,0.66,42.6899054,-84.4887873,270.78000000000003,0.05869412422180176,166.20050048828125,0.10100000351667404,0.0,1
1682339577.19990182,91280402,0,3,131595200,2259,16,0.66,42.6899053,-84.48878719999999,270.78000000000003,0.06519202888011932,175.60128784179688,0.14400000870227814,0.0,1
1682339577.39993286,91480433,0,3,131595400,2259,16,0.66,42.6899052,-84.4887871,270.75,0.0641326755285263,169.21568298339844,0.14600001275539398,0.0,1
1682339577.59983587,91680336,0,3,131595600,2259,16,0.66,42.6899051,-84.4887871,270.74,0.04414748027920723,193.09190368652344,0.2290000170469284,0.0,1
1682339577.78013587,91860636,0,3,131595800,2259,16,0.66,42.689904999999996,-84.488787,270.71,0.061522357165813446,172.5284423828125,0.2670000195503235,0.0,1
1682339578.00001693,92080517,0,3,131596000,2259,16,0.66,42.689904899999995,-84.488787,270.68,0.061522357165813446,187.4715576171875,0.20900000631809235,0.0,1
1682339578.18016791,92260668,0,3,131596200,2259,16,0.66,42.6899048,-84.488787,270.64,0.05556977540254593,210.25643920898438,0.2510000169277191,0.0,1
1682339578.38015485,92460655,0,3,131596400,2259,16,0.66,42.6899047,-84.488787,270.6,0.042059484869241714,198.00418090820312,0.26500001549720764,0.0,1
1682339578.59963489,92680135,0,3,131596600,2259,16,0.66,42.6899046,-84.488787,270.55,0.03041381575167179,223.66778564453125,0.1900000125169754,0.0,1
1682339578.79972482,92880225,0,3,131596800,2259,16,0.66,42.6899045,-84.488787,270.5,0.008544004522264004,290.5560607910156,0.12200000882148743,0.0,1
1682339578.99972081,93080221,0,3,131597000,2259,16,0.66,42.6899045,-84.488787,270.46,0.006324555724859238,71.56504821777344,0.26600000262260437,0.0,1
1682339579.19971681,93280217,0,3,131597200,2259,16,0.66,42.6899045,-84.4887868,270.41,0.0721248984336853,106.92750549316406,0.2160000056028366,0.0,1
1682339579.38018680,93460687,0,3,131597400,2259,16,0.66,42.6899046,-84.48878669999999,270.34000000000003,0.004472136031836271,116.5650405883789,0.26900002360343933,0.0,1
1682339579.59969282,93680193,0,3,131597600,2259,16,0.66,42.6899046,-84.48878669999999,270.29,0.018027756363153458,199.44004821777344,0.19700001180171967,0.0,1
1682339579.78019094,93860691,0,3,131597800,2259,16,0.66,42.6899046,-84.48878669999999,270.25,0.01486606989055872,227.726318359375,0.22100001573562622,0.0,1
1682339580.01972389,94100224,0,3,131598000,2259,16,0.66,42.6899046,-84.4887866,270.2,0.035128336399793625,85.10089874267578,0.21300001442432404,0.0,1
1682339580.18015480,94260655,0,3,131598200,2259,16,0.66,42.6899046,-84.4887866,270.15,0.032572995871305466,287.8786926269531,0.18300001323223114,0.0,1
1682339580.40003085,94480531,0,3,131598400,2259,16,0.66,42.6899046,-84.4887866,270.09000000000003,0.014764823950827122,151.69923400878906,0.242000013589859,0.0,1
1682339580.59973884,94680239,0,3,131598600,2259,16,0.66,42.6899045,-84.48878649999999,270.01,0.02900000289082527,43.602813720703125,0.17000000178813934,0.0,1
1682339580.78064990,94861150,0,3,131598800,2259,16,0.66,42.6899045,-84.4887864,269.97,0.008544004522264004,69.4439468383789,0.25,0.0,1
1682339580.98017097,95060671,0,3,131599000,2259,15,0.66,42.6899045,-84.4887864,269.93,0.014317821711301804,347.9052429199219,0.15900000929832458,0.0,1
1682339581.19959688,95280097,0,3,131599200,2259,15,0.66,42.6899045,-84.4887864,269.92,0.03080584481358528,76.86597442626953,0.19300000369548798,0.0,1
1682339581.39994693,95480447,0,3,131599400,2259,15,0.66,42.6899046,-84.4887863,269.9,0.0298328697681427,39.55966567993164,0.203000009059906,0.0,1
1682339581.58017492,95660675,0,3,131599600,2259,15,0.66,42.6899046,-84.4887863,269.87,0.022360682487487793,190.3048553466797,0.1860000044107437,0.0,1
1682339581.78021598,95860716,0,3,131599800,2259,15,0.66,42.6899046,-84.4887863,269.86,0.007280109915882349,195.94540405273438,0.16300000250339508,0.0,1
1682339581.98022294,96060723,0,3,131600000,2259,15,0.66,42.6899045,-84.48878619999999,269.83,0.048703186213970184,160.82098388671875,0.25699999928474426,0.0,1
1682339582.18020296,96260703,0,3,131600200,2259,15,0.66,42.6899045,-84.48878619999999,269.78000000000003,0.020396079868078232,281.3099365234375,0.16500000655651093,0.0,1
1682339582.38057995,96461080,0,3,131600400,2259,15,0.66,42.6899045,-84.4887863,269.73,0.010816654190421104,236.3099365234375,0.28300002217292786,0.0,1
1682339582.57970095,96660201,0,3,131600600,2259,15,0.7000000000000001,42.6899045,-84.48878619999999,269.68,0.010440307669341564,163.30075073242188,0.24900001287460327,0.0,1
1682339582.77975178,96860252,0,3,131600800,2259,15,0.7000000000000001,42.689904399999996,-84.48878619999999,269.61,0.02024845778942108,122.90522766113281,0.27000001072883606,0.0,1
1682339582.97971892,97060219,0,3,131601000,2259,15,0.7000000000000001,42.689904399999996,-84.48878619999999,269.58,0.030083218589425087,254.57785034179688,0.19300000369548798,0.0,1
1682339583.17961383,97260114,0,3,131601200,2259,15,0.7000000000000001,42.689904399999996,-84.48878619999999,269.55,0.030000001192092896,216.86990356445312,0.21700000762939453,0.0,1
1682339583.39991188,97480412,0,3,131601400,2259,15,0.7000000000000001,42.689904399999996,-84.4887863,269.54,0.03818376734852791,225.0,0.2330000102519989,0.0,1
1682339583.57969785,97660198,0,3,131601600,2259,15,0.7000000000000001,42.689904399999996,-84.4887863,269.55,0.02607681229710579,237.52880859375,0.32500001788139343,0.0,1
1682339583.80000377,97880504,0,3,131601800,2259,15,0.7000000000000001,42.689904399999996,-84.4887863,269.53000000000003,0.010295630432665348,150.94540405273438,0.1900000125169754,0.0,1
1682339583.99962997,98080130,0,3,131602000,2259,16,0.7000000000000001,42.689904299999995,-84.4887863,269.52,0.0564003549516201,217.0730743408203,0.23100000619888306,0.0,1
1682339584.19969678,98280197,0,3,131602200,2259,16,0.7000000000000001,42.689904299999995,-84.4887863,269.52,0.02745906263589859,213.11135864257812,0.1990000158548355,0.0,1
1682339584.38021493,98460715,0,3,131602400,2259,16,0.7000000000000001,42.6899042,-84.48878619999999,269.49,0.012369317002594471,104.0362319946289,0.19200000166893005,0.0,1
1682339584.59972787,98680228,0,3,131602600,2259,16,0.66,42.6899042,-84.4887861,269.48,0.028600702062249184,53.530765533447266,0.13900001347064972,0.0,1
1682339584.78014684,98860647,0,3,131602800,2259,16,0.66,42.6899042,-84.48878599999999,269.46,0.037215590476989746,83.82981872558594,0.13300000131130219,0.0,1
1682339584.98010778,99060608,0,3,131603000,2259,16,0.66,42.6899042,-84.4887859,269.48,0.02789265289902687,345.4655456542969,0.10200000554323196,0.0,1
1682339585.20000887,99280509,0,3,131603200,2259,16,0.66,42.6899042,-84.4887859,269.47,0.018248287960886955,350.5376892089844,-0.03200000151991844,0.0,1
1682339585.40023398,99480734,0,3,131603400,2259,16,0.66,42.6899041,-84.4887859,269.49,0.01835756003856659,150.64224243164062,0.017000000923871994,0.0,1
1682339585.59998584,99680486,0,3,131603600,2259,16,0.66,42.689904,-84.4887858,269.5,0.016763055697083473,197.35403442382812,0.0690000057220459,0.0,1
1682339585.77961278,99860113,0,3,131603800,2259,16,0.66,42.6899039,-84.4887858,269.48,0.016552945598959923,244.98312377929688,0.01100000087171793,0.0,1
1682339585.99970484,100080205,0,3,131604000,2259,16,0.66,42.689903799999996,-84.4887858,269.47,0.009219544939696789,257.47119140625,0.03100000135600567,0.0,1
1682339586.18018794,100260688,0,3,131604200,2259,16,0.66,42.689903799999996,-84.4887858,269.47,0.022203605622053146,187.7651824951172,-0.00800000037997961,0.0,1
1682339586.37971687,100460217,0,3,131604400,2259,16,0.66,42.6899036,-84.4887858,269.46,0.020615529268980026,157.1663360595703,-0.029000001028180122,0.0,1
1682339586.59959388,100680094,0,3,131604600,2259,16,0.66,42.6899035,-84.4887858,269.45,0.009486833587288857,161.56504821777344,0.07000000029802322,0.0,1
1682339586.78016090,100860661,0,3,131604800,2259,16,0.66,42.6899034,-84.4887858,269.43,0.015524175018072128,255.06858825683594,0.030000001192092896,0.0,1
1682339586.98014498,101060645,0,3,131605000,2259,16,0.66,42.6899033,-84.4887857,269.41,0.03313608095049858,174.80557250976562,0.017000000923871994,0.0,1
1682339587.18016696,101260667,0,3,131605200,2259,16,0.66,42.689903199999996,-84.4887857,269.4,0.02370654046535492,62.35402297973633,0.04000000283122063,0.0,1
1682339587.39982581,101480326,0,3,131605400,2259,16,0.66,42.689903199999996,-84.4887856,269.4,0.02941088378429413,287.81890869140625,0.07400000095367432,0.0,1
1682339587.58015299,101660653,0,3,131605600,2259,16,0.66,42.689903099999995,-84.4887856,269.37,0.01303840521723032,94.39869689941406,-0.0430000014603138,0.0,1
1682339587.79982376,101880324,0,3,131605800,2259,16,0.66,42.689903,-84.4887856,269.37,0.036400552839040756,217.18470764160156,0.07300000637769699,0.0,1
1682339587.97965384,102060154,0,3,131606000,2259,16,0.66,42.6899029,-84.4887856,269.34000000000003,0.01615549437701702,158.19857788085938,0.04800000041723251,0.0,1
1682339588.17970085,102260201,0,3,131606200,2259,16,0.66,42.6899028,-84.48878549999999,269.31,0.019235385581851006,188.97262573242188,0.012000000104308128,0.0,1
1682339588.39954686,102480047,0,3,131606400,2259,16,0.66,42.6899027,-84.48878549999999,269.29,0.015000000596046448,216.86990356445312,0.04500000178813934,0.0,1
1682339588.59965277,102680153,0,3,131606600,2259,16,0.66,42.689902599999996,-84.48878549999999,269.25,0.01486606989055872,317.726318359375,0.012000000104308128,0.0,1
1682339588.78013587,102860636,0,3,131606800,2259,16,0.66,42.689902499999995,-84.48878549999999,269.24,0.02751363441348076,289.093505859375,0.05700000375509262,0.0,1
1682339589.00002193,103080522,0,3,131607000,2259,16,0.66,42.689902499999995,-84.48878549999999,269.22,0.013038406148552895,147.52879333496094,0.03800000250339508,0.0,1
1682339589.19957185,103280072,0,3,131607200,2259,16,0.66,42.6899024,-84.4887854,269.21,0.02801785245537758,182.04541015625,0.04800000041723251,0.0,1
1682339589.39983892,103480339,0,3,131607400,2259,16,0.66,42.6899023,-84.4887854,269.19,0.02906888537108898,229.18492126464844,0.04800000041723251,0.0,1
1682339589.58049488,103660995,0,3,131607600,2259,16,0.66,42.6899022,-84.4887854,269.16,0.01612451672554016,209.74488830566406,-0.07700000703334808,0.0,1
1682339589.77964592,103860146,0,3,131607800,2259,16,0.66,42.6899021,-84.4887854,269.17,0.010295630432665348,29.054601669311523,0.052000001072883606,0.0,1
1682339589.97967577,104060176,0,3,131608000,2259,16,0.66,42.689902,-84.48878529999999,269.15,0.010000000707805157,180.0,0.04400000348687172,0.0,1
1682339590.19984984,104280350,0,3,131608200,2259,16,0.66,42.689901899999995,-84.4887852,269.14,0.02941088378429413,197.81890869140625,0.05000000074505806,0.0,1
1682339590.37953997,104460040,0,3,131608400,2259,16,0.66,42.6899018,-84.4887852,269.13,0.023600848391652107,216.3843536376953,-0.0010000000474974513,0.0,1
1682339590.59988880,104680389,0,3,131608600,2259,16,0.66,42.6899017,-84.4887851,269.13,0.022360682487487793,243.43496704101562,0.10200000554323196,0.0,1
1682339590.78018284,104860683,0,3,131608800,2259,16,0.66,42.6899016,-84.4887851,269.11,0.009219544939696789,220.60130310058594,-0.024000000208616257,0.0,1
1682339591.00020981,105080710,0,3,131609000,2259,16,0.66,42.6899015,-84.488785,269.1,0.012083047069609165,114.4439468383789,0.0560000017285347,0.0,1
1682339591.19954777,105280048,0,3,131609200,2259,16,0.66,42.6899015,-84.488785,269.09000000000003,0.019026298075914383,183.01280212402344,0.03400000184774399,0.0,1
1682339591.37959695,105460097,0,3,131609400,2259,16,0.66,42.6899014,-84.4887849,269.08,0.019798990339040756,225.0,0.052000001072883606,0.0,1
1682339591.59987998,105680380,0,3,131609600,2259,16,0.66,42.689901299999995,-84.4887849,269.06,0.009433981962502003,212.00538635253906,0.032999999821186066,0.0,1
1682339591.77967381,105860174,0,3,131609800,2259,16,0.66,42.6899012,-84.4887849,269.05,0.02202271670103073,92.60255432128906,0.05100000277161598,0.0,1
1682339592.00008488,106080585,0,3,131610000,2259,16,0.66,42.6899011,-84.48878479999999,269.04,0.0010000000474974513,0.0,0.05700000375509262,0.0,1
1682339592.19985986,106280360,0,3,131610200,2259,16,0.66,42.689901,-84.48878479999999,269.01,0.023086795583367348,184.96974182128906,0.014000000432133675,0.0,1
1682339592.38014388,106460644,0,3,131610400,2259,16,0.66,42.6899009,-84.48878479999999,269.0,0.02376973070204258,194.62088012695312,0.08500000089406967,0.0,1
1682339592.58057499,106661075,0,3,131610600,2259,16,0.66,42.6899008,-84.48878479999999,268.99,0.04393176734447479,191.82150268554688,0.11000000685453415,0.0,1
1682339592.78017282,106860673,0,3,131610800,2259,16,0.66,42.6899008,-84.4887847,268.97,0.022360682487487793,26.56505012512207,0.06599999964237213,0.0,1
1682339592.98018694,107060687,0,3,131611000,2259,16,0.66,42.689900699999995,-84.4887847,268.96,0.005000000353902578,270.0,-0.005000000353902578,0.0,1
1682339593.19964290,107280143,0,3,131611200,2259,16,0.66,42.689900699999995,-84.4887847,268.96,0.03301514685153961,234.86581420898438,0.04800000041723251,0.0,1
1682339593.38063598,107461136,0,3,131611400,2259,16,0.66,42.6899006,-84.48878479999999,268.95,0.0010000000474974513,0.0,0.036000002175569534,0.0,1
1682339593.58013892,107660639,0,3,131611600,2259,16,0.66,42.6899005,-84.4887847,268.95,0.0022360680159181356,206.56504821777344,0.06100000441074371,0.0,1
1682339593.77966189,107860162,0,3,131611800,2259,16,0.66,42.6899004,-84.4887847,268.95,0.010295630432665348,240.94540405273438,0.04200000315904617,0.0,1
1682339593.97955585,108060056,0,3,131612000,2259,16,0.66,42.6899004,-84.48878479999999,268.94,0.027802878990769386,322.3057556152344,-0.021000001579523087,0.0,1
1682339594.17963290,108260133,0,3,131612200,2259,16,0.66,42.6899003,-84.48878479999999,268.93,0.013416407629847527,153.43495178222656,0.006000000052154064,0.0,1
1682339594.37965894,108460159,0,3,131612400,2259,16,0.66,42.6899002,-84.48878479999999,268.91,0.021931713446974754,226.8476104736328,0.015000000596046448,0.0,1
1682339594.58017683,108660677,0,3,131612600,2259,16,0.66,42.689900099999996,-84.48878479999999,268.9,0.02140093594789505,37.40534973144531,-0.010000000707805157,0.0,1
1682339594.77956080,108860061,0,3,131612800,2259,16,0.66,42.689900099999996,-84.48878479999999,268.9,0.02376973070204258,194.62088012695312,0.07000000029802322,0.0,1
1682339594.97986794,109060368,0,3,131613000,2259,16,0.66,42.6899,-84.48878479999999,268.89,0.02024845778942108,200.22486877441406,0.021000001579523087,0.0,1
1682339595.18008876,109260589,0,3,131613200,2259,16,0.66,42.6898999,-84.48878479999999,268.88,0.014142136089503765,315.0,0.0690000057220459,0.0,1
1682339595.38060093,109461101,0,3,131613400,2259,16,0.66,42.6898999,-84.48878479999999,268.88,0.012041594833135605,221.633544921875,0.04500000178813934,0.0,1
1682339595.57967496,109660175,0,3,131613600,2259,16,0.66,42.6898998,-84.48878479999999,268.88,0.006708203814923763,333.4349365234375,0.026000000536441803,0.0,1
1682339595.77953887,109860039,0,3,131613800,2259,16,0.66,42.6898998,-84.48878479999999,268.87,0.027802878990769386,37.694236755371094,-0.005000000353902578,0.0,1
1682339595.99992490,110080425,0,3,131614000,2259,16,0.66,42.6898997,-84.48878479999999,268.87,0.016970563679933548,315.0,0.009000000543892384,0.0,1
1682339596.19974780,110280248,0,3,131614200,2259,16,0.66,42.6898997,-84.4887849,268.86,0.0014142136787995696,315.0,-0.04200000315904617,0.0,1
1682339596.39981699,110480317,0,3,131614400,2259,16,0.66,42.6898996,-84.4887849,268.86,0.006082762498408556,99.46231842041016,-0.0020000000949949026,0.0,1
1682339596.57957077,110660071,0,3,131614600,2259,16,0.66,42.6898996,-84.4887849,268.86,0.023194829002022743,262.568603515625,0.039000000804662704,0.0,1
1682339596.79982781,110880328,0,3,131614800,2259,16,0.66,42.689899499999996,-84.488785,268.85,0.01843908801674843,229.39871215820312,0.0010000000474974513,0.0,1
1682339596.99993396,111080434,0,3,131615000,2259,16,0.66,42.6898994,-84.488785,268.84000000000003,0.011180341243743896,100.30484008789062,0.01900000125169754,0.0,1
1682339597.17966890,111260169,0,3,131615200,2259,16,0.66,42.6898994,-84.4887851,268.84000000000003,0.019416488707065582,258.1113586425781,0.05300000309944153,0.0,1
1682339597.37965989,111460160,0,3,131615400,2259,16,0.66,42.6898993,-84.4887851,268.83,0.01004987582564354,84.28939819335938,-0.020000001415610313,0.0,1
1682339597.57954192,111660042,0,3,131615600,2259,16,0.66,42.6898993,-84.4887851,268.83,0.0058309524320065975,239.0362548828125,-0.009000000543892384,0.0,1
1682339597.80020380,111880704,0,3,131615800,2259,16,0.66,42.6898992,-84.4887852,268.83,0.007280109915882349,254.0546112060547,0.006000000052154064,0.0,1
1682339598.01956582,112100066,0,3,131616000,2259,16,0.66,42.6898992,-84.4887852,268.82,0.0152970589697361,281.3099365234375,0.020000001415610313,0.0,1
1682339598.18012285,112260623,0,3,131616200,2259,16,0.66,42.6898991,-84.48878529999999,268.82,0.022135945037007332,198.43495178222656,0.046000003814697266,0.0,1
1682339598.38046193,112460962,0,3,131616400,2259,16,0.66,42.6898991,-84.48878529999999,268.81,0.011180341243743896,349.6951599121094,0.04400000348687172,0.0,1
1682339598.57956791,112660068,0,3,131616600,2259,16,0.66,42.689899,-84.4887854,268.8,0.02121320553123951,278.1300964355469,0.049000002443790436,0.0,1
1682339598.78018093,112860681,0,3,131616800,2259,16,0.66,42.689899,-84.4887854,268.8,0.01345362514257431,131.98721313476562,0.07100000232458115,0.0,1
1682339598.98015881,113060659,0,3,131617000,2259,16,0.66,42.689899,-84.4887854,268.8,0.01077033020555973,291.8014221191406,0.05900000408291817,0.0,1
1682339599.18015981,113260660,0,3,131617200,2259,16,0.66,42.689898899999996,-84.4887854,268.79,0.01303840521723032,175.60128784179688,-0.014000000432133675,0.0,1
1682339599.38052583,113461026,0,3,131617400,2259,16,0.66,42.689898899999996,-84.4887854,268.79,0.0036055513191968203,123.6900634765625,-0.009000000543892384,0.0,1
1682339599.58012080,113660621,0,3,131617600,2259,16,0.66,42.689898799999995,-84.4887854,268.79,0.013892443850636482,329.7435607910156,0.06300000101327896,0.0,1
1682339599.77965999,113860160,0,3,131617800,2259,16,0.66,42.689898799999995,-84.48878549999999,268.78000000000003,0.016552945598959923,295.01690673828125,0.0560000017285347,0.0,1
1682339599.97973394,114060234,0,3,131618000,2259,16,0.66,42.689898799999995,-84.48878549999999,268.78000000000003,0.017000000923871994,298.0724792480469,-0.03700000047683716,0.0,1
1682339600.17957282,114260073,0,3,131618200,2259,16,0.66,42.689898799999995,-84.48878549999999,268.79,0.005385165102779865,21.801406860351562,0.020000001415610313,0.0,1
1682339600.39983892,114480339,0,3,131618400,2259,16,0.66,42.6898987,-84.4887856,268.78000000000003,0.0070710680447518826,225.0,0.01100000087171793,0.0,1
1682339600.60010886,114680609,0,3,131618600,2259,16,0.66,42.6898987,-84.4887856,268.79,0.015811389312148094,235.30484008789062,0.015000000596046448,0.0,1
1682339600.79965878,114880159,0,3,131618800,2259,16,0.66,42.6898986,-84.4887856,268.79,0.0022360680159181356,153.43495178222656,-0.039000000804662704,0.0,1
1682339600.97967482,115060175,0,3,131619000,2259,16,0.66,42.6898986,-84.48878549999999,268.8,0.028635643422603607,167.9052276611328,0.007000000216066837,0.0,1
1682339601.17953181,115260032,0,3,131619200,2259,16,0.66,42.6898985,-84.48878549999999,268.79,0.019416488707065582,34.508522033691406,-0.07800000160932541,0.0,1
1682339601.39967084,115480171,0,3,131619400,2259,16,0.66,42.6898985,-84.48878549999999,268.78000000000003,0.02927456423640251,7.8533124923706055,-0.015000000596046448,0.0,1
1682339601.59973788,115680238,0,3,131619600,2259,16,0.66,42.6898985,-84.48878549999999,268.77,0.017804494127631187,231.8427734375,0.026000000536441803,0.0,1
1682339601.79993081,115880431,0,3,131619800,2259,16,0.66,42.6898985,-84.48878549999999,268.76,0.015264337882399559,148.39248657226562,-0.014000000432133675,0.0,1
1682339601.99959087,116080091,0,3,131620000,2259,16,0.66,42.6898984,-84.4887854,268.76,0.015231546945869923,203.1986083984375,0.07900000363588333,0.0,1
1682339636.77970076,150860201,0,3,131654800,2259,16,0.66,42.6898949,-84.48878239999999,266.81,0.01984943449497223,220.91439819335938,-0.012000000104308128,0.0,1
1682339636.97966576,151060166,0,3,131655000,2259,16,0.66,42.6898949,-84.48878239999999,266.81,0.02376973070204258,22.249021530151367,-0.013000000268220901,0.0,1
1682339637.17953396,151260034,0,3,131655200,2259,16,0.66,42.6898949,-84.48878239999999,266.82,0.010630146600306034,318.8140869140625,0.02500000037252903,0.0,1
1682339637.38014793,151460648,0,3,131655400,2259,16,0.66,42.689895,-84.48878239999999,266.83,0.012083047069609165,24.443952560424805,-0.0020000000949949026,0.0,1
1682339637.60014796,151680648,0,3,131655600,2259,16,0.66,42.689895,-84.48878239999999,266.83,0.010295630432665348,119.0545883178711,0.013000000268220901,0.0,1
1682339637.78016376,151860664,0,3,131655800,2259,16,0.66,42.689895,-84.48878239999999,266.84000000000003,0.016401220113039017,307.568603515625,0.02500000037252903,0.0,1
1682339637.98051596,152061016,0,3,131656000,2259,16,0.66,42.689895,-84.48878239999999,266.84000000000003,0.013038406148552895,57.52880859375,0.007000000216066837,0.0,1
1682339638.19966984,152280170,0,3,131656200,2259,16,0.66,42.6898951,-84.48878239999999,266.85,0.020518286153674126,46.97492980957031,-0.0820000022649765,0.0,1
1682339638.39968276,152480183,0,3,131656400,2259,16,0.66,42.6898951,-84.48878239999999,266.86,0.018027756363153458,160.55995178222656,0.021000001579523087,0.0,1
1682339638.59966183,152680162,0,3,131656600,2259,16,0.66,42.6898951,-84.48878239999999,266.86,0.020024985074996948,267.1376037597656,0.05700000375509262,0.0,1
1682339638.79954290,152880043,0,3,131656800,2259,16,0.66,42.6898951,-84.48878239999999,266.87,0.015620499849319458,39.805572509765625,-0.049000002443790436,0.0,1
1682339638.99962997,153080130,0,3,131657000,2259,16,0.66,42.6898951,-84.48878239999999,266.89,0.01835756003856659,240.6422576904297,0.052000001072883606,0.0,1
1682339639.18057084,153261071,0,3,131657200,2259,16,0.66,42.689895199999995,-84.4887825,266.89,0.0036055513191968203,123.6900634765625,0.052000001072883606,0.0,1
1682339639.38020587,153460706,0,3,131657400,2259,16,0.66,42.689895199999995,-84.4887825,266.89,0.012727922759950161,45.0,-0.02800000086426735,0.0,1
1682339639.58018684,153660687,0,3,131657600,2259,16,0.66,42.689895199999995,-84.4887825,266.89,0.02475883811712265,223.36341857910156,0.05400000140070915,0.0,1
1682339639.78018188,153860682,0,3,131657800,2259,16,0.66,42.689895199999995,-84.4887826,266.88,0.02376973070204258,337.7509765625,-0.032999999821186066,0.0,1
1682339639.99968290,154080183,0,3,131658000,2259,16,0.66,42.689895299999996,-84.4887826,266.9,0.017492856830358505,239.0362548828125,0.07300000637769699,0.0,1
1682339640.19970489,154280205,0,3,131658200,2259,16,0.66,42.689895299999996,-84.4887827,266.9,0.018110772594809532,83.65980529785156,0.02200000174343586,0.0,1
1682339640.37969494,154460195,0,3,131658400,2259,16,0.66,42.6898954,-84.4887826,266.9,0.012041594833135605,85.2363510131836,0.02500000037252903,0.0,1
1682339640.57966876,154660169,0,3,131658600,2259,16,0.66,42.6898954,-84.4887826,266.89,0.005385165102779865,338.1986083984375,-0.020000001415610313,0.0,1
1682339640.77955389,154860054,0,3,131658800,2259,16,0.66,42.6898955,-84.4887826,266.92,0.02402082458138466,92.38594055175781,0.02500000037252903,0.0,1
1682339640.99966097,155080161,0,3,131659000,2259,16,0.66,42.6898955,-84.4887826,266.92,0.024186773225665092,187.12503051757812,-0.0010000000474974513,0.0,1
1682339641.19991589,155280416,0,3,131659200,2259,16,0.66,42.6898955,-84.4887826,266.93,0.02418677508831024,240.255126953125,0.06800000369548798,0.0,1
1682339641.40016389,155480664,0,3,131659400,2259,16,0.66,42.6898956,-84.4887826,266.94,0.017117243260145187,6.709836483001709,0.005000000353902578,0.0,1
1682339641.59962392,155680124,0,3,131659600,2259,16,0.66,42.6898956,-84.4887826,266.94,0.019313208758831024,158.74948120117188,-0.027000000700354576,0.0,1
1682339641.79993296,155880433,0,3,131659800,2259,16,0.66,42.6898956,-84.4887827,266.98,0.07727871835231781,190.43748474121094,-0.33900001645088196,0.0,1
1682339641.98021793,156060718,0,3,131660000,2259,15,0.66,42.6898956,-84.4887826,267.08,0.11440280824899673,36.469234466552734,-0.8220000267028809,0.0,1
1682339642.19995689,156280457,0,3,131660200,2259,15,0.66,42.689895799999995,-84.4887823,267.28000000000003,0.10384604334831238,105.6422348022461,-0.7160000205039978,0.0,1
1682339642.39987087,156480371,0,3,131660400,2259,15,0.66,42.6898957,-84.4887821,267.37,0.10373042523860931,146.0035400390625,-0.6040000319480896,0.0,1
1682339642.60016990,156680670,0,3,131660600,2259,15,0.68,42.6898957,-84.488782,267.51,0.01702938787639141,319.7636413574219,-0.30100002884864807,0.0,1
1682339642.78008580,156860586,0,3,131660800,2259,16,0.68,42.689895899999996,-84.488782,267.58,0.09121403843164444,322.1250305175781,-0.38100001215934753,0.0,1
1682339643.00002980,157080530,0,3,131661000,2259,16,0.68,42.689896,-84.4887821,267.63,0.05742821842432022,352.99871826171875,-0.21300001442432404,0.0,1
1682339643.19994283,157280443,0,3,131661200,2259,16,0.68,42.6898962,-84.4887822,267.69,0.22416290640830994,315.542236328125,-0.289000004529953,0.0,1
1682339643.37959886,157460099,0,3,131661400,2259,16,0.68,42.6898966,-84.4887825,267.75,0.24115142226219177,328.2212829589844,-0.24000000953674316,0.0,1
1682339643.59967780,157680178,0,3,131661600,2259,16,0.66,42.6898969,-84.488783,267.78000000000003,0.31939005851745605,299.85614013671875,-0.12300000339746475,0.0,1
1682339643.79971194,157880212,0,3,131661800,2259,15,0.66,42.6898973,-84.4887837,267.79,0.3772982954978943,301.1200256347656,-0.09600000083446503,0.0,1
1682339643.99969387,158080194,0,3,131662000,2259,15,0.66,42.6898978,-84.4887844,267.83,0.47093310952186584,315.0,-0.15200001001358032,0.0,1
1682339644.19956589,158280066,0,3,131662200,2259,15,0.66,42.689898199999995,-84.48878529999999,267.8,0.41163697838783264,290.3279724121094,0.10000000149011612,0.0,1
1682339644.39966178,158480162,0,3,131662400,2259,15,0.66,42.6898987,-84.4887863,267.82,0.6112348437309265,301.3495788574219,0.09300000220537186,0.0,1
1682339644.59971094,158680211,0,3,131662600,2259,15,0.68,42.6898992,-84.4887876,267.82,0.6371327042579651,291.45074462890625,0.13300000131130219,0.0,1
1682339644.78018594,158860686,0,3,131662800,2259,15,0.68,42.6898999,-84.488789,267.82,0.7461990118026733,308.7437438964844,-0.0430000014603138,0.0,1
1682339644.98065376,159061154,0,3,131663000,2259,15,0.68,42.6899006,-84.4887906,267.84000000000003,0.8175145983695984,294.65277099609375,0.026000000536441803,0.0,1
1682339645.17958593,159260086,0,3,131663200,2259,15,0.68,42.6899014,-84.4887925,267.95,0.9037328958511353,300.0830078125,-0.26100000739097595,0.0,1
1682339645.39991188,159480412,0,3,131663400,2259,15,0.68,42.689902499999995,-84.48879459999999,268.05,1.1565500497817993,303.7175598144531,-0.3240000009536743,0.0,1
1682339645.59969378,159680194,0,3,131663600,2259,15,0.68,42.6899033,-84.48879699999999,268.04,1.092316746711731,292.3858337402344,-0.3110000193119049,0.0,1
1682339645.79992080,159880421,0,3,131663800,2259,15,0.68,42.6899039,-84.4887996,267.99,1.1761229038238525,283.4218444824219,0.04500000178813934,0.0,1
1682339645.99974895,160080249,0,3,131664000,2259,16,0.68,42.6899045,-84.4888023,268.0,1.1878674030303955,290.86090087890625,-0.018000001087784767,0.0,1
1682339646.19981384,160280314,0,3,131664200,2259,16,0.68,42.6899054,-84.488805,268.02,1.2441688776016235,296.23553466796875,-0.06700000166893005,0.0,1
1682339646.40016484,160480665,0,3,131664400,2259,16,0.68,42.6899064,-84.48880779999999,268.09000000000003,1.2793123722076416,295.36322021484375,-0.19100001454353333,0.0,1
1682339646.57969189,160660192,0,3,131664600,2259,16,0.68,42.689907399999996,-84.4888107,268.09000000000003,1.4154590368270874,295.0804748535156,-0.21300001442432404,0.0,1
1682339646.77975893,160860259,0,3,131664800,2259,16,0.66,42.689908599999995,-84.4888139,268.1,1.457466721534729,298.5696716308594,-0.10400000214576721,0.0,1
1682339646.99981880,161080319,0,3,131665000,2259,16,0.66,42.6899097,-84.488817,268.13,1.4267908334732056,292.9349365234375,-0.16500000655651093,0.0,1
1682339647.20021081,161280711,0,3,131665200,2259,16,0.66,42.6899107,-84.48882019999999,268.14,1.4614958763122559,295.144775390625,-0.11600000411272049,0.0,1
1682339647.38005495,161460555,0,3,131665400,2259,16,0.66,42.689911699999996,-84.4888235,268.16,1.454965591430664,291.3626708984375,-0.08400000631809235,0.0,1
1682339647.58009577,161660596,0,3,131665600,2259,16,0.66,42.6899127,-84.48882669999999,268.16,1.418042778968811,293.74505615234375,-0.015000000596046448,0.0,1
1682339647.78011990,161860620,0,3,131665800,2259,16,0.66,42.6899139,-84.4888299,268.18,1.4733669757843018,298.32183837890625,-0.14000000059604645,0.0,1
1682339647.99965596,162080156,0,3,131666000,2259,16,0.66,42.689915,-84.4888332,268.15,1.514367699623108,292.11053466796875,0.07100000232458115,0.0,1
1682339648.19968891,162280189,0,3,131666200,2259,16,0.66,42.6899161,-84.4888366,268.14,1.5116630792617798,295.9717712402344,0.04800000041723251,0.0,1
1682339648.38020086,162460701,0,3,131666400,2259,15,0.66,42.6899173,-84.48884,268.06,1.4624723196029663,297.17828369140625,0.08900000154972076,0.0,1
1682339648.58019280,162660693,0,3,131666600,2259,15,0.66,42.689918399999996,-84.48884319999999,268.08,1.493578553199768,290.825439453125,0.08700000494718552,0.0,1
1682339648.78053594,162861036,0,3,131666800,2259,16,0.75,42.6899197,-84.4888466,268.1,1.6139671802520752,303.168212890625,-0.06400000303983688,0.0,1
1682339648.99988794,163080388,0,3,131667000,2259,15,0.75,42.6899212,-84.4888501,268.08,1.6719859838485718,297.6531982421875,-0.05100000277161598,0.0,1
1682339649.19993877,163280439,0,3,131667200,2259,16,0.75,42.6899225,-84.4888536,268.05,1.5761808156967163,300.29046630859375,0.018000001087784767,0.0,1
1682339649.39968896,163480189,0,3,131667400,2259,16,0.75,42.6899239,-84.488857,268.07,1.6240943670272827,294.403076171875,-0.06800000369548798,0.0,1
1682339649.59974289,163680243,0,3,131667600,2259,16,0.66,42.6899253,-84.4888605,268.06,1.6248968839645386,302.33056640625,-0.024000000208616257,0.0,1
1682339649.79983878,163880339,0,3,131667800,2259,16,0.66,42.689926899999996,-84.48886379999999,268.09000000000003,1.6272013187408447,302.65484619140625,-0.2680000066757202,0.0,1
1682339649.98015285,164060653,0,3,131668000,2259,16,0.66,42.6899284,-84.4888672,268.04,1.6340211629867554,302.3770751953125,0.12600000202655792,0.0,1
1682339650.17967296,164260173,0,3,131668200,2259,16,0.66,42.68993,-84.4888704,268.01,1.5390222072601318,303.5248718261719,0.12400000542402267,0.0,1
1682339650.39959192,164480092,0,3,131668400,2259,16,0.66,42.6899315,-84.4888733,268.0,1.3762606382369995,305.3876647949219,-0.05000000074505806,0.0,1
1682339650.58021879,164660719,0,3,131668600,2259,16,0.66,42.6899324,-84.4888761,267.94,1.1679404973983765,287.64373779296875,0.23200000822544098,0.0,1
1682339650.79989982,164880400,0,3,131668800,2259,16,0.66,42.6899331,-84.4888787,267.91,1.1218401193618774,290.6158447265625,0.07200000435113907,0.0,1
1682339650.99993181,165080432,0,3,131669000,2259,16,0.66,42.6899339,-84.48888099999999,267.91,0.9863113760948181,297.73419189453125,-0.0950000062584877,0.0,1
1682339651.19996285,165280463,0,3,131669200,2259,16,0.66,42.689934799999996,-84.488883,267.88,0.9185037016868591,306.009033203125,0.19100001454353333,0.0,1
1682339651.39989591,165480396,0,3,131669400,2259,16,0.66,42.6899358,-84.48888459999999,267.87,0.7820006608963013,306.94317626953125,0.08700000494718552,0.0,1
1682339651.58006477,165660565,0,3,131669600,2259,16,0.66,42.689936599999996,-84.4888864,267.8,0.9172000885009766,300.53521728515625,0.1850000023841858,0.0,1
1682339651.78009582,165860596,0,3,131669800,2259,16,0.66,42.6899377,-84.48888819999999,267.78000000000003,1.0074145793914795,309.44146728515625,0.10500000417232513,0.0,1
1682339652.01958585,166100086,0,3,131670000,2259,16,0.66,42.6899389,-84.4888903,267.72,1.1634539365768433,313.7811279296875,0.06000000238418579,0.0,1
1682339652.17980886,166260309,0,3,131670200,2259,16,0.66,42.689940299999996,-84.4888921,267.78000000000003,0.9733787178993225,311.5015563964844,-0.15300001204013824,0.0,1
1682339652.39959478,166480095,0,3,131670400,2259,16,0.66,42.6899413,-84.4888939,267.74,0.8748874664306641,310.82861328125,0.01900000125169754,0.0,1
1682339652.59984493,166680345,0,3,131670600,2259,16,0.66,42.6899422,-84.4888955,267.72,0.8254604935646057,310.0366516113281,0.026000000536441803,0.0,1
1682339652.78012586,166860626,0,3,131670800,2259,16,0.66,42.6899429,-84.488897,267.72,0.6066201329231262,289.45050048828125,-0.02500000037252903,0.0,1
1682339652.97969985,167060200,0,3,131671000,2259,16,0.66,42.689943299999996,-84.4888983,267.73,0.5765145421028137,289.0321044921875,0.010000000707805157,0.0,1
1682339653.20007896,167280579,0,3,131671200,2259,16,0.66,42.6899437,-84.48889969999999,267.72,0.656840980052948,290.31103515625,0.06599999964237213,0.0,1
1682339653.37957191,167460072,0,3,131671400,2259,15,0.66,42.6899442,-84.4889012,267.73,0.6441692113876343,300.5061340332031,-0.15900000929832458,0.0,1
1682339653.57963681,167660137,0,3,131671600,2259,16,0.66,42.6899449,-84.4889027,267.75,0.6853277087211609,301.3938903808594,-0.11900000274181366,0.0,1
1682339653.79974890,167880249,0,3,131671800,2259,16,0.66,42.6899453,-84.4889042,267.74,0.6686404943466187,278.0816345214844,-0.03800000250339508,0.0,1
1682339653.99959397,168080094,0,3,131672000,2259,16,0.66,42.6899455,-84.48890589999999,267.73,0.7181783318519592,281.40380859375,-0.07300000637769699,0.0,1
1682339654.17957497,168260075,0,3,131672200,2259,16,0.66,42.6899459,-84.4889075,267.69,0.6643079519271851,292.66632080078125,0.32500001788139343,0.0,1
1682339654.37956285,168460063,0,3,131672400,2259,16,0.66,42.6899462,-84.48890899999999,267.57,0.6343910694122314,287.8066101074219,0.33900001645088196,0.0,1
1682339654.58017778,168660678,0,3,131672600,2259,16,0.66,42.6899465,-84.4889104,267.51,0.5743257403373718,282.36651611328125,0.32500001788139343,0.0,1
1682339654.79996681,168880467,0,3,131672800,2259,16,0.66,42.689947,-84.4889115,267.49,0.47542932629585266,295.81048583984375,0.2070000171661377,0.0,1
1682339655.00020576,169080706,0,3,131673000,2259,16,0.66,42.689947499999995,-84.4889123,267.51,0.36170846223831177,300.3932800292969,0.06000000238418579,0.0,1
1682339655.19986892,169280369,0,3,131673200,2259,16,0.66,42.6899477,-84.4889129,267.45,0.19281597435474396,284.1083068847656,0.1940000057220459,0.0,1
1682339655.39967394,169480174,0,3,131673400,2259,16,0.66,42.6899479,-84.4889133,267.42,0.21382470428943634,297.8833312988281,0.19700001180171967,0.0,1
1682339655.58015585,169660656,0,3,131673600,2259,16,0.66,42.689948,-84.4889137,267.35,0.1590125858783722,307.590576171875,0.13100001215934753,0.0,1
1682339655.79960895,169880109,0,3,131673800,2259,16,0.66,42.689948199999996,-84.488914,267.31,0.170672208070755,299.86981201171875,0.20400001108646393,0.0,1
1682339655.99986696,170080367,0,3,131674000,2259,16,0.66,42.6899484,-84.4889142,267.3,0.14724810421466827,312.2475280761719,0.0560000017285347,0.0,1
1682339656.19967699,170280177,0,3,131674200,2259,16,0.66,42.689948699999995,-84.4889144,267.3,0.11660618335008621,306.2802734375,0.07600000500679016,0.0,1
1682339656.39972091,170480221,0,3,131674400,2259,16,0.66,42.6899489,-84.48891449999999,267.3,0.09501579403877258,319.26788330078125,0.21400001645088196,0.0,1
1682339656.58014989,170660650,0,3,131674600,2259,16,0.66,42.689949,-84.4889146,267.24,0.09664884954690933,331.57879638671875,0.25600001215934753,0.0,1
1682339656.77968287,170860183,0,3,131674800,2259,16,0.66,42.6899491,-84.4889147,267.17,0.06352952122688293,331.8214111328125,0.3230000138282776,0.0,1
1682339656.98010993,171060610,0,3,131675000,2259,16,0.66,42.6899491,-84.48891479999999,267.08,0.10186756402254105,256.3730163574219,0.35600000619888306,0.0,1
1682339657.19990993,171280410,0,3,131675200,2259,16,0.66,42.689949299999995,-84.4889149,267.01,0.16524527966976166,344.1974792480469,0.35600000619888306,0.0,1
1682339657.39980388,171480304,0,3,131675400,2259,16,0.66,42.689949399999996,-84.4889151,266.91,0.1049237847328186,292.40985107421875,0.3750000298023224,0.0,1
1682339657.58018994,171660690,0,3,131675600,2259,16,0.66,42.6899496,-84.4889152,266.84000000000003,0.08044874668121338,325.1246643066406,0.49000000953674316,0.0,1
1682339657.79956484,171880065,0,3,131675800,2259,16,0.66,42.6899498,-84.4889153,266.79,0.050209563225507736,314.1930847167969,0.3890000283718109,0.0,1
