timestamp,TimeUS,Lat,Lng,Alt,RelHomeAlt,RelOriginAlt
1682339547.64010882,61720609,42.6899428,-84.4889405,264.4599914550781,0.005454536527395248,-0.37454545497894287
1682339547.74012280,61820623,42.6899428,-84.48894039999999,264.4599914550781,0.0037257634103298187,-0.3762742280960083
1682339547.84019780,61920698,42.6899428,-84.4889403,264.4599914550781,0.0017100535333156586,-0.37828993797302246
1682339547.94017887,62020679,42.689942699999996,-84.4889402,264.4499816894531,-0.0004001893103122711,-0.3804001808166504
1682339548.04012895,62120629,42.689942699999996,-84.4889402,264.4499816894531,-0.002778414636850357,-0.3827784061431885
1682339548.14016390,62220664,42.689942699999996,-84.4889401,264.4499816894531,-0.005534116178750992,-0.3855341076850891
1682339548.24015594,62320656,42.689942699999996,-84.4889401,264.4499816894531,-0.008386258035898209,-0.38838624954223633
1682339548.34017682,62420677,42.689942699999996,-84.48894,264.44000244140625,-0.011272195726633072,-0.3912721872329712
1682339548.44010377,62520604,42.689942699999996,-84.48894,264.44000244140625,-0.014694038778543472,-0.3946940302848816
1682339548.54044485,62620945,42.689942599999995,-84.48893989999999,264.44000244140625,-0.01923239603638649,-0.3992323875427246
1682339548.64016581,62720666,42.689942599999995,-84.4889398,264.42999267578125,-0.02198219671845436,-0.4019821882247925
1682339548.74013996,62820640,42.689942599999995,-84.4889398,264.42999267578125,-0.02229631319642067,-0.4022963047027588
1682339548.84043694,62920937,42.689942599999995,-84.4889397,264.42999267578125,-0.02239805832505226,-0.4023980498313904
1682339548.94028783,63020788,42.689942599999995,-84.4889397,264.42999267578125,-0.02182197943329811,-0.40182197093963623
1682339549.04029489,63120795,42.689942599999995,-84.4889396,264.42999267578125,-0.020203832536935806,-0.4002038240432739
1682339549.14028788,63220788,42.689942599999995,-84.4889396,264.44000244140625,-0.01875704899430275,-0.39875704050064087
1682339549.24027181,63320772,42.689942599999995,-84.4889395,264.44000244140625,-0.01841593161225319,-0.3984159231185913
1682339549.34028387,63420784,42.689942599999995,-84.4889395,264.44000244140625,-0.018501941114664078,-0.3985019326210022
1682339549.44008279,63520583,42.6899425,-84.48893939999999,264.42999267578125,-0.020259622484445572,-0.4002596139907837
1682339549.54012179,63620622,42.6899425,-84.4889393,264.42999267578125,-0.022864047437906265,-0.4028640389442444
1682339549.64015484,63720655,42.6899425,-84.4889393,264.42999267578125,-0.02603650465607643,-0.40603649616241455
1682339549.74018097,63820681,42.6899424,-84.48893919999999,264.42999267578125,-0.028940383344888687,-0.4089403748512268
1682339549.84046388,63920964,42.6899424,-84.4889391,264.41998291015625,-0.03238815441727638,-0.4123881459236145
1682339549.94034696,64020847,42.6899423,-84.4889391,264.41998291015625,-0.03654379025101662,-0.41654378175735474
1682339550.04015493,64120655,42.6899423,-84.488939,264.4100036621094,-0.041372720152139664,-0.4213727116584778
1682339550.14017177,64220672,42.6899422,-84.488939,264.4100036621094,-0.04711896553635597,-0.4271189570426941
1682339550.24008989,64320590,42.6899422,-84.4889389,264.3999938964844,-0.05056673660874367,-0.4305667281150818
1682339550.34006095,64420561,42.689942099999996,-84.4889389,264.3999938964844,-0.05305439606308937,-0.4330543875694275
1682339550.44014287,64520643,42.689942099999996,-84.4889388,264.3999938964844,-0.05498141422867775,-0.43498140573501587
1682339550.54021978,64620720,42.689941999999995,-84.48893869999999,264.3999938964844,-0.05681735649704933,-0.43681734800338745
1682339550.64018083,64720681,42.689941999999995,-84.48893869999999,264.3999938964844,-0.05933529511094093,-0.43933528661727905
1682339550.74012876,64820629,42.689941999999995,-84.4889386,264.3899841308594,-0.0625036358833313,-0.4425036311149597
1682339550.84020376,64920704,42.6899419,-84.4889386,264.3899841308594,-0.06540888547897339,-0.4454088807106018
1682339550.94017076,65020671,42.6899419,-84.4889385,264.3899841308594,-0.0687071681022644,-0.4487071633338928
1682339551.04042482,65120925,42.6899418,-84.4889385,264.3800048828125,-0.07320111989974976,-0.4532011151313782
1682339551.14011693,65220617,42.6899418,-84.4889384,264.3800048828125,-0.07697457075119019,-0.4569745659828186
1682339551.24032378,65320824,42.6899418,-84.4889384,264.3800048828125,-0.07818752527236938,-0.4581875205039978
1682339551.34041882,65420919,42.6899417,-84.4889383,264.3800048828125,-0.07754796743392944,-0.45754796266555786
1682339551.44040895,65520909,42.6899417,-84.4889383,264.3800048828125,-0.07523304224014282,-0.45523303747177124
1682339551.54041195,65620912,42.6899417,-84.48893819999999,264.3800048828125,-0.0705919861793518,-0.4505919814109802
1682339551.64027977,65720780,42.6899417,-84.48893819999999,264.3899841308594,-0.06648296117782593,-0.44648295640945435
1682339551.74030280,65820803,42.6899417,-84.4889381,264.3899841308594,-0.0638694167137146,-0.443869411945343
1682339551.84040594,65920906,42.6899417,-84.4889381,264.3899841308594,-0.060986462980508804,-0.4409864544868469
1682339551.94050288,66021003,42.6899417,-84.48893799999999,264.3999938964844,-0.05749935284256935,-0.43749934434890747
1682339552.04031777,66120818,42.6899417,-84.4889379,264.3999938964844,-0.05379456654191017,-0.4337945580482483
1682339552.14036989,66220870,42.6899417,-84.4889378,264.4100036621094,-0.049620334059000015,-0.42962032556533813
1682339552.24033499,66320835,42.6899417,-84.4889378,264.4100036621094,-0.0472145713865757,-0.4272145628929138
1682339552.34040976,66420910,42.6899417,-84.4889377,264.4100036621094,-0.046078626066446304,-0.4260786175727844
1682339552.44042397,66520924,42.6899417,-84.4889376,264.4100036621094,-0.044786397367715836,-0.42478638887405396
1682339552.54030180,66620802,42.6899417,-84.4889376,264.4100036621094,-0.04201895371079445,-0.42201894521713257
1682339552.64029479,66720795,42.6899417,-84.48893749999999,264.41998291015625,-0.03982323780655861,-0.41982322931289673
1682339552.74029779,66820798,42.6899417,-84.4889374,264.41998291015625,-0.033742133527994156,-0.4137421250343323
1682339552.84042597,66920926,42.6899417,-84.48893729999999,264.4499816894531,-0.009921792894601822,-0.38992178440093994
1682339552.94012594,67020626,42.6899416,-84.4889371,264.5,0.04617219790816307,-0.33382779359817505
1682339553.04046988,67120970,42.6899416,-84.48893699999999,264.5799865722656,0.12356513738632202,-0.2564348578453064
1682339553.14050388,67221004,42.6899416,-84.48893679999999,264.66998291015625,0.2118799090385437,-0.16812008619308472
1682339553.24048996,67320990,42.6899416,-84.4889367,264.75,0.29141855239868164,-0.08858144283294678
1682339553.34046698,67420967,42.6899416,-84.4889365,264.80999755859375,0.3588566780090332,-0.021143313497304916
1682339553.44037080,67520871,42.6899416,-84.4889364,264.8699951171875,0.4135426878929138,0.0335426963865757
1682339553.54040599,67620906,42.689941499999996,-84.48893629999999,264.9100036621094,0.4593387246131897,0.07933872938156128
1682339553.64035082,67720851,42.689941499999996,-84.4889362,264.94000244140625,0.48945751786231995,0.10945752263069153
1682339553.74056888,67821069,42.689941499999996,-84.48893609999999,264.9700012207031,0.5148303508758545,0.13483038544654846
1682339553.84044480,67920945,42.689941499999996,-84.4889359,264.989990234375,0.5377733707427979,0.15777340531349182
1682339553.94051790,68021018,42.689941399999995,-84.4889358,265.0199890136719,0.5626199245452881,0.18261992931365967
1682339554.04049683,68120997,42.689941399999995,-84.4889355,265.0400085449219,0.5882610082626343,0.20826101303100586
1682339554.14017391,68220674,42.6899413,-84.4889352,265.07000732421875,0.6124154329299927,0.23241543769836426
1682339554.24016595,68320666,42.6899413,-84.48893489999999,265.0899963378906,0.6316975951194763,0.2516975998878479
1682339554.34013295,68420633,42.6899412,-84.4889345,265.1000061035156,0.6441450715065002,0.2641450762748718
1682339554.44018197,68520682,42.6899411,-84.4889341,265.1099853515625,0.6518999338150024,0.271899938583374
1682339554.54017997,68620680,42.689941,-84.48893369999999,265.1099853515625,0.6551083326339722,0.27510836720466614
1682339554.64017296,68720673,42.689940899999996,-84.4889333,265.1199951171875,0.661207914352417,0.2812079191207886
1682339554.74012876,68820629,42.689940899999996,-84.4889328,265.1199951171875,0.6687884330749512,0.28878843784332275
1682339554.84047389,68920974,42.689940799999995,-84.4889323,265.1300048828125,0.6758937239646912,0.29589375853538513
1682339554.94048095,69020981,42.689940799999995,-84.4889319,265.1399841308594,0.6831857562065125,0.30318576097488403
1682339555.04017186,69120672,42.689940799999995,-84.48893129999999,265.1499938964844,0.6923338174819946,0.3123338222503662
1682339555.14017892,69220679,42.6899407,-84.48893079999999,265.1600036621094,0.7059400081634521,0.32594001293182373
1682339555.24013376,69320634,42.6899407,-84.4889302,265.17999267578125,0.723563551902771,0.34356358647346497
1682339555.34017086,69420671,42.6899406,-84.48892959999999,265.1999816894531,0.7412556409835815,0.3612556457519531
1682339555.44017577,69520676,42.6899405,-84.488929,265.2099914550781,0.7597365379333496,0.3797365725040436
1682339555.54038477,69620885,42.6899404,-84.4889285,265.22998046875,0.7785595655441284,0.3985596001148224
1682339555.64038682,69720887,42.689940199999995,-84.488928,265.2599792480469,0.8015470504760742,0.4215470552444458
1682339555.74038982,69820890,42.6899401,-84.4889275,265.2799987792969,0.829303503036499,0.449303537607193
1682339555.84051490,69921015,42.68994,-84.4889271,265.30999755859375,0.8562038540840149,0.47620388865470886
1682339555.94019198,70020692,42.6899398,-84.4889267,265.3399963378906,0.8835355639457703,0.5035355687141418
1682339556.04052877,70121029,42.6899397,-84.4889263,265.3699951171875,0.9144598841667175,0.5344598889350891
1682339556.14031696,70220817,42.6899395,-84.4889259,265.3999938964844,0.9479100704193115,0.5679100751876831
1682339556.24031186,70320812,42.6899394,-84.4889254,265.44000244140625,0.9839216470718384,0.60392165184021
1682339556.34029889,70420799,42.6899393,-84.48892479999999,265.47998046875,1.0220593214035034,0.6420593857765198
1682339556.44035292,70520853,42.6899391,-84.48892409999999,265.5099792480469,1.0566506385803223,0.6766507029533386
1682339556.54035687,70620857,42.6899391,-84.4889235,265.5400085449219,1.0881659984588623,0.7081660032272339
1682339556.64042592,70720926,42.689938999999995,-84.4889228,265.5799865722656,1.124044418334961,0.7440444231033325
1682339556.74049783,70820998,42.6899389,-84.4889221,265.6199951171875,1.1662098169326782,0.7862098217010498
1682339556.84054089,70921041,42.6899388,-84.4889213,265.66998291015625,1.2128657102584839,0.8328657746315002
1682339556.94051886,71021019,42.6899388,-84.4889206,265.7200012207031,1.2604360580444336,0.8804360628128052
1682339557.04036784,71120868,42.6899386,-84.48891979999999,265.7599792480469,1.308595061302185,0.9285951256752014
1682339557.14041281,71220913,42.6899385,-84.488919,265.80999755859375,1.358928918838501,0.9789289832115173
1682339557.24036288,71320863,42.6899383,-84.4889182,265.8599853515625,1.4071422815322876,1.0271422863006592
1682339557.34036279,71420863,42.689938,-84.48891739999999,265.9100036621094,1.4518574476242065,1.0718574523925781
1682339557.44040799,71520908,42.6899377,-84.4889166,265.9499816894531,1.4957112073898315,1.1157112121582031
1682339557.54042578,71620926,42.6899374,-84.4889158,265.989990234375,1.5373032093048096,1.1573032140731812
1682339557.64047098,71720971,42.689937099999995,-84.4889149,266.0299987792969,1.574074625968933,1.1940746307373047
1682339557.74067998,71821180,42.6899367,-84.488914,266.05999755859375,1.6052643060684204,1.225264310836792
1682339557.84021783,71920718,42.6899363,-84.48891309999999,266.0899963378906,1.6323813199996948,1.2523813247680664
1682339557.94013286,72020633,42.689935899999995,-84.4889121,266.1099853515625,1.655279278755188,1.2752792835235596
1682339558.04016590,72120666,42.689935399999996,-84.4889111,266.1300048828125,1.67470121383667,1.2947012186050415
1682339558.14025378,72220754,42.689935,-84.4889101,266.1399841308594,1.6896895170211792,1.3096895217895508
1682339558.24017382,72320674,42.6899345,-84.4889091,266.1499938964844,1.6975332498550415,1.317533254623413
1682339558.34012389,72420624,42.689934099999995,-84.488908,266.1600036621094,1.7033107280731201,1.3233107328414917
1682339558.44013286,72520633,42.689933599999996,-84.4889068,266.1600036621094,1.7077057361602783,1.32770574092865
1682339558.54013681,72620637,42.6899331,-84.4889056,266.16998291015625,1.7123948335647583,1.3323948383331299
1682339558.64046693,72720967,42.6899326,-84.4889044,266.16998291015625,1.7130169868469238,1.3330169916152954
1682339558.74017596,72820676,42.6899322,-84.488903,266.16998291015625,1.7122223377227783,1.33222234249115
1682339558.84035087,72920851,42.6899318,-84.48890159999999,266.1600036621094,1.7061047554016113,1.326104760169983
1682339558.94033790,73020838,42.6899314,-84.48890019999999,266.1499938964844,1.6969729661941528,1.3169729709625244
1682339559.04032397,73120824,42.689931099999995,-84.4888987,266.1399841308594,1.680348515510559,1.3003485202789307
1682339559.14035177,73220852,42.6899308,-84.4888972,266.1199951171875,1.660493016242981,1.2804930210113525
1682339559.24033499,73320835,42.689930499999996,-84.4888957,266.0899963378906,1.6399102210998535,1.259910225868225
1682339559.34027076,73420771,42.6899303,-84.48889419999999,266.0799865722656,1.6201050281524658,1.2401050329208374
1682339559.44046092,73520961,42.689929899999996,-84.4888928,266.04998779296875,1.597865343093872,1.2178653478622437
1682339559.54063797,73621138,42.6899295,-84.4888914,266.0299987792969,1.5743370056152344,1.194337010383606
1682339559.64046478,73720965,42.689929,-84.48889,266.0099792480469,1.552721381187439,1.1727213859558105
1682339559.74036884,73820869,42.689928599999995,-84.4888886,265.989990234375,1.53574800491333,1.1557480096817017
1682339559.84045196,73920952,42.689928099999996,-84.4888872,265.97998046875,1.521944284439087,1.1419442892074585
1682339559.94018388,74020684,42.6899276,-84.4888857,265.9700012207031,1.5106687545776367,1.1306687593460083
1682339560.04039788,74120898,42.6899271,-84.4888842,265.9599914550781,1.5005534887313843,1.1205534934997559
1682339560.14040899,74220909,42.6899265,-84.48888269999999,265.94000244140625,1.4899729490280151,1.1099729537963867
1682339560.24049592,74320996,42.6899259,-84.4888811,265.92999267578125,1.4791789054870605,1.0991789102554321
1682339560.34047580,74420976,42.6899253,-84.4888795,265.91998291015625,1.4653233289718628,1.0853233337402344
1682339560.44049478,74520995,42.6899248,-84.48887789999999,265.9100036621094,1.4527379274368286,1.0727379322052002
1682339560.54045796,74620958,42.689924399999995,-84.4888764,265.8999938964844,1.4410845041275024,1.061084508895874
1682339560.64068699,74721187,42.6899239,-84.4888747,265.8800048828125,1.4275627136230469,1.0475627183914185
1682339560.74067497,74821175,42.6899235,-84.48887309999999,265.8699951171875,1.4125919342041016,1.0325919389724731
1682339560.84019780,74920698,42.6899231,-84.4888715,265.8500061035156,1.3970075845718384,1.01700758934021
1682339560.94019985,75020700,42.6899227,-84.48886999999999,265.8399963378906,1.3844223022460938,1.0044223070144653
1682339561.04010987,75120610,42.6899222,-84.48886859999999,265.8299865722656,1.374267578125,0.9942675828933716
1682339561.14005995,75220560,42.6899218,-84.4888673,265.82000732421875,1.365673542022705,0.9856735467910767
1682339561.24012280,75320623,42.689921299999995,-84.488866,265.82000732421875,1.3630836009979248,0.9830836057662964
1682339561.34046698,75420967,42.6899209,-84.4888649,265.82000732421875,1.3680579662322998,0.9880580306053162
1682339561.44046998,75520970,42.6899204,-84.48886399999999,265.8299865722656,1.379571795463562,0.9995718598365784
1682339561.54036999,75620870,42.68992,-84.4888631,265.8500061035156,1.3943804502487183,1.0143804550170898
1682339561.64037776,75720878,42.6899197,-84.4888625,265.8699951171875,1.4148509502410889,1.0348509550094604
1682339561.74042177,75820922,42.689919499999995,-84.488862,265.8999938964844,1.4406778812408447,1.0606778860092163
1682339561.84022498,75920725,42.6899193,-84.48886159999999,265.91998291015625,1.463303565979004,1.0833035707473755
1682339561.94013381,76020634,42.6899191,-84.4888613,265.94000244140625,1.485317349433899,1.1053173542022705
1682339562.04010677,76120607,42.689918999999996,-84.4888611,265.9599914550781,1.504426121711731,1.1244261264801025
1682339562.14013696,76220637,42.6899188,-84.48886089999999,265.97998046875,1.5225660800933838,1.1425660848617554
1682339562.24012780,76320628,42.6899186,-84.48886089999999,265.989990234375,1.5383660793304443,1.158366084098816
1682339562.34020686,76420707,42.689918299999995,-84.4888608,266.0099792480469,1.5531293153762817,1.1731293201446533
1682339562.44039178,76520892,42.689918,-84.4888606,266.0199890136719,1.5631682872772217,1.1831682920455933
1682339562.54042387,76620924,42.6899176,-84.4888605,266.0299987792969,1.571263074874878,1.1912630796432495
1682339562.64019585,76720696,42.6899173,-84.4888603,266.0299987792969,1.5789659023284912,1.1989659070968628
1682339562.74040484,76820905,42.689917,-84.48886,266.0400085449219,1.5866254568099976,1.2066254615783691
1682339562.84039378,76920894,42.6899166,-84.48885969999999,266.04998779296875,1.5971474647521973,1.2171474695205688
1682339562.94033098,77020831,42.6899163,-84.4888593,266.05999755859375,1.6092307567596436,1.2292307615280151
1682339563.04032278,77120823,42.689916,-84.4888588,266.0799865722656,1.6224526166915894,1.242452621459961
1682339563.14040685,77220907,42.6899157,-84.48885829999999,266.0899963378906,1.6367629766464233,1.256762981414795
1682339563.24041080,77320911,42.689915299999996,-84.48885779999999,266.1000061035156,1.6455199718475342,1.2655199766159058
1682339563.34029794,77420798,42.689915,-84.4888572,266.1099853515625,1.6512136459350586,1.2712136507034302
1682339563.44032097,77520821,42.689914699999996,-84.4888565,266.1099853515625,1.6575474739074707,1.2775474786758423
1682339563.54031587,77620816,42.6899144,-84.4888558,266.1199951171875,1.6646473407745361,1.2846473455429077
1682339563.64039183,77720892,42.689914099999996,-84.48885489999999,266.1300048828125,1.6730855703353882,1.2930855751037598
1682339563.74039388,77820894,42.6899138,-84.48885399999999,266.1399841308594,1.6827064752578735,1.3027064800262451
1682339563.84008694,77920587,42.689913499999996,-84.48885299999999,266.1499938964844,1.6947606801986694,1.314760684967041
1682339563.94011688,78020617,42.6899132,-84.4888519,266.1600036621094,1.7078605890274048,1.3278605937957764
1682339564.04012680,78120627,42.689912899999996,-84.4888507,266.17999267578125,1.7233805656433105,1.3433805704116821
1682339564.14017987,78220680,42.6899126,-84.48884939999999,266.19000244140625,1.7351293563842773,1.355129361152649
1682339564.24012089,78320621,42.689912299999996,-84.4888481,266.1999816894531,1.744907259941101,1.3649072647094727
1682339564.34017491,78420675,42.6899121,-84.4888467,266.2099914550781,1.7552484273910522,1.3752484321594238
1682339564.44028592,78520786,42.6899118,-84.48884509999999,266.2200012207031,1.7669901847839355,1.3869901895523071
1682339564.54040098,78620901,42.6899115,-84.4888435,266.22998046875,1.7771587371826172,1.3971587419509888
1682339564.64037991,78720880,42.6899113,-84.4888418,266.239990234375,1.784849762916565,1.4048497676849365
1682339564.74047589,78820976,42.689910999999995,-84.4888399,266.239990234375,1.7891170978546143,1.4091171026229858
1682339564.84048581,78920986,42.6899106,-84.4888381,266.239990234375,1.7862741947174072,1.4062741994857788
1682339564.94050097,79021001,42.6899102,-84.4888362,266.239990234375,1.7811412811279297,1.4011412858963013
1682339565.04053092,79121031,42.689909899999996,-84.4888343,266.22998046875,1.7735878229141235,1.3935878276824951
1682339565.14036489,79220865,42.6899095,-84.48883239999999,266.2200012207031,1.763360857963562,1.3833608627319336
1682339565.24019289,79320693,42.6899091,-84.4888304,266.2099914550781,1.7531228065490723,1.3731228113174438
1682339565.34018779,79420688,42.6899087,-84.4888283,266.1999816894531,1.7444112300872803,1.3644112348556519
1682339565.44041586,79520916,42.6899083,-84.48882619999999,266.19000244140625,1.7339667081832886,1.3539667129516602
1682339565.54041576,79620916,42.6899079,-84.4888241,266.17999267578125,1.7222657203674316,1.3422657251358032
1682339565.64040089,79720901,42.6899076,-84.488822,266.1600036621094,1.7057939767837524,1.325793981552124
1682339565.74047399,79820974,42.6899073,-84.4888199,266.1399841308594,1.6869417428970337,1.3069417476654053
1682339565.84043884,79920939,42.6899069,-84.48881779999999,266.1199951171875,1.6673367023468018,1.2873367071151733
1682339565.94043899,80020939,42.6899066,-84.4888158,266.1099853515625,1.6512470245361328,1.2712470293045044
1682339566.04030776,80120808,42.6899063,-84.4888138,266.0899963378906,1.6394730806350708,1.2594730854034424
1682339566.14033580,80220836,42.689906,-84.4888119,266.0899963378906,1.6303223371505737,1.2503223419189453
1682339566.24032784,80320828,42.6899057,-84.4888101,266.0799865722656,1.6240098476409912,1.2440098524093628
1682339566.34032583,80420826,42.6899054,-84.4888083,266.07000732421875,1.6197962760925293,1.2397962808609009
1682339566.44034290,80520843,42.6899051,-84.4888067,266.07000732421875,1.616410255432129,1.2364102602005005
1682339566.54062581,80621126,42.6899048,-84.4888052,266.07000732421875,1.6136184930801392,1.2336184978485107
1682339566.64049077,80720991,42.6899045,-84.4888039,266.07000732421875,1.6147435903549194,1.234743595123291
1682339566.74017191,80820672,42.689904299999995,-84.4888028,266.0799865722656,1.620839238166809,1.2408392429351807
1682339566.84021497,80920715,42.6899041,-84.48880179999999,266.0799865722656,1.626623272895813,1.2466232776641846
1682339566.94013286,81020633,42.6899041,-84.488801,266.0899963378906,1.6325219869613647,1.2525219917297363
1682339567.04019976,81120700,42.6899041,-84.4888003,266.0899963378906,1.6371691226959229,1.2571691274642944
1682339567.14016485,81220665,42.6899042,-84.4887997,266.1000061035156,1.6433933973312378,1.2633934020996094
1682339567.24017477,81320675,42.6899042,-84.4887992,266.1000061035156,1.6496670246124268,1.2696670293807983
1682339567.34010196,81420602,42.689904299999995,-84.4887988,266.1099853515625,1.6549268960952759,1.2749269008636475
1682339567.44043493,81520935,42.689904399999996,-84.4887984,266.1099853515625,1.6581578254699707,1.2781578302383423
1682339567.54047894,81620979,42.6899045,-84.4887979,266.1099853515625,1.6586939096450806,1.2786939144134521
1682339567.64049292,81720993,42.689904399999996,-84.48879749999999,266.1099853515625,1.6587822437286377,1.2787822484970093
1682339567.74053884,81821039,42.689904399999996,-84.48879699999999,266.1099853515625,1.6592916250228882,1.2792916297912598
1682339567.84050584,81921006,42.689904399999996,-84.4887966,266.1099853515625,1.658278465270996,1.2782784700393677
1682339567.94042277,82020923,42.689904299999995,-84.48879629999999,266.1099853515625,1.6594765186309814,1.279476523399353
1682339568.04037690,82120877,42.689904299999995,-84.4887959,266.1199951171875,1.661853551864624,1.2818535566329956
1682339568.14040589,82220906,42.6899042,-84.4887957,266.1199951171875,1.6641600131988525,1.2841600179672241
1682339568.24040580,82320906,42.6899042,-84.4887954,266.1300048828125,1.6712099313735962,1.2912099361419678
1682339568.34061098,82421111,42.6899042,-84.4887952,266.1399841308594,1.6800917387008667,1.3000917434692383
1682339568.44048595,82520986,42.689904299999995,-84.48879509999999,266.1399841308594,1.6877596378326416,1.3077596426010132
1682339568.54008389,82620584,42.689904399999996,-84.4887949,266.1499938964844,1.694514513015747,1.3145145177841187
1682339568.64019585,82720696,42.689904399999996,-84.4887948,266.1600036621094,1.702536940574646,1.3225369453430176
1682339568.74015188,82820652,42.6899045,-84.48879459999999,266.16998291015625,1.7114901542663574,1.331490159034729
1682339568.84021592,82920716,42.6899046,-84.4887945,266.17999267578125,1.720076322555542,1.3400763273239136
1682339568.94017982,83020680,42.6899047,-84.4887943,266.17999267578125,1.7292207479476929,1.3492207527160645
1682339569.04017496,83120675,42.6899047,-84.48879409999999,266.19000244140625,1.7399864196777344,1.359986424446106
1682339569.14011693,83220617,42.6899046,-84.48879389999999,266.2099914550781,1.751124620437622,1.3711246252059937
1682339569.24005890,83320559,42.6899046,-84.4887937,266.2099914550781,1.7586952447891235,1.3786952495574951
1682339569.34014583,83420646,42.689904399999996,-84.4887935,266.2200012207031,1.7637569904327393,1.3837569952011108
1682339569.44049191,83520992,42.689904299999995,-84.48879319999999,266.2200012207031,1.7680939435958862,1.3880939483642578
1682339569.54055095,83621051,42.6899042,-84.488793,266.22998046875,1.7706502676010132,1.3906502723693848
1682339569.64014196,83720642,42.6899041,-84.4887928,266.22998046875,1.7735767364501953,1.393576741218567
1682339569.74019480,83820695,42.689904,-84.48879269999999,266.22998046875,1.777407169342041,1.3974071741104126
1682339569.84021592,83920716,42.6899039,-84.4887925,266.22998046875,1.7779626846313477,1.3979626893997192
1682339569.94019198,84020692,42.689903799999996,-84.4887924,266.22998046875,1.7763720750808716,1.3963720798492432
1682339570.04013896,84120639,42.689903799999996,-84.4887923,266.22998046875,1.7740097045898438,1.3940097093582153
1682339570.14008498,84220585,42.689903699999995,-84.48879219999999,266.22998046875,1.7721617221832275,1.3921617269515991
1682339570.24015999,84320660,42.689903699999995,-84.4887921,266.22998046875,1.7714542150497437,1.3914542198181152
1682339570.34050584,84421006,42.689903699999995,-84.48879199999999,266.22998046875,1.7718149423599243,1.391814947128296
1682339570.44022393,84520724,42.689903699999995,-84.4887919,266.22998046875,1.772101879119873,1.3921018838882446
1682339570.54016781,84620668,42.689903699999995,-84.4887918,266.22998046875,1.7721877098083496,1.3921877145767212
1682339570.64039397,84720894,42.689903799999996,-84.4887917,266.22998046875,1.7717546224594116,1.3917546272277832
1682339570.74044394,84820944,42.689903799999996,-84.4887917,266.22998046875,1.7708913087844849,1.3908913135528564
1682339570.84038877,84920889,42.689903799999996,-84.4887916,266.2200012207031,1.7693310976028442,1.3893311023712158
1682339570.94035792,85020858,42.6899039,-84.4887916,266.2200012207031,1.7675422430038452,1.3875422477722168
1682339571.04040480,85120905,42.6899039,-84.48879149999999,266.2200012207031,1.7669956684112549,1.3869956731796265
1682339571.14044595,85220946,42.6899039,-84.48879149999999,266.2200012207031,1.7674429416656494,1.387442946434021
1682339571.24063993,85321140,42.6899039,-84.48879149999999,266.2200012207031,1.7671864032745361,1.3871864080429077
1682339571.34068990,85421190,42.6899039,-84.48879149999999,266.2200012207031,1.7666041851043701,1.3866041898727417
1682339571.44047284,85520973,42.689904,-84.48879149999999,266.2200012207031,1.7662324905395508,1.3862324953079224
1682339571.54043794,85620938,42.6899041,-84.48879149999999,266.2200012207031,1.7661272287368774,1.386127233505249
1682339571.64017487,85720675,42.6899041,-84.48879149999999,266.2200012207031,1.7654156684875488,1.3854156732559204
1682339571.74021387,85820714,42.6899042,-84.48879149999999,266.2200012207031,1.7646502256393433,1.3846502304077148
1682339571.84017897,85920679,42.6899042,-84.48879149999999,266.2200012207031,1.7637507915496826,1.3837507963180542
1682339571.94007587,86020576,42.689904299999995,-84.48879149999999,266.2200012207031,1.7623217105865479,1.3823217153549194
1682339572.04016089,86120661,42.689904399999996,-84.48879149999999,266.2200012207031,1.7601805925369263,1.3801805973052979
1682339572.14051795,86221018,42.689904399999996,-84.4887916,266.2099914550781,1.7580430507659912,1.3780430555343628
1682339572.24047494,86320975,42.689904399999996,-84.4887916,266.2099914550781,1.7558108568191528,1.3758108615875244
1682339572.34015894,86420659,42.689904399999996,-84.4887917,266.2099914550781,1.7534325122833252,1.3734325170516968
1682339572.44044685,86520947,42.6899045,-84.4887917,266.1999816894531,1.7492690086364746,1.3692690134048462
1682339572.54037476,86620875,42.6899045,-84.4887917,266.1999816894531,1.7451679706573486,1.3651679754257202
1682339572.64038777,86720888,42.6899046,-84.4887918,266.1999816894531,1.7402043342590332,1.3602043390274048
1682339572.74041176,86820912,42.6899046,-84.4887918,266.19000244140625,1.7349272966384888,1.3549273014068604
1682339572.84050894,86921009,42.6899046,-84.4887918,266.19000244140625,1.730101227760315,1.3501012325286865
1682339572.94049692,87020997,42.6899047,-84.4887918,266.17999267578125,1.7257564067840576,1.3457564115524292
1682339573.04021096,87120711,42.6899048,-84.4887918,266.17999267578125,1.721332311630249,1.3413323163986206
1682339573.14022589,87220726,42.6899048,-84.4887918,266.16998291015625,1.716342568397522,1.3363425731658936
1682339573.24015784,87320658,42.6899048,-84.4887918,266.16998291015625,1.7104520797729492,1.3304520845413208
1682339573.34043097,87420931,42.6899048,-84.4887917,266.1600036621094,1.7047032117843628,1.3247032165527344
1682339573.44020677,87520707,42.6899048,-84.4887917,266.1499938964844,1.6976771354675293,1.3176771402359009
1682339573.54021597,87620716,42.6899048,-84.4887917,266.1499938964844,1.6911784410476685,1.31117844581604
1682339573.64035296,87720853,42.689904899999995,-84.4887917,266.1399841308594,1.6835728883743286,1.3035728931427002
1682339573.74041176,87820912,42.689904899999995,-84.4887917,266.1300048828125,1.677319049835205,1.2973190546035767
1682339573.84046197,87920962,42.689904899999995,-84.4887917,266.1300048828125,1.6712908744812012,1.2912908792495728
1682339573.94046187,88020962,42.689904899999995,-84.4887917,266.1199951171875,1.666230320930481,1.2862303256988525
1682339574.04043293,88120933,42.689904899999995,-84.4887917,266.1199951171875,1.6620633602142334,1.282063364982605
1682339574.14063191,88221132,42.689904899999995,-84.4887916,266.1199951171875,1.6600761413574219,1.2800761461257935
1682339574.24042392,88320924,42.689904899999995,-84.4887916,266.1099853515625,1.6592274904251099,1.2792274951934814
1682339574.34018683,88420687,42.689904899999995,-84.4887916,266.1099853515625,1.6586049795150757,1.2786049842834473
1682339574.44043088,88520931,42.689904899999995,-84.4887916,266.1099853515625,1.6582709550857544,1.278270959854126
1682339574.54043198,88620932,42.689904899999995,-84.48879149999999,266.1099853515625,1.658189058303833,1.2781890630722046
1682339574.64047384,88720974,42.689904999999996,-84.48879149999999,266.1099853515625,1.659744381904602,1.2797443866729736
1682339574.74050379,88821004,42.689904999999996,-84.4887914,266.1199951171875,1.6615517139434814,1.281551718711853
1682339574.84054780,88921048,42.689904999999996,-84.4887913,266.1099853515625,1.658556580543518,1.2785565853118896
1682339574.94060683,89021107,42.689904999999996,-84.4887913,266.1099853515625,1.6520147323608398,1.2720147371292114
1682339575.04048491,89120985,42.689904999999996,-84.48879099999999,266.0899963378906,1.639885663986206,1.2598856687545776
1682339575.14044380,89220944,42.689904999999996,-84.48879079999999,266.0799865722656,1.6257563829421997,1.2457563877105713
1682339575.24037290,89320873,42.689904899999995,-84.4887906,266.07000732421875,1.6113911867141724,1.231391191482544
1682339575.34058976,89421090,42.6899048,-84.48879029999999,266.04998779296875,1.5972784757614136,1.2172784805297852
1682339575.44016099,89520661,42.6899047,-84.48879,266.0400085449219,1.58273184299469,1.2027318477630615
1682339575.54019880,89620699,42.6899047,-84.48878979999999,266.0199890136719,1.5687812566757202,1.1887812614440918
1682339575.64015198,89720652,42.6899046,-84.4887895,266.0099792480469,1.5564706325531006,1.1764706373214722
1682339575.74021983,89820720,42.6899046,-84.4887893,266.0,1.5455354452133179,1.1655354499816895
1682339575.84026980,89920770,42.6899045,-84.48878909999999,265.989990234375,1.5363811254501343,1.1563811302185059
1682339575.94016886,90020669,42.6899045,-84.4887889,265.97998046875,1.5286211967468262,1.1486212015151978
1682339576.04023194,90120732,42.689904399999996,-84.4887887,265.97998046875,1.5206286907196045,1.140628695487976
1682339576.14020276,90220703,42.689904399999996,-84.48878839999999,265.9700012207031,1.5120009183883667,1.1320009231567383
1682339576.24042892,90320929,42.689904399999996,-84.4887882,265.9599914550781,1.502345085144043,1.1223450899124146
1682339576.34016395,90420664,42.689904299999995,-84.488788,265.9499816894531,1.4921327829360962,1.1121327877044678
1682339576.44009876,90520599,42.689904299999995,-84.48878789999999,265.94000244140625,1.4842888116836548,1.1042888164520264
1682339576.54015398,90620654,42.689904299999995,-84.4887877,265.92999267578125,1.4787168502807617,1.0987168550491333
1682339576.64020085,90720701,42.6899042,-84.4887876,265.92999267578125,1.472947359085083,1.0929473638534546
1682339576.74022889,90820729,42.6899042,-84.4887875,265.91998291015625,1.4667327404022217,1.0867327451705933
1682339576.84019995,90920700,42.6899042,-84.4887873,265.91998291015625,1.4600714445114136,1.0800714492797852
1682339576.94020581,91020706,42.6899041,-84.48878719999999,265.9100036621094,1.452207326889038,1.0722073316574097
1682339577.04030180,91120802,42.6899041,-84.4887871,265.8999938964844,1.443861484527588,1.0638614892959595
1682339577.14042878,91220929,42.6899041,-84.4887871,265.8899841308594,1.4348561763763428,1.0548561811447144
1682339577.24042082,91320921,42.6899041,-84.488787,265.8800048828125,1.423659086227417,1.0436590909957886
1682339577.34046388,91420964,42.689904,-84.4887869,265.8699951171875,1.4103413820266724,1.030341386795044
1682339577.44052792,91521028,42.689904,-84.4887869,265.8500061035156,1.3959983587265015,1.015998363494873
1682339577.54022288,91620723,42.689904,-84.4887868,265.8399963378906,1.3803576231002808,1.0003576278686523
1682339577.64044285,91720943,42.689904,-84.4887868,265.82000732421875,1.3626327514648438,0.9826328158378601
1682339577.74038291,91820883,42.689904,-84.48878669999999,265.79998779296875,1.343531847000122,0.9635318517684937
1682339577.84042478,91920925,42.689904,-84.48878669999999,265.7799987792969,1.3232121467590332,0.9432122111320496
1682339577.94033885,92020839,42.689904,-84.4887866,265.7599792480469,1.302384614944458,0.9223846793174744
1682339578.04040599,92120906,42.689904,-84.4887866,265.739990234375,1.2814966440200806,0.9014967083930969
1682339578.14041996,92220920,42.689904,-84.48878649999999,265.7200012207031,1.2616225481033325,0.8816225528717041
1682339578.24047399,92320974,42.689904,-84.48878649999999,265.6999816894531,1.2420614957809448,0.8620615601539612
1682339578.34051490,92421015,42.689904,-84.48878649999999,265.67999267578125,1.2230859994888306,0.8430860638618469
1682339578.44053984,92521040,42.689904,-84.48878649999999,265.6600036621094,1.2045027017593384,0.82450270652771
1682339578.54054379,92621044,42.689904,-84.4887864,265.6399841308594,1.185780644416809,0.8057807087898254
1682339578.64045882,92720959,42.689904,-84.4887864,265.6199951171875,1.1670852899551392,0.7870852947235107
1682339578.74045181,92820952,42.689904,-84.4887864,265.6000061035156,1.149562954902649,0.7695630192756653
1682339578.84042478,92920925,42.689904,-84.4887864,265.5899963378906,1.1350736618041992,0.7550736665725708
1682339578.94041395,93020914,42.689904,-84.4887863,265.5799865722656,1.1219689846038818,0.7419690489768982
1682339579.04043889,93120939,42.6899039,-84.4887863,265.55999755859375,1.104727864265442,0.7247279286384583
1682339579.14074397,93221244,42.6899039,-84.4887863,265.5400085449219,1.085343360900879,0.7053433656692505
1682339579.24049091,93320991,42.6899039,-84.48878619999999,265.5199890136719,1.066810131072998,0.6868101954460144
1682339579.34019780,93420698,42.6899039,-84.4887861,265.5,1.0485092401504517,0.668509304523468
1682339579.44022179,93520722,42.6899039,-84.48878599999999,265.47998046875,1.0283972024917603,0.6483972668647766
1682339579.54016995,93620670,42.6899039,-84.48878599999999,265.4599914550781,1.0072983503341675,0.6272984147071838
1682339579.64019489,93720695,42.6899039,-84.4887859,265.44000244140625,0.9875367283821106,0.6075367331504822
1682339579.74020076,93820701,42.6899039,-84.4887859,265.41998291015625,0.9684543013572693,0.5884543061256409
1682339579.84044290,93920943,42.6899039,-84.4887858,265.4100036621094,0.9501009583473206,0.5701009631156921
1682339579.94056082,94021061,42.6899039,-84.4887858,265.3899841308594,0.9326586127281189,0.5526586174964905
1682339580.04047990,94120980,42.6899039,-84.4887858,265.3699951171875,0.9150093793869019,0.5350093841552734
1682339580.14050984,94221010,42.6899039,-84.4887857,265.3500061035156,0.8970085382461548,0.5170085430145264
1682339580.24051094,94321011,42.689904,-84.4887857,265.3299865722656,0.8789640069007874,0.49896401166915894
1682339580.34054685,94421047,42.689904,-84.4887856,265.32000732421875,0.8603735566139221,0.4803735613822937
1682339580.44048381,94520984,42.689904,-84.4887856,265.29998779296875,0.8412404656410217,0.4612404704093933
1682339580.54048085,94620981,42.689904,-84.4887856,265.2799987792969,0.8228830099105835,0.4428830146789551
1682339580.64038682,94720887,42.689904,-84.4887856,265.2599792480469,0.8044006824493408,0.4244007170200348
1682339580.74041796,94820918,42.689904,-84.48878549999999,265.239990234375,0.7851283550262451,0.4051283895969391
1682339580.84045982,94920960,42.689904,-84.48878549999999,265.2200012207031,0.7646628618240356,0.3846628963947296
1682339580.94049191,95020992,42.689904,-84.48878549999999,265.1999816894531,0.7458675503730774,0.365867555141449
1682339581.04051685,95121017,42.689904,-84.4887854,265.19000244140625,0.7317674160003662,0.3517674207687378
1682339581.14070392,95221204,42.689904,-84.4887854,265.16998291015625,0.7177118062973022,0.3377118408679962
1682339581.24061298,95321113,42.689904,-84.4887854,265.1600036621094,0.7010877132415771,0.3210877478122711
1682339581.34016180,95420662,42.689904,-84.48878529999999,265.1399841308594,0.6843329071998596,0.3043329119682312
1682339581.44022894,95520729,42.689904,-84.48878529999999,265.1199951171875,0.667921245098114,0.2879212498664856
1682339581.54022694,95620727,42.6899041,-84.48878529999999,265.1099853515625,0.6509240865707397,0.27092409133911133
1682339581.64021277,95720713,42.6899041,-84.4887852,265.0899963378906,0.6338338255882263,0.2538338601589203
1682339581.74016285,95820663,42.6899041,-84.4887852,265.07000732421875,0.615609884262085,0.23560988903045654
1682339581.84020090,95920701,42.6899041,-84.4887852,265.04998779296875,0.5987370014190674,0.21873700618743896
1682339581.94018078,96020681,42.6899041,-84.4887852,265.0400085449219,0.5824009776115417,0.20240098237991333
1682339582.04019284,96120693,42.6899041,-84.4887851,265.0199890136719,0.5638623237609863,0.1838623583316803
1682339582.14021397,96220714,42.6899041,-84.4887851,265.0,0.5431489944458008,0.16314899921417236
1682339582.24015594,96320656,42.6899041,-84.4887851,264.97998046875,0.5231482982635498,0.14314833283424377
1682339582.34020996,96420710,42.689904,-84.4887851,264.9599914550781,0.5056301951408386,0.1256301999092102
1682339582.44020391,96520704,42.689904,-84.4887851,264.94000244140625,0.48673927783966064,0.10673928260803223
1682339582.54041481,96620915,42.689904,-84.4887851,264.91998291015625,0.4659731984138489,0.08597320318222046
1682339582.64014792,96720648,42.689904,-84.4887851,264.8999938964844,0.4429945945739746,0.06299459934234619
1682339582.74010777,96820608,42.689904,-84.4887851,264.8800048828125,0.42020320892333984,0.040203217417001724
1682339582.84018493,96920685,42.689904,-84.4887851,264.8500061035156,0.3976922631263733,0.01769227162003517
1682339582.94019890,97020699,42.689904,-84.4887851,264.8299865722656,0.37513500452041626,-0.00486498698592186
1682339583.04021478,97120715,42.689904,-84.4887851,264.80999755859375,0.3543289303779602,-0.025671061128377914
1682339583.14016199,97220662,42.689904,-84.4887851,264.7900085449219,0.3353886008262634,-0.04461139068007469
1682339583.24020481,97320705,42.689904,-84.4887851,264.7699890136719,0.3161866068840027,-0.06381338834762573
1682339583.34027982,97420780,42.689904,-84.4887851,264.75,0.29942816495895386,-0.08057183027267456
1682339583.44042897,97520929,42.689904,-84.4887851,264.739990234375,0.2834787964820862,-0.09652119874954224
1682339583.54017282,97620673,42.689904,-84.4887851,264.7200012207031,0.26632654666900635,-0.11367344856262207
1682339583.64029098,97720791,42.689904,-84.4887851,264.6999816894531,0.24567973613739014,-0.13432025909423828
1682339583.74046588,97820966,42.689904,-84.4887851,264.67999267578125,0.2232304811477661,-0.1567695140838623
1682339583.84050584,97921006,42.6899039,-84.4887851,264.6600036621094,0.20193493366241455,-0.17806506156921387
1682339583.94044685,98020947,42.6899039,-84.4887851,264.6399841308594,0.18141943216323853,-0.1985805630683899
1682339584.04035378,98120854,42.6899039,-84.4887851,264.6199951171875,0.16210204362869263,-0.2178979516029358
1682339584.14039493,98220895,42.6899039,-84.4887851,264.6000061035156,0.14289188385009766,-0.23710811138153076
1682339584.24034286,98320843,42.6899039,-84.4887851,264.5799865722656,0.1256818175315857,-0.2543181777000427
1682339584.34036684,98420867,42.6899039,-84.4887851,264.57000732421875,0.11189156770706177,-0.26810842752456665
1682339584.44039178,98520892,42.689903799999996,-84.4887851,264.54998779296875,0.09759402275085449,-0.2824059724807739
1682339584.54062891,98621129,42.689903799999996,-84.4887851,264.5400085449219,0.08343470096588135,-0.29656529426574707
1682339584.64051795,98721018,42.689903799999996,-84.4887851,264.5199890136719,0.0657968521118164,-0.314203143119812
1682339584.74021387,98820714,42.689903799999996,-84.4887851,264.5099792480469,0.05176752433180809,-0.32823246717453003
1682339584.84024382,98920744,42.689903799999996,-84.488785,264.5099792480469,0.0502048097550869,-0.3297951817512512
1682339584.94017982,99020680,42.689903799999996,-84.488785,264.5,0.04604440554976463,-0.3339555859565735
1682339585.04020190,99120702,42.689903799999996,-84.488785,264.5,0.04050784930586815,-0.33949214220046997
1682339585.14019895,99220699,42.689903799999996,-84.488785,264.489990234375,0.03424566611647606,-0.34575432538986206
1682339585.24020886,99320709,42.689903799999996,-84.488785,264.489990234375,0.0312533937394619,-0.3487465977668762
1682339585.34015298,99420653,42.689903799999996,-84.488785,264.489990234375,0.030346091836690903,-0.3496538996696472
1682339585.44054699,99521047,42.689903799999996,-84.488785,264.489990234375,0.030807014554739,-0.3491929769515991
1682339585.54050684,99621007,42.689903799999996,-84.488785,264.489990234375,0.032530006021261215,-0.3474699854850769
1682339585.64049983,99721000,42.689903799999996,-84.488785,264.489990234375,0.033269282430410385,-0.34673070907592773
1682339585.74055481,99821055,42.689903799999996,-84.488785,264.489990234375,0.03305524215102196,-0.34694474935531616
1682339585.84052587,99921026,42.689903799999996,-84.488785,264.489990234375,0.03355782851576805,-0.34644216299057007
1682339585.94042897,100020929,42.689903799999996,-84.488785,264.489990234375,0.033282335847616196,-0.3467176556587219
1682339586.04038882,100120889,42.689903699999995,-84.4887849,264.489990234375,0.03194635733962059,-0.34805363416671753
1682339586.14042497,100220925,42.689903699999995,-84.4887849,264.489990234375,0.030737634748220444,-0.3492623567581177
1682339586.24041986,100320920,42.689903699999995,-84.4887849,264.489990234375,0.030485685914754868,-0.34951430559158325
1682339586.34062982,100421130,42.689903699999995,-84.4887849,264.489990234375,0.030545827001333237,-0.3494541645050049
1682339586.44052577,100521026,42.689903699999995,-84.4887849,264.489990234375,0.03096162900328636,-0.34903836250305176
1682339586.54051995,100621020,42.689903699999995,-84.4887849,264.489990234375,0.03304540738463402,-0.3469545841217041
1682339586.64053178,100721032,42.6899036,-84.4887849,264.489990234375,0.03426235541701317,-0.34573763608932495
1682339586.74018598,100820686,42.6899036,-84.4887849,264.489990234375,0.03449016436934471,-0.3455098271369934
1682339586.84024596,100920746,42.6899036,-84.4887849,264.489990234375,0.03582393750548363,-0.3441760540008545
1682339586.94017577,101020676,42.6899035,-84.4887849,264.489990234375,0.03748970851302147,-0.34251028299331665
1682339587.04024792,101120748,42.6899035,-84.4887849,264.5,0.04042303189635277,-0.33957695960998535
1682339587.14015198,101220652,42.6899034,-84.48878479999999,264.5,0.04644012078642845,-0.33355987071990967
1682339587.24008679,101320587,42.6899034,-84.48878479999999,264.5099792480469,0.05489515885710716,-0.32510483264923096
1682339587.34015393,101420654,42.6899033,-84.48878479999999,264.5199890136719,0.06302642822265625,-0.31697356700897217
1682339587.44022298,101520723,42.6899033,-84.4887847,264.5299987792969,0.07008349895477295,-0.30991649627685547
1682339587.54023290,101620733,42.6899033,-84.4887847,264.5299987792969,0.07582360506057739,-0.304176390171051
1682339587.64015293,101720653,42.689903199999996,-84.4887847,264.5400085449219,0.08269792795181274,-0.2973020672798157
1682339587.74019289,101820693,42.689903199999996,-84.4887846,264.5400085449219,0.0890188217163086,-0.2909811735153198
1682339587.84022999,101920730,42.689903199999996,-84.4887846,264.54998779296875,0.09062635898590088,-0.28937363624572754
1682339587.94042182,102020922,42.689903099999995,-84.4887846,264.5400085449219,0.08899641036987305,-0.29100358486175537
1682339588.04037094,102120871,42.689903099999995,-84.4887846,264.5400085449219,0.08522504568099976,-0.29477494955062866
1682339588.14043188,102220932,42.689903,-84.4887846,264.5299987792969,0.07896935939788818,-0.30103063583374023
1682339588.24041390,102320914,42.689903,-84.4887846,264.5299987792969,0.07210767269134521,-0.3078923225402832
1682339588.34044385,102420944,42.689903,-84.4887846,264.5199890136719,0.06399428844451904,-0.3160057067871094
1682339588.44044590,102520946,42.6899029,-84.4887845,264.5099792480469,0.054572995752096176,-0.32542699575424194
1682339588.54033494,102620835,42.6899029,-84.4887845,264.5,0.04817241057753563,-0.3318275809288025
1682339588.64033890,102720839,42.6899028,-84.4887845,264.5,0.04253971204161644,-0.3374602794647217
1682339588.74034286,102820843,42.6899028,-84.4887845,264.489990234375,0.03715991601347923,-0.3428400754928589
1682339588.84046388,102920964,42.6899028,-84.4887845,264.489990234375,0.03222298249602318,-0.34777700901031494
1682339588.94015598,103020656,42.6899028,-84.4887845,264.47998046875,0.028541620820760727,-0.3514583706855774
1682339589.04011679,103120617,42.6899027,-84.4887845,264.47998046875,0.02613210305571556,-0.35386788845062256
1682339589.14016485,103220665,42.6899027,-84.4887845,264.47998046875,0.02443194016814232,-0.3555680513381958
1682339589.24018884,103320689,42.689902599999996,-84.4887844,264.47998046875,0.024664517492055893,-0.3553354740142822
1682339589.34019589,103420696,42.689902599999996,-84.4887844,264.47998046875,0.02452760562300682,-0.3554723858833313
1682339589.44016981,103520670,42.689902599999996,-84.4887844,264.47998046875,0.023362573236227036,-0.3566374182701111
1682339589.54020691,103620707,42.689902499999995,-84.4887844,264.47998046875,0.02091800794005394,-0.3590819835662842
1682339589.64027882,103720779,42.689902499999995,-84.4887844,264.47998046875,0.02213352546095848,-0.35786646604537964
1682339589.74043298,103820933,42.6899024,-84.4887844,264.47998046875,0.02336758002638817,-0.35663241147994995
1682339589.84046698,103920967,42.6899024,-84.4887844,264.47998046875,0.02269619330763817,-0.35730379819869995
1682339589.94045091,104020951,42.6899023,-84.4887844,264.47998046875,0.022780176252126694,-0.3572198152542114
1682339590.04053187,104121032,42.6899023,-84.4887844,264.47998046875,0.022798951715230942,-0.3572010397911072
1682339590.14019585,104220696,42.6899022,-84.48878429999999,264.47998046875,0.02270924672484398,-0.35729074478149414
1682339590.24019790,104320698,42.6899022,-84.48878429999999,264.47998046875,0.022114630788564682,-0.35788536071777344
1682339590.34015679,104420657,42.6899021,-84.48878429999999,264.47998046875,0.021456178277730942,-0.3585438132286072
1682339590.44021583,104520716,42.6899021,-84.48878429999999,264.47998046875,0.02289080247282982,-0.3571091890335083
1682339590.54020977,104620710,42.689902,-84.48878429999999,264.47998046875,0.023438628762960434,-0.3565613627433777
1682339590.64023280,104720733,42.689902,-84.48878429999999,264.47998046875,0.022384461015462875,-0.35761553049087524
1682339590.74016595,104820666,42.689901899999995,-84.4887842,264.4700012207031,0.019551511853933334,-0.3604484796524048
1682339590.84050298,104921003,42.689901899999995,-84.4887842,264.4700012207031,0.017900045961141586,-0.36209994554519653
1682339590.94052076,105021021,42.6899018,-84.4887842,264.4700012207031,0.015897151082754135,-0.364102840423584
1682339591.04052496,105121025,42.6899018,-84.4887842,264.4700012207031,0.012716110795736313,-0.3672838807106018
1682339591.14048791,105220988,42.6899017,-84.4887842,264.4700012207031,0.010410364717245102,-0.369589626789093
1682339591.24047494,105320975,42.6899017,-84.48878409999999,264.4599914550781,0.009300705045461655,-0.37069928646087646
1682339591.34043288,105420933,42.6899016,-84.48878409999999,264.4599914550781,0.008728321641683578,-0.37127166986465454
1682339591.44042587,105520926,42.6899016,-84.48878409999999,264.4599914550781,0.00855373963713646,-0.37144625186920166
1682339591.54039788,105620898,42.6899015,-84.48878409999999,264.4599914550781,0.0072280727326869965,-0.3727719187736511
1682339591.64064598,105721146,42.6899015,-84.488784,264.4599914550781,0.0052174292504787445,-0.3747825622558594
1682339591.74077892,105821279,42.6899014,-84.488784,264.4599914550781,0.002968665212392807,-0.3770313262939453
1682339591.84057188,105921072,42.6899014,-84.488784,264.4599914550781,0.0005011521279811859,-0.37949883937835693
1682339591.94019294,106020693,42.6899014,-84.488784,264.4499816894531,-0.0012164153158664703,-0.3812164068222046
1682339592.04043984,106120940,42.689901299999995,-84.4887839,264.4499816894531,-0.002739313989877701,-0.3827393054962158
1682339592.14033985,106220840,42.689901299999995,-84.4887839,264.4499816894531,-0.0031439699232578278,-0.38314396142959595
1682339592.24035978,106320860,42.6899012,-84.4887839,264.4499816894531,-0.003628794103860855,-0.383628785610199
1682339592.34034276,106420843,42.6899012,-84.4887838,264.4499816894531,-0.005267087370157242,-0.38526707887649536
1682339592.44037890,106520879,42.6899011,-84.4887838,264.4499816894531,-0.009056273847818375,-0.3890562653541565
1682339592.54039478,106620895,42.6899011,-84.4887838,264.44000244140625,-0.014596346765756607,-0.3945963382720947
1682339592.64040399,106720904,42.689901,-84.4887838,264.44000244140625,-0.019824091345071793,-0.3998240828514099
1682339592.74051094,106821011,42.689901,-84.4887837,264.42999267578125,-0.02561265602707863,-0.40561264753341675
1682339592.84022284,106920723,42.6899009,-84.4887837,264.41998291015625,-0.03113901987671852,-0.41113901138305664
1682339592.94020081,107020701,42.6899009,-84.4887837,264.41998291015625,-0.036123935133218765,-0.4161239266395569
1682339593.04016685,107120667,42.6899008,-84.4887837,264.41998291015625,-0.038602832704782486,-0.4186028242111206
1682339593.14019084,107220691,42.6899008,-84.48878359999999,264.41998291015625,-0.03897017613053322,-0.41897016763687134
1682339593.24018693,107320687,42.6899008,-84.48878359999999,264.4100036621094,-0.040602508932352066,-0.4206025004386902
1682339593.34021187,107420712,42.689900699999995,-84.48878359999999,264.4100036621094,-0.044034186750650406,-0.4240341782569885
1682339593.44016290,107520663,42.689900699999995,-84.48878359999999,264.4100036621094,-0.04681307449936867,-0.4268130660057068
1682339593.54008484,107620585,42.6899006,-84.48878359999999,264.4100036621094,-0.04674047604203224,-0.42674046754837036
1682339593.64015889,107720659,42.6899006,-84.48878359999999,264.4100036621094,-0.04605859890580177,-0.4260585904121399
1682339593.74049783,107820998,42.6899006,-84.48878359999999,264.4100036621094,-0.046479884535074234,-0.42647987604141235
1682339593.84038496,107920885,42.6899005,-84.48878359999999,264.4100036621094,-0.04612106457352638,-0.4261210560798645
1682339593.94015884,108020659,42.6899005,-84.48878359999999,264.4100036621094,-0.043704453855752945,-0.42370444536209106
1682339594.04021382,108120714,42.6899005,-84.48878359999999,264.4100036621094,-0.041316572576761246,-0.42131656408309937
1682339594.14020991,108220710,42.6899004,-84.48878359999999,264.41998291015625,-0.03984016552567482,-0.41984015703201294
1682339594.24020576,108320706,42.6899004,-84.48878359999999,264.41998291015625,-0.03855270519852638,-0.4185526967048645
1682339594.34014797,108420648,42.6899004,-84.4887835,264.41998291015625,-0.03802639618515968,-0.4180263876914978
1682339594.44011283,108520613,42.6899003,-84.4887835,264.41998291015625,-0.03721285238862038,-0.4172128438949585
1682339594.54016590,108620666,42.6899003,-84.4887835,264.41998291015625,-0.03528499975800514,-0.41528499126434326
1682339594.64049792,108720998,42.6899003,-84.4887835,264.41998291015625,-0.03233272209763527,-0.4123327136039734
1682339594.74045682,108820957,42.6899002,-84.4887835,264.42999267578125,-0.029873792082071304,-0.4098737835884094
1682339594.84051991,108921020,42.6899002,-84.4887835,264.42999267578125,-0.02796119824051857,-0.4079611897468567
1682339594.94021177,109020712,42.6899002,-84.4887835,264.42999267578125,-0.027233485132455826,-0.40723347663879395
1682339595.04045987,109120960,42.689900099999996,-84.4887835,264.42999267578125,-0.026440922170877457,-0.4064409136772156
1682339595.14022779,109220728,42.689900099999996,-84.4887835,264.42999267578125,-0.0260545052587986,-0.4060544967651367
1682339595.24014997,109320650,42.689900099999996,-84.4887835,264.42999267578125,-0.028038982301950455,-0.4080389738082886
1682339595.34019876,109420699,42.6899,-84.4887835,264.41998291015625,-0.03175366297364235,-0.41175365447998047
1682339595.44016790,109520668,42.6899,-84.4887835,264.41998291015625,-0.034424249082803726,-0.41442424058914185
1682339595.54050684,109621007,42.6898999,-84.4887835,264.41998291015625,-0.03678948059678078,-0.4167894721031189
1682339595.64047790,109720978,42.6898999,-84.4887835,264.41998291015625,-0.03953862562775612,-0.41953861713409424
1682339595.74045587,109820956,42.6898999,-84.4887835,264.4100036621094,-0.04176754131913185,-0.42176753282546997
1682339595.84046698,109920967,42.6898999,-84.4887835,264.4100036621094,-0.04415828362107277,-0.4241582751274109
1682339595.94028878,110020789,42.6898998,-84.4887835,264.4100036621094,-0.047505322843790054,-0.4275053143501282
1682339596.04043579,110120936,42.6898998,-84.4887835,264.3999938964844,-0.050750795751810074,-0.4307507872581482
1682339596.14014196,110220642,42.6898998,-84.4887835,264.3999938964844,-0.05395609512925148,-0.4339560866355896
1682339596.24008393,110320584,42.6898998,-84.4887835,264.3999938964844,-0.05582481995224953,-0.43582481145858765
1682339596.34015179,110420652,42.6898998,-84.4887835,264.3999938964844,-0.0563238300383091,-0.4363238215446472
1682339596.44053197,110521032,42.6898997,-84.4887835,264.3999938964844,-0.05652672424912453,-0.43652671575546265
1682339596.54048681,110620987,42.6898997,-84.4887835,264.3999938964844,-0.05444997921586037,-0.4344499707221985
1682339596.64014697,110720647,42.6898997,-84.4887835,264.3999938964844,-0.05043536797165871,-0.4304353594779968
1682339596.74021077,110820711,42.6898997,-84.4887835,264.4100036621094,-0.04819029942154884,-0.42819029092788696
1682339596.84037876,110920879,42.6898996,-84.4887835,264.4100036621094,-0.047468606382608414,-0.42746859788894653
1682339596.94036484,111020865,42.6898996,-84.4887835,264.4100036621094,-0.04650050774216652,-0.42650049924850464
1682339597.04058099,111121081,42.6898996,-84.4887835,264.4100036621094,-0.044856373220682144,-0.42485636472702026
1682339597.14040089,111220901,42.689899499999996,-84.4887835,264.4100036621094,-0.042041245847940445,-0.42204123735427856
1682339597.24044776,111320948,42.689899499999996,-84.4887835,264.41998291015625,-0.03951847925782204,-0.41951847076416016
1682339597.34042788,111420928,42.689899499999996,-84.4887835,264.41998291015625,-0.038817767053842545,-0.41881775856018066
1682339597.44045877,111520959,42.6898994,-84.4887835,264.41998291015625,-0.03730124607682228,-0.4173012375831604
1682339597.54068184,111621182,42.6898994,-84.4887835,264.41998291015625,-0.03356749191880226,-0.4135674834251404
1682339597.64046097,111720961,42.6898994,-84.4887835,264.41998291015625,-0.03046971932053566,-0.4104697108268738
1682339597.74021292,111820713,42.6898994,-84.4887835,264.42999267578125,-0.029349926859140396,-0.4093499183654785
1682339597.84045196,111920952,42.6898993,-84.4887835,264.42999267578125,-0.02836877480149269,-0.4083687663078308
1682339597.94044089,112020941,42.6898993,-84.4887835,264.42999267578125,-0.026824120432138443,-0.40682411193847656
1682339598.04061699,112121117,42.6898993,-84.48878359999999,264.42999267578125,-0.02642548456788063,-0.40642547607421875
1682339598.14050579,112221006,42.6898992,-84.48878359999999,264.42999267578125,-0.025772932916879654,-0.4057729244232178
1682339598.24051094,112321011,42.6898992,-84.48878359999999,264.42999267578125,-0.026968900114297867,-0.406968891620636
1682339598.34047389,112420974,42.6898992,-84.48878359999999,264.42999267578125,-0.028939489275217056,-0.4089394807815552
1682339598.44075179,112521252,42.6898992,-84.48878359999999,264.41998291015625,-0.03265136852860451,-0.4126513600349426
1682339598.54071188,112621212,42.6898991,-84.4887837,264.41998291015625,-0.03581130877137184,-0.41581130027770996
1682339598.64018488,112720685,42.6898991,-84.4887837,264.41998291015625,-0.03896481171250343,-0.41896480321884155
1682339598.74021292,112820713,42.6898991,-84.4887837,264.4100036621094,-0.04318899288773537,-0.4231889843940735
1682339598.84024191,112920742,42.6898991,-84.4887837,264.4100036621094,-0.04692954197525978,-0.4269295334815979
1682339598.94008994,113020590,42.6898991,-84.4887837,264.4100036621094,-0.048811618238687515,-0.42881160974502563
1682339599.04017496,113120675,42.689899,-84.4887837,264.3999938964844,-0.05040711537003517,-0.4304071068763733
1682339599.14018989,113220690,42.689899,-84.4887838,264.3999938964844,-0.05216044560074806,-0.4321604371070862
1682339599.24019098,113320691,42.689899,-84.4887838,264.3999938964844,-0.052743617445230484,-0.4327436089515686
1682339599.34015083,113420651,42.689899,-84.4887838,264.3999938964844,-0.052048031240701675,-0.4320480227470398
1682339599.44022083,113520721,42.689899,-84.4887838,264.3999938964844,-0.05159098282456398,-0.4315909743309021
1682339599.54019284,113620693,42.689898899999996,-84.4887838,264.3999938964844,-0.05090433731675148,-0.4309043288230896
1682339599.64040184,113720902,42.689898899999996,-84.4887838,264.3999938964844,-0.050294820219278336,-0.43029481172561646
1682339599.74013877,113820639,42.689898899999996,-84.4887838,264.4100036621094,-0.04888755455613136,-0.4288875460624695
1682339599.84019184,113920692,42.689898899999996,-84.4887838,264.4100036621094,-0.046939436346292496,-0.4269394278526306
1682339599.94015384,114020654,42.689898899999996,-84.4887838,264.4100036621094,-0.04522508755326271,-0.42522507905960083
1682339600.04020596,114120706,42.689898899999996,-84.4887838,264.4100036621094,-0.042894307523965836,-0.42289429903030396
1682339600.14023280,114220733,42.689898799999995,-84.4887838,264.4100036621094,-0.04055863991379738,-0.4205586314201355
1682339600.24016094,114320661,42.689898799999995,-84.4887838,264.41998291015625,-0.037778500467538834,-0.41777849197387695
1682339600.34022188,114420722,42.689898799999995,-84.4887838,264.41998291015625,-0.035759035497903824,-0.41575902700424194
1682339600.44022083,114520721,42.689898799999995,-84.4887838,264.41998291015625,-0.034207526594400406,-0.4142075181007385
