timestamp,TimeUS,C,Roll,Pitch,Yaw,VN,VE,VD,dPD,PN,PE,PD,GX,GY,GZ,OH
1682339547.63937497,61719875,2,0.44,1.92,97.16,-0.01893802173435688,0.009972001425921917,0.04964915290474892,-0.019466126337647438,0.03011165000498295,-1.0533416271209717,0.4121861457824707,-0.03,0.03,0.19,265.4
1682339547.73937488,61819875,2,0.44,1.9100000000000001,97.14,-0.01772914081811905,0.010530618950724602,0.05041707679629326,0.011519724503159523,0.027163537219166756,-1.0482901334762573,0.41357719898223877,-0.03,0.03,0.19,265.4
1682339547.83939791,61919898,2,0.44,1.9100000000000001,97.12,-0.015721920877695084,0.011140347458422184,0.0513707734644413,0.027013586834073067,0.024792416021227837,-1.043209195137024,0.4155126214027405,-0.03,0.03,0.19,265.4
1682339547.93940687,62019907,2,0.43,1.9100000000000001,97.10000000000001,-0.013211638666689396,0.012494150549173355,0.05156869813799858,0.02683713473379612,0.02297968976199627,-1.037483811378479,0.41761326789855957,-0.03,0.03,0.19,265.4
1682339548.03939176,62119892,2,0.43,1.9100000000000001,97.07000000000001,-0.010467092506587505,0.012822741642594337,0.05190987512469292,0.02941417694091797,0.021168729290366173,-1.0321061611175537,0.42003315687179565,-0.03,0.03,0.18,265.4
1682339548.13935995,62219860,2,0.43,1.9100000000000001,97.05,-0.008072388358414173,0.012486126273870468,0.052812013775110245,0.03110918588936329,0.019254472106695175,-1.0267727375030518,0.4228399991989136,-0.03,0.03,0.18,265.4
1682339548.23930883,62319809,2,0.42,1.9100000000000001,97.04,-0.0056764548644423485,0.012105146422982216,0.05210138112306595,0.03174746781587601,0.017618561163544655,-1.0210051536560059,0.42580974102020264,-0.03,0.03,0.18,265.4
1682339548.33931088,62419811,2,0.43,1.92,97.02,-0.0024623237550258636,0.012363176792860031,0.05173875018954277,0.030452381819486618,0.016558349132537842,-1.015867829322815,0.4287644028663635,-0.03,0.03,0.19,265.4
1682339548.43931293,62519813,2,0.43,1.92,97.0,-0.0017974337097257376,0.011674592271447182,0.05245908349752426,0.03254407271742821,0.015080245211720467,-1.011096477508545,0.43225592374801636,-0.03,0.03,0.18,265.4
1682339548.53937483,62619875,2,0.42,1.92,96.99000000000001,-0.0018826856976374984,0.010196373797953129,0.05373800918459892,0.04793860390782356,0.012474413961172104,-1.0063236951828003,0.43698650598526,-0.03,0.03,0.19,265.4
1682339548.63938498,62719885,2,0.42,1.9100000000000001,96.96000000000001,-0.001053828396834433,0.00847201980650425,0.05371173098683357,0.04281798377633095,0.010560994036495686,-1.0020785331726074,0.4400022625923157,-0.03,0.03,0.19,265.4
1682339548.73940992,62819910,2,0.42,1.9100000000000001,96.95,0.0026261243037879467,0.00631709024310112,0.05173656716942787,0.004492484964430332,0.009540426544845104,-0.9980114698410034,0.4404374957084656,-0.03,0.03,0.19,265.4
1682339548.83940697,62919907,2,0.42,1.92,96.92,0.005300696939229965,0.0032557996455579996,0.04943080618977547,-0.004353498108685017,0.008850907906889915,-0.9945005774497986,0.4405674338340759,-0.03,0.03,0.19,265.4
1682339548.93938899,63019889,2,0.42,1.9100000000000001,96.9,0.006911762524396181,0.000175291090272367,0.048735883086919785,-0.012418734841048717,0.00813255924731493,-0.9910758137702942,0.4399682283401489,-0.03,0.03,0.19,265.4
1682339549.03935289,63119853,2,0.42,1.9100000000000001,96.87,0.008028039708733559,-0.00221603293903172,0.046725135296583176,-0.018195055425167084,0.0066480799578130245,-0.9872356653213501,0.4384291172027588,-0.03,0.03,0.19,265.4
1682339549.13931298,63219813,2,0.42,1.9000000000000001,96.85000000000001,0.009320826269686222,-0.004158162046223879,0.04483454301953316,-0.022548791021108627,0.005221770144999027,-0.9839955568313599,0.43707168102264404,-0.03,0.03,0.19,265.4
1682339549.23930788,63319808,2,0.42,1.9100000000000001,96.83,0.00953714270144701,-0.00389697658829391,0.04329410940408707,-0.009916220791637897,0.0033223722130060196,-0.9795135259628296,0.4367080330848694,-0.03,0.03,0.19,265.4
1682339549.33931589,63419816,2,0.42,1.9000000000000001,96.81,0.010216393508017063,-0.0035838312469422817,0.04119659215211868,-0.0003630607679951936,0.0015890912618488073,-0.975113570690155,0.4367867112159729,-0.03,0.03,0.19,265.4
1682339549.43937492,63519875,2,0.42,1.9000000000000001,96.79,0.00926251895725727,-0.0032038670033216476,0.04075122997164726,0.013613476417958736,-0.0009873178787529469,-0.9704535603523254,0.4384862780570984,-0.03,0.03,0.18,265.4
1682339549.53939676,63619897,2,0.42,1.8900000000000001,96.78,0.0066757360473275185,-0.0014959455002099276,0.04115808755159378,0.030333207920193672,-0.004701232071965933,-0.965039074420929,0.44103580713272095,-0.03,0.03,0.18,265.4
1682339549.63939381,63719894,2,0.42,1.8900000000000001,96.77,0.0037216313648968935,-0.0005824745749123394,0.04168923944234848,0.0387701541185379,-0.009049016050994396,-0.9595339894294739,0.44419747591018677,-0.03,0.03,0.18,265.4
1682339549.73941588,63819916,2,0.41000000000000003,1.8900000000000001,96.76,0.0012653719168156385,0.00040991860441863537,0.041408468037843704,0.035897258669137955,-0.013812253251671791,-0.9542469382286072,0.44710904359817505,-0.03,0.03,0.18,265.4
1682339549.83940077,63919901,2,0.41000000000000003,1.8900000000000001,96.75,-0.0014284098288044333,-5.299704207573086e-05,0.041363053023815155,0.03641221672296524,-0.019503651186823845,-0.9488420486450195,0.45073240995407104,-0.03,0.03,0.18,265.4
1682339549.93934178,64019842,2,0.42,1.8900000000000001,96.75,-0.003965509589761496,-0.0013056396273896098,0.042999349534511566,0.04344579577445984,-0.025090154260396957,-0.944373369216919,0.45472806692123413,-0.03,0.03,0.18,265.4
1682339550.03931093,64119811,2,0.42,1.8900000000000001,96.75,-0.006243675947189331,-0.0019564905669540167,0.04428709298372269,0.04739132151007652,-0.030806168913841248,-0.9403941631317139,0.45953840017318726,-0.03,0.03,0.18,265.4
1682339550.13931680,64219817,2,0.41000000000000003,1.8800000000000001,96.75,-0.00930032879114151,-0.0026261061429977417,0.04644833132624626,0.06155482307076454,-0.03720942512154579,-0.9362951517105103,0.4652605652809143,-0.03,0.03,0.18,265.4
1682339550.23931384,64319814,2,0.41000000000000003,1.8800000000000001,96.75,-0.011557561345398426,-0.002237231470644474,0.046670347452163696,0.04259989410638809,-0.04329637810587883,-0.9307212829589844,0.4685966372489929,-0.03,0.03,0.18,265.4
1682339550.33936477,64419865,2,0.41000000000000003,1.8800000000000001,96.75,-0.013127099722623825,-4.4324813643470407e-05,0.04644869640469551,0.01992935687303543,-0.048641618341207504,-0.9252431392669678,0.47092360258102417,-0.03,0.03,0.18,265.4
1682339550.43941188,64519912,2,0.41000000000000003,1.8800000000000001,96.74000000000001,-0.012684833258390427,-0.0001870374835561961,0.04674994945526123,0.01290311012417078,-0.05325930565595627,-0.9200415015220642,0.47266680002212524,-0.03,0.03,0.18,265.4
1682339550.53939795,64619898,2,0.41000000000000003,1.8800000000000001,96.73,-0.010194586589932442,0.003355250461027026,0.0463494174182415,0.010790381580591202,-0.05723422020673752,-0.9145890474319458,0.4742893576622009,-0.03,0.03,0.18,265.4
1682339550.63941479,64719915,2,0.4,1.87,96.71000000000001,-0.012816558592021465,0.002188111888244748,0.046416204422712326,0.015181136317551136,-0.06115749850869179,-0.9095475077629089,0.4766250252723694,-0.03,0.03,0.18,265.4
1682339550.73940396,64819904,2,0.4,1.87,96.69,-0.009906342253088951,0.0016514265444129705,0.04484463110566139,0.025529496371746063,-0.06537947058677673,-0.9045644402503967,0.4793294072151184,-0.03,0.03,0.18,265.4
1682339550.83935094,64919851,2,0.4,1.87,96.67,-0.007665373384952545,0.003083457238972187,0.044787708669900894,0.02567140944302082,-0.0697132870554924,-0.9000794887542725,0.48175162076950073,-0.03,0.03,0.18,265.4
1682339550.93931699,65019817,2,0.39,1.85,96.67,-0.00157556205522269,0.001504166517406702,0.04675468057394028,0.030063912272453308,-0.07480121403932571,-0.8954038619995117,0.48452574014663696,-0.03,0.03,0.18,265.4
1682339551.03932095,65119821,2,0.4,1.81,96.62,-0.015194743871688843,0.010394631884992123,0.04551354795694351,0.03766656294465065,-0.07885678112506866,-0.890760064125061,0.48848265409469604,-0.03,0.03,0.18,265.4
1682339551.13931489,65219815,2,0.37,1.77,96.62,-0.000271514494670555,0.011137306690216064,0.047579362988471985,0.04221091791987419,-0.08232451230287552,-0.8865688443183899,0.4917212128639221,-0.03,0.03,0.18,265.4
1682339551.23937297,65319873,2,0.37,1.78,96.62,-0.0026432927697896957,0.0005867520230822265,0.042376309633255005,0.013280280865728855,-0.08500269800424576,-0.8832481503486633,0.49211353063583374,-0.03,0.03,0.18,265.4
1682339551.33937693,65419877,2,0.39,1.77,96.63,-0.005223833490163088,0.00995035283267498,0.045131780207157135,-0.017699554562568665,-0.08723413199186325,-0.8795230388641357,0.49047785997390747,-0.03,0.03,0.18,265.4
1682339551.43940091,65519901,2,0.39,1.76,96.65,-0.008250772953033447,-0.009350983425974846,0.039875783026218414,-0.036604687571525574,-0.08906583487987518,-0.8752798438072205,0.48763662576675415,-0.03,0.03,0.17,265.4
1682339551.53941584,65619916,2,0.4,1.78,96.67,0.007806906942278147,-0.004622762557119131,0.042423881590366364,-0.050016459077596664,-0.090641088783741,-0.8716982007026672,0.4833027720451355,-0.03,0.03,0.17,265.4
1682339551.63940477,65719905,2,0.37,1.76,96.67,0.0033866625744849443,0.0007720576832070947,0.03842083737254143,-0.05425456911325455,-0.09284114092588425,-0.8665693402290344,0.4791319966316223,-0.03,0.03,0.17,265.4
1682339551.73935485,65819855,2,0.39,1.77,96.69,0.0020500211976468563,0.0020306287333369255,0.03573169559240341,-0.04396635666489601,-0.09477827697992325,-0.8609606027603149,0.47579485177993774,-0.03,0.03,0.17,265.4
1682339551.83932185,65919822,2,0.38,1.76,96.71000000000001,0.012033754028379917,0.009868510067462921,0.03717152774333954,-0.03302939981222153,-0.09623885899782181,-0.8550721406936646,0.47213464975357056,-0.03,0.03,0.17,265.4
1682339551.93932486,66019825,2,0.38,1.76,96.72,0.01255617942661047,0.010206004604697227,0.030721431598067284,-0.041468530893325806,-0.09677664935588837,-0.8491077423095703,0.4684024453163147,-0.03,0.03,0.17,265.4
1682339552.03931785,66119818,2,0.39,1.77,96.74000000000001,0.007238471414893866,0.014675195328891277,0.03154658153653145,-0.04074690863490105,-0.09643156826496124,-0.8433060646057129,0.46416252851486206,-0.03,0.03,0.17,265.4
1682339552.13937593,66219876,2,0.39,1.77,96.77,0.0028646744322031736,0.012326023541390896,0.028882771730422974,-0.050523389130830765,-0.09543275833129883,-0.8375381231307983,0.4596295952796936,-0.03,0.03,0.17,265.4
1682339552.23932385,66319824,2,0.38,1.78,96.79,0.015784863382577896,0.017233991995453835,0.0305714700371027,-0.03388729318976402,-0.09391362220048904,-0.8323161602020264,0.4570065140724182,-0.03,0.03,0.17,265.4
1682339552.33940482,66419905,2,0.37,1.78,96.81,0.009576765820384026,0.024505900219082832,0.025779997929930687,-0.01532734651118517,-0.09218980371952057,-0.8279551267623901,0.4556581377983093,-0.03,0.03,0.17,265.4
1682339552.43941283,66519913,2,0.39,1.76,96.8,0.010961498133838177,0.02206931635737419,0.019627554342150688,-0.015080776065587997,-0.09057871252298355,-0.8233419060707092,0.4540784955024719,-0.03,0.03,0.17,265.4
1682339552.53939390,66619894,2,0.38,1.77,96.84,0.0002713025896809995,0.009231473319232464,0.015587083995342255,-0.028284579515457153,-0.08941823244094849,-0.8192034959793091,0.4514276385307312,-0.03,0.03,0.16,265.4
1682339552.63934994,66719850,2,0.44,1.6600000000000001,96.85000000000001,-0.013387521728873253,0.03639698773622513,0.012226177379488945,-0.028764858841896057,-0.09004397690296173,-0.8129862546920776,0.44950979948043823,-0.03,0.03,0.16,265.4
1682339552.73932290,66819823,2,0.45,1.1300000000000001,96.79,-0.004853132646530867,0.061667002737522125,-0.058220651000738144,-0.09854798763990402,-0.09186910837888718,-0.8038674592971802,0.4435306191444397,-0.03,0.03,0.16,265.4
1682339552.83932090,66919821,2,0.42,0.1,96.78,-0.031445588916540146,0.06806590408086777,-0.3197956681251526,-0.3817494511604309,-0.09459292888641357,-0.7931059002876282,0.420914888381958,-0.03,0.03,0.15,265.4
1682339552.93932676,67019827,2,0.45,-0.1,96.8,-0.028975071385502815,0.0782412514090538,-0.595481276512146,-0.698402464389801,-0.09937973320484161,-0.7806922793388367,0.3654756546020508,-0.03,0.03,0.15,265.4
1682339553.03938389,67119884,2,0.34,0.07,96.89,-0.03972258046269417,0.08251779526472092,-0.6980135440826416,-0.8470437526702881,-0.10326933115720749,-0.767999529838562,0.286282479763031,-0.03,0.03,0.14,265.4
1682339553.13940978,67219910,2,0.17,0.19,96.96000000000001,-0.02766019105911255,0.08245912939310074,-0.6877629160881042,-0.9151858687400818,-0.10558686405420303,-0.7545079588890076,0.1964109092950821,-0.03,0.03,0.14,265.4
1682339553.23939776,67319898,2,-0.26,0.5700000000000001,97.03,-0.0036182289477437735,0.08584300428628922,-0.6454794406890869,-0.8274054527282715,-0.1060415729880333,-0.7410948872566223,0.11541302502155304,-0.03,0.03,0.14,265.4
1682339553.33941388,67419914,2,-0.56,0.93,97.05,-0.01100828219205141,0.08334514498710632,-0.5645348429679871,-0.658833920955658,-0.10491838306188583,-0.726892352104187,0.04706193506717682,-0.03,0.03,0.14,265.4
1682339553.43939781,67519898,2,-0.28,1.1,97.03,0.0017664236947894096,0.07113806903362274,-0.4728910028934479,-0.5043137669563293,-0.1045822948217392,-0.7164527177810669,-0.008165284991264343,-0.03,0.03,0.13,265.4
1682339553.53935194,67619852,2,-0.04,0.88,96.98,0.01719212718307972,0.06639434397220612,-0.38059836626052856,-0.38003161549568176,-0.10410814732313156,-0.709080159664154,-0.05342946946620941,-0.03,0.03,0.13,265.4
1682339553.63931584,67719816,2,0.01,0.52,96.9,0.01294629741460085,0.06536313146352768,-0.28926339745521545,-0.2436138093471527,-0.10583154112100601,-0.7010679244995117,-0.08289174735546112,-0.03,0.03,0.13,265.4
1682339553.73931289,67819813,2,0.24,-0.37,96.76,0.011715367436408997,0.07457587122917175,-0.22610273957252502,-0.1708681732416153,-0.10878144949674606,-0.6924977898597717,-0.1068393737077713,-0.03,0.03,0.13,265.4
1682339553.83932185,67919822,2,0.33,-1.19,96.60000000000001,0.008669679053127766,0.08666229993104935,-0.1866474151611328,-0.196278914809227,-0.1110992431640625,-0.6813303232192993,-0.12955360114574432,-0.03,0.03,0.12,265.4
1682339553.93935299,68019853,2,0.25,-1.52,96.42,0.00387000385671854,0.11759433895349503,-0.14439891278743744,-0.21436789631843567,-0.11329551041126251,-0.6660204529762268,-0.15370766818523407,-0.03,0.03,0.12,265.4
1682339554.03939080,68119891,2,0.19,-2.08,96.23,-0.00466332770884037,0.16266950964927673,-0.09043610841035843,-0.24808160960674286,-0.11615590006113052,-0.6466704607009888,-0.17881892621517181,-0.03,0.03,0.12,265.4
1682339554.13940692,68219907,2,0.29,-2.34,96.04,-0.021265817806124687,0.1983145922422409,-0.07562100887298584,-0.2537662982940674,-0.12000412493944168,-0.6228721141815186,-0.20249338448047638,-0.03,0.03,0.12,265.4
1682339554.23940992,68319910,2,0.34,-2.1,95.85000000000001,-0.017071256414055824,0.23521319031715393,-0.03623850643634796,-0.21097306907176971,-0.1240186095237732,-0.5957883596420288,-0.22210080921649933,-0.03,0.03,0.11,265.4
1682339554.33939576,68419896,2,0.3,-1.78,95.71000000000001,-0.032519806176424026,0.2746577858924866,-0.03483615070581436,-0.14783620834350586,-0.1286097913980484,-0.5646477341651917,-0.23527656495571136,-0.03,0.03,0.11,265.4
1682339554.43935895,68519859,2,0.43,-1.49,95.65,-0.03179415687918663,0.30716297030448914,-0.018861593678593636,-0.08096607029438019,-0.134377583861351,-0.5316151976585388,-0.2433944195508957,-0.03,0.03,0.11,265.4
1682339554.53932095,68619821,2,0.22,-1.02,95.63,-0.035186517983675,0.32631930708885193,-0.01566942222416401,-0.01722967065870762,-0.14064094424247742,-0.49718743562698364,-0.2467084676027298,-0.03,0.03,0.11,265.4
1682339554.63932681,68719827,2,0.03,-0.46,95.60000000000001,-0.03314933925867081,0.34733617305755615,-0.01827389933168888,-0.04024314880371094,-0.14534729719161987,-0.4608897268772125,-0.2529814839363098,-0.03,0.03,0.11,265.4
1682339554.73933196,68819832,2,0.04,-0.1,95.60000000000001,-0.03224491700530052,0.35980457067489624,0.007142077200114727,-0.06184226647019386,-0.14858999848365784,-0.4227009117603302,-0.26091599464416504,-0.03,0.03,0.1,265.4
1682339554.83936381,68919864,2,0.01,0.05,95.62,-0.025232108309864998,0.36923298239707947,0.021875493228435516,-0.07252027839422226,-0.15138527750968933,-0.38427838683128357,-0.2685324549674988,-0.03,0.03,0.1,265.4
1682339554.93940592,69019906,2,0.34,-0.27,95.69,-0.03566404804587364,0.3873804211616516,0.01450416911393404,-0.08616521209478378,-0.15424351394176483,-0.3450874090194702,-0.27629297971725464,-0.03,0.03,0.1,265.4
1682339555.03940678,69119907,2,0.98,-1.06,95.74000000000001,-0.042761944234371185,0.4137084186077118,-0.004258476663380861,-0.10874925553798676,-0.15652544796466827,-0.3017958998680115,-0.2859157919883728,-0.03,0.03,0.1,265.4
1682339555.13941598,69219916,2,1.3900000000000001,-1.25,95.82000000000001,-0.04898888245224953,0.4280405044555664,-0.04451063647866249,-0.1674479842185974,-0.1591016948223114,-0.2561377286911011,-0.3002636432647705,-0.03,0.03,0.1,265.4
1682339555.23939490,69319895,2,1.51,-0.67,95.91,-0.06985870748758316,0.4432204067707062,-0.06406237185001373,-0.2037781924009323,-0.16516222059726715,-0.20903928577899933,-0.3186919689178467,-0.03,0.03,0.1,265.4
1682339555.33934879,69419849,2,1.57,-0.22,96.0,-0.09482122212648392,0.4554186165332794,-0.07615599036216736,-0.20073100924491882,-0.1760614961385727,-0.15966907143592834,-0.3371846675872803,-0.03,0.03,0.09,265.4
1682339555.43931580,69519816,2,1.77,0.44,96.10000000000001,-0.11801757663488388,0.452664315700531,-0.08892634510993958,-0.1959613710641861,-0.18920646607875824,-0.11133892089128494,-0.35627543926239014,-0.03,0.03,0.09,265.4
1682339555.53933287,69619833,2,1.76,1.45,96.2,-0.13961118459701538,0.4390553832054138,-0.09980764240026474,-0.20334239304065704,-0.20413658022880554,-0.06521516293287277,-0.3758481740951538,-0.03,0.03,0.09,265.4
1682339555.63931584,69719816,2,1.69,2.19,96.29,-0.1650892198085785,0.4171612858772278,-0.12749597430229187,-0.2439252734184265,-0.22034384310245514,-0.023065468296408653,-0.4001618027687073,-0.03,0.03,0.09,265.4
1682339555.73934197,69819842,2,1.59,2.2600000000000002,96.36,-0.1741189807653427,0.3863469064235687,-0.1251598447561264,-0.28835734724998474,-0.23764318227767944,0.013953267596662045,-0.4288153648376465,-0.03,0.03,0.09,265.4
1682339555.83933091,69919831,2,1.27,1.85,96.41,-0.19436107575893402,0.36536914110183716,-0.13336507976055145,-0.2882644236087799,-0.2572157084941864,0.048642776906490326,-0.45627424120903015,-0.03,0.03,0.08,265.4
1682339555.93940878,70019909,2,0.88,0.91,96.43,-0.199435293674469,0.3524293005466461,-0.17519810795783997,-0.3007688522338867,-0.27870866656303406,0.08194231241941452,-0.484123557806015,-0.03,0.03,0.08,265.4
1682339556.03941298,70119913,2,0.15,-0.3,96.43,-0.21261654794216156,0.35245200991630554,-0.20012767612934113,-0.3165372610092163,-0.3000074326992035,0.11702026426792145,-0.5160307884216309,-0.03,0.03,0.08,265.4
1682339556.13939476,70219895,2,-0.59,-1.06,96.42,-0.19685034453868866,0.3686544895172119,-0.24239492416381836,-0.3542996346950531,-0.3200846314430237,0.15507666766643524,-0.5499768257141113,-0.03,0.03,0.08,265.4
1682339556.23935580,70319856,2,-1.12,-1.1500000000000001,96.4,-0.1829868108034134,0.3955325782299042,-0.2713198661804199,-0.380100816488266,-0.33837655186653137,0.1968241184949875,-0.5868781805038452,-0.03,0.03,0.08,265.4
1682339556.33931589,70419816,2,-1.11,-1.25,96.39,-0.17114566266536713,0.428626149892807,-0.30090025067329407,-0.4084813594818115,-0.35507726669311523,0.24295620620250702,-0.6255589127540588,-0.03,0.03,0.07,265.4
1682339556.43931794,70519818,2,-0.75,-1.33,96.36,-0.1484910547733307,0.46087148785591125,-0.32453882694244385,-0.3755131959915161,-0.36851173639297485,0.2943873107433319,-0.6602301001548767,-0.02,0.03,0.07,265.4
1682339556.53931880,70619819,2,-0.33,-1.21,96.34,-0.1427065134048462,0.4937340021133423,-0.3531310558319092,-0.32277849316596985,-0.3797302544116974,0.348884642124176,-0.6923186182975769,-0.02,0.03,0.07,265.4
1682339556.63934278,70719843,2,0.23,-1.24,96.3,-0.13840535283088684,0.5232605338096619,-0.3896643817424774,-0.34526190161705017,-0.38979148864746094,0.40349218249320984,-0.7288298606872559,-0.02,0.03,0.07,265.4
1682339556.73939896,70819899,2,0.91,-1.22,96.33,-0.13901692628860474,0.548754096031189,-0.41535142064094543,-0.41522398591041565,-0.39844492077827454,0.45892560482025146,-0.7712093591690063,-0.02,0.03,0.07,265.4
1682339556.83940196,70919902,2,1.45,-1.03,96.46000000000001,-0.15475864708423615,0.567241370677948,-0.438122421503067,-0.47947847843170166,-0.4075823426246643,0.517521321773529,-0.8180763721466064,-0.02,0.03,0.07,265.4
1682339556.93941498,71019915,2,1.6400000000000001,-0.9500000000000001,96.53,-0.17271815240383148,0.5979361534118652,-0.4537856876850128,-0.5017248392105103,-0.4170669615268707,0.5812044739723206,-0.8660979866981506,-0.02,0.03,0.07,265.4
1682339557.03940797,71119908,2,1.72,-0.89,96.60000000000001,-0.19469256699085236,0.6149972677230835,-0.457385778427124,-0.4918341636657715,-0.4314577579498291,0.6455563902854919,-0.9143103361129761,-0.02,0.03,0.06,265.4
1682339557.13934994,71219850,2,1.73,-0.73,96.7,-0.223565474152565,0.634583055973053,-0.4814051687717438,-0.5169400572776794,-0.4501681923866272,0.7105289101600647,-0.9646963477134705,-0.02,0.03,0.06,265.4
1682339557.23931384,71319814,2,1.59,-0.76,96.78,-0.24487292766571045,0.6527819633483887,-0.45842665433883667,-0.48548048734664917,-0.47368136048316956,0.7766632437705994,-1.0136533975601196,-0.02,0.03,0.06,265.4
1682339557.33932996,71419830,2,1.6,-0.55,96.88,-0.27846217155456543,0.6615822911262512,-0.45379638671875,-0.449134886264801,-0.5015233159065247,0.8433963060379028,-1.059574842453003,-0.02,0.03,0.06,265.4
1682339557.43931484,71519815,2,1.7,-0.2,97.0,-0.2998228371143341,0.6700507402420044,-0.4269822835922241,-0.411089152097702,-0.5322257280349731,0.9097695350646973,-1.1037675142288208,-0.02,0.03,0.06,265.4
1682339557.53933883,71619839,2,1.71,-0.36,97.08,-0.32330945134162903,0.6829370856285095,-0.3943696618080139,-0.38680046796798706,-0.5654202103614807,0.9765608310699463,-1.1456629037857056,-0.02,0.03,0.06,265.4
1682339557.63938594,71719886,2,1.72,-0.63,97.16,-0.3575827479362488,0.6894868612289429,-0.3641118109226227,-0.35588470101356506,-0.6019797921180725,1.0488791465759277,-1.1824733018875122,-0.02,0.03,0.05,265.4
1682339557.73939991,71819900,2,1.73,-0.52,97.24000000000001,-0.36960557103157043,0.7059096097946167,-0.32947662472724915,-0.3028746247291565,-0.6406092047691345,1.122756004333496,-1.213777780532837,-0.02,0.03,0.05,265.4
1682339557.83941889,71919919,2,1.67,-0.96,97.3,-0.40822017192840576,0.7284274697303772,-0.29835444688796997,-0.2511900067329407,-0.6847256422042847,1.1996681690216064,-1.2399909496307373,-0.02,0.03,0.05,265.4
1682339557.93939781,72019898,2,1.62,-1.54,97.31,-0.42552420496940613,0.7515971660614014,-0.25712335109710693,-0.20873479545116425,-0.7320694923400879,1.2781819105148315,-1.263222575187683,-0.02,0.03,0.05,265.4
1682339558.03934693,72119847,2,1.56,-1.27,97.36,-0.45091676712036133,0.7679991126060486,-0.22578273713588715,-0.18430428206920624,-0.7821797728538513,1.3602107763290405,-1.2830456495285034,-0.02,0.03,0.05,265.4
1682339558.13931680,72219817,2,1.41,-1.09,97.41,-0.48510757088661194,0.8026175498962402,-0.17838267982006073,-0.13574442267417908,-0.8340921998023987,1.4448925256729126,-1.2986913919448853,-0.02,0.03,0.05,265.4
1682339558.23932076,72319821,2,1.31,-1.45,97.45,-0.4944225251674652,0.8276443481445312,-0.1388191282749176,-0.07813821732997894,-0.884410560131073,1.5317084789276123,-1.3072534799575806,-0.02,0.03,0.05,265.4
1682339558.33931589,72419816,2,1.01,-1.48,97.54,-0.5090529322624207,0.8500668406486511,-0.10948706418275833,-0.03658534586429596,-0.9343021512031555,1.6197972297668457,-1.313970685005188,-0.02,0.03,0.05,265.4
1682339558.43938994,72519890,2,0.36,-1.42,97.66,-0.514599621295929,0.8871811628341675,-0.07438266277313232,-0.02740093134343624,-0.986335813999176,1.7132811546325684,-1.3191919326782227,-0.02,0.03,0.05,265.4
1682339558.53938794,72619888,2,-0.45,-1.9000000000000001,97.77,-0.503899097442627,0.9330870509147644,-0.04508151859045029,-0.036100324243307114,-1.0389071702957153,1.8109891414642334,-1.3250839710235596,-0.02,0.03,0.04,265.4
1682339558.63940477,72719905,2,-1.26,-2.5,97.88,-0.5090471506118774,0.9752880334854126,-0.030596166849136353,-0.030529633164405823,-1.0890718698501587,1.914096713066101,-1.3262921571731567,-0.02,0.03,0.04,265.4
1682339558.73941088,72819911,2,-2.11,-2.21,97.98,-0.45971229672431946,1.0084869861602783,0.015775691717863083,0.02158546634018421,-1.136204719543457,2.0205800533294678,-1.3268332481384277,-0.02,0.03,0.04,265.4
1682339558.83940077,72919901,2,-2.79,-1.57,98.08,-0.4238511919975281,1.0578899383544922,0.04293011873960495,0.05923881009221077,-1.178842544555664,2.132459878921509,-1.3212133646011353,-0.02,0.03,0.04,265.4
1682339558.93935990,73019860,2,-2.61,-1.1500000000000001,98.22,-0.3895263969898224,1.0955274105072021,0.06137741357088089,0.10897859185934067,-1.2174581289291382,2.2475697994232178,-1.3126232624053955,-0.02,0.03,0.04,265.4
1682339559.03931999,73119820,2,-1.77,-0.87,98.37,-0.3451486825942993,1.1249874830245972,0.09690839052200317,0.17477548122406006,-1.2528202533721924,2.366905689239502,-1.2965127229690552,-0.02,0.03,0.04,265.4
1682339559.13931489,73219815,2,-0.54,-0.85,98.55,-0.3403703570365906,1.1553170680999756,0.10998304188251495,0.22738321125507355,-1.2858818769454956,2.4884772300720215,-1.2769759893417358,-0.02,0.03,0.04,265.4
1682339559.23931384,73319814,2,0.9500000000000001,-0.88,98.73,-0.3284296691417694,1.165574550628662,0.12124036252498627,0.22555109858512878,-1.316747784614563,2.607394218444824,-1.2563223838806152,-0.02,0.03,0.03,265.4
1682339559.33931994,73419820,2,1.92,-0.59,98.97,-0.3409275412559509,1.1798899173736572,0.14411205053329468,0.22519175708293915,-1.3473623991012573,2.7252533435821533,-1.236553430557251,-0.02,0.03,0.03,265.4
1682339559.43940687,73519907,2,2.0300000000000002,-0.5,99.14,-0.37265509366989136,1.1902620792388916,0.15083813667297363,0.21726389229297638,-1.3871203660964966,2.840660333633423,-1.2144984006881714,-0.02,0.03,0.03,265.4
1682339559.53940797,73619908,2,1.99,-0.53,99.33,-0.39792194962501526,1.1972973346710205,0.1575133204460144,0.23182140290737152,-1.432361125946045,2.9542229175567627,-1.1914409399032593,-0.02,0.03,0.03,265.4
1682339559.63941193,73719912,2,1.96,-0.6,99.54,-0.43706244230270386,1.1960569620132446,0.177698016166687,0.22903260588645935,-1.4794750213623047,3.069734811782837,-1.1705410480499268,-0.02,0.03,0.03,265.4
1682339559.73939490,73819895,2,1.82,-0.81,99.7,-0.46366703510284424,1.2026968002319336,0.18461692333221436,0.18523378670215607,-1.5295891761779785,3.1852774620056152,-1.1530474424362183,-0.02,0.03,0.03,265.4
1682339559.83935881,73919859,2,1.56,-0.77,99.89,-0.49667805433273315,1.2154161930084229,0.18113495409488678,0.12257889658212662,-1.5830100774765015,3.304499387741089,-1.1394399404525757,-0.02,0.03,0.02,265.4
1682339559.93932295,74019823,2,1.19,-0.59,113.97,-0.5222970843315125,1.2197363376617432,0.18032905459403992,0.08795756101608276,-1.6392321586608887,3.426737070083618,-1.1285420656204224,-0.02,0.03,0.02,265.4
1682339560.03931689,74119817,2,0.62,-0.62,113.91,-0.5352387428283691,1.2224311828613281,0.17702271044254303,0.07411599904298782,-1.7029565572738647,3.549506425857544,-1.1186861991882324,-0.02,0.03,0.02,265.4
1682339560.13933277,74219833,2,0.16,-0.44,113.65,-0.5580313801765442,1.2322351932525635,0.18753665685653687,0.08669067919254303,-1.7720153331756592,3.6722700595855713,-1.1084580421447754,-0.02,0.03,0.02,265.4
1682339560.23934889,74319849,2,-0.38,-0.3,113.2,-0.5583374500274658,1.2472991943359375,0.18715548515319824,0.0869598388671875,-1.8381102085113525,3.7980763912200928,-1.098187804222107,-0.02,0.03,0.02,265.4
1682339560.33939385,74419894,2,-0.55,-0.38,112.74000000000001,-0.5559855103492737,1.2630141973495483,0.19528856873512268,0.120220847427845,-1.9013044834136963,3.9280598163604736,-1.0847852230072021,-0.02,0.03,0.02,265.4
1682339560.43941092,74519911,2,-0.26,-0.43,112.34,-0.5532933473587036,1.2672998905181885,0.19915884733200073,0.1351272314786911,-1.9596132040023804,4.057089805603027,-1.07188081741333,-0.02,0.03,0.02,265.4
1682339560.53941298,74619913,2,0.05,-0.11,112.0,-0.5340664386749268,1.2816188335418701,0.20224741101264954,0.12286139279603958,-2.012554883956909,4.1872429847717285,-1.0602246522903442,-0.02,0.03,0.02,265.4
1682339560.63939595,74719896,2,0.71,0.53,111.8,-0.5365917086601257,1.271514892578125,0.18668603897094727,0.11748101562261581,-2.0642096996307373,4.3185133934021,-1.047500729560852,-0.02,0.03,0.02,265.4
1682339560.73935294,74819853,2,1.8,1.27,111.72,-0.5462265610694885,1.2535244226455688,0.17917871475219727,0.14221391081809998,-2.1153745651245117,4.450947284698486,-1.0332893133163452,-0.02,0.03,0.02,265.4
1682339560.83931279,74919813,2,2.47,2.11,111.57000000000001,-0.5505916476249695,1.2226052284240723,0.14942295849323273,0.1421504020690918,-2.164851665496826,4.5791826248168945,-1.0182604789733887,-0.02,0.03,0.02,265.4
1682339560.93931580,75019816,2,2.48,2.95,111.34,-0.5529361367225647,1.1713757514953613,0.12440630793571472,0.12595857679843903,-2.2141265869140625,4.701428413391113,-1.0061756372451782,-0.02,0.03,0.02,265.4
1682339561.03931999,75119820,2,1.73,3.77,111.09,-0.5577704906463623,1.099849820137024,0.09542388468980789,0.091898612678051,-2.2631032466888428,4.81749963760376,-0.9966033697128296,-0.02,0.03,0.02,265.4
1682339561.13934398,75219844,2,0.91,4.62,110.87,-0.5264898538589478,1.0304404497146606,0.07359263300895691,0.0745059922337532,-2.311459541320801,4.925637245178223,-0.9887175559997559,-0.02,0.03,0.02,265.4
1682339561.23939085,75319891,2,-0.05,5.39,110.66,-0.5086224675178528,0.9456087350845337,0.034222476184368134,0.01590302586555481,-2.360492706298828,5.023710250854492,-0.9871126413345337,-0.02,0.03,0.02,265.4
1682339561.33940887,75419909,2,-1.03,6.16,110.37,-0.4482288062572479,0.8484976887702942,0.0001399761240463704,-0.07618126273155212,-2.409064292907715,5.109555244445801,-0.9931086301803589,-0.02,0.03,0.02,265.4
1682339561.43940997,75519910,2,-1.86,6.94,110.07000000000001,-0.3949839472770691,0.7487344145774841,-0.03302649408578873,-0.15568943321704865,-2.4577224254608154,5.186054229736328,-1.007007360458374,-0.02,0.03,0.02,265.4
1682339561.53939891,75619899,2,-2.64,7.63,109.73,-0.32882606983184814,0.6439189910888672,-0.06743718683719635,-0.2006864845752716,-2.5015158653259277,5.251927375793457,-1.022275686264038,-0.02,0.03,0.02,265.4
1682339561.63935399,75719854,2,-2.91,7.88,109.44,-0.2430042177438736,0.5356342196464539,-0.07828809320926666,-0.20496708154678345,-2.536036729812622,5.304029941558838,-1.0429253578186035,-0.02,0.03,0.02,265.4
1682339561.73932076,75819821,2,-2.44,7.37,109.19,-0.17687681317329407,0.42116716504096985,-0.07247219234704971,-0.2709028124809265,-2.560727596282959,5.340948104858398,-1.0685992240905762,-0.02,0.03,0.02,265.4
1682339561.83931279,75919813,2,-1.72,6.5600000000000005,108.95,-0.10482899844646454,0.3170025050640106,-0.07922425121068954,-0.25818437337875366,-2.5819578170776367,5.368587017059326,-1.0916284322738647,-0.02,0.03,0.02,265.4
1682339561.93931484,76019815,2,-0.93,5.69,108.71000000000001,-0.06298331171274185,0.22622694075107574,-0.08515544980764389,-0.23711436986923218,-2.599109411239624,5.387187480926514,-1.1135982275009155,-0.02,0.03,0.02,265.4
1682339562.03937793,76119878,2,-0.16,4.44,108.47,-0.03941726312041283,0.15186285972595215,-0.0673457607626915,-0.18500642478466034,-2.6149492263793945,5.398195266723633,-1.1333122253417969,-0.02,0.03,0.02,265.4
1682339562.13941193,76219912,2,0.3,2.84,108.14,-0.04439910501241684,0.09752076119184494,-0.08079175651073456,-0.17939479649066925,-2.637457847595215,5.403077125549316,-1.1510601043701172,-0.02,0.03,0.02,265.4
1682339562.23939681,76319897,2,0.59,1.09,107.82000000000001,-0.0686570256948471,0.06033468246459961,-0.08563236892223358,-0.14923658967018127,-2.6698403358459473,5.4071526527404785,-1.166502833366394,-0.02,0.03,0.02,265.4
1682339562.33941698,76419917,2,0.56,-0.2,107.51,-0.1046811118721962,0.0555167980492115,-0.1044042631983757,-0.14457540214061737,-2.707003116607666,5.410830497741699,-1.180957317352295,-0.02,0.03,0.02,265.4
1682339562.43940187,76519902,2,0.15,-1.06,107.29,-0.14439022541046143,0.06662584841251373,-0.10686394572257996,-0.10955237597227097,-2.7517430782318115,5.419822692871094,-1.1913787126541138,-0.02,0.03,0.02,265.4
1682339562.53935385,76619854,2,-0.21,-1.58,107.22,-0.1727680116891861,0.09967944771051407,-0.10726884752511978,-0.07503825426101685,-2.7993030548095703,5.433284282684326,-1.2006055116653442,-0.02,0.03,0.02,265.4
1682339562.63931584,76719816,2,-0.52,-1.9100000000000001,107.29,-0.20843330025672913,0.13764193654060364,-0.1263131946325302,-0.07718396186828613,-2.8464057445526123,5.449882507324219,-1.208767056465149,-0.02,0.03,0.02,265.4
1682339562.73931980,76819820,2,-0.74,-2.0,107.44,-0.22136034071445465,0.18623042106628418,-0.12897783517837524,-0.06899772584438324,-2.891118049621582,5.47014045715332,-1.2169336080551147,-0.02,0.03,0.02,265.4
1682339562.83932877,76919829,2,-0.78,-1.94,107.68,-0.23465989530086517,0.23646770417690277,-0.14243584871292114,-0.10713779926300049,-2.9361438751220703,5.499150276184082,-1.2288835048675537,-0.02,0.03,0.02,265.4
1682339562.93937397,77019874,2,-0.6900000000000001,-2.09,107.96000000000001,-0.2557644844055176,0.2840224504470825,-0.14712436497211456,-0.1351432353258133,-2.9793496131896973,5.5345139503479,-1.241832971572876,-0.02,0.03,0.02,265.4
1682339563.03937578,77119876,2,-0.59,-2.1,108.26,-0.2573745846748352,0.3370947241783142,-0.15051306784152985,-0.14359989762306213,-3.0217092037200928,5.574801921844482,-1.2561030387878418,-0.02,0.03,0.02,265.4
1682339563.13940787,77219908,2,-0.52,-1.95,108.54,-0.2756606340408325,0.38386979699134827,-0.16795925796031952,-0.16539528965950012,-3.062037944793701,5.61865758895874,-1.2716783285140991,-0.02,0.03,0.02,265.4
1682339563.23941779,77319918,2,-0.45,-2.02,108.82000000000001,-0.28767240047454834,0.4338212311267853,-0.1527014523744583,-0.110732801258564,-3.1033973693847656,5.665249824523926,-1.2808892726898193,-0.02,0.03,0.02,265.4
1682339563.33939481,77419895,2,-0.3,-2.29,109.10000000000001,-0.3075087368488312,0.47872355580329895,-0.1476047933101654,-0.04729676991701126,-3.1443443298339844,5.714969635009766,-1.2871367931365967,-0.02,0.03,0.02,265.4
1682339563.43934679,77519847,2,-0.23,-2.7600000000000002,109.38,-0.3206845223903656,0.5376335382461548,-0.13356196880340576,-0.03276536241173744,-3.1829981803894043,5.773733615875244,-1.2939679622650146,-0.02,0.03,0.02,265.4
1682339563.53932381,77619824,2,-0.18,-3.27,109.64,-0.3285038471221924,0.5952825546264648,-0.14194759726524353,-0.06218172609806061,-3.2202649116516113,5.839166641235352,-1.3016587495803833,-0.02,0.03,0.02,265.4
1682339563.63932991,77719830,2,-0.09,-3.44,109.89,-0.36375007033348083,0.6548382043838501,-0.12993964552879333,-0.07567992061376572,-3.2556629180908203,5.910302639007568,-1.3112025260925293,-0.02,0.03,0.02,265.4
1682339563.73932290,77819823,2,0.03,-3.74,110.07000000000001,-0.3764078915119171,0.7295700311660767,-0.12338993698358536,-0.0889376699924469,-3.2899668216705322,5.990879058837891,-1.3210113048553467,-0.02,0.03,0.02,265.4
1682339563.83933377,77919834,2,0.19,-3.79,110.24000000000001,-0.39127117395401,0.7951310276985168,-0.12705667316913605,-0.12160468846559525,-3.325819492340088,6.075854301452637,-1.332922339439392,-0.02,0.03,0.02,265.4
1682339563.93938899,78019889,2,0.28,-3.54,110.39,-0.4186626076698303,0.8603618741035461,-0.12945052981376648,-0.14987753331661224,-3.3635270595550537,6.165259838104248,-1.3465192317962646,-0.02,0.03,0.02,265.4
1682339564.03939986,78119900,2,0.37,-3.45,110.5,-0.4378272593021393,0.9209055304527283,-0.09865978360176086,-0.14236927032470703,-3.398746967315674,6.262084484100342,-1.361830711364746,-0.02,0.03,0.02,265.4
1682339564.13942194,78219922,2,0.47000000000000003,-3.5,110.53,-0.459100604057312,0.9807731509208679,-0.09182854741811752,-0.1350412368774414,-3.433265209197998,6.366963863372803,-1.3742153644561768,-0.02,0.03,0.02,265.4
1682339564.23940182,78319902,2,0.46,-3.54,110.46000000000001,-0.46574297547340393,1.0450894832611084,-0.07848144322633743,-0.09185770153999329,-3.4616923332214355,6.478862285614014,-1.3838292360305786,-0.02,0.03,0.02,265.4
1682339564.33935380,78419854,2,0.46,-3.62,110.3,-0.47007814049720764,1.112667202949524,-0.067536361515522,-0.09192285686731339,-3.485944986343384,6.59749174118042,-1.3941797018051147,-0.02,0.03,0.02,265.4
1682339564.43932390,78519824,2,0.54,-4.37,110.11,-0.48469439148902893,1.197955846786499,-0.06487134844064713,-0.1093764528632164,-3.510956287384033,6.724874973297119,-1.4056040048599243,-0.02,0.03,0.02,265.4
1682339564.53931499,78619815,2,0.63,-4.68,109.92,-0.49790942668914795,1.2610385417938232,-0.06449755281209946,-0.12100226432085037,-3.5373735427856445,6.859680652618408,-1.4163954257965088,-0.02,0.03,0.02,265.4
1682339564.63931584,78719816,2,0.68,-3.93,109.74000000000001,-0.5178411602973938,1.3307008743286133,-0.052040211856365204,-0.08613207936286926,-3.5641467571258545,7.005545616149902,-1.4245657920837402,-0.02,0.03,0.02,265.4
1682339564.73934293,78819843,2,0.65,-3.5,109.57000000000001,-0.5302936434745789,1.3992334604263306,-0.022845827043056488,-0.03162736818194389,-3.594329595565796,7.158847808837891,-1.4290528297424316,-0.02,0.03,0.02,265.4
1682339564.83937478,78919875,2,0.6900000000000001,-3.42,109.42,-0.551397979259491,1.4525482654571533,-0.024036170914769173,0.020497865974903107,-3.6275079250335693,7.310982704162598,-1.4261122941970825,-0.02,0.03,0.02,265.4
1682339564.93940997,79019910,2,0.6900000000000001,-3.15,109.35000000000001,-0.5643186569213867,1.5046390295028687,-0.0020453226752579212,0.07690846174955368,-3.664996385574341,7.464019298553467,-1.4205704927444458,-0.02,0.03,0.02,265.4
1682339565.03942585,79119926,2,0.66,-3.14,109.28,-0.5703384876251221,1.5489411354064941,0.014293803833425045,0.10034281015396118,-3.702971935272217,7.621126174926758,-1.4125677347183228,-0.02,0.03,0.02,265.4
1682339565.13940287,79219903,2,0.63,-3.15,109.2,-0.5827203989028931,1.5915449857711792,0.021107861772179604,0.12413381040096283,-3.7437736988067627,7.7809271812438965,-1.4018269777297974,-0.02,0.03,0.02,265.4
1682339565.23936296,79319863,2,0.52,-2.8000000000000003,109.09,-0.59410160779953,1.629668116569519,0.030642876401543617,0.13795611262321472,-3.78330659866333,7.948823928833008,-1.3899801969528198,-0.02,0.03,0.02,265.4
1682339565.33933377,79419834,2,0.39,-2.34,108.97,-0.6055481433868408,1.6702488660812378,0.02088940516114235,0.10670021921396255,-3.824828863143921,8.121618270874023,-1.3806161880493164,-0.02,0.03,0.02,265.4
1682339565.43932080,79519821,2,0.29,-1.72,108.83,-0.5928783416748047,1.7020244598388672,0.022771093994379044,0.0987403616309166,-3.8631057739257812,8.29476547241211,-1.369362473487854,-0.02,0.03,0.02,265.4
1682339565.53931999,79619820,2,0.25,-1.26,108.68,-0.5945290327072144,1.719183325767517,0.030376479029655457,0.13182993233203888,-3.902132034301758,8.468701362609863,-1.3570600748062134,-0.02,0.03,0.02,265.4
1682339565.63933587,79719836,2,0.27,-0.65,108.49000000000001,-0.5831463932991028,1.726138949394226,0.0206958819180727,0.1604515165090561,-3.9356915950775146,8.640621185302734,-1.340371012687683,-0.02,0.03,0.02,265.4
1682339565.73938680,79819887,2,0.29,0.17,108.28,-0.5611504316329956,1.7304680347442627,0.0037056675646454096,0.19935376942157745,-3.9686546325683594,8.81110954284668,-1.3209583759307861,-0.02,0.03,0.02,265.4
1682339565.83939981,79919900,2,0.26,0.98,108.11,-0.5557883977890015,1.708072543144226,-0.007636822294443846,0.19837826490402222,-4.000458717346191,8.979272842407227,-1.300824522972107,-0.02,0.03,0.02,265.4
1682339565.93941379,80019914,2,0.35000000000000003,1.74,107.97,-0.5302769541740417,1.6821800470352173,-0.010770762339234352,0.18462781608104706,-4.034379959106445,9.146866798400879,-1.2843279838562012,-0.02,0.03,0.02,265.4
1682339566.03939795,80119898,2,0.49,2.58,107.91,-0.5159191489219666,1.643786072731018,-0.040377624332904816,0.11048626899719238,-4.065569877624512,9.309717178344727,-1.2720379829406738,-0.02,0.03,0.02,265.4
1682339566.13935280,80219853,2,0.6,3.38,107.9,-0.49375855922698975,1.5846967697143555,-0.03706397861242294,0.08521920442581177,-4.097001552581787,9.467294692993164,-1.2622549533843994,-0.02,0.03,0.02,265.4
1682339566.23931289,80319813,2,0.7000000000000001,4.21,107.95,-0.4675167500972748,1.5154365301132202,-0.03915476053953171,0.06253521889448166,-4.131189346313477,9.617501258850098,-1.255164384841919,-0.02,0.03,0.02,265.4
1682339566.33931684,80419817,2,0.59,5.03,108.05,-0.4548724591732025,1.4373538494110107,-0.04720798507332802,0.03915782645344734,-4.1671061515808105,9.759923934936523,-1.2502995729446411,-0.02,0.03,0.02,265.4
1682339566.43931794,80519818,2,0.07,5.74,108.16,-0.4155217111110687,1.3367369174957275,-0.04128895699977875,0.036561764776706696,-4.200507640838623,9.891011238098145,-1.246427297592163,-0.02,0.03,0.02,265.4
1682339566.53933883,80619839,2,-0.77,6.55,108.25,-0.3568703830242157,1.2305045127868652,-0.07249951362609863,0.016246575862169266,-4.231292247772217,10.011712074279785,-1.2431954145431519,-0.02,0.03,0.02,265.4
1682339566.63938999,80719890,2,-1.8900000000000001,7.3,108.32000000000001,-0.3025047481060028,1.126832365989685,-0.06960675865411758,0.0016972203738987446,-4.260171890258789,10.120075225830078,-1.2446025609970093,-0.02,0.02,0.02,265.4
1682339566.73941398,80819914,2,-2.86,8.03,108.37,-0.21598102152347565,0.9994308352470398,-0.0863797590136528,-0.060554131865501404,-4.283895969390869,10.21126651763916,-1.2496519088745117,-0.02,0.02,0.02,265.4
1682339566.83941293,80919913,2,-3.2800000000000002,8.66,108.4,-0.13763579726219177,0.8766242265701294,-0.08553632348775864,-0.07169373333454132,-4.299159049987793,10.291671752929688,-1.2550798654556274,-0.02,0.02,0.02,265.4
1682339566.93940091,81019901,2,-3.16,8.44,108.43,-0.03639710322022438,0.7722129821777344,-0.0886206403374672,-0.05852239206433296,-4.305411338806152,10.360965728759766,-1.2603168487548828,-0.02,0.02,0.02,265.4
1682339567.03935790,81119858,2,-2.87,7.46,108.49000000000001,0.0414026640355587,0.656092643737793,-0.09003858268260956,-0.04807911813259125,-4.302481174468994,10.418035507202148,-1.2644529342651367,-0.02,0.02,0.02,265.4
1682339567.13931179,81219812,2,-2.08,6.0,108.54,0.11931614577770233,0.5608770847320557,-0.08096347749233246,-0.03720229119062424,-4.291907787322998,10.464435577392578,-1.2690895795822144,-0.02,0.02,0.02,265.4
1682339567.23932385,81319824,2,-1.12,4.23,108.54,0.1672333925962448,0.4900846481323242,-0.07418588548898697,-0.04253001883625984,-4.278604030609131,10.505694389343262,-1.2742246389389038,-0.02,0.02,0.02,265.4
1682339567.33931899,81419819,2,-0.25,2.64,108.48,0.18992283940315247,0.4382224380970001,-0.08123309910297394,-0.04610516130924225,-4.263777732849121,10.542999267578125,-1.278448462486267,-0.02,0.02,0.02,265.4
1682339567.43933392,81519834,2,0.5,1.3,108.37,0.1991286277770996,0.4067600965499878,-0.07250820845365524,-0.020327001810073853,-4.250698089599609,10.57943058013916,-1.2805460691452026,-0.02,0.02,0.02,265.4
1682339567.53938580,81619886,2,0.66,0.03,108.21000000000001,0.19576580822467804,0.39671021699905396,-0.08126706629991531,0.006258302368223667,-4.242081642150879,10.6171293258667,-1.2801227569580078,-0.02,0.02,0.02,265.4
1682339567.63940477,81719905,2,0.53,-0.03,108.07000000000001,0.1741042584180832,0.382433146238327,-0.08970771729946136,0.007787017617374659,-4.239784240722656,10.654502868652344,-1.2800284624099731,-0.02,0.02,0.02,265.4
1682339567.73942780,81819928,2,0.26,0.9500000000000001,107.94,0.17088811099529266,0.3756617307662964,-0.0966181606054306,0.006697050295770168,-4.24211311340332,10.691749572753906,-1.2803031206130981,-0.02,0.02,0.02,265.4
1682339567.83942080,81919921,2,-0.1,1.75,107.85000000000001,0.15288560092449188,0.364277184009552,-0.09252957999706268,0.01216306071728468,-4.245887279510498,10.72567081451416,-1.2795215845108032,-0.02,0.02,0.02,265.4
1682339567.93935394,82019854,2,-0.55,2.56,107.77,0.15574383735656738,0.3295005261898041,-0.08872450143098831,0.009022553451359272,-4.249515056610107,10.755529403686523,-1.2799564599990845,-0.02,0.02,0.02,265.4
1682339568.03931689,82119817,2,-0.77,3.3200000000000003,107.73,0.16550245881080627,0.29153206944465637,-0.0910177230834961,-0.020036153495311737,-4.2521748542785645,10.782892227172852,-1.2820518016815186,-0.03,0.02,0.03,265.4
1682339568.13933778,82219838,2,-0.73,3.25,107.71000000000001,0.1797126978635788,0.26104897260665894,-0.08051683008670807,-0.0132101746276021,-4.255532741546631,10.80756664276123,-1.2837202548980713,-0.03,0.02,0.03,265.4
1682339568.23932076,82319821,2,-0.81,2.85,107.71000000000001,0.2089153230190277,0.22009310126304626,-0.08263397961854935,-0.050344351679086685,-4.255746364593506,10.82739543914795,-1.2895790338516235,-0.03,0.02,0.03,265.4
1682339568.33933783,82419838,2,-1.26,2.41,107.74000000000001,0.22279092669487,0.19074511528015137,-0.07849597185850143,-0.09074534475803375,-4.252287864685059,10.843104362487793,-1.2980616092681885,-0.03,0.02,0.03,265.4
1682339568.43939877,82519899,2,-1.6,1.82,107.79,0.2511596381664276,0.17007438838481903,-0.07077908515930176,-0.08559399843215942,-4.247012615203857,10.856621742248535,-1.3050823211669922,-0.03,0.02,0.03,265.4
1682339568.53938198,82619882,2,-1.52,1.3900000000000001,107.88,0.2558920085430145,0.15301908552646637,-0.05590996518731117,-0.06119801849126816,-4.237921237945557,10.868678092956543,-1.3113054037094116,-0.03,0.02,0.03,265.4
1682339568.63941598,82719916,2,-0.89,0.96,107.96000000000001,0.2760763466358185,0.1441289335489273,-0.05942397564649582,-0.07013553380966187,-4.2281413078308105,10.880372047424316,-1.3183562755584717,-0.03,0.02,0.03,265.4
1682339568.73942280,82819923,2,0.04,0.52,108.09,0.26907187700271606,0.13528361916542053,-0.044718027114868164,-0.06831012666225433,-4.21638822555542,10.892033576965332,-1.326348066329956,-0.03,0.02,0.03,265.4
1682339568.83934283,82919843,2,0.9400000000000001,0.13,108.2,0.2602647840976715,0.14310617744922638,-0.040130890905857086,-0.07149415463209152,-4.206833362579346,10.904122352600098,-1.333900809288025,-0.03,0.02,0.03,265.4
1682339568.93931699,83019817,2,1.75,-0.36,108.31,0.21949078142642975,0.14666847884655,-0.04150307923555374,-0.08285487443208694,-4.198548793792725,10.916838645935059,-1.3422038555145264,-0.03,0.02,0.03,265.4
1682339569.03933477,83119835,2,2.5300000000000002,-1.12,108.39,0.16272838413715363,0.152226984500885,-0.04992331191897392,-0.11450562626123428,-4.196138381958008,10.931538581848145,-1.3523352146148682,-0.03,0.02,0.03,265.4
1682339569.13933396,83219834,2,2.94,-1.25,108.48,0.1292322874069214,0.15725089609622955,-0.03993330895900726,-0.1172727718949318,-4.197197914123535,10.947314262390137,-1.362856149673462,-0.03,0.02,0.03,265.4
1682339569.23933887,83319839,2,2.52,-0.78,108.62,0.07690712064504623,0.16923029720783234,-0.04592127725481987,-0.0949416533112526,-4.205638408660889,10.965325355529785,-1.3701993227005005,-0.04,0.02,0.03,265.4
1682339569.33940291,83419903,2,1.87,-0.19,108.76,0.021028419956564903,0.17070797085762024,-0.030594857409596443,-0.04505883902311325,-4.217971324920654,10.984528541564941,-1.3754026889801025,-0.04,0.02,0.03,265.4
1682339569.43940687,83519907,2,1.2,0.6900000000000001,108.91,-0.010722835548222065,0.15976528823375702,-0.030074888840317726,-0.03254307806491852,-4.233409404754639,11.00368595123291,-1.3796112537384033,-0.04,0.02,0.03,265.4
1682339569.53945398,83619954,2,0.43,1.59,109.02,-0.014966482296586037,0.14933320879936218,-0.012949755415320396,-0.0033097064588218927,-4.2486467361450195,11.021977424621582,-1.3818106651306152,-0.04,0.02,0.03,265.4
1682339569.63941383,83719914,2,-0.15,2.23,109.13,-0.021848807111382484,0.12511245906352997,-0.015406128019094467,-0.007814276963472366,-4.262514114379883,11.037262916564941,-1.3842017650604248,-0.04,0.02,0.03,265.4
1682339569.73936081,83819861,2,-0.53,2.3000000000000003,109.24000000000001,-0.014955274760723114,0.10755117982625961,-0.0091190030798316,-0.019934125244617462,-4.27352237701416,11.049797058105469,-1.3872714042663574,-0.04,0.02,0.03,265.4
1682339569.83931279,83919813,2,-0.74,1.98,109.32000000000001,0.006088789086788893,0.0808948501944542,-0.019635260105133057,-0.01791525073349476,-4.282316207885742,11.060721397399902,-1.3872841596603394,-0.04,0.02,0.03,265.4
1682339569.93931389,84019814,2,-0.74,1.61,109.41,0.02542366273701191,0.06595543026924133,0.010272928513586521,0.04241352155804634,-4.287750720977783,11.069677352905273,-1.3850769996643066,-0.04,0.02,0.03,265.4
1682339570.03931880,84119819,2,-0.6,1.21,109.49000000000001,0.032614123076200485,0.05286445841193199,-0.000882210093550384,0.03895150125026703,-4.291535377502441,11.078659057617188,-1.3822098970413208,-0.04,0.02,0.03,265.4
1682339570.13934278,84219843,2,-0.38,0.93,109.54,0.04454895481467247,0.048447154462337494,0.0025264450814574957,0.03411128371953964,-4.292931079864502,11.087005615234375,-1.3797999620437622,-0.04,0.02,0.03,265.4
1682339570.23939395,84319894,2,-0.19,0.76,109.58,0.057268839329481125,0.050789520144462585,-0.004216155037283897,0.009698273614048958,-4.292595386505127,11.0950927734375,-1.3783397674560547,-0.04,0.02,0.03,265.4
1682339570.33940387,84419904,2,-0.03,0.71,109.60000000000001,0.06462378054857254,0.043659090995788574,0.0035520819947123528,0.0039899577386677265,-4.291534423828125,11.103460311889648,-1.3778076171875,-0.04,0.02,0.03,265.4
1682339570.43941092,84519911,2,0.03,0.8200000000000001,109.61,0.058862071484327316,0.03866662457585335,0.007194077130407095,7.782258762745187e-05,-4.289643287658691,11.11225414276123,-1.3770794868469238,-0.04,0.02,0.03,265.4
1682339570.53940892,84619909,2,0.07,0.9500000000000001,109.62,0.057689208537340164,0.03844277560710907,0.012838431634008884,0.009067007340490818,-4.286586284637451,11.120597839355469,-1.3763352632522583,-0.04,0.02,0.02,265.4
1682339570.63936090,84719861,2,0.12,1.06,109.60000000000001,0.06508106738328934,0.035345666110515594,0.0019319915445521474,0.0005790592986159027,-4.283571720123291,11.127790451049805,-1.3753591775894165,-0.04,0.02,0.02,265.4
1682339570.73933196,84819832,2,0.15,1.11,109.59,0.0672377198934555,0.025763865560293198,0.016913117840886116,0.019233519211411476,-4.27982234954834,11.133500099182129,-1.3742812871932983,-0.04,0.02,0.02,265.4
1682339570.83932281,84919823,2,0.11,1.1400000000000001,109.58,0.06385596096515656,0.015070299617946148,0.025064192712306976,0.03332621231675148,-4.276554584503174,11.138626098632812,-1.3722518682479858,-0.04,0.02,0.02,265.4
1682339570.93932176,85019822,2,0.07,1.12,109.53,0.07392151653766632,0.0032550992909818888,-0.0013360350858420134,0.013976695947349072,-4.272742748260498,11.142539024353027,-1.3703737258911133,-0.04,0.02,0.02,265.4
1682339571.03936291,85119863,2,0.05,1.09,109.49000000000001,0.0802186131477356,-0.0031075167935341597,0.004196023568511009,0.013656716793775558,-4.268087863922119,11.14605712890625,-1.3696528673171997,-0.04,0.02,0.02,265.4
1682339571.13932586,85219826,2,0.06,1.05,109.44,0.078278087079525,-0.013222507201135159,0.0010290726786479354,0.00014410757285077125,-4.262773513793945,11.148844718933105,-1.3693253993988037,-0.04,0.02,0.02,265.4
1682339571.23940182,85319902,2,0.1,1.05,109.38,0.0818752720952034,-0.02003447338938713,-0.0045754555612802505,-0.004088797606527805,-4.257056713104248,11.151727676391602,-1.3684782981872559,-0.04,0.02,0.02,265.4
1682339571.33941579,85419916,2,0.17,1.08,109.32000000000001,0.09290355443954468,-0.02922958880662918,0.0024071652442216873,0.010038990527391434,-4.25048828125,11.15356731414795,-1.3672006130218506,-0.04,0.02,0.02,265.4
1682339571.43941283,85519913,2,0.3,1.18,109.29,0.08522974699735641,-0.03914136812090874,0.009610549546778202,0.013533715158700943,-4.24332857131958,11.154329299926758,-1.3662382364273071,-0.04,0.03,0.02,265.4
1682339571.53936291,85619863,2,0.4,1.21,109.24000000000001,0.08626710623502731,-0.04652818664908409,0.015524801798164845,0.010559901595115662,-4.235877513885498,11.154691696166992,-1.3655792474746704,-0.04,0.03,0.02,265.4
1682339571.63932085,85719821,2,0.54,1.22,109.22,0.08466468751430511,-0.06005886197090149,0.02532878890633583,0.020712174475193024,-4.229071617126465,11.154318809509277,-1.3644293546676636,-0.04,0.03,0.02,265.4
1682339571.73932481,85819825,2,0.5700000000000001,1.1,109.2,0.07787875086069107,-0.07247428596019745,0.03182174265384674,0.029003046452999115,-4.222747325897217,11.152969360351562,-1.3630329370498657,-0.04,0.03,0.02,265.4
1682339571.83931398,85919814,2,0.6,0.9400000000000001,109.18,0.07099051028490067,-0.08386106789112091,0.024600811302661896,0.020383011549711227,-4.216842174530029,11.150705337524414,-1.361528754234314,-0.04,0.03,0.02,265.4
1682339571.93934083,86019841,2,0.58,0.76,109.18,0.06981287896633148,-0.09517716616392136,0.0210947934538126,0.02069639414548874,-4.211355686187744,11.14754581451416,-1.3594919443130493,-0.04,0.03,0.02,265.4
1682339572.03938699,86119887,2,0.52,0.65,109.19,0.05840317904949188,-0.09696932882070541,0.03894843906164169,0.04397109895944595,-4.206076622009277,11.14388656616211,-1.3564571142196655,-0.04,0.03,0.02,265.4
1682339572.13940978,86219910,2,0.56,0.56,109.19,0.05816201493144035,-0.09774550795555115,0.03691617771983147,0.04370703548192978,-4.201153755187988,11.139787673950195,-1.353306770324707,-0.04,0.03,0.02,265.4
1682339572.23941183,86319912,2,0.54,0.46,109.19,0.05339212715625763,-0.09972856193780899,0.046535469591617584,0.04943927004933357,-4.196259021759033,11.135763168334961,-1.3502305746078491,-0.04,0.03,0.02,265.4
1682339572.33941197,86419912,2,0.56,0.37,109.2,0.04323355853557587,-0.10058756172657013,0.04026845097541809,0.04001178964972496,-4.19162130355835,11.131068229675293,-1.3470096588134766,-0.04,0.03,0.02,265.4
1682339572.43935990,86519860,2,0.63,0.3,109.19,0.04631902277469635,-0.09401478618383408,0.036561768501996994,0.03759927302598953,-4.187043190002441,11.127811431884766,-1.3431555032730103,-0.04,0.03,0.02,265.4
1682339572.53931594,86619816,2,0.7000000000000001,0.24,109.18,0.03289664536714554,-0.09396793693304062,0.025096969678997993,0.027060475200414658,-4.1827192306518555,11.124590873718262,-1.339296817779541,-0.04,0.03,0.02,265.4
1682339572.63932681,86719827,2,0.8300000000000001,0.26,109.16,0.023611048236489296,-0.09068186581134796,0.033744920045137405,0.03842013701796532,-4.178844928741455,11.122904777526855,-1.3348063230514526,-0.04,0.03,0.02,265.4
1682339572.73933387,86819834,2,0.8,0.25,109.13,0.021400991827249527,-0.08231908828020096,0.04510795697569847,0.05668282136321068,-4.175406455993652,11.12130069732666,-1.329874038696289,-0.04,0.03,0.02,265.4
1682339572.83931398,86919814,2,0.86,0.31,109.11,0.004942918196320534,-0.0809159129858017,0.018024004995822906,0.03452996537089348,-4.171846866607666,11.121587753295898,-1.3244407176971436,-0.04,0.03,0.02,265.4
1682339572.93940783,87019908,2,0.8,0.33,109.10000000000001,-0.0028437452856451273,-0.07548408210277557,0.03173377364873886,0.04896686598658562,-4.168625354766846,11.12197208404541,-1.3189897537231445,-0.04,0.03,0.02,265.4
1682339573.03940582,87119906,2,0.81,0.36,109.08,0.0005237858276814222,-0.07362581789493561,0.03992044925689697,0.06425338238477707,-4.165937900543213,11.123432159423828,-1.3123263120651245,-0.04,0.03,0.02,265.4
1682339573.13942099,87219921,2,0.75,0.38,109.06,-0.015655992552638054,-0.07553678005933762,0.052259426563978195,0.08534611761569977,-4.163980960845947,11.12424087524414,-1.3054115772247314,-0.04,0.03,0.02,265.4
1682339573.23941183,87319912,2,0.6900000000000001,0.41000000000000003,109.03,-0.012592791579663754,-0.0680045336484909,0.052253782749176025,0.09041737765073776,-4.16294002532959,11.126253128051758,-1.2975523471832275,-0.04,0.03,0.02,265.4
1682339573.33935499,87419855,2,0.63,0.41000000000000003,109.02,-0.0288553386926651,-0.06720849126577377,0.034312985837459564,0.07181334495544434,-4.1627936363220215,11.12775707244873,-1.2903380393981934,-0.04,0.03,0.02,265.4
1682339573.43931484,87519815,2,0.58,0.45,109.0,-0.028086578473448753,-0.058764755725860596,0.04536055773496628,0.08590736985206604,-4.162607192993164,11.12986946105957,-1.2819544076919556,-0.04,0.03,0.02,265.4
1682339573.53931499,87619815,2,0.62,0.39,108.99000000000001,-0.04007217288017273,-0.0666528269648552,0.03296162188053131,0.08033573627471924,-4.1630778312683105,11.131157875061035,-1.2739949226379395,-0.04,0.03,0.02,265.4
1682339573.63931680,87719817,2,0.68,0.39,108.99000000000001,-0.03772766888141632,-0.060253750532865524,0.03899736329913139,0.08583502471446991,-4.161673069000244,11.13256549835205,-1.2647628784179688,-0.04,0.03,0.02,265.4
1682339573.73936987,87819870,2,0.73,0.32,109.0,-0.04614105820655823,-0.06636368483304977,0.02639666385948658,0.07714923471212387,-4.160283088684082,11.133109092712402,-1.256995439529419,-0.04,0.03,0.02,265.4
1682339573.83938694,87919887,2,0.78,0.28,109.01,-0.04898836463689804,-0.05847315117716789,0.03666120022535324,0.07456032931804657,-4.1585917472839355,11.134724617004395,-1.2501256465911865,-0.04,0.03,0.02,265.4
1682339573.93940187,88019902,2,0.74,0.24,109.02,-0.049779459834098816,-0.054071877151727676,0.036566879600286484,0.06623288244009018,-4.1575398445129395,11.136115074157715,-1.2444143295288086,-0.04,0.03,0.02,265.4
1682339574.03941488,88119915,2,0.81,0.32,109.03,-0.06012427806854248,-0.05138779431581497,0.028713146224617958,0.043750472366809845,-4.1568732261657715,11.137917518615723,-1.2399059534072876,-0.04,0.03,0.02,265.4
1682339574.13941383,88219914,2,0.72,0.34,109.06,-0.061312440782785416,-0.05027448758482933,0.01810251921415329,0.015887141227722168,-4.1571550369262695,11.139262199401855,-1.237381100654602,-0.04,0.03,0.02,265.4
1682339574.23935986,88319860,2,0.79,0.41000000000000003,109.09,-0.07443507760763168,-0.055916424840688705,0.03542320802807808,0.01556526031345129,-4.158668041229248,11.139867782592773,-1.235771656036377,-0.04,0.03,0.02,265.4
1682339574.33932281,88419823,2,0.68,0.38,109.11,-0.07585570216178894,-0.048694007098674774,0.007877987809479237,-0.015935340896248817,-4.159228324890137,11.141819953918457,-1.2346161603927612,-0.04,0.03,0.02,265.4
1682339574.43932390,88519824,2,0.7000000000000001,0.36,109.14,-0.08564629405736923,-0.05241134762763977,0.027563046663999557,0.007970436476171017,-4.159892559051514,11.144022941589355,-1.2334141731262207,-0.04,0.03,0.02,265.4
1682339574.53933287,88619833,2,0.34,0.22,109.21000000000001,-0.07208029925823212,-0.04235946014523506,0.009539769031107426,-0.0031384259928017855,-4.160497188568115,11.14661693572998,-1.2320419549942017,-0.04,0.03,0.02,265.4
1682339574.63936186,88719862,2,-0.48,0.1,109.43,-0.0672946572303772,-0.031723231077194214,0.017202628776431084,-0.0064278049394488335,-4.159235000610352,11.150259017944336,-1.2321358919143677,-0.04,0.03,0.02,265.4
1682339574.73933983,88819840,2,-0.27,-0.44,109.9,-0.08167075365781784,-0.011301483027637005,0.012871711514890194,-0.019436251372098923,-4.158258438110352,11.154827117919922,-1.2324893474578857,-0.04,0.03,0.02,265.4
1682339574.83940578,88919906,2,0.78,-2.15,110.46000000000001,-0.08583582192659378,0.023278284817934036,0.05215724930167198,0.04031885415315628,-4.157305717468262,11.162936210632324,-1.2284563779830933,-0.03,0.03,0.02,265.4
1682339574.93941092,89019911,2,1.33,-2.5300000000000002,110.95,-0.08547818660736084,0.039533741772174835,0.0900498554110527,0.09802793711423874,-4.156083583831787,11.173141479492188,-1.2208064794540405,-0.03,0.03,0.02,265.4
1682339575.03941894,89119919,2,1.46,-1.92,111.42,-0.11668813973665237,0.08100686967372894,0.11395421624183655,0.1347745805978775,-4.158352375030518,11.189311981201172,-1.2088334560394287,-0.03,0.03,0.02,265.4
1682339575.13935781,89219858,2,1.24,-1.31,111.86,-0.14412665367126465,0.10802210122346878,0.12755928933620453,0.15918806195259094,-4.164548397064209,11.210817337036133,-1.1941908597946167,-0.03,0.03,0.02,265.4
