timestamp,TimeUS,C,Q1,Q2,Q3,Q4
1682339547.63937497,61719875,2,0.6614792346954346,-0.010005025193095207,0.014015492983162403,0.7497657537460327
1682339547.73937488,61819875,2,0.6615920662879944,-0.00995444506406784,0.014004148542881012,0.7496670484542847
1682339547.83939791,61919898,2,0.6617483496665955,-0.009949814528226852,0.01391462329775095,0.7495308518409729
1682339547.93940687,62019907,2,0.6619036197662354,-0.009977107867598534,0.01390788797289133,0.7493935227394104
1682339548.03939176,62119892,2,0.6620603799819946,-0.010043238289654255,0.0138974878937006,0.7492543458938599
1682339548.13935995,62219860,2,0.6621933579444885,-0.010037335567176342,0.013935660943388939,0.749136209487915
1682339548.23930883,62319809,2,0.6622961759567261,-0.01007042359560728,0.013895795680582523,0.7490455508232117
1682339548.33931088,62419811,2,0.6624156832695007,-0.01007170882076025,0.013943338766694069,0.7489389777183533
1682339548.43931293,62519813,2,0.6625412106513977,-0.01009439304471016,0.013941817916929722,0.7488276958465576
1682339548.53937483,62619875,2,0.662631094455719,-0.010130932554602623,0.013899356126785278,0.7487484216690063
1682339548.63938498,62719885,2,0.6627750992774963,-0.010087895207107067,0.013865292072296143,0.7486221790313721
1682339548.73940992,62819910,2,0.6628873944282532,-0.010079589672386646,0.013857482932507992,0.7485229969024658
1682339548.83940697,62919907,2,0.6630279421806335,-0.010095711797475815,0.013882945291697979,0.7483978271484375
1682339548.93938899,63019889,2,0.6632159948348999,-0.010066119953989983,0.013894585892558098,0.7482313513755798
1682339549.03935289,63119853,2,0.6633679866790771,-0.01003407221287489,0.013855187222361565,0.7480977177619934
1682339549.13931298,63219813,2,0.6635415554046631,-0.010020884685218334,0.01381917204707861,0.7479446530342102
1682339549.23930788,63319808,2,0.663644015789032,-0.010011408478021622,0.013850417919456959,0.7478533387184143
1682339549.33931589,63419816,2,0.6637798547744751,-0.009974448941648006,0.013838610611855984,0.747733473777771
1682339549.43937492,63519875,2,0.6638978123664856,-0.00993017666041851,0.013798489235341549,0.7476300597190857
1682339549.53939676,63619897,2,0.6639967560768127,-0.009937447495758533,0.013735349290072918,0.747543215751648
1682339549.63939381,63719894,2,0.6640393137931824,-0.009911932051181793,0.013768928125500679,0.7475051879882812
1682339549.73941588,63819916,2,0.6640968322753906,-0.00994772557169199,0.0137185612693429,0.7474544644355774
1682339549.83940077,63919901,2,0.6641609072685242,-0.009958549402654171,0.013727611862123013,0.747397243976593
1682339549.93934178,64019842,2,0.6641709804534912,-0.0099369240924716,0.013744564726948738,0.7473883032798767
1682339550.03931093,64119811,2,0.6641556024551392,-0.009902620688080788,0.013703756034374237,0.7474031448364258
1682339550.13931680,64219817,2,0.6641535758972168,-0.009918934665620327,0.013647753745317459,0.7474057674407959
1682339550.23931384,64319814,2,0.6641453504562378,-0.009897414594888687,0.013638639822602272,0.7474135160446167
1682339550.33936477,64419865,2,0.6641528606414795,-0.009906359016895294,0.013670481741428375,0.7474061250686646
1682339550.43941188,64519912,2,0.6642509698867798,-0.009901285171508789,0.013650882989168167,0.7473194003105164
1682339550.53939795,64619898,2,0.66428542137146,-0.00985658634454012,0.013645770959556103,0.7472894191741943
1682339550.63941479,64719915,2,0.6644456386566162,-0.009875406511127949,0.013550850562751293,0.7471484541893005
1682339550.73940396,64819904,2,0.6645689010620117,-0.009848667308688164,0.013507194817066193,0.7470399737358093
1682339550.83935094,64919851,2,0.664688766002655,-0.009852681308984756,0.013508266769349575,0.7469332814216614
1682339550.93931699,65019817,2,0.664677083492279,-0.009791862219572067,0.01331076305359602,0.7469480037689209
1682339551.03932095,65119821,2,0.6650002598762512,-0.009538122452795506,0.013168892823159695,0.7466661334037781
1682339551.13931489,65219815,2,0.6650536060333252,-0.009414167143404484,0.012759394012391567,0.7466272711753845
1682339551.23937297,65319873,2,0.665022611618042,-0.009417085908353329,0.012826632708311081,0.74665367603302
1682339551.33937693,65419877,2,0.6649731397628784,-0.009284491650760174,0.012884662486612797,0.7466983795166016
1682339551.43940091,65519901,2,0.6648562550544739,-0.009198754094541073,0.012793237343430519,0.7468051314353943
1682339551.53941584,65619916,2,0.6647235751152039,-0.009283279068768024,0.012942152097821236,0.7469196319580078
1682339551.63940477,65719905,2,0.6646687388420105,-0.009304067119956017,0.012658192776143551,0.7469729781150818
1682339551.73935485,65819855,2,0.6645848155021667,-0.009229189716279507,0.01287158764898777,0.7470449805259705
1682339551.83932185,65919822,2,0.6644073724746704,-0.009289193898439407,0.012741340324282646,0.7472042441368103
1682339551.93932486,66019825,2,0.6643455624580383,-0.00925360806286335,0.012750313617289066,0.7472594976425171
1682339552.03931785,66119818,2,0.6642356514930725,-0.009278814308345318,0.01282254047691822,0.7473556995391846
1682339552.13937593,66219876,2,0.6640529632568359,-0.009270093403756618,0.012853546999394894,0.7475175857543945
1682339552.23932385,66319824,2,0.6638867259025574,-0.00938368495553732,0.012859199196100235,0.7476637363433838
1682339552.33940482,66419905,2,0.6637552976608276,-0.009488041512668133,0.012751893140375614,0.7477809190750122
1682339552.43941283,66519913,2,0.6638290882110596,-0.009286302141845226,0.012797144241631031,0.7477171421051025
1682339552.53939390,66619894,2,0.6635636687278748,-0.009393244981765747,0.0127889234572649,0.7479515075683594
1682339552.63934994,66719850,2,0.6635385751724243,-0.008266296237707138,0.012550015933811665,0.747991144657135
1682339552.73932290,66819823,2,0.6639305949211121,-0.004795501474291086,0.00951047521084547,0.747718334197998
1682339552.83932090,66919821,2,0.6640130877494812,0.0017779251793399453,0.0033841351978480816,0.747711181640625
1682339552.93932676,67019827,2,0.6638534069061279,0.003345157252624631,0.002345510758459568,0.747851550579071
1682339553.03938389,67119884,2,0.6633240580558777,0.001548410626128316,0.0026700524613261223,0.7483259439468384
1682339553.13940978,67219910,2,0.6628654599189758,-0.000238619715673849,0.002281855558976531,0.7487350106239319
1682339553.23939776,67319898,2,0.6623913645744324,-0.005322923418134451,0.001591343549080193,0.7491374015808105
1682339553.33941388,67419914,2,0.6622128486633301,-0.009433701634407043,0.0017024028347805142,0.7492544651031494
1682339553.43939781,67519898,2,0.662330150604248,-0.008915457874536514,0.004524811636656523,0.7491453886032104
1682339553.53935194,67619852,2,0.6626908183097839,-0.006048919633030891,0.004867431707680225,0.7488528490066528
1682339553.63931584,67719816,2,0.6632375121116638,-0.003323375480249524,0.0031022573821246624,0.7483951449394226
1682339553.73931289,67819813,2,0.6641165614128113,0.0038328839000314474,-0.0005928848986513913,0.7476189732551575
1682339553.83932185,67919822,2,0.6651677489280701,0.009709252044558525,-0.004762164317071438,0.7466156482696533
1682339553.93935299,68019853,2,0.6663182377815247,0.011365493759512901,-0.007204612251371145,0.7455460429191589
1682339554.03939080,68119891,2,0.6674463748931885,0.014671565964818,-0.010834651067852974,0.7444344758987427
1682339554.13940692,68219907,2,0.6686803102493286,0.016977638006210327,-0.011770307086408138,0.7432629466056824
1682339554.23940992,68319910,2,0.6699073910713196,0.015665432438254356,-0.010042304173111916,0.7422114610671997
1682339554.33939576,68419896,2,0.6708800196647644,0.01334637776017189,-0.00851585902273655,0.7413969039916992
1682339554.43935895,68519859,2,0.6712528467178345,0.012187997810542583,-0.005973137449473143,0.7411041855812073
1682339554.53932095,68619821,2,0.671440601348877,0.007987444289028645,-0.004562135320156813,0.741001307964325
1682339554.63932681,68719827,2,0.6716562509536743,0.003221855964511633,-0.0024940550792962313,0.7408517599105835
1682339554.73933196,68819832,2,0.6716938018798828,0.0009591302368789911,-0.00033643582719378173,0.7408282160758972
1682339554.83936381,68919864,2,0.6715360879898071,-0.00024545349879190326,0.00038818526081740856,0.7409716844558716
1682339554.93940592,69019906,2,0.6711146235466003,0.003758837468922138,0.0006177288014441729,0.7413437962532043
1682339555.03940678,69119907,2,0.6706593632698059,0.012629118748009205,0.00012985459761694074,0.7416579723358154
1682339555.13941598,69219916,2,0.6700659990310669,0.016325734555721283,0.0017108697211369872,0.7421199679374695
1682339555.23939490,69319895,2,0.6695449352264404,0.013202198781073093,0.005879366770386696,0.7426309585571289
1682339555.33934879,69419849,2,0.6689979434013367,0.010660558007657528,0.008925778791308403,0.7431342005729675
1682339555.43931580,69519816,2,0.6684408783912659,0.007478321902453899,0.014073643833398819,0.7435944676399231
1682339555.53933287,69619833,2,0.6678202748298645,0.0008102518040686846,0.019907282665371895,0.7440558671951294
1682339555.63931584,69719816,2,0.6672158241271973,-0.004411323927342892,0.023804916068911552,0.7444708943367004
1682339555.73934197,69819842,2,0.6668001413345337,-0.005446407478302717,0.0234963558614254,0.7448461651802063
1682339555.83933091,69919831,2,0.6664472222328186,-0.004669697489589453,0.019117120653390884,0.7452924847602844
1682339555.93940878,70019909,2,0.666318953037262,-0.0008084545843303204,0.011103164404630661,0.7455837726593018
1682339556.03941298,70119913,2,0.6662681698799133,0.0028500116895884275,-0.0007685954915359616,0.7457063794136047
1682339556.13939476,70219895,2,0.666359543800354,0.003484603250399232,-0.010054695419967175,0.7455546259880066
1682339556.23935580,70319856,2,0.6665382385253906,0.0009965093340724707,-0.014006348326802254,0.7453386187553406
1682339556.33931589,70419816,2,0.6665832996368408,0.0016553543973714113,-0.014554103836417198,0.7452866435050964
1682339556.43931794,70519818,2,0.6667379140853882,0.0043050311505794525,-0.01271649170666933,0.745171308517456
1682339556.53931880,70619819,2,0.6668916344642639,0.005945934914052486,-0.00922261830419302,0.7450739145278931
1682339556.63934278,70719843,2,0.6670743227005005,0.009449353441596031,-0.005740518681704998,0.7449091076850891
1682339556.73939896,70819899,2,0.6668124198913574,0.013317711651325226,-0.00119435612577945,0.7451056241989136
1682339556.83940196,70919902,2,0.6659707427024841,0.015192004851996899,0.0034255445934832096,0.7458153367042542
1682339556.93941498,71019915,2,0.665503203868866,0.015793804079294205,0.00517110014334321,0.746209979057312
1682339557.03940797,71119908,2,0.6650091409683228,0.015797296538949013,0.006029229611158371,0.7466437816619873
1682339557.13934994,71219850,2,0.6644056439399719,0.014864305034279823,0.007011964917182922,0.7471914291381836
1682339557.23931384,71319814,2,0.6638860702514648,0.014261780306696892,0.005979436449706554,0.7476738095283508
1682339557.33932996,71419830,2,0.6632619500160217,0.012955157086253166,0.007253287360072136,0.7482399940490723
1682339557.43931484,71519815,2,0.6624944806098938,0.011173931881785393,0.00999294314533472,0.748916745185852
1682339557.53933883,71619839,2,0.6619443297386169,0.012292318977415562,0.009102140553295612,0.7493969202041626
1682339557.63938594,71719886,2,0.6613667011260986,0.01411482971161604,0.007666132878512144,0.7498906850814819
1682339557.73939991,71819900,2,0.6608753800392151,0.013425640761852264,0.008357088081538677,0.7503290176391602
1682339557.83941889,71919919,2,0.6604411005973816,0.016008425503969193,0.005400958005338907,0.7506877779960632
1682339557.93939781,72019898,2,0.6603161096572876,0.019531650468707085,0.0017424534307792783,0.7507317066192627
1682339558.03934693,72119847,2,0.6600419878959656,0.01736932247877121,0.0028682865668088198,0.7510223984718323
1682339558.13931680,72219817,2,0.6597563624382019,0.015337380580604076,0.002969491994008422,0.7513172030448914
1682339558.23932076,72319821,2,0.659444272518158,0.017064185813069344,0.0002423230034764856,0.7515596747398376
1682339558.33931589,72419816,2,0.6588526964187622,0.01557316817343235,-0.0019055550219491124,0.7521083354949951
1682339558.43938994,72519890,2,0.6581676602363586,0.011422042734920979,-0.005769975483417511,0.7527626156806946
1682339558.53938794,72619888,2,0.6575034260749817,0.009908348321914673,-0.013874792493879795,0.7532585859298706
1682339558.63940477,72719905,2,0.6568067073822021,0.009224754758179188,-0.022681662812829018,0.7536613345146179
1682339558.73941088,72819911,2,0.656175971031189,0.0024619458708912134,-0.026568248867988586,0.7541360259056091
1682339558.83940077,72919901,2,0.655520498752594,-0.005559546407312155,-0.02741093374788761,0.7546592950820923
1682339558.93935990,73019860,2,0.654563844203949,-0.007313300855457783,-0.02379637025296688,0.7555967569351196
1682339559.03931999,73119820,2,0.6535462737083435,-0.004336679354310036,-0.016707682982087135,0.756689727306366
1682339559.13931489,73219815,2,0.6524267196655273,0.002608328126370907,-0.00846839789301157,0.7578000426292419
1682339559.23931384,73319814,2,0.6511162519454956,0.011324805207550526,0.0013106385013088584,0.7588924169540405
1682339559.33931994,73419820,2,0.6494770050048828,0.01483736839145422,0.00937657244503498,0.7601786851882935
1682339559.43940687,73519907,2,0.6483237147331238,0.014874606393277645,0.010676941834390163,0.7611445784568787
1682339559.53940797,73619908,2,0.6470690369606018,0.01484041940420866,0.010224313475191593,0.7622184157371521
1682339559.63941193,73719912,2,0.6456644535064697,0.015148797072470188,0.009680175222456455,0.7634096145629883
1682339559.73939490,73819895,2,0.6445505023002625,0.015743868425488472,0.007569229695945978,0.764362096786499
1682339559.83935881,73919859,2,0.643341064453125,0.01397679466754198,0.006050540134310722,0.7654281854629517
1682339559.93932295,74019823,2,0.5447738766670227,0.010013607330620289,0.005952983163297176,0.838502049446106
1682339560.03931689,74119817,2,0.5452213287353516,0.007569199427962303,0.0015573345590382814,0.8382564783096313
1682339560.13933277,74219833,2,0.5471253991127014,0.004045430570840836,-0.0009105343488045037,0.8370404243469238
1682339560.23934889,74319849,2,0.5504375100135803,0.00037417595740407705,-0.004315164405852556,0.834865152835846
1682339560.33939385,74419894,2,0.5537939071655273,0.0001313857501372695,-0.005903987679630518,0.832632839679718
1682339560.43941092,74519911,2,0.5567288994789124,0.001881426083855331,-0.00408611074090004,0.8306820392608643
1682339560.53941298,74619913,2,0.5591596961021423,0.0010980035876855254,-0.00013754428073298186,0.8290592432022095
1682339560.63939595,74719896,2,0.5606040358543396,-0.00033568282378837466,0.007799759041517973,0.8280472159385681
1682339560.73935294,74819853,2,0.561244785785675,-0.0004019566986244172,0.01925135776400566,0.8274258375167847
1682339560.83931279,74919813,2,0.5623896718025208,-0.0031098281033337116,0.028195353224873543,0.8263856172561646
1682339560.93931580,75019816,2,0.5640590190887451,-0.009045325219631195,0.03245430067181587,0.8250468373298645
1682339561.03931999,75119820,2,0.5657767057418823,-0.018602663651108742,0.031123172491788864,0.8237608671188354
1682339561.13934398,75219844,2,0.5671213269233704,-0.028720157220959663,0.029432320967316628,0.8226069808006287
1682339561.23939085,75319891,2,0.5681993961334229,-0.03899789974093437,0.026422956958413124,0.8215414881706238
1682339561.33940887,75419909,2,0.5696083307266235,-0.04932429641485214,0.023318378254771233,0.8201034665107727
1682339561.43940997,75519910,2,0.5711295008659363,-0.058941327035427094,0.021357016637921333,0.8184624910354614
1682339561.53939891,75619899,2,0.5727738738059998,-0.06767471879720688,0.01947343349456787,0.8166829347610474
1682339561.63935399,75719854,2,0.5745844841003418,-0.07079271972179413,0.01898249424993992,0.815156877040863
1682339561.73932076,75819821,2,0.5768548846244812,-0.06476964056491852,0.019892998039722443,0.814031720161438
1682339561.83931279,75919813,2,0.579322338104248,-0.055364642292261124,0.021020984277129173,0.8129443526268005
1682339561.93931484,76019815,2,0.581641435623169,-0.04511696472764015,0.022357121109962463,0.8118853569030762
1682339562.03937793,76119878,2,0.5839495658874512,-0.032282646745443344,0.02147708833217621,0.8108634352684021
1682339562.13941193,76219912,2,0.5866053104400635,-0.018529793247580528,0.016712235286831856,0.8094884753227234
1682339562.23939681,76319897,2,0.5890073180198669,-0.004675736650824547,0.009827464818954468,0.8080543875694275
1682339562.33941698,76419917,2,0.5911939144134521,0.004381341859698296,0.002922637155279517,0.8065122365951538
1682339562.43940187,76519902,2,0.5927131175994873,0.008315405808389187,-0.0044324020855128765,0.8053585290908813
1682339562.53935385,76619854,2,0.5931766629219055,0.010042170062661171,-0.009728343226015568,0.8049508929252625
1682339562.63931584,76719816,2,0.592718780040741,0.010750189423561096,-0.013563522137701511,0.8052235245704651
1682339562.73931980,76819820,2,0.5916700959205627,0.010210457257926464,-0.01558958925306797,0.8059647679328918
1682339562.83932877,76919829,2,0.5900280475616455,0.009648570790886879,-0.015488876961171627,0.8071764707565308
1682339562.93937397,77019874,2,0.5879955887794495,0.011249951086938381,-0.015685025602579117,0.8086338043212891
1682339563.03937578,77119876,2,0.5859006643295288,0.011860263533890247,-0.014964977279305458,0.8101578950881958
1682339563.13940787,77219908,2,0.5838922262191772,0.011188281700015068,-0.013673595152795315,0.8116388916969299
1682339563.23941779,77319918,2,0.5819309949874878,0.012083160690963268,-0.013513363897800446,0.8130361437797546
1682339563.33939481,77419895,2,0.579872727394104,0.01476779580116272,-0.013828832656145096,0.8144558072090149
1682339563.43934679,77519847,2,0.5778391361236572,0.018515726551413536,-0.0156700499355793,0.8157901167869568
1682339563.53932381,77619824,2,0.5759004950523376,0.022393980994820595,-0.01779896952211857,0.8170191645622253
1682339563.63932991,77719830,2,0.5741239786148071,0.024080710485577583,-0.017942728474736214,0.8182174563407898
1682339563.73932290,77819823,2,0.5727390050888062,0.02694280445575714,-0.018455127254128456,0.819087028503418
1682339563.83933377,77919834,2,0.5714449286460876,0.02814446948468685,-0.017553230747580528,0.8199697732925415
1682339563.93938899,78019889,2,0.5704125761985779,0.026833422482013702,-0.015574726276099682,0.820772111415863
1682339564.03939986,78119900,2,0.5696120858192444,0.026642318814992905,-0.01450461708009243,0.8213536739349365
1682339564.13942194,78219922,2,0.5693934559822083,0.027538476511836052,-0.014016157016158104,0.8214842081069946
1682339564.23940182,78319902,2,0.5698655247688293,0.027751635760068893,-0.014305909164249897,0.8211446404457092
1682339564.33935380,78419854,2,0.5710077285766602,0.028260303661227226,-0.014729534275829792,0.8203258514404297
1682339564.43932390,78519824,2,0.5721895098686218,0.033992987126111984,-0.017967410385608673,0.8192196488380432
1682339564.53931499,78619815,2,0.5734545588493347,0.03664793446660042,-0.018954746425151825,0.8181977272033691
1682339564.63931584,78719816,2,0.5748745799064636,0.031524818390607834,-0.01485548447817564,0.8174991011619568
1682339564.73934293,78819843,2,0.5762065052986145,0.028325285762548447,-0.01296655461192131,0.8167102336883545
1682339564.83937478,78919875,2,0.5772481560707092,0.027916060760617256,-0.01230827160179615,0.8159986138343811
1682339564.93940997,79019910,2,0.5778049230575562,0.025965625420212746,-0.010924965143203735,0.8156886100769043
1682339565.03942585,79119926,2,0.5783520936965942,0.025736989453434944,-0.011186571791768074,0.8153044581413269
1682339565.13940287,79219903,2,0.5789237022399902,0.02564374916255474,-0.011473076418042183,0.8148975968360901
1682339565.23936296,79319863,2,0.5797664523124695,0.022575803101062775,-0.010424869135022163,0.8144031763076782
1682339565.33933377,79419834,2,0.5806774497032166,0.0186633113771677,-0.009086371399462223,0.813869059085846
1682339565.43932080,79519821,2,0.5817508101463318,0.01371997781097889,-0.006629140116274357,0.8132243156433105
1682339565.53931999,79619820,2,0.5828693509101868,0.010252089239656925,-0.004660777281969786,0.8124878406524658
1682339565.63933587,79719836,2,0.5842916965484619,0.006041652988642454,-0.0013872170820832253,0.8115200400352478
1682339565.73938680,79819887,2,0.585739254951477,0.00026400183560326695,0.002993251895532012,0.8104940056800842
1682339565.83939981,79919900,2,0.5869744420051575,-0.005592808127403259,0.006874365266412497,0.8095569610595703
1682339565.93941379,80019914,2,0.5878982543945312,-0.010524110868573189,0.011437006294727325,0.8087855577468872
1682339566.03939795,80119898,2,0.5883392095565796,-0.015651902183890343,0.016784992069005966,0.8082885146141052
1682339566.13935280,80219853,2,0.5883414149284363,-0.020729929208755493,0.021658048033714294,0.808056652545929
1682339566.23931289,80319813,2,0.5879023671150208,-0.026152757927775383,0.026632636785507202,0.8080702424049377
1682339566.33931684,80419817,2,0.5870286822319031,-0.032532740384340286,0.02998584695160389,0.8083562254905701
1682339566.43931794,80519818,2,0.5859355330467224,-0.04020122066140175,0.02989744208753109,0.8088074922561646
1682339566.53933883,80619839,2,0.5847293734550476,-0.05026645585894585,0.028069118037819862,0.80918288230896
1682339566.63938999,80719890,2,0.5834004878997803,-0.061281800270080566,0.023901186883449554,0.8095166087150574
1682339566.73941398,80819914,2,0.5821300745010376,-0.07134994864463806,0.020762190222740173,0.8096929788589478
1682339566.83941293,80919913,2,0.5812634825706482,-0.07796180993318558,0.021005801856517792,0.8096995949745178
1682339566.93940091,81019901,2,0.5812261700630188,-0.07583112269639969,0.020679166540503502,0.8099371194839478
1682339567.03935790,81119858,2,0.5815287828445435,-0.06745607405900955,0.01774674467742443,0.8105300664901733
1682339567.13931179,81219812,2,0.5822649598121643,-0.05315982550382614,0.01583712548017502,0.8111046552658081
1682339567.23932385,81319824,2,0.5832158327102661,-0.035713423043489456,0.013562953099608421,0.8114184737205505
1682339567.33931899,81419819,2,0.5841595530509949,-0.02004363015294075,0.01170339249074459,0.811306893825531
1682339567.43933392,81519834,2,0.5851472020149231,-0.006631618365645409,0.010223946534097195,0.8108354806900024
1682339567.53938580,81619886,2,0.5862541794776917,0.0031759522389620543,0.004888287279754877,0.8101062178611755
1682339567.63940477,81719905,2,0.5872308611869812,0.0030365800485014915,0.003617564681917429,0.8094056844711304
1682339567.73942780,81819928,2,0.5881666541099548,-0.005327514372766018,0.006772390566766262,0.8086938261985779
1682339567.83942080,81919921,2,0.5887160301208496,-0.012936941348016262,0.008266696706414223,0.808194100856781
1682339567.93935394,82019854,2,0.589105486869812,-0.020913541316986084,0.009283434599637985,0.807732105255127
1682339568.03931689,82119817,2,0.5892322063446045,-0.027439244091510773,0.011611200869083405,0.807414174079895
1682339568.13933778,82219838,2,0.5893867015838623,-0.02673964947462082,0.01154251303523779,0.8073258399963379
1682339568.23932076,82319821,2,0.5894604325294495,-0.02433038502931595,0.008970632217824459,0.8073809146881104
1682339568.33933783,82419838,2,0.5891991853713989,-0.02350790612399578,0.0034954985603690147,0.8076382279396057
1682339568.43939877,82519899,2,0.5889381170272827,-0.021121304482221603,-0.001975688384845853,0.8078996539115906
1682339568.53938198,82619882,2,0.5883874893188477,-0.017627554014325142,-0.0035958022344857454,0.8083789348602295
1682339568.63941598,82719916,2,0.5879175662994385,-0.011354616843163967,-0.0013714315136894584,0.8088399767875671
1682339568.73942280,82819923,2,0.5871376395225525,-0.0034475824795663357,0.0029949829913675785,0.8094742298126221
1682339568.83934283,82919843,2,0.5863418579101562,0.0038669216446578503,0.007404036354273558,0.8100206255912781
1682339568.93931699,83019817,2,0.5854542851448059,0.011561655439436436,0.010590271092951298,0.810553789138794
1682339569.03933477,83119835,2,0.5846552848815918,0.020908121019601822,0.012225791811943054,0.8109201788902283
1682339569.13933396,83219834,2,0.5838715434074402,0.023938415572047234,0.014437474310398102,0.8113645911216736
1682339569.23933887,83319839,2,0.5831029415130615,0.0184030719101429,0.013912517577409744,0.8120706677436829
1682339569.33940291,83419903,2,0.582284688949585,0.010899779386818409,0.012320563197135925,0.8128185272216797
1682339569.43940687,83519907,2,0.5813460946083069,0.0011720976326614618,0.012128882110118866,0.8135651350021362
1682339569.53945398,83619954,2,0.5804759860038757,-0.009133286774158478,0.0111821498721838,0.8141493201255798
1682339569.63941383,83719914,2,0.5795924663543701,-0.01670963689684868,0.010178344324231148,0.8146715760231018
1682339569.73936081,83819861,2,0.5787541270256042,-0.01910020411014557,0.00782065186649561,0.8152408599853516
1682339569.83931279,83919813,2,0.5782126784324646,-0.017917104065418243,0.004720916971564293,0.815675675868988
1682339569.93931389,84019814,2,0.5776345133781433,-0.015282342210412025,0.002842165529727936,0.81614750623703
1682339570.03931880,84119819,2,0.5771045684814453,-0.011690454557538033,0.0017784987576305866,0.8165846467018127
1682339570.13934278,84219843,2,0.5767590403556824,-0.0086373845115304,0.0019677355885505676,0.8168662786483765
1682339570.23939395,84319894,2,0.5765358209609985,-0.006451939698308706,0.002488149795681238,0.8170426487922668
1682339570.33940387,84419904,2,0.5763581395149231,-0.00527546089142561,0.0033476408571004868,0.8171733617782593
1682339570.43941092,84519911,2,0.5763118863105774,-0.0056830174289643764,0.004364863038063049,0.8171983957290649
1682339570.53940892,84619909,2,0.5762689113616943,-0.006409760098904371,0.005304993595927954,0.8172177672386169
1682339570.63936090,84719861,2,0.5763559937477112,-0.006987454369664192,0.006224998272955418,0.8171451687812805
1682339570.73933196,84819832,2,0.5764822363853455,-0.007189219351857901,0.006690176669508219,0.8170506358146667
1682339570.83932281,84919823,2,0.5765395164489746,-0.007582141552120447,0.006590557284653187,0.8170074820518494
1682339570.93932176,85019822,2,0.5768519043922424,-0.007657077629119158,0.006221693474799395,0.8167891502380371
1682339571.03936291,85119863,2,0.5771687030792236,-0.007550632581114769,0.005880144890397787,0.8165688514709473
1682339571.13932586,85219826,2,0.577536404132843,-0.0072045885026454926,0.005762845743447542,0.8163127899169922
1682339571.23940182,85319902,2,0.577947199344635,-0.007005117833614349,0.006087977439165115,0.8160213828086853
1682339571.33941579,85419916,2,0.5783665180206299,-0.006823753006756306,0.006686399690806866,0.8157210946083069
1682339571.43941283,85519913,2,0.5785728096961975,-0.00689853448420763,0.008120540529489517,0.8155611157417297
1682339571.53936291,85619863,2,0.5789211392402649,-0.006606029812246561,0.008983013220131397,0.8153073191642761
1682339571.63932085,85719821,2,0.5791403651237488,-0.005927009042352438,0.010097071528434753,0.8151437640190125
1682339571.73932481,85819825,2,0.5792570114135742,-0.004936873447149992,0.009639429859817028,0.8150730133056641
1682339571.83931398,85919814,2,0.5793953537940979,-0.003683430142700672,0.009053862653672695,0.8149880170822144
1682339571.93934083,86019841,2,0.5794196128845215,-0.002513605635613203,0.00802970677614212,0.8149859309196472
1682339572.03938699,86119887,2,0.5792952179908752,-0.0020477459765970707,0.007058985531330109,0.81508469581604
1682339572.13940978,86219910,2,0.5793175101280212,-0.0011299470206722617,0.006866971962153912,0.8150722980499268
1682339572.23941183,86319912,2,0.5793154835700989,-0.0005323247169144452,0.006201149895787239,0.8150796294212341
1682339572.33941197,86419912,2,0.579281210899353,0.000211007209145464,0.0058778817765414715,0.8151065707206726
1682339572.43935990,86519860,2,0.5793485641479492,0.0010455362498760223,0.006069796625524759,0.8150566220283508
1682339572.53931594,86619816,2,0.5794074535369873,0.0018210087437182665,0.006201348267495632,0.8150123953819275
1682339572.63932681,86719827,2,0.5795423984527588,0.002385237719863653,0.007279469631612301,0.8149060606956482
1682339572.73933387,86819834,2,0.5797370672225952,0.0022562923841178417,0.007052307482808828,0.814769983291626
1682339572.83931398,86919814,2,0.5798808336257935,0.002138056792318821,0.007697366643697023,0.8146620988845825
1682339572.93940783,87019908,2,0.5799410343170166,0.0017275018617510796,0.007393616251647472,0.8146230578422546
1682339573.03940582,87119906,2,0.5800926089286804,0.0015779349487274885,0.007644557394087315,0.814513087272644
1682339573.13942099,87219921,2,0.5802090167999268,0.0011110547930002213,0.007279702927917242,0.814434289932251
1682339573.23941183,87319912,2,0.5804392099380493,0.0005666699726134539,0.007040694821625948,0.814272940158844
1682339573.33935499,87419855,2,0.5805193781852722,0.00026060466188937426,0.0066480981186032295,0.8142192363739014
1682339573.43931484,87519815,2,0.5807018280029297,-0.0002440647513139993,0.006455411668866873,0.8140906691551208
1682339573.53931499,87619815,2,0.5807693004608154,0.0003469355870038271,0.006468148436397314,0.8140424489974976
1682339573.63931680,87719817,2,0.5807468295097351,0.0007179989479482174,0.006869026459753513,0.8140549659729004
1682339573.73936987,87819870,2,0.5806871056556702,0.0014132417272776365,0.0068255215883255005,0.814096987247467
1682339573.83938694,87919887,2,0.58060622215271,0.0019361410522833467,0.007061587180942297,0.8141515851020813
1682339573.93940187,88019902,2,0.5805434584617615,0.002037761500105262,0.006568378768861294,0.814200222492218
1682339574.03941488,88119915,2,0.5804197788238525,0.0018531976966187358,0.007442817557603121,0.8142812848091125
1682339574.13941383,88219914,2,0.5802284479141235,0.001246242900379002,0.006876587867736816,0.8144237995147705
1682339574.23935986,88319860,2,0.580051839351654,0.0011084137950092554,0.007749831769615412,0.8145419359207153
1682339574.33932281,88419823,2,0.5799144506454468,0.0007087721023708582,0.00682830810546875,0.814648449420929
1682339574.43932390,88519824,2,0.579666256904602,0.0009435368701815605,0.006879178341478109,0.8148244023323059
1682339574.53933287,88619833,2,0.579201877117157,0.00018824492872226983,0.0036043967120349407,0.8151761889457703
1682339574.63936186,88719862,2,0.5776124000549316,-0.003182566026225686,-0.002980398014187813,0.8162994980812073
1682339574.73933983,88819840,2,0.5742397308349609,0.0018086627824231982,-0.004201978910714388,0.8186744451522827
1682339574.83940578,88919906,2,0.5700579285621643,0.019340699538588524,-0.005071025341749191,0.8213611841201782
1682339574.93941092,89019911,2,0.5663473606109619,0.02482769265770912,-0.0029021743685007095,0.82378751039505
1682339575.03941894,89119919,2,0.5630097389221191,0.02110293135046959,0.0010894907172769308,0.826180100440979
1682339575.13935781,89219858,2,0.5600017309188843,0.015627536922693253,0.002584128174930811,0.8283400535583496
1682339575.23931384,89319814,2,0.5570677518844604,0.006534646265208721,0.00548216700553894,0.8304232358932495
1682339575.33931780,89419818,2,0.5544125437736511,0.001495396951213479,0.005660065915435553,0.8322213888168335
1682339575.43931484,89519815,2,0.5521891713142395,-0.0011019068770110607,0.0064039407297968864,0.8336935639381409
1682339575.53937578,89619876,2,0.550276517868042,-0.003018969437107444,0.006968138739466667,0.834947943687439
1682339575.63937378,89719874,2,0.5487551689147949,-0.0021806741133332253,0.007114222273230553,0.8359500169754028
1682339575.73939991,89819900,2,0.547641932964325,-0.0027276703622192144,0.007229712326079607,0.8366771340370178
1682339575.83943081,89919931,2,0.546993613243103,-0.002582589164376259,0.006881149020045996,0.8371044993400574
1682339575.93939877,90019899,2,0.5466090440750122,-0.003306765342131257,0.007470543961971998,0.8373481035232544
1682339576.03936195,90119862,2,0.5466169714927673,-0.004254637751728296,0.008009735494852066,0.8373336791992188
1682339576.13932586,90219826,2,0.5469415187835693,-0.004864379297941923,0.007653660606592894,0.8371216654777527
1682339576.23931289,90319813,2,0.5474565029144287,-0.005792756099253893,0.008308558724820614,0.8367728590965271
1682339576.33931684,90419817,2,0.548113226890564,-0.005837526638060808,0.007145836018025875,0.8363532423973083
1682339576.43934584,90519846,2,0.5487731099128723,-0.006037612445652485,0.006936557590961456,0.8359207510948181
1682339576.53936696,90619867,2,0.5494979619979858,-0.005804358050227165,0.006106514949351549,0.8354525566101074
1682339576.63940096,90719901,2,0.5503034591674805,-0.005419918801635504,0.005788162350654602,0.8349270820617676
1682339576.73942685,90819927,2,0.5511338114738464,-0.005695827305316925,0.005072774365544319,0.8343819975852966
1682339576.83940291,90919903,2,0.5519798994064331,-0.005998553708195686,0.00435888534411788,0.8338244557380676
1682339576.93934989,91019850,2,0.5526738166809082,-0.005391365848481655,0.004297197796404362,0.8333691358566284
1682339577.03932691,91119827,2,0.5531843304634094,-0.005139021202921867,0.003526017302647233,0.8330355286598206
1682339577.13932085,91219821,2,0.5537433624267578,-0.005297427996993065,0.0029938628431409597,0.8326651453971863
1682339577.23931885,91319819,2,0.5541099905967712,-0.005075874738395214,0.0024864866863936186,0.8324242830276489
1682339577.33937788,91419878,2,0.5543440580368042,-0.005296281073242426,0.0018856811802834272,0.8322686553001404
1682339577.43940187,91519902,2,0.5545719265937805,-0.004972964525222778,0.0020724900532513857,0.8321183323860168
1682339577.53941298,91619913,2,0.5546568036079407,-0.005127625539898872,0.0022500595077872276,0.8320603966712952
1682339577.63942289,91719923,2,0.5545792579650879,-0.005344879347831011,0.0033043446019291878,0.8321071863174438
1682339577.73940778,91819908,2,0.554602324962616,-0.004798910580575466,0.0034881141036748886,0.8320943713188171
1682339577.83936787,91919868,2,0.5545073747634888,-0.004217184614390135,0.003351119812577963,0.8321613669395447
1682339577.93932080,92019821,2,0.55430006980896,-0.004579329397529364,0.0026795079465955496,0.8323000073432922
1682339578.03932381,92119824,2,0.5541737079620361,-0.004162904806435108,0.002066214568912983,0.8323880434036255
1682339578.13931799,92219818,2,0.553981363773346,-0.003561341669410467,0.0015381327830255032,0.8325200080871582
1682339578.23937893,92319879,2,0.5537207126617432,-0.003979745786637068,0.0010448750108480453,0.8326922655105591
1682339578.33934593,92419846,2,0.5536326169967651,-0.00280003366060555,0.0007768582436256111,0.8327559232711792
1682339578.43941379,92519914,2,0.5533788204193115,-0.0031946978997439146,0.0007098970818333328,0.8329232931137085
1682339578.53941083,92619911,2,0.5531665086746216,-0.003340617986395955,0.00024992015096358955,0.8330639600753784
1682339578.63938785,92719888,2,0.5530022382736206,-0.002600910374894738,0.000868628325406462,0.8331752419471741
1682339578.73936296,92819863,2,0.5528506636619568,-0.0033257033210247755,0.001191639108583331,0.8332728743553162
1682339578.83931589,92919816,2,0.5527895092964172,-0.0030461072456091642,0.0010553181637078524,0.8333146572113037
1682339578.93931580,93019816,2,0.5526973605155945,-0.003746278118342161,0.0014510871842503548,0.8333723545074463
1682339579.03933096,93119831,2,0.552653968334198,-0.003360991831868887,0.001379496417939663,0.8334028720855713
1682339579.13938284,93219883,2,0.5526089668273926,-0.0023361900821328163,0.0018978174775838852,0.8334352374076843
1682339579.23938298,93319883,2,0.5526900887489319,-0.0016114922473207116,0.0023169738706201315,0.8333820700645447
1682339579.33940482,93419905,2,0.552808403968811,-0.0009356803493574262,0.0024707785341888666,0.833304226398468
1682339579.43942189,93519922,2,0.552969753742218,-0.001978926360607147,0.0032769127283245325,0.8331925272941589
1682339579.53940177,93619902,2,0.553088903427124,-0.0023755638394504786,0.003396205138415098,0.8331119418144226
1682339579.63934684,93719847,2,0.5533022284507751,-0.003486855188384652,0.0037015036214143038,0.832965075969696
1682339579.73931789,93819818,2,0.5533379316329956,-0.0043387096375226974,0.003204663982614875,0.8329393863677979
1682339579.83931589,93919816,2,0.5532981753349304,-0.0034237687941640615,0.001882986631244421,0.8329741358757019
1682339579.93931389,94019814,2,0.5532011389732361,-0.003595595480874181,0.0019180427771061659,0.8330377340316772
1682339580.03938293,94119883,2,0.5530047416687012,-0.0032733597327023745,0.002005269518122077,0.8331692814826965
1682339580.13939595,94219896,2,0.5528904795646667,-0.0032259298022836447,0.0032965573482215405,0.8332411646842957
1682339580.23940492,94319905,2,0.5526805520057678,-0.003405367024242878,0.004719654098153114,0.8333728313446045
1682339580.33942580,94419926,2,0.5524827837944031,-0.0025501265190541744,0.005707802250981331,0.833500862121582
1682339580.43940592,94519906,2,0.5523860454559326,-0.00022845302009955049,0.00590473972260952,0.8335674405097961
1682339580.53935194,94619852,2,0.5521942377090454,0.00022946172975935042,0.00506193982437253,0.8337001204490662
1682339580.63931680,94719817,2,0.5520197153091431,0.00017280296015087515,0.0036551388911902905,0.833823025226593
1682339580.73932195,94819822,2,0.5518456697463989,-0.0006017175619490445,0.0028700397815555334,0.8339411020278931
1682339580.83931589,94919816,2,0.5516321659088135,-0.001207422697916627,0.002162993187084794,0.8340838551521301
1682339580.93938589,95019886,2,0.5515835881233215,-0.001353227999061346,0.003105433424934745,0.8341127634048462
1682339581.03939795,95119898,2,0.5514498353004456,-0.0022886102087795734,0.0035850778222084045,0.8341972231864929
1682339581.13940096,95219901,2,0.5514498353004456,-0.002188659505918622,0.0034097598399966955,0.8341981768608093
1682339581.23941278,95319913,2,0.5513471961021423,-0.00228242133744061,0.003946572542190552,0.8342634439468384
1682339581.33939695,95419897,2,0.5512730479240417,-0.002210240112617612,0.003290075808763504,0.8343154788017273
1682339581.43936181,95519862,2,0.5511136651039124,-0.0008052999619394541,0.0040248786099255085,0.8344200849533081
1682339581.53931880,95619819,2,0.5509854555130005,-0.0020346937235444784,0.00328082125633955,0.8345059156417847
1682339581.63931799,95719818,2,0.5507427453994751,-0.0016703534638509154,0.0018578103045001626,0.8346713185310364
1682339581.73931980,95819820,2,0.5504881143569946,-0.0024153036065399647,0.0008968447218649089,0.8348389863967896
1682339581.83934093,95919841,2,0.5503799319267273,-0.003086342941969633,0.0025297426618635654,0.8349047899246216
1682339581.93933296,96019833,2,0.550326943397522,-0.002718734322115779,0.0035341884940862656,0.834937334060669
1682339582.03940082,96119901,2,0.5504693984985352,-0.0028153827879577875,0.00493228156119585,0.8348360657691956
1682339582.13941789,96219918,2,0.5508254170417786,-0.0020964439027011395,0.004754082765430212,0.8346043229103088
1682339582.23939681,96319897,2,0.5513945817947388,-0.0014735927106812596,0.004695839714258909,0.8342300653457642
1682339582.33934498,96419845,2,0.5520672798156738,-0.0009445101022720337,0.004194850102066994,0.8337885141372681
1682339582.43932390,96519824,2,0.5526555180549622,0.000250229932134971,0.003755045821890235,0.8334012627601624
1682339582.53931594,96619816,2,0.5531457662582397,0.0005024332203902304,0.004176906775683165,0.8330738544464111
1682339582.63931799,96719818,2,0.5534258484840393,0.001156644313596189,0.003199185011908412,0.8328914642333984
1682339582.73935294,96819853,2,0.5539103746414185,0.0015696536283940077,0.002345889341086149,0.8325715065002441
1682339582.83937192,96919872,2,0.5540676712989807,-0.001933378167450428,0.0026168448384851217,0.8324652314186096
1682339582.93940282,97019903,2,0.5542132258415222,-0.0027808418963104486,0.0032901677768677473,0.8323636054992676
1682339583.03941298,97119913,2,0.5541925430297852,-0.0026676428969949484,0.00564489234238863,0.832365095615387
1682339583.13939881,97219899,2,0.5542561411857605,-0.0015493032988160849,0.0044645881280303,0.8323327302932739
1682339583.23935580,97319856,2,0.5543398261070251,-0.00020383435185067356,0.004934663884341717,0.8322758078575134
1682339583.33932185,97419822,2,0.5547130107879639,0.0019840309396386147,0.003983386792242527,0.8320298194885254
1682339583.43933177,97519832,2,0.5549138188362122,0.0022135910112410784,0.0014161978615447879,0.8319036960601807
1682339583.53932476,97619825,2,0.5552042126655579,-0.0007122090901248157,0.00182254402898252,0.8317117691040039
1682339583.63931799,97719818,2,0.5554355382919312,-0.001215716707520187,0.00046925980132073164,0.8315585851669312
1682339583.73939180,97819892,2,0.5556625723838806,-0.0010727276094257832,-0.0017610529903322458,0.8314053416252136
1682339583.83940792,97919908,2,0.5558528304100037,-0.003430781653150916,-9.13664698600769e-05,0.83127361536026
1682339583.93940687,98019907,2,0.5559452176094055,-0.0038785480428487062,0.0004366820794530213,0.8312097787857056
1682339584.03941798,98119918,2,0.5558207035064697,-0.0035617027897387743,0.002586537739261985,0.8312905430793762
1682339584.13936996,98219870,2,0.5556030869483948,-0.0034296312369406223,0.004176843911409378,0.8314300775527954
1682339584.23931885,98319819,2,0.5557426810264587,0.0004268016491550952,0.0026458757929503918,0.8313500285148621
1682339584.33932376,98419824,2,0.5556889772415161,0.0014497375814244151,0.0025520632043480873,0.83138507604599
1682339584.43932891,98519829,2,0.5555593967437744,0.0001367251097690314,0.0027398874517530203,0.8314723372459412
1682339584.53939080,98619891,2,0.5554378628730774,-0.006666477303951979,-0.0002444975543767214,0.831531286239624
1682339584.63940597,98719906,2,0.5553402304649353,-0.006480613257735968,-0.0018777321092784405,0.8315958976745605
1682339584.73940897,98819909,2,0.5551773905754089,-0.005110069178044796,-0.004741653800010681,0.8317027688026428
1682339584.83941388,98919914,2,0.5532925128936768,-0.007779034785926342,-0.004099738318473101,0.8329406380653381
1682339584.93939590,99019896,2,0.5522632598876953,-0.005747232586145401,-0.008383365347981453,0.8336078524589539
1682339585.03935194,99119852,2,0.5517413020133972,-0.004477791488170624,-0.005581063684076071,0.8339846134185791
1682339585.13931584,99219816,2,0.5505617260932922,-0.006077855825424194,-0.007813877426087856,0.8347357511520386
1682339585.23932481,99319825,2,0.5511321425437927,-0.004385532811284065,-0.006304954178631306,0.8343825936317444
1682339585.33931780,99419818,2,0.5514979958534241,-0.003991276025772095,-0.006798737682402134,0.8341389894485474
1682339585.43934178,99519842,2,0.5506742000579834,-0.0035537192597985268,-0.006985290441662073,0.8346834778785706
1682339585.53939986,99619900,2,0.5511719584465027,-0.0029368973337113857,-0.006660708226263523,0.834359884262085
1682339585.63939977,99719900,2,0.551338255405426,-0.002686393214389682,-0.006142693106085062,0.8342548608779907
1682339585.73942399,99819924,2,0.551043689250946,-0.003601816715672612,-0.007326384074985981,0.8344364762306213
1682339585.83939576,99919896,2,0.5512141585350037,-0.003519055200740695,-0.006417843047529459,0.8343316912651062
1682339585.93935180,100019852,2,0.5517556071281433,-0.004328566137701273,-0.006895837839692831,0.833966076374054
1682339586.03931999,100119820,2,0.5517400503158569,-0.004489906132221222,-0.006850748788565397,0.8339759111404419
1682339586.13932586,100219826,2,0.5519266128540039,-0.004335502162575722,-0.006784961558878422,0.8338537812232971
1682339586.23932076,100319821,2,0.5525488257408142,-0.004358829464763403,-0.006902539636939764,0.8334405422210693
1682339586.33933687,100419837,2,0.5525351166725159,-0.004114142619073391,-0.006838077213615179,0.8334514498710632
1682339586.43939590,100519896,2,0.5529903173446655,-0.004048099275678396,-0.006884556729346514,0.8331493735313416
1682339586.53939795,100619898,2,0.5534871816635132,-0.00400376645848155,-0.006771974731236696,0.8328205347061157
1682339586.63940597,100719906,2,0.5537521243095398,-0.004264777060598135,-0.0067940279841423035,0.8326429128646851
1682339586.73940992,100819910,2,0.5539114475250244,-0.004228821489959955,-0.006803649011999369,0.832537055015564
1682339586.83935380,100919854,2,0.5544084906578064,-0.0040826573967933655,-0.006657188292592764,0.8322080373764038
1682339586.93931580,101019816,2,0.5545554161071777,-0.004179989453405142,-0.0068433647975325584,0.8321081399917603
1682339587.03931379,101119814,2,0.55483078956604,-0.003956275526434183,-0.006542940158396959,0.8319280743598938
1682339587.13930583,101219806,2,0.5554187297821045,-0.004211483523249626,-0.007164228707551956,0.8315293192863464
1682339587.23932576,101319826,2,0.5553184151649475,-0.004167225211858749,-0.006930497009307146,0.8315985202789307
1682339587.33938980,101419890,2,0.5555108785629272,-0.004730900749564171,-0.007443073205649853,0.8314625024795532
1682339587.43939877,101519899,2,0.5561653971672058,-0.0044647641479969025,-0.007345448713749647,0.8310272097587585
1682339587.53940892,101619909,2,0.5562112331390381,-0.004744552541524172,-0.007554518524557352,0.8309930562973022
1682339587.63939285,101719893,2,0.5564642548561096,-0.004803751595318317,-0.007511540316045284,0.8308237195014954
1682339587.73934197,101819842,2,0.5570341348648071,-0.004875557031482458,-0.007596905343234539,0.8304405212402344
1682339587.83930492,101919805,2,0.5573158860206604,-0.004867583513259888,-0.007737141568213701,0.8302502036094666
1682339587.93930578,102019806,2,0.5574376583099365,-0.004917440470308065,-0.007498071528971195,0.8301703929901123
1682339588.03930998,102119810,2,0.5581679940223694,-0.0050007957033813,-0.007634543348103762,0.8296777606010437
1682339588.13937092,102219871,2,0.5584427118301392,-0.004928292706608772,-0.0075540803372859955,0.829494059085846
1682339588.23934793,102319848,2,0.5584144592285156,-0.005042642820626497,-0.007558461278676987,0.829512357711792
1682339588.33939099,102419891,2,0.5592626929283142,-0.004983154125511646,-0.007600415963679552,0.8289406895637512
1682339588.43940687,102519907,2,0.559581995010376,-0.005084174685180187,-0.007621814031153917,0.8287243843078613
1682339588.53937793,102619878,2,0.5595386624336243,-0.005163613706827164,-0.007526002824306488,0.8287540078163147
1682339588.63934588,102719846,2,0.5602326393127441,-0.005205526016652584,-0.0075443037785589695,0.8282845616340637
1682339588.73931885,102819819,2,0.5606664419174194,-0.005114598665386438,-0.007529674097895622,0.8279917240142822
1682339588.83931684,102919817,2,0.5605862736701965,-0.005218470934778452,-0.0075132534839212894,0.8280454874038696
1682339588.93930387,103019804,2,0.5612292885780334,-0.005162900313735008,-0.007466789800673723,0.8276106119155884
1682339589.03936291,103119863,2,0.5617138743400574,-0.00520235626026988,-0.0074515691958367825,0.827281653881073
1682339589.13935876,103219859,2,0.561677098274231,-0.005275802221149206,-0.0074542853981256485,0.8273061513900757
1682339589.23939085,103319891,2,0.5621231198310852,-0.005233656615018845,-0.007543209474533796,0.8270025849342346
1682339589.33940291,103419903,2,0.5626723170280457,-0.005217043682932854,-0.007556682452559471,0.8266290426254272
1682339589.43937993,103519880,2,0.5627490282058716,-0.005272735375910997,-0.007576229516416788,0.8265762329101562
1682339589.53935480,103619855,2,0.5631128549575806,-0.005284210201352835,-0.007693140767514706,0.8263273239135742
1682339589.63931084,103719811,2,0.5636721253395081,-0.005249588284641504,-0.007641505915671587,0.825946569442749
1682339589.73930788,103819808,2,0.5638031959533691,-0.005274833645671606,-0.007609395310282707,0.8258572816848755
1682339589.83930588,103919806,2,0.5641384720802307,-0.005275320261716843,-0.007578986696898937,0.8256285786628723
1682339589.93932581,104019826,2,0.5647152066230774,-0.0052863904275000095,-0.007683438714593649,0.8252331614494324
1682339590.03938484,104119885,2,0.564863383769989,-0.0052907830104231834,-0.007726684212684631,0.8251312971115112
1682339590.13939786,104219898,2,0.5651218891143799,-0.005289496388286352,-0.007739164400845766,0.8249541521072388
1682339590.23939896,104319899,2,0.5656914710998535,-0.00527877127751708,-0.007719037588685751,0.8245639801025391
1682339590.33939099,104419891,2,0.5659204125404358,-0.005331925116479397,-0.007761780172586441,0.824406087398529
1682339590.43934679,104519847,2,0.566124677658081,-0.005309699568897486,-0.007761131506413221,0.8242659568786621
1682339590.53930593,104619806,2,0.566669762134552,-0.005222506355494261,-0.007766926195472479,0.823891818523407
1682339590.63931084,104719811,2,0.5669465661048889,-0.005223266780376434,-0.007780164014548063,0.8237012624740601
1682339590.73931193,104819812,2,0.5671771168708801,-0.005197769496589899,-0.007730511482805014,0.823543131351471
1682339590.83932781,104919828,2,0.5677422285079956,-0.00517391599714756,-0.007792132906615734,0.8231532573699951
1682339590.93937278,105019873,2,0.5680855512619019,-0.005179411731660366,-0.007756105624139309,0.8229166865348816
1682339591.03939891,105119899,2,0.5682527422904968,-0.005221175495535135,-0.007753715384751558,0.8228009343147278
1682339591.13940287,105219903,2,0.568716287612915,-0.00518993241712451,-0.007787009701132774,0.8224804997444153
1682339591.23938990,105319890,2,0.5690920948982239,-0.005263636354357004,-0.007757115177810192,0.8222203850746155
1682339591.33934879,105419849,2,0.5692208409309387,-0.00526886060833931,-0.007705362979322672,0.8221316933631897
1682339591.43930483,105519805,2,0.5696655511856079,-0.005258795339614153,-0.007757347542792559,0.8218231797218323
1682339591.53930497,105619805,2,0.5700666308403015,-0.005290404427796602,-0.007848263718187809,0.8215439319610596
1682339591.63931179,105719812,2,0.5702304244041443,-0.005335772875696421,-0.007875894196331501,0.8214297294616699
1682339591.73937297,105819873,2,0.5707079172134399,-0.005281270015984774,-0.007942421361804008,0.821097731590271
1682339591.83938384,105919884,2,0.5711557865142822,-0.0052572935819625854,-0.007943075150251389,0.8207864165306091
1682339591.93939185,106019892,2,0.5713560581207275,-0.005317275878041983,-0.007912368513643742,0.8206469416618347
1682339592.03940082,106119901,2,0.5717406868934631,-0.005246486980468035,-0.007958483882248402,0.8203790187835693
1682339592.13939095,106219891,2,0.5721611976623535,-0.005339156370609999,-0.00793387833982706,0.8200854063034058
1682339592.23934197,106319842,2,0.5723444819450378,-0.005419235210865736,-0.007948917336761951,0.8199568390846252
1682339592.33931184,106419812,2,0.5726857781410217,-0.005374722182750702,-0.007983413524925709,0.8197184801101685
1682339592.43932295,106519823,2,0.5730549097061157,-0.005352939944714308,-0.007996534928679466,0.8194605112075806
1682339592.53930879,106619809,2,0.573231041431427,-0.0053984858095645905,-0.008006073534488678,0.8193368911743164
1682339592.63931298,106719813,2,0.5735374689102173,-0.0053940871730446815,-0.008023503236472607,0.8191222548484802
1682339592.73938894,106819889,2,0.5739781856536865,-0.005363225471228361,-0.007979086600244045,0.8188141584396362
1682339592.83939099,106919891,2,0.5741042494773865,-0.005397604778409004,-0.007971902377903461,0.8187255859375
1682339592.93939781,107019898,2,0.5743096470832825,-0.0054016136564314365,-0.008011402562260628,0.8185811638832092
1682339593.03940082,107119901,2,0.5746809840202332,-0.005452947691082954,-0.008076533675193787,0.8183194994926453
1682339593.13933492,107219835,2,0.5748401284217834,-0.005553298629820347,-0.008052610792219639,0.8182072639465332
1682339593.23930883,107319809,2,0.5750321745872498,-0.005528087727725506,-0.008050319738686085,0.818072497844696
1682339593.33932090,107419821,2,0.5753542184829712,-0.005588405299931765,-0.008060207590460777,0.8178455233573914
1682339593.43930984,107519810,2,0.5755079388618469,-0.005705648567527533,-0.008045411668717861,0.8177366852760315
1682339593.53934097,107619841,2,0.575641930103302,-0.005708152428269386,-0.008023591712117195,0.8176426291465759
1682339593.63938093,107719881,2,0.5760382413864136,-0.005683703348040581,-0.008009737357497215,0.8173637390136719
1682339593.73939180,107819892,2,0.5762399435043335,-0.005729492288082838,-0.007978607900440693,0.8172215223312378
1682339593.83940291,107919903,2,0.5764670968055725,-0.005709353368729353,-0.007999686524271965,0.8170612454414368
1682339593.93938780,108019888,2,0.5769280791282654,-0.00570140453055501,-0.00801570899784565,0.8167356848716736
1682339594.03934693,108119847,2,0.5772445797920227,-0.005755554419010878,-0.008063217625021935,0.8165112137794495
1682339594.13930988,108219810,2,0.5774458050727844,-0.005793323274701834,-0.008093534968793392,0.8163683414459229
1682339594.23931098,108319811,2,0.5779163241386414,-0.005808991380035877,-0.008128323592245579,0.8160348534584045
1682339594.33930779,108419808,2,0.5782090425491333,-0.005860170815140009,-0.008092810399830341,0.815827488899231
1682339594.43933678,108519837,2,0.5784294605255127,-0.0058684214018285275,-0.008097132667899132,0.8156710863113403
1682339594.53938079,108619881,2,0.5788083076477051,-0.005844810511916876,-0.008088257163763046,0.8154025673866272
1682339594.63938880,108719889,2,0.5791135430335999,-0.005844300612807274,-0.008045520633459091,0.8151862621307373
1682339594.73940492,108819905,2,0.5792766809463501,-0.005885845050215721,-0.008058416657149792,0.8150699138641357
1682339594.83938694,108919887,2,0.5796806216239929,-0.005818338133394718,-0.008066533133387566,0.8147830963134766
1682339594.93934083,109019841,2,0.5799989700317383,-0.0057998886331915855,-0.008097627200186253,0.8145563006401062
1682339595.03931189,109119812,2,0.5802084803581238,-0.005820378195494413,-0.008089988492429256,0.8144070506095886
1682339595.13931990,109219820,2,0.5805900692939758,-0.005784780718386173,-0.008089139126241207,0.8141353130340576
1682339595.23931789,109319818,2,0.5809305310249329,-0.005764943081885576,-0.008073112927377224,0.813892662525177
1682339595.33938289,109419883,2,0.5810902714729309,-0.005760544445365667,-0.008062460459768772,0.8137787580490112
1682339595.43937683,109519877,2,0.5814287066459656,-0.005770829040557146,-0.008031541481614113,0.8135372400283813
1682339595.53939176,109619892,2,0.5818263292312622,-0.005805126391351223,-0.007979342713952065,0.8132531642913818
1682339595.63939881,109719899,2,0.5820220708847046,-0.005823303945362568,-0.007965680211782455,0.8131131529808044
1682339595.73938680,109819887,2,0.5823447108268738,-0.005785317625850439,-0.007948361337184906,0.8128825426101685
1682339595.83933783,109919838,2,0.5827153921127319,-0.0058232140727341175,-0.007904990576207638,0.8126169443130493
1682339595.93930483,110019805,2,0.5828829407691956,-0.00591526972129941,-0.007908916100859642,0.8124961256980896
1682339596.03930688,110119807,2,0.5831457376480103,-0.00590081512928009,-0.007937018759548664,0.8123073577880859
1682339596.13930988,110219810,2,0.583450973033905,-0.005900298710912466,-0.007890862412750721,0.8120886087417603
1682339596.23933482,110319835,2,0.5836797952651978,-0.005932274274528027,-0.007898097857832909,0.8119238018989563
1682339596.33937788,110419878,2,0.5839336514472961,-0.00598211120814085,-0.007898474112153053,0.8117409348487854
1682339596.43939495,110519895,2,0.5842735767364502,-0.006000400986522436,-0.007862904109060764,0.8114964962005615
1682339596.53940296,110619903,2,0.5844719409942627,-0.00607213145121932,-0.0078021748922765255,0.8113536834716797
1682339596.63938594,110719886,2,0.584697425365448,-0.006059374660253525,-0.007771213538944721,0.8111915588378906
1682339596.73935080,110819851,2,0.5850419998168945,-0.006064171902835369,-0.007786928676068783,0.8109429478645325
1682339596.83930588,110919806,2,0.5852207541465759,-0.006125225219875574,-0.0077844602055847645,0.8108134865760803
1682339596.93930483,111019805,2,0.5853630900382996,-0.006138990167528391,-0.0077936891466379166,0.8107105493545532
1682339597.03932691,111119827,2,0.5856461524963379,-0.00614892179146409,-0.007788400165736675,0.8105061054229736
1682339597.13934493,111219845,2,0.5858618021011353,-0.00624232878908515,-0.007737427018582821,0.8103500008583069
1682339597.23939776,111319898,2,0.5860307812690735,-0.006237979047000408,-0.007699889596551657,0.8102282285690308
1682339597.33938885,111419889,2,0.5863111019134521,-0.006249481346458197,-0.007677886169403791,0.8100254535675049
1682339597.43940091,111519901,2,0.586520254611969,-0.006305437069386244,-0.007715330459177494,0.8098732829093933
1682339597.53939390,111619894,2,0.5866919755935669,-0.006339443847537041,-0.007631721906363964,0.80974942445755
1682339597.63934588,111719846,2,0.5870232582092285,-0.006315490696579218,-0.0076550086960196495,0.8095092177391052
1682339597.73930883,111819809,2,0.5872448086738586,-0.0063448380678892136,-0.007607137318700552,0.8093487620353699
1682339597.83930492,111919805,2,0.5873779654502869,-0.006338197272270918,-0.007619941141456366,0.8092520236968994
1682339597.93930578,112019806,2,0.5876649618148804,-0.006376686505973339,-0.007626811973750591,0.809043288230896
1682339598.03932786,112119828,2,0.5879385471343994,-0.0063948845490813255,-0.00763687351718545,0.808844268321991
1682339598.13938498,112219885,2,0.588098406791687,-0.006466530729085207,-0.007618657313287258,0.8087276816368103
1682339598.23939180,112319892,2,0.5884018540382385,-0.006474716123193502,-0.007553634233772755,0.8085074424743652
1682339598.33939791,112419898,2,0.5886662602424622,-0.006541998125612736,-0.007585760205984116,0.8083140850067139
1682339598.43939686,112519897,2,0.5887585878372192,-0.006609048694372177,-0.007548684719949961,0.8082466721534729
1682339598.53933477,112619835,2,0.5889704823493958,-0.006660564336925745,-0.0075713335536420345,0.8080916404724121
1682339598.63930798,112719808,2,0.5892310738563538,-0.006727393250912428,-0.007590982131659985,0.8079009056091309
1682339598.73931289,112819813,2,0.5894035696983337,-0.006769470404833555,-0.00757861090824008,0.8077748417854309
1682339598.83930492,112919805,2,0.5897078514099121,-0.006806687451899052,-0.007618433330208063,0.8075520396232605
1682339598.93932486,113019825,2,0.5899865031242371,-0.00683404877781868,-0.007585317362099886,0.8073485493659973
1682339599.03936887,113119869,2,0.5902082920074463,-0.006867710035294294,-0.007564503233879805,0.8071863651275635
1682339599.13939095,113219891,2,0.5904951691627502,-0.006887877359986305,-0.007588658947497606,0.8069761395454407
1682339599.23940396,113319904,2,0.5908307433128357,-0.006895769387483597,-0.007580024655908346,0.8067304491996765
1682339599.33939981,113419900,2,0.5910466909408569,-0.006953152362257242,-0.007551380433142185,0.8065720200538635
1682339599.43934798,113519848,2,0.5913183093070984,-0.006962824612855911,-0.007600684650242329,0.806372344493866
1682339599.53930998,113619810,2,0.5915868878364563,-0.006967413704842329,-0.007631054613739252,0.8061749935150146
1682339599.63931680,113719817,2,0.5917540192604065,-0.007011670619249344,-0.007646223530173302,0.8060518503189087
1682339599.73930979,113819810,2,0.5919523239135742,-0.00705299386754632,-0.007691217120736837,0.8059054613113403
1682339599.83933187,113919832,2,0.5922667980194092,-0.007069774903357029,-0.0077162841334939,0.8056739568710327
1682339599.93939185,114019892,2,0.5925185084342957,-0.007104039192199707,-0.0076736691407859325,0.8054889440536499
1682339600.03939080,114119891,2,0.5927238464355469,-0.007144911214709282,-0.007745620794594288,0.8053368330001831
1682339600.13940597,114219906,2,0.5929734110832214,-0.00717169838026166,-0.007722587790340185,0.8051530718803406
1682339600.23938990,114319890,2,0.5932006239891052,-0.007140790112316608,-0.007749320473521948,0.8049857020378113
1682339600.33934689,114419847,2,0.5934228897094727,-0.00713387131690979,-0.0077299633994698524,0.8048220872879028
1682339600.43932176,114519822,2,0.5937886834144592,-0.00712789548560977,-0.0077209011651575565,0.804552435874939
1682339600.53930688,114619807,2,0.5940801501274109,-0.007185931783169508,-0.0076697771437466145,0.804337203502655
1682339600.63930488,114719805,2,0.594314455986023,-0.0071619050577282906,-0.007661640178412199,0.8041643500328064
1682339600.73933077,114819831,2,0.594581127166748,-0.0071661220863461494,-0.0076811788603663445,0.8039669990539551
1682339600.83937693,114919877,2,0.5947988033294678,-0.007156131789088249,-0.007694581989198923,0.803805947303772
