timestamp,TimeUS,DesRoll,Roll,DesPitch,Pitch,DesYaw,Yaw,ErrRP,ErrYaw,AEKF
11.26936600,11269366,0.0,0.11,0.0,0.03,0.01,0.01,1.0,1.0,0
11.36916000,11369160,0.0,0.09,0.0,0.02,78.5,78.5,1.0,0.8,0
11.46919200,11469192,0.0,0.11,0.0,0.05,78.43,78.43,0.8,0.64,0
11.56909300,11569093,0.0,0.1,0.0,0.08,78.48,78.48,0.8,0.51,0
11.66906200,11669062,0.0,0.09,0.0,0.12,78.52,78.52,0.64,0.41000000000000003,0
11.76899500,11768995,0.0,0.07,0.0,0.18,78.45,78.45,0.64,0.33,0
11.86901300,11869013,0.0,0.05,0.0,0.21,78.34,78.34,0.51,0.27,0
11.96905500,11969055,0.0,0.04,0.0,0.23,78.35000000000001,78.35000000000001,0.51,0.21,0
12.06913900,12069139,0.0,0.01,0.0,0.26,78.45,78.45,0.41000000000000003,0.17,0
12.16919400,12169194,0.0,0.0,0.0,0.27,78.4,78.4,0.41000000000000003,0.14,0
12.26928300,12269283,0.0,-0.02,0.0,0.29,78.45,78.45,0.32,0.11,0
12.36927000,12369270,0.0,-0.04,0.0,0.3,78.32000000000001,78.32000000000001,0.32,0.1,0
12.46925100,12469251,0.0,-0.05,0.0,0.31,78.27,78.27,0.26,0.08,0
12.56914500,12569145,0.0,-0.06,0.0,0.32,78.25,78.25,0.26,0.06,0
12.66916800,12669168,0.0,-0.06,0.0,0.32,78.27,78.27,0.21,0.05,0
12.76910700,12769107,0.0,-0.07,0.0,0.32,78.12,78.12,0.21,0.05,0
12.86913800,12869138,0.0,-0.06,0.0,0.32,78.08,78.08,0.16,0.04,0
12.96921900,12969219,0.0,-0.06,0.0,0.32,78.16,78.16,0.16,0.03,0
13.06926500,13069265,0.0,-0.05,0.0,0.33,78.12,78.12,0.13,0.03,0
13.16930500,13169305,0.0,-0.05,0.0,0.33,78.13,78.13,0.13,0.02,0
13.26950500,13269505,-0.08,-0.21,0.02,0.39,0.0,0.0,0.1,0.02,3
13.36946200,13369462,-0.04,-0.21,0.01,0.39,0.01,0.01,0.1,0.02,3
13.46951300,13469513,-0.02,-0.21,0.0,0.39,0.0,0.0,0.08,0.02,3
13.56950300,13569503,-0.01,-0.21,0.0,0.39,0.01,0.01,0.08,0.01,3
13.66949300,13669493,0.0,-0.21,0.0,0.4,0.02,0.02,0.06,0.02,3
13.76917900,13769179,0.0,-0.21,0.0,0.4,0.01,0.01,0.06,0.01,3
13.86924900,13869249,0.0,-0.21,0.0,0.4,0.02,0.02,0.05,0.01,3
13.96928000,13969280,0.0,-0.21,0.0,0.41000000000000003,0.02,0.02,0.05,0.01,3
14.06930300,14069303,0.0,-0.22,0.0,0.41000000000000003,0.02,0.02,0.04,0.01,3
14.16933800,14169338,0.0,-0.23,0.0,0.42,0.03,0.03,0.04,0.01,3
14.26930100,14269301,0.0,-0.23,0.0,0.42,0.03,0.03,0.03,0.01,3
14.36928300,14369283,0.0,-0.25,0.0,0.41000000000000003,0.03,0.03,0.03,0.01,3
14.46920200,14469202,0.0,-0.26,0.0,0.41000000000000003,0.03,0.03,0.02,0.01,3
14.56911600,14569116,0.0,-0.28,0.0,0.4,0.03,0.03,0.02,0.01,3
14.66916900,14669169,0.0,-0.3,0.0,0.4,0.03,0.03,0.02,0.01,3
14.76925300,14769253,0.0,-0.31,-0.02,0.38,76.82000000000001,76.82000000000001,0.02,0.0,3
14.86931100,14869311,0.0,-0.32,-0.01,0.39,76.86,76.86,0.01,0.01,3
14.96931200,14969312,0.0,-0.32,0.0,0.41000000000000003,76.97,76.97,0.01,0.01,3
15.06933100,15069331,0.0,-0.32,0.0,0.41000000000000003,77.05,77.05,0.01,0.01,3
15.16932400,15169324,0.0,-0.32,0.0,0.42,77.03,77.03,0.01,0.01,3
15.26931600,15269316,0.0,-0.32,0.0,0.42,76.96000000000001,76.96000000000001,0.01,0.01,3
15.36918800,15369188,0.0,-0.33,0.0,0.42,76.9,76.9,0.01,0.01,3
15.46938300,15469383,0.0,-0.32,0.0,0.43,76.83,76.83,0.01,0.01,3
15.56942100,15569421,0.0,-0.33,0.0,0.43,76.77,76.77,0.01,0.01,3
15.66956300,15669563,0.0,-0.33,0.0,0.44,76.74,76.74,0.0,0.01,3
15.76930400,15769304,0.0,-0.33,0.0,0.44,76.74,76.74,0.0,0.01,3
15.86934500,15869345,0.0,-0.33,0.0,0.44,76.77,76.77,0.0,0.01,3
15.96932100,15969321,0.0,-0.34,0.0,0.44,76.79,76.79,0.0,0.01,3
16.06931100,16069311,0.0,-0.34,0.0,0.44,76.8,76.8,0.0,0.01,3
16.16934200,16169342,0.0,-0.35000000000000003,0.0,0.44,76.79,76.79,0.0,0.0,3
16.26920400,16269204,0.0,-0.35000000000000003,0.0,0.44,76.79,76.79,0.0,0.01,3
16.36912500,16369125,0.0,-0.35000000000000003,0.0,0.44,76.78,76.78,0.0,0.01,3
16.46920700,16469207,0.0,-0.35000000000000003,0.0,0.44,76.76,76.76,0.0,0.01,3
16.56928100,16569281,0.0,-0.36,0.0,0.43,76.73,76.73,0.0,0.01,3
16.66932100,16669321,0.0,-0.36,0.0,0.42,76.7,76.7,0.0,0.0,3
16.76931700,16769317,0.0,-0.36,0.0,0.42,76.67,76.67,0.0,0.0,3
16.86940000,16869400,0.0,-0.37,0.0,0.41000000000000003,76.65,76.65,0.0,0.01,3
16.96928900,16969289,0.0,-0.37,0.0,0.4,76.65,76.65,0.0,0.01,3
17.06935200,17069352,0.0,-0.37,0.0,0.4,76.68,76.68,0.0,0.01,3
17.16922800,17169228,0.0,-0.37,0.0,0.39,76.73,76.73,0.0,0.01,3
17.26913500,17269135,0.0,-0.37,0.0,0.39,76.76,76.76,0.0,0.01,3
17.36916100,17369161,0.0,-0.37,0.0,0.38,76.8,76.8,0.0,0.01,3
17.46927400,17469274,0.0,-0.38,0.0,0.37,76.83,76.83,0.0,0.01,3
17.56929900,17569299,0.0,-0.38,0.0,0.36,76.86,76.86,0.0,0.01,3
17.66931600,17669316,0.0,-0.38,0.0,0.36,76.87,76.87,0.0,0.01,3
17.76932000,17769320,0.0,-0.38,0.0,0.35000000000000003,76.86,76.86,0.0,0.01,3
17.86931200,17869312,0.0,-0.37,0.0,0.35000000000000003,76.85000000000001,76.85000000000001,0.0,0.0,3
17.96930600,17969306,0.0,-0.36,0.0,0.35000000000000003,76.84,76.84,0.0,0.01,3
18.06921000,18069210,0.0,-0.36,0.0,0.34,76.83,76.83,0.0,0.01,3
18.16945200,18169452,0.0,-0.35000000000000003,0.0,0.34,76.83,76.83,0.0,0.01,3
18.26944700,18269447,0.0,-0.35000000000000003,0.0,0.34,76.83,76.83,0.0,0.01,3
18.36955200,18369552,0.0,-0.34,0.0,0.34,76.83,76.83,0.0,0.01,3
18.46949800,18469498,0.0,-0.34,0.0,0.34,76.82000000000001,76.82000000000001,0.0,0.01,3
18.56930000,18569300,0.0,-0.34,0.0,0.33,76.8,76.8,0.0,0.01,3
18.66933800,18669338,0.0,-0.34,0.0,0.33,76.78,76.78,0.0,0.01,3
18.76928600,18769286,0.0,-0.34,0.0,0.34,76.76,76.76,0.0,0.01,3
18.86931000,18869310,0.0,-0.34,0.0,0.34,76.75,76.75,0.0,0.01,3
18.96951700,18969517,0.0,-0.33,0.0,0.34,76.76,76.76,0.0,0.0,3
19.06935600,19069356,0.0,-0.33,0.0,0.34,76.77,76.77,0.0,0.0,3
19.16942600,19169426,0.0,-0.33,0.0,0.34,76.79,76.79,0.0,0.01,3
19.26955200,19269552,0.0,-0.33,0.0,0.34,76.8,76.8,0.0,0.01,3
19.36945600,19369456,0.0,-0.32,0.0,0.35000000000000003,76.78,76.78,0.0,0.01,3
19.46947600,19469476,0.0,-0.32,0.0,0.34,76.76,76.76,0.0,0.01,3
19.56947000,19569470,0.0,-0.32,0.0,0.35000000000000003,76.74,76.74,0.0,0.01,3
19.66947000,19669470,0.0,-0.31,0.0,0.35000000000000003,76.72,76.72,0.0,0.0,3
19.76945700,19769457,0.0,-0.31,0.0,0.36,76.7,76.7,0.0,0.0,3
19.86947500,19869475,0.0,-0.3,0.0,0.36,76.7,76.7,0.0,0.01,3
19.96935600,19969356,0.0,-0.3,0.0,0.37,76.69,76.69,0.0,0.0,3
20.06968400,20069684,0.0,-0.3,0.0,0.37,76.68,76.68,0.0,0.0,3
20.16960200,20169602,0.0,-0.29,0.0,0.37,76.66,76.66,0.0,0.01,3
20.26950400,20269504,0.0,-0.29,0.0,0.37,76.66,76.66,0.0,0.01,3
20.36932600,20369326,0.0,-0.29,0.0,0.37,76.66,76.66,0.0,0.0,3
20.46936100,20469361,0.0,-0.28,0.0,0.37,76.68,76.68,0.0,0.0,3
20.56930200,20569302,0.0,-0.28,0.0,0.38,76.69,76.69,0.0,0.0,3
20.66935600,20669356,0.0,-0.28,0.0,0.38,76.69,76.69,0.0,0.0,3
20.76919300,20769193,0.0,-0.28,0.0,0.38,76.68,76.68,0.0,0.0,3
20.86914400,20869144,0.0,-0.27,0.0,0.38,76.67,76.67,0.0,0.0,3
20.96918100,20969181,0.0,-0.26,0.0,0.39,76.66,76.66,0.0,0.0,3
21.06927100,21069271,0.0,-0.26,0.0,0.39,76.65,76.65,0.0,0.0,3
21.16931900,21169319,0.0,-0.26,0.0,0.39,76.65,76.65,0.0,0.0,3
21.26932300,21269323,0.0,-0.26,0.0,0.4,76.65,76.65,0.0,0.0,3
21.36933200,21369332,0.0,-0.26,0.0,0.4,76.65,76.65,0.0,0.0,3
21.46930200,21469302,0.0,-0.25,0.0,0.4,76.65,76.65,0.0,0.0,3
21.56930500,21569305,0.0,-0.25,0.0,0.4,76.65,76.65,0.0,0.0,3
21.66919100,21669191,0.0,-0.26,0.0,0.4,76.65,76.65,0.0,0.01,3
21.76913400,21769134,0.0,-0.25,0.0,0.4,76.63,76.63,0.0,0.01,3
21.86918200,21869182,0.0,-0.25,0.0,0.4,76.59,76.59,0.0,0.01,3
21.96926900,21969269,0.0,-0.25,0.0,0.4,76.54,76.54,0.0,0.0,3
22.06932300,22069323,0.0,-0.25,0.0,0.4,76.51,76.51,0.0,0.01,3
22.16933600,22169336,0.0,-0.25,0.0,0.4,76.49,76.49,0.0,0.01,3
22.26932700,22269327,0.0,-0.25,0.0,0.4,76.48,76.48,0.0,0.01,3
22.36930000,22369300,0.0,-0.25,0.0,0.4,76.49,76.49,0.0,0.0,3
22.46931000,22469310,0.0,-0.25,0.0,0.4,76.48,76.48,0.0,0.0,3
22.56920300,22569203,0.0,-0.25,0.0,0.4,76.48,76.48,0.0,0.0,3
22.66915000,22669150,0.0,-0.25,0.0,0.4,76.49,76.49,0.0,0.01,3
22.76917800,22769178,0.0,-0.25,0.0,0.39,76.5,76.5,0.0,0.01,3
22.86927000,22869270,0.0,-0.25,0.0,0.39,76.52,76.52,0.0,0.01,3
22.96929900,22969299,0.0,-0.25,0.0,0.39,76.55,76.55,0.0,0.0,3
23.06950100,23069501,0.0,-0.25,0.0,0.39,76.56,76.56,0.0,0.0,3
23.16964800,23169648,0.0,-0.25,0.0,0.39,76.57000000000001,76.57000000000001,0.0,0.0,3
23.26948800,23269488,0.0,-0.25,0.0,0.39,76.57000000000001,76.57000000000001,0.0,0.0,3
23.36948600,23369486,0.0,-0.25,0.0,0.39,76.57000000000001,76.57000000000001,0.0,0.0,3
23.46920100,23469201,0.0,-0.25,0.0,0.39,76.57000000000001,76.57000000000001,0.0,0.01,3
23.56912700,23569127,0.0,-0.25,0.0,0.39,76.57000000000001,76.57000000000001,0.0,0.01,3
23.66919600,23669196,0.0,-0.24,0.0,0.39,76.57000000000001,76.57000000000001,0.0,0.01,3
23.76927600,23769276,0.0,-0.24,0.0,0.39,76.57000000000001,76.57000000000001,0.0,0.01,3
23.86932500,23869325,0.0,-0.24,0.0,0.39,76.56,76.56,0.0,0.01,3
23.96931500,23969315,0.0,-0.24,0.0,0.39,76.56,76.56,0.0,0.01,3
24.06933600,24069336,0.0,-0.24,0.0,0.39,76.57000000000001,76.57000000000001,0.0,0.01,3
24.16931700,24169317,0.0,-0.24,0.0,0.39,76.57000000000001,76.57000000000001,0.0,0.01,3
24.26931500,24269315,0.0,-0.24,0.0,0.39,76.57000000000001,76.57000000000001,0.0,0.01,3
24.36919300,24369193,0.0,-0.23,0.0,0.39,76.58,76.58,0.0,0.01,3
24.46952400,24469524,0.0,-0.23,0.0,0.39,76.60000000000001,76.60000000000001,0.0,0.01,3
24.56942400,24569424,0.0,-0.23,0.0,0.4,76.60000000000001,76.60000000000001,0.0,0.01,3
24.66955800,24669558,0.0,-0.23,0.0,0.4,76.59,76.59,0.0,0.01,3
24.76947400,24769474,0.0,-0.22,0.0,0.4,76.56,76.56,0.0,0.01,3
24.86949400,24869494,0.0,-0.22,0.0,0.4,76.54,76.54,0.0,0.01,3
24.96948600,24969486,0.0,-0.22,0.0,0.4,76.5,76.5,0.0,0.01,3
25.06949400,25069494,0.0,-0.22,0.0,0.4,76.46000000000001,76.46000000000001,0.0,0.01,3
25.16959600,25169596,0.0,-0.21,0.0,0.4,76.43,76.43,0.0,0.0,3
25.26962100,25269621,0.0,-0.21,0.0,0.4,76.4,76.4,0.0,0.0,3
25.36913300,25369133,0.0,-0.21,0.0,0.4,76.39,76.39,0.0,0.0,3
25.46921300,25469213,0.0,-0.21,0.0,0.4,76.37,76.37,0.0,0.0,3
25.56928200,25569282,0.0,-0.2,0.0,0.4,76.35000000000001,76.35000000000001,0.0,0.0,3
25.66932600,25669326,0.0,-0.2,0.0,0.41000000000000003,76.34,76.34,0.0,0.01,3
25.76930700,25769307,0.0,-0.19,0.0,0.4,76.32000000000001,76.32000000000001,0.0,0.01,3
25.86934500,25869345,0.0,-0.19,0.0,0.41000000000000003,76.31,76.31,0.0,0.01,3
25.96929400,25969294,0.0,-0.19,0.0,0.41000000000000003,76.31,76.31,0.0,0.01,3
26.06932700,26069327,0.0,-0.18,0.0,0.41000000000000003,76.31,76.31,0.0,0.01,3
26.16922300,26169223,0.0,-0.18,0.0,0.41000000000000003,76.32000000000001,76.32000000000001,0.0,0.01,3
26.26913000,26269130,0.0,-0.18,0.0,0.41000000000000003,76.32000000000001,76.32000000000001,0.0,0.01,3
26.36918600,26369186,0.0,-0.18,0.0,0.41000000000000003,76.32000000000001,76.32000000000001,0.0,0.01,3
26.46927400,26469274,0.0,-0.18,0.0,0.41000000000000003,76.32000000000001,76.32000000000001,0.0,0.01,3
26.56930000,26569300,0.0,-0.17,0.0,0.41000000000000003,76.31,76.31,0.0,0.01,3
26.66931800,26669318,0.0,-0.17,0.0,0.41000000000000003,76.3,76.3,0.0,0.01,3
26.76933000,26769330,0.0,-0.17,0.0,0.41000000000000003,76.31,76.31,0.0,0.01,3
26.86931800,26869318,0.0,-0.17,0.0,0.41000000000000003,76.33,76.33,0.0,0.01,3
26.96949900,26969499,0.0,-0.17,0.0,0.41000000000000003,76.35000000000001,76.35000000000001,0.0,0.01,3
27.06968600,27069686,0.0,-0.16,0.0,0.4,76.36,76.36,0.0,0.01,3
27.16944700,27169447,0.0,-0.16,0.0,0.4,76.38,76.38,0.0,0.01,3
27.26945300,27269453,0.0,-0.16,0.0,0.4,76.41,76.41,0.0,0.01,3
27.36955500,27369555,0.0,-0.16,0.0,0.4,76.43,76.43,0.0,0.01,3
27.46947500,27469475,0.0,-0.16,0.0,0.41000000000000003,76.45,76.45,0.0,0.01,3
27.56957500,27569575,0.0,-0.15,0.0,0.4,76.47,76.47,0.0,0.01,3
27.66951200,27669512,0.0,-0.16,0.0,0.4,76.48,76.48,0.0,0.01,3
27.76948100,27769481,0.0,-0.15,0.0,0.4,76.5,76.5,0.0,0.01,3
27.86950500,27869505,0.0,-0.15,0.0,0.4,76.52,76.52,0.0,0.01,3
27.96950200,27969502,0.0,-0.15,0.0,0.4,76.53,76.53,0.0,0.01,3
28.06938600,28069386,0.0,-0.15,0.0,0.4,76.55,76.55,0.0,0.01,3
28.16947400,28169474,0.0,-0.15,0.0,0.4,76.57000000000001,76.57000000000001,0.0,0.01,3
28.26959200,28269592,0.0,-0.15,0.0,0.4,76.57000000000001,76.57000000000001,0.0,0.01,3
28.36949500,28369495,0.0,-0.14,0.0,0.4,76.57000000000001,76.57000000000001,0.0,0.01,3
28.46951000,28469510,0.0,-0.14,0.0,0.41000000000000003,76.57000000000001,76.57000000000001,0.0,0.01,3
28.56950400,28569504,0.0,-0.14,0.0,0.41000000000000003,76.57000000000001,76.57000000000001,0.0,0.01,3
28.66969200,28669692,0.0,-0.14,0.0,0.41000000000000003,76.56,76.56,0.0,0.01,3
28.76969900,28769699,0.0,-0.14,0.0,0.41000000000000003,76.56,76.56,0.0,0.01,3
28.86974200,28869742,0.0,-0.14,0.0,0.41000000000000003,76.55,76.55,0.0,0.01,3
28.96937900,28969379,0.0,-0.13,0.0,0.41000000000000003,76.53,76.53,0.0,0.01,3
29.06939400,29069394,0.0,-0.13,0.0,0.41000000000000003,76.52,76.52,0.0,0.0,3
29.16956800,29169568,0.0,-0.12,0.0,0.41000000000000003,76.5,76.5,0.0,0.0,3
29.26948100,29269481,0.0,-0.12,0.0,0.4,76.49,76.49,0.0,0.0,3
29.36949400,29369494,0.0,-0.12,0.0,0.4,76.48,76.48,0.0,0.0,3
29.46962500,29469625,0.0,-0.12,0.0,0.41000000000000003,76.47,76.47,0.0,0.0,3
29.56946200,29569462,0.0,-0.12,0.0,0.41000000000000003,76.47,76.47,0.0,0.0,3
29.66949800,29669498,0.0,-0.12,0.0,0.41000000000000003,76.46000000000001,76.46000000000001,0.0,0.0,3
29.76949700,29769497,0.0,-0.12,0.0,0.42,76.47,76.47,0.0,0.0,3
29.86938000,29869380,0.0,-0.12,0.0,0.42,76.48,76.48,0.0,0.0,3
29.96943100,29969431,0.0,-0.12,0.0,0.42,76.48,76.48,0.0,0.0,3
30.06951300,30069513,0.0,-0.12,0.0,0.42,76.49,76.49,0.0,0.01,3
30.16949600,30169496,0.0,-0.11,0.0,0.42,76.5,76.5,0.0,0.01,3
30.26946100,30269461,0.0,-0.11,0.0,0.42,76.52,76.52,0.0,0.01,3
30.36947900,30369479,0.0,-0.11,0.0,0.42,76.54,76.54,0.0,0.01,3
30.46946000,30469460,0.0,-0.11,0.0,0.42,76.57000000000001,76.57000000000001,0.0,0.01,3
30.56946200,30569462,0.0,-0.11,0.0,0.42,76.60000000000001,76.60000000000001,0.0,0.02,3
30.66950000,30669500,0.0,-0.11,0.0,0.42,76.61,76.61,0.0,0.01,3
30.76935900,30769359,0.0,-0.1,0.0,0.42,76.61,76.61,0.0,0.01,3
30.86938900,30869389,0.0,-0.1,0.0,0.42,76.62,76.62,0.0,0.01,3
30.96954400,30969544,0.0,-0.1,0.0,0.42,76.62,76.62,0.0,0.01,3
31.06948300,31069483,0.0,-0.1,0.0,0.42,76.62,76.62,0.0,0.01,3
31.16951000,31169510,0.0,-0.1,0.0,0.42,76.62,76.62,0.0,0.01,3
31.26948300,31269483,0.0,-0.1,0.0,0.42,76.62,76.62,0.0,0.01,3
31.36947100,31369471,0.0,-0.1,0.0,0.43,76.62,76.62,0.0,0.01,3
31.46949100,31469491,0.0,-0.1,0.0,0.43,76.61,76.61,0.0,0.01,3
31.56961100,31569611,0.0,-0.1,0.0,0.43,76.62,76.62,0.0,0.01,3
31.66937600,31669376,0.0,-0.1,0.0,0.43,76.62,76.62,0.0,0.01,3
31.76942000,31769420,0.0,-0.1,0.0,0.43,76.62,76.62,0.0,0.01,3
31.86956700,31869567,0.0,-0.09,0.0,0.43,76.64,76.64,0.0,0.02,3
31.96931000,31969310,0.0,-0.09,0.0,0.43,76.68,76.68,0.0,0.02,3
32.06932300,32069323,0.0,-0.09,0.0,0.43,76.7,76.7,0.0,0.02,3
32.16934100,32169341,0.0,-0.09,0.0,0.43,76.71000000000001,76.71000000000001,0.0,0.01,3
32.26932200,32269322,0.0,-0.09,0.0,0.43,76.72,76.72,0.0,0.02,3
32.36928900,32369289,0.0,-0.09,0.0,0.43,76.73,76.73,0.0,0.01,3
32.46919000,32469190,0.0,-0.09,0.0,0.43,76.75,76.75,0.0,0.01,3
32.56913400,32569134,0.0,-0.08,0.0,0.43,76.76,76.76,0.0,0.01,3
32.66917400,32669174,0.0,-0.08,0.0,0.43,76.77,76.77,0.0,0.01,3
32.76926600,32769266,0.0,-0.08,0.0,0.43,76.78,76.78,0.0,0.01,3
32.86931200,32869312,0.0,-0.08,0.0,0.43,76.77,76.77,0.0,0.0,3
32.96930900,32969309,0.0,-0.08,0.0,0.43,76.77,76.77,0.0,0.0,3
33.06931600,33069316,0.0,-0.08,0.0,0.43,76.77,76.77,0.0,0.0,3
33.16928800,33169288,0.0,-0.07,0.0,0.43,76.77,76.77,0.0,0.0,3
33.26930500,33269305,0.0,-0.07,0.0,0.43,76.77,76.77,0.0,0.0,3
33.36919200,33369192,0.0,-0.07,0.0,0.43,76.76,76.76,0.0,0.0,3
33.46913900,33469139,0.0,-0.07,0.0,0.42,76.75,76.75,0.0,0.0,3
33.56937200,33569372,0.0,-0.07,0.0,0.42,76.75,76.75,0.0,0.0,3
33.66955200,33669552,0.0,-0.06,0.0,0.42,76.75,76.75,0.0,0.0,3
33.76946400,33769464,0.0,-0.06,0.0,0.42,76.74,76.74,0.0,0.01,3
33.86947900,33869479,0.0,-0.06,0.0,0.42,76.75,76.75,0.0,0.01,3
33.96949400,33969494,0.0,-0.06,0.0,0.42,76.76,76.76,0.0,0.01,3
34.06948400,34069484,0.0,-0.06,0.0,0.42,76.77,76.77,0.0,0.01,3
34.16951500,34169515,0.0,-0.06,0.0,0.42,76.78,76.78,0.0,0.01,3
34.26918700,34269187,0.0,-0.06,0.0,0.42,76.79,76.79,0.0,0.01,3
34.36910900,34369109,0.0,-0.05,0.0,0.42,76.78,76.78,0.0,0.01,3
34.46917500,34469175,0.0,-0.05,0.0,0.42,76.77,76.77,0.0,0.01,3
34.56924800,34569248,0.0,-0.05,0.0,0.42,76.76,76.76,0.0,0.01,3
34.66927300,34669273,0.0,-0.05,0.0,0.42,76.74,76.74,0.0,0.01,3
34.76928500,34769285,0.0,-0.05,0.0,0.42,76.74,76.74,0.0,0.01,3
34.86931900,34869319,0.0,-0.05,0.0,0.42,76.74,76.74,0.0,0.01,3
34.96929100,34969291,0.0,-0.05,0.0,0.42,76.74,76.74,0.0,0.01,3
35.06932000,35069320,0.0,-0.05,0.0,0.42,76.73,76.73,0.0,0.01,3
35.16920600,35169206,0.0,-0.05,0.0,0.42,76.72,76.72,0.0,0.01,3
35.26912600,35269126,0.0,-0.05,0.0,0.42,76.72,76.72,0.0,0.01,3
35.36917800,35369178,0.0,-0.05,0.0,0.42,76.72,76.72,0.0,0.01,3
35.46928400,35469284,0.0,-0.05,0.0,0.42,76.72,76.72,0.0,0.0,3
35.56928700,35569287,0.0,-0.05,0.0,0.42,76.72,76.72,0.0,0.0,3
35.66932000,35669320,0.0,-0.05,0.0,0.43,76.72,76.72,0.0,0.01,3
35.76935000,35769350,0.0,-0.04,0.0,0.43,76.73,76.73,0.0,0.01,3
35.86948600,35869486,0.0,-0.04,0.0,0.43,76.74,76.74,0.0,0.01,3
35.96947900,35969479,0.0,-0.04,0.0,0.43,76.75,76.75,0.0,0.01,3
36.06949800,36069498,0.0,-0.04,0.0,0.43,76.74,76.74,0.0,0.01,3
36.16913700,36169137,0.0,-0.03,0.0,0.43,76.74,76.74,0.0,0.01,3
36.26920700,36269207,0.0,-0.03,0.0,0.43,76.74,76.74,0.0,0.01,3
36.36926900,36369269,0.0,-0.03,0.0,0.43,76.74,76.74,0.0,0.01,3
36.46931200,36469312,0.0,-0.03,0.0,0.43,76.75,76.75,0.0,0.01,3
36.56931800,36569318,0.0,-0.04,0.0,0.43,76.77,76.77,0.0,0.01,3
36.66933600,36669336,0.0,-0.03,0.0,0.43,76.78,76.78,0.0,0.01,3
36.76929800,36769298,0.0,-0.03,0.0,0.42,76.79,76.79,0.0,0.01,3
36.86928900,36869289,0.0,-0.03,0.0,0.43,76.81,76.81,0.0,0.01,3
36.96918700,36969187,0.0,-0.03,0.0,0.43,76.82000000000001,76.82000000000001,0.0,0.02,3
37.06935200,37069352,0.0,-0.03,0.0,0.43,76.84,76.84,0.0,0.01,3
37.16933600,37169336,0.0,-0.03,0.0,0.43,76.86,76.86,0.0,0.01,3
37.26945000,37269450,0.0,-0.03,0.0,0.43,76.88,76.88,0.0,0.01,3
37.36943600,37369436,0.0,-0.03,0.0,0.43,76.89,76.89,0.0,0.01,3
37.46945800,37469458,0.0,-0.03,0.0,0.43,76.9,76.9,0.0,0.01,3
37.56945300,37569453,0.0,-0.03,0.0,0.43,76.9,76.9,0.0,0.01,3
37.66967000,37669670,0.0,-0.03,0.0,0.43,76.89,76.89,0.0,0.01,3
37.76949500,37769495,0.0,-0.03,0.0,0.43,76.88,76.88,0.0,0.0,3
37.86925100,37869251,0.0,-0.03,0.0,0.42,76.87,76.87,0.0,0.0,3
37.96911900,37969119,0.0,-0.03,0.0,0.42,76.87,76.87,0.0,0.0,3
38.06917900,38069179,0.0,-0.02,0.0,0.43,76.87,76.87,0.0,0.01,3
38.16928600,38169286,0.0,-0.02,0.0,0.42,76.86,76.86,0.0,0.0,3
38.26930500,38269305,0.0,-0.02,0.0,0.42,76.86,76.86,0.0,0.01,3
38.36929400,38369294,0.0,-0.03,0.0,0.42,76.86,76.86,0.0,0.0,3
38.46931300,38469313,0.0,-0.02,0.0,0.43,76.85000000000001,76.85000000000001,0.0,0.0,3
38.56929800,38569298,0.0,-0.02,0.0,0.42,76.85000000000001,76.85000000000001,0.0,0.0,3
38.66930800,38669308,0.0,-0.02,0.0,0.42,76.85000000000001,76.85000000000001,0.0,0.0,3
38.76918100,38769181,0.0,-0.02,0.0,0.43,76.85000000000001,76.85000000000001,0.0,0.0,3
38.86912600,38869126,0.0,-0.02,0.0,0.42,76.85000000000001,76.85000000000001,0.0,0.0,3
38.96914900,38969149,0.0,-0.02,0.0,0.43,76.85000000000001,76.85000000000001,0.0,0.0,3
39.06928000,39069280,0.0,-0.02,0.0,0.43,76.86,76.86,0.0,0.0,3
39.16930900,39169309,0.0,-0.01,0.0,0.42,76.87,76.87,0.0,0.01,3
39.26931800,39269318,0.0,-0.01,0.0,0.42,76.88,76.88,0.0,0.01,3
39.36932100,39369321,0.0,-0.01,0.0,0.42,76.89,76.89,0.0,0.01,3
39.46949300,39469493,0.0,0.0,0.0,0.42,76.91,76.91,0.0,0.01,3
39.56950500,39569505,0.0,0.0,0.0,0.41000000000000003,76.92,76.92,0.0,0.02,3
39.66950300,39669503,0.0,0.0,0.0,0.41000000000000003,76.94,76.94,0.0,0.02,3
39.76936000,39769360,0.0,0.0,0.0,0.41000000000000003,76.97,76.97,0.0,0.01,3
39.86944200,39869442,0.0,0.0,0.0,0.4,76.98,76.98,0.0,0.01,3
39.96955500,39969555,0.0,0.0,0.0,0.4,77.0,77.0,0.0,0.01,3
40.06931900,40069319,0.0,-0.01,0.0,0.41000000000000003,77.02,77.02,0.0,0.01,3
40.16932900,40169329,0.0,-0.01,0.0,0.42,77.02,77.02,0.0,0.01,3
40.26932500,40269325,0.0,-0.01,0.0,0.42,77.02,77.02,0.0,0.01,3
40.36931100,40369311,0.0,-0.01,0.0,0.41000000000000003,77.01,77.01,0.0,0.01,3
40.46929800,40469298,0.0,-0.01,0.0,0.42,77.01,77.01,0.0,0.01,3
40.56919100,40569191,0.0,-0.02,0.0,0.42,77.0,77.0,0.0,0.01,3
40.66913400,40669134,0.0,-0.02,0.0,0.41000000000000003,77.0,77.0,0.0,0.01,3
40.76919400,40769194,0.0,-0.02,0.0,0.42,76.99,76.99,0.0,0.01,3
40.86927500,40869275,0.0,-0.02,0.0,0.42,76.99,76.99,0.0,0.0,3
40.96930300,40969303,0.0,-0.02,0.0,0.42,76.99,76.99,0.0,0.01,3
41.06928800,41069288,0.0,-0.02,0.0,0.42,76.99,76.99,0.0,0.01,3
41.16933400,41169334,0.0,-0.02,0.0,0.41000000000000003,77.0,77.0,0.0,0.0,3
41.26931100,41269311,0.0,-0.03,0.0,0.42,77.01,77.01,0.0,0.01,3
41.36928600,41369286,0.0,-0.02,0.0,0.42,77.02,77.02,0.0,0.01,3
41.46920000,41469200,0.0,-0.02,0.0,0.42,77.03,77.03,0.0,0.01,3
41.56912800,41569128,0.0,-0.03,0.0,0.42,77.04,77.04,0.0,0.02,3
41.66917100,41669171,0.0,-0.03,0.0,0.42,77.06,77.06,0.0,0.02,3
41.76924000,41769240,0.0,-0.03,0.0,0.42,77.08,77.08,0.0,0.01,3
41.86928400,41869284,0.0,-0.03,0.0,0.42,77.10000000000001,77.10000000000001,0.0,0.01,3
41.96929300,41969293,0.0,-0.03,0.0,0.42,77.11,77.11,0.0,0.01,3
42.06937300,42069373,0.0,-0.03,0.0,0.42,77.12,77.12,0.0,0.01,3
42.16929900,42169299,0.0,-0.03,0.0,0.42,77.13,77.13,0.0,0.01,3
42.26930400,42269304,0.0,-0.03,0.0,0.41000000000000003,77.14,77.14,0.0,0.01,3
42.36948700,42369487,0.0,-0.04,0.0,0.41000000000000003,77.15,77.15,0.0,0.01,3
42.46938000,42469380,0.0,-0.04,0.0,0.41000000000000003,77.15,77.15,0.0,0.01,3
42.56939000,42569390,0.0,-0.04,0.0,0.41000000000000003,77.14,77.14,0.0,0.01,3
42.66955100,42669551,0.0,-0.04,0.0,0.41000000000000003,77.14,77.14,0.0,0.01,3
42.76946000,42769460,0.0,-0.04,0.0,0.41000000000000003,77.12,77.12,0.0,0.01,3
42.86949600,42869496,0.0,-0.04,0.0,0.41000000000000003,77.12,77.12,0.0,0.01,3
42.96932500,42969325,0.0,-0.04,0.0,0.41000000000000003,77.11,77.11,0.0,0.01,3
43.06929200,43069292,0.0,-0.04,0.0,0.41000000000000003,77.11,77.11,0.0,0.01,3
43.16931200,43169312,0.0,-0.04,0.0,0.41000000000000003,77.10000000000001,77.10000000000001,0.0,0.01,3
43.26919800,43269198,0.0,-0.03,0.0,0.4,77.10000000000001,77.10000000000001,0.0,0.01,3
43.36911200,43369112,0.0,-0.04,0.0,0.41000000000000003,77.11,77.11,0.0,0.01,3
43.46917400,43469174,0.0,-0.04,0.0,0.4,77.11,77.11,0.0,0.01,3
43.56928000,43569280,0.0,-0.04,0.0,0.4,77.11,77.11,0.0,0.01,3
43.66931300,43669313,0.0,-0.04,0.0,0.41000000000000003,77.11,77.11,0.0,0.01,3
43.76929700,43769297,0.0,-0.04,0.0,0.41000000000000003,77.10000000000001,77.10000000000001,0.0,0.01,3
43.86931900,43869319,0.0,-0.04,0.0,0.41000000000000003,77.10000000000001,77.10000000000001,0.0,0.01,3
43.96928500,43969285,0.0,-0.04,0.0,0.41000000000000003,77.09,77.09,0.0,0.01,3
44.06929100,44069291,0.0,-0.04,0.0,0.41000000000000003,77.09,77.09,0.0,0.01,3
44.16959100,44169591,0.0,-0.04,0.0,0.41000000000000003,77.08,77.08,0.0,0.01,3
44.26934400,44269344,0.0,-0.04,0.0,0.41000000000000003,77.08,77.08,0.0,0.01,3
44.36931900,44369319,0.0,-0.04,0.0,0.41000000000000003,77.08,77.08,0.0,0.01,3
44.46951300,44469513,0.0,-0.04,0.0,0.42,77.08,77.08,0.0,0.01,3
44.56944300,44569443,0.0,-0.04,0.0,0.41000000000000003,77.09,77.09,0.0,0.01,3
44.66947900,44669479,0.0,-0.03,0.0,0.41000000000000003,77.10000000000001,77.10000000000001,0.0,0.01,3
44.76947300,44769473,0.0,-0.03,0.0,0.42,77.12,77.12,0.0,0.01,3
44.86941800,44869418,0.0,-0.03,0.0,0.41000000000000003,77.13,77.13,0.0,0.01,3
44.96946100,44969461,0.0,-0.03,0.0,0.42,77.13,77.13,0.0,0.01,3
45.06946400,45069464,0.0,-0.03,0.0,0.42,77.14,77.14,0.0,0.01,3
45.16936700,45169367,0.0,-0.03,0.0,0.42,77.14,77.14,0.0,0.01,3
45.26932000,45269320,0.0,-0.03,0.0,0.42,77.14,77.14,0.0,0.01,3
45.36944800,45369448,0.0,-0.03,0.0,0.42,77.15,77.15,0.0,0.0,3
45.46944400,45469444,0.0,-0.03,0.0,0.42,77.15,77.15,0.0,0.0,3
45.56945200,45569452,0.0,-0.03,0.0,0.43,77.15,77.15,0.0,0.0,3
45.66946400,45669464,0.0,-0.03,0.0,0.43,77.16,77.16,0.0,0.0,3
45.76944100,45769441,0.0,-0.03,0.0,0.43,77.16,77.16,0.0,0.0,3
45.86948400,45869484,0.0,-0.02,0.0,0.43,77.16,77.16,0.0,0.01,3
45.96945000,45969450,0.0,-0.01,0.0,0.43,77.16,77.16,0.0,0.0,3
46.06934300,46069343,0.0,-0.01,0.0,0.41000000000000003,77.16,77.16,0.0,0.01,3
46.16967000,46169670,0.0,0.02,0.0,0.38,77.17,77.17,0.0,0.01,3
46.26955400,46269554,0.0,0.01,0.0,0.37,77.16,77.16,0.0,0.01,3
46.36945600,46369456,0.0,0.01,0.0,0.42,77.19,77.19,0.0,0.01,3
46.46947600,46469476,0.0,0.03,0.0,0.37,77.17,77.17,0.0,0.01,3
46.56930400,46569304,0.0,0.05,0.0,0.28,77.17,77.17,0.0,0.01,3
46.66930800,46669308,0.0,0.09,0.0,0.28,77.19,77.19,0.0,0.01,3
46.76929200,46769292,0.0,0.06,0.0,0.32,77.17,77.17,0.0,0.01,3
46.86919000,46869190,0.0,0.07,0.0,0.31,77.16,77.16,0.0,0.01,3
46.96910500,46969105,0.0,0.08,0.0,0.28,77.18,77.18,0.0,0.01,3
47.06919000,47069190,0.0,0.07,0.0,0.32,77.18,77.18,0.0,0.01,3
47.16928100,47169281,0.0,0.07,0.0,0.32,77.17,77.17,0.0,0.01,3
47.26930600,47269306,0.0,0.09,0.0,0.25,77.19,77.19,0.0,0.01,3
47.36930400,47369304,0.0,0.08,0.0,0.29,77.21000000000001,77.21000000000001,0.0,0.01,3
47.46930100,47469301,0.0,0.0,0.0,0.48,77.24,77.24,0.0,0.01,3
47.56929000,47569290,0.0,-0.01,0.0,0.52,77.25,77.25,0.0,0.01,3
47.66929900,47669299,0.0,0.0,0.0,0.43,77.25,77.25,0.0,0.01,3
47.76917500,47769175,0.0,-0.01,0.0,0.51,77.29,77.29,0.0,0.01,3
47.86912400,47869124,0.0,-0.01,0.0,0.5,77.24,77.24,0.0,0.01,3
47.96916800,47969168,0.0,0.0,0.0,0.45,77.24,77.24,0.01,0.01,3
48.06928100,48069281,0.0,-0.01,0.0,0.51,77.29,77.29,0.01,0.01,3
48.16932100,48169321,0.0,0.0,0.0,0.48,77.21000000000001,77.21000000000001,0.01,0.01,3
48.26931200,48269312,0.0,0.0,0.0,0.47000000000000003,77.22,77.22,0.01,0.01,3
48.36937000,48369370,0.0,0.0,0.0,0.51,77.27,77.27,0.0,0.01,3
48.46948000,48469480,0.0,0.0,0.0,0.46,77.21000000000001,77.21000000000001,0.0,0.01,3
48.56948600,48569486,0.0,0.0,0.0,0.48,77.24,77.24,0.0,0.01,3
48.66949200,48669492,0.0,0.0,0.0,0.49,77.28,77.28,0.0,0.01,3
48.76937200,48769372,0.0,0.0,0.0,0.45,77.22,77.22,0.0,0.01,3
48.86942900,48869429,0.0,0.0,0.0,0.48,77.25,77.25,0.0,0.01,3
48.96955500,48969555,0.0,0.0,0.0,0.47000000000000003,77.26,77.26,0.0,0.01,3
49.06949900,49069499,0.0,0.0,0.0,0.46,77.22,77.22,0.0,0.01,3
49.16951900,49169519,0.0,0.0,0.0,0.49,77.25,77.25,0.0,0.01,3
49.26949900,49269499,0.0,0.0,0.0,0.46,77.26,77.26,0.0,0.0,3
49.36948400,49369484,0.0,0.0,0.0,0.47000000000000003,77.24,77.24,0.0,0.01,3
49.46949600,49469496,0.0,0.0,0.0,0.48,77.26,77.26,0.0,0.01,3
49.56949800,49569498,0.0,0.0,0.0,0.45,77.25,77.25,0.0,0.01,3
49.66938100,49669381,0.0,0.0,0.0,0.48,77.24,77.24,0.0,0.01,3
49.76917400,49769174,0.0,0.0,0.0,0.48,77.25,77.25,0.0,0.01,3
49.86926500,49869265,0.0,0.0,0.0,0.46,77.24,77.24,0.0,0.0,3
49.96929700,49969297,0.0,0.0,0.0,0.48,77.23,77.23,0.0,0.0,3
50.06930100,50069301,0.0,0.0,0.0,0.47000000000000003,77.23,77.23,0.0,0.0,3
50.16934800,50169348,0.0,0.0,0.0,0.47000000000000003,77.24,77.24,0.0,0.0,3
50.26929100,50269291,0.0,0.0,0.0,0.49,77.24,77.24,0.0,0.01,3
50.36930800,50369308,0.0,0.0,0.0,0.46,77.25,77.25,0.0,0.01,3
50.46925400,50469254,0.0,0.0,0.0,0.47000000000000003,77.27,77.27,0.0,0.0,3
50.56911800,50569118,0.0,0.0,0.0,0.47000000000000003,77.26,77.26,0.0,0.0,3
50.66915800,50669158,0.0,0.0,0.0,0.45,77.28,77.28,0.0,0.0,3
50.76925600,50769256,0.0,0.0,0.0,0.46,77.3,77.3,0.0,0.01,3
50.86931200,50869312,0.0,0.0,0.0,0.45,77.28,77.28,0.0,0.01,3
50.96930400,50969304,0.0,0.0,0.0,0.45,77.3,77.3,0.0,0.01,3
51.06932500,51069325,0.0,0.0,0.0,0.45,77.3,77.3,0.0,0.02,3
51.16931700,51169317,0.0,0.0,0.0,0.44,77.28,77.28,0.0,0.01,3
51.26930700,51269307,0.0,-0.01,0.0,0.45,77.29,77.29,0.0,0.02,3
51.36918900,51369189,0.0,-0.01,0.0,0.44,77.27,77.27,0.0,0.02,3
51.46938700,51469387,0.0,-0.01,0.0,0.45,77.24,77.24,0.0,0.02,3
51.56934700,51569347,0.0,-0.02,0.0,0.46,77.24,77.24,0.0,0.01,3
51.66928200,51669282,0.0,-0.01,0.0,0.43,77.22,77.22,0.0,0.01,3
51.76929800,51769298,0.0,-0.02,0.0,0.45,77.21000000000001,77.21000000000001,0.0,0.01,3
51.86932300,51869323,0.0,-0.01,0.0,0.44,77.22,77.22,0.0,0.01,3
51.96931200,51969312,0.0,-0.01,0.0,0.42,77.21000000000001,77.21000000000001,0.0,0.01,3
52.06931100,52069311,0.0,-0.02,0.0,0.44,77.21000000000001,77.21000000000001,0.0,0.01,3
52.16932600,52169326,0.0,-0.01,0.0,0.42,77.21000000000001,77.21000000000001,0.0,0.02,3
52.26919500,52269195,0.0,-0.02,0.0,0.42,77.21000000000001,77.21000000000001,0.0,0.02,3
52.36911100,52369111,0.0,-0.02,0.0,0.43,77.21000000000001,77.21000000000001,0.0,0.01,3
52.46919900,52469199,0.0,-0.02,0.0,0.41000000000000003,77.21000000000001,77.21000000000001,0.0,0.01,3
52.56928100,52569281,0.0,-0.02,0.0,0.42,77.22,77.22,0.0,0.02,3
52.66932000,52669320,0.0,-0.02,0.0,0.42,77.22,77.22,0.0,0.02,3
52.76931800,52769318,0.0,-0.03,0.0,0.41000000000000003,77.24,77.24,0.0,0.02,3
52.86932100,52869321,0.0,-0.03,0.0,0.43,77.25,77.25,0.0,0.01,3
52.96948000,52969480,0.0,-0.03,0.0,0.41000000000000003,77.26,77.26,0.0,0.01,3
53.06931200,53069312,0.0,-0.03,0.0,0.41000000000000003,77.27,77.27,0.0,0.01,3
53.16947300,53169473,0.0,-0.03,0.0,0.42,77.28,77.28,0.0,0.01,3
53.26933700,53269337,0.0,-0.03,0.0,0.4,77.26,77.26,0.0,0.02,3
53.36931100,53369311,0.0,-0.03,0.0,0.41000000000000003,77.27,77.27,0.0,0.02,3
53.46945400,53469454,0.0,-0.03,0.0,0.4,77.25,77.25,0.0,0.03,3
53.56945400,53569454,0.0,-0.03,0.0,0.4,77.23,77.23,0.0,0.02,3
53.66946400,53669464,0.0,-0.03,0.0,0.41000000000000003,77.22,77.22,0.0,0.02,3
53.76945600,53769456,0.0,-0.03,0.0,0.4,77.2,77.2,0.0,0.02,3
53.86945800,53869458,0.0,-0.03,0.0,0.4,77.18,77.18,0.0,0.02,3
53.96945600,53969456,0.0,-0.03,0.0,0.4,77.17,77.17,0.0,0.01,3
54.06944900,54069449,0.0,-0.03,0.0,0.39,77.16,77.16,0.0,0.01,3
54.16936500,54169365,0.0,-0.03,0.0,0.4,77.16,77.16,0.0,0.01,3
54.26931500,54269315,0.0,-0.04,0.0,0.4,77.17,77.17,0.0,0.01,3
54.36944500,54369445,0.0,-0.04,0.0,0.4,77.16,77.16,0.0,0.01,3
54.46944400,54469444,0.0,-0.04,0.0,0.4,77.18,77.18,0.0,0.01,3
54.56942800,54569428,0.0,-0.04,0.0,0.39,77.19,77.19,0.0,0.01,3
54.66953900,54669539,0.0,-0.04,0.0,0.4,77.2,77.2,0.0,0.01,3
54.76943500,54769435,0.0,-0.04,0.0,0.39,77.21000000000001,77.21000000000001,0.0,0.02,3
54.86944700,54869447,0.0,-0.04,0.0,0.38,77.22,77.22,0.0,0.02,3
54.96943500,54969435,0.0,-0.04,0.0,0.38,77.22,77.22,0.0,0.01,3
55.06935600,55069356,0.0,-0.04,0.0,0.38,77.21000000000001,77.21000000000001,0.0,0.01,3
55.16932000,55169320,0.0,-0.05,0.0,0.38,77.21000000000001,77.21000000000001,0.0,0.01,3
55.26944400,55269444,0.0,-0.05,0.0,0.39,77.21000000000001,77.21000000000001,0.0,0.01,3
55.36943200,55369432,0.0,-0.05,0.0,0.39,77.22,77.22,0.0,0.01,3
55.46944600,55469446,0.0,-0.05,0.0,0.39,77.22,77.22,0.0,0.01,3
55.56945000,55569450,0.0,-0.05,0.0,0.38,77.22,77.22,0.0,0.01,3
55.66944600,55669446,0.0,-0.05,0.0,0.37,77.21000000000001,77.21000000000001,0.0,0.01,3
55.76944900,55769449,0.0,-0.05,0.0,0.38,77.21000000000001,77.21000000000001,0.0,0.01,3
55.86966300,55869663,0.0,-0.05,0.0,0.37,77.21000000000001,77.21000000000001,0.0,0.01,3
55.96937700,55969377,0.0,-0.05,0.0,0.37,77.21000000000001,77.21000000000001,0.0,0.01,3
56.06944000,56069440,0.0,-0.05,0.0,0.37,77.21000000000001,77.21000000000001,0.0,0.01,3
56.16958400,56169584,0.0,-0.05,0.0,0.37,77.2,77.2,0.0,0.01,3
56.26948000,56269480,0.0,-0.05,0.0,0.37,77.2,77.2,0.0,0.01,3
56.36949600,56369496,0.0,-0.05,0.0,0.37,77.21000000000001,77.21000000000001,0.0,0.01,3
56.46930400,56469304,0.0,-0.05,0.0,0.37,77.2,77.2,0.0,0.01,3
56.56930700,56569307,0.0,-0.05,0.0,0.37,77.2,77.2,0.0,0.01,3
56.66931400,56669314,0.0,-0.05,0.0,0.36,77.2,77.2,0.0,0.01,3
56.76924000,56769240,0.0,-0.06,0.0,0.36,77.2,77.2,0.0,0.01,3
56.86913000,56869130,0.0,-0.06,0.0,0.36,77.2,77.2,0.0,0.01,3
56.96915600,56969156,0.0,-0.06,0.0,0.35000000000000003,77.2,77.2,0.0,0.01,3
57.06929500,57069295,0.0,-0.05,0.0,0.36,77.2,77.2,0.0,0.01,3
57.16934100,57169341,0.0,-0.05,0.0,0.35000000000000003,77.21000000000001,77.21000000000001,0.0,0.0,3
57.26932900,57269329,0.0,-0.05,0.0,0.35000000000000003,77.2,77.2,0.0,0.0,3
57.36932400,57369324,0.0,-0.05,0.0,0.36,77.21000000000001,77.21000000000001,0.0,0.0,3
57.46930700,57469307,0.0,-0.05,0.0,0.36,77.21000000000001,77.21000000000001,0.0,0.01,3
57.56929200,57569292,0.0,-0.05,0.0,0.35000000000000003,77.21000000000001,77.21000000000001,0.0,0.01,3
57.66918500,57669185,0.0,-0.05,0.0,0.36,77.21000000000001,77.21000000000001,0.0,0.01,3
57.76912100,57769121,0.0,-0.05,0.0,0.36,77.2,77.2,0.0,0.01,3
57.86916900,57869169,0.0,-0.04,0.0,0.36,77.2,77.2,0.0,0.01,3
57.96926600,57969266,0.0,-0.04,0.0,0.36,77.21000000000001,77.21000000000001,0.0,0.01,3
58.06932100,58069321,0.0,-0.04,0.0,0.36,77.21000000000001,77.21000000000001,0.0,0.01,3
58.16934100,58169341,0.0,-0.04,0.0,0.36,77.22,77.22,0.0,0.01,3
58.26932400,58269324,0.0,-0.04,0.0,0.36,77.22,77.22,0.0,0.01,3
58.36929200,58369292,0.0,-0.04,0.0,0.36,77.21000000000001,77.21000000000001,0.0,0.01,3
58.46929200,58469292,0.0,-0.04,0.0,0.36,77.21000000000001,77.21000000000001,0.0,0.01,3
58.56918100,58569181,0.0,-0.03,0.0,0.36,77.21000000000001,77.21000000000001,0.0,0.01,3
58.66912900,58669129,0.0,-0.03,0.0,0.37,77.2,77.2,0.0,0.01,3
58.76915100,58769151,0.0,-0.03,0.0,0.37,77.2,77.2,0.0,0.01,3
58.86926700,58869267,0.0,-0.03,0.0,0.36,77.19,77.19,0.0,0.01,3
58.96929600,58969296,0.0,-0.02,0.0,0.37,77.19,77.19,0.0,0.01,3
59.06949300,59069493,0.0,-0.02,0.0,0.36,77.18,77.18,0.0,0.01,3
59.16951100,59169511,0.0,-0.01,0.0,0.36,77.17,77.17,0.0,0.01,3
59.26945600,59269456,0.0,-0.01,0.0,0.35000000000000003,77.17,77.17,0.0,0.01,3
59.36929000,59369290,0.0,0.0,0.0,0.34,77.16,77.16,0.0,0.01,3
59.46918600,59469186,0.0,0.02,0.0,0.31,77.15,77.15,0.0,0.01,3
59.56911300,59569113,0.0,0.03,0.0,0.28,77.15,77.15,0.0,0.01,3
59.66917200,59669172,0.0,0.03,0.0,0.28,77.15,77.15,0.0,0.01,3
59.76925700,59769257,0.0,0.06,0.0,0.24,77.14,77.14,0.0,0.01,3
59.86931600,59869316,0.0,0.06,0.0,0.22,77.15,77.15,0.0,0.01,3
59.96930700,59969307,0.0,0.06,0.0,0.24,77.16,77.16,0.0,0.01,3
60.06932300,60069323,0.0,0.07,0.0,0.22,77.14,77.14,0.0,0.01,3
60.16933400,60169334,0.0,0.09,0.0,0.18,77.14,77.14,0.0,0.01,3
60.26930100,60269301,0.0,0.08,0.0,0.2,77.14,77.14,0.0,0.01,3
60.36917500,60369175,0.0,0.07,0.0,0.23,77.12,77.12,0.0,0.01,3
60.46913700,60469137,0.0,0.06,0.0,0.25,77.13,77.13,0.0,0.02,3
60.56915800,60569158,0.0,0.07,0.0,0.26,77.13,77.13,0.0,0.02,3
60.66926700,60669267,0.0,0.04,0.0,0.28,77.11,77.11,0.0,0.02,3
60.76928000,60769280,0.0,0.02,0.0,0.34,77.12,77.12,0.0,0.01,3
60.86930300,60869303,0.0,0.01,0.0,0.38,77.12,77.12,0.0,0.01,3
60.96936900,60969369,0.0,0.01,0.0,0.35000000000000003,77.10000000000001,77.10000000000001,0.0,0.01,3
61.06930300,61069303,0.0,0.01,0.0,0.38,77.12,77.12,0.0,0.01,3
61.16930500,61169305,0.0,0.0,0.0,0.39,77.11,77.11,0.0,0.01,3
61.26920300,61269203,0.0,0.01,0.0,0.38,77.10000000000001,77.10000000000001,0.0,0.01,3
61.36913000,61369130,0.0,0.0,0.0,0.4,77.13,77.13,0.0,0.01,3
61.46916600,61469166,0.0,0.0,0.0,0.39,77.11,77.11,0.0,0.01,3
61.56925800,61569258,0.0,0.0,0.0,0.39,77.12,77.12,0.0,0.01,3
61.66929100,61669291,0.0,0.0,0.0,0.4,77.15,77.15,0.0,0.01,3
61.76928600,61769286,0.0,0.0,0.0,0.38,77.14,77.14,0.0,0.01,3
61.86950300,61869503,0.0,0.0,0.0,0.4,77.14,77.14,0.0,0.01,3
61.96945200,61969452,0.0,0.0,0.0,0.4,77.16,77.16,0.0,0.01,3
62.06949800,62069498,0.0,0.01,0.0,0.39,77.14,77.14,0.0,0.01,3
62.16950900,62169509,0.0,0.0,0.0,0.4,77.14,77.14,0.0,0.01,3
62.26938300,62269383,0.0,0.0,0.0,0.39,77.15,77.15,0.0,0.01,3
62.36933100,62369331,0.0,0.0,0.0,0.39,77.13,77.13,0.0,0.01,3
62.46955000,62469550,0.0,0.01,0.0,0.4,77.14,77.14,0.0,0.01,3
62.56946700,62569467,0.0,0.01,0.0,0.39,77.14,77.14,0.0,0.01,3
62.66948200,62669482,0.0,0.01,0.0,0.4,77.13,77.13,0.0,0.01,3
62.76947000,62769470,0.0,0.01,0.0,0.4,77.13,77.13,0.0,0.01,3
62.86947800,62869478,0.0,0.01,0.0,0.4,77.13,77.13,0.0,0.01,3
62.96948400,62969484,0.0,0.0,0.0,0.41000000000000003,77.13,77.13,0.0,0.01,3
63.06962100,63069621,0.0,0.01,0.0,0.41000000000000003,77.14,77.14,0.0,0.01,3
63.16938200,63169382,0.0,0.01,0.0,0.4,77.14,77.14,0.0,0.01,3
63.26942400,63269424,0.0,0.0,0.0,0.41000000000000003,77.14,77.14,0.0,0.01,3
63.36955000,63369550,0.0,0.01,0.0,0.4,77.15,77.15,0.0,0.01,3
63.46949900,63469499,0.0,0.01,0.0,0.4,77.15,77.15,0.0,0.01,3
63.56949100,63569491,0.0,0.01,0.0,0.4,77.13,77.13,0.0,0.02,3
63.66951300,63669513,0.0,0.02,0.0,0.39,77.13,77.13,0.0,0.02,3
63.76947900,63769479,0.0,0.01,0.0,0.39,77.12,77.12,0.0,0.02,3
63.86951500,63869515,0.0,0.01,0.0,0.39,77.09,77.09,0.0,0.02,3
63.96951500,63969515,0.0,0.02,0.0,0.38,77.08,77.08,0.0,0.02,3
64.06943500,64069435,0.0,0.02,0.0,0.39,77.08,77.08,0.0,0.01,3
64.16945400,64169454,0.0,0.01,0.0,0.39,77.06,77.06,0.0,0.01,3
64.26954900,64269549,0.0,0.01,0.0,0.39,77.07000000000001,77.07000000000001,0.0,0.01,3
64.36946200,64369462,0.0,0.01,0.0,0.39,77.07000000000001,77.07000000000001,0.0,0.02,3
64.46969200,64469692,0.0,0.01,0.0,0.4,77.07000000000001,77.07000000000001,0.0,0.02,3
64.56968700,64569687,0.0,0.01,0.0,0.39,77.08,77.08,0.0,0.02,3
64.66970400,64669704,0.0,0.01,0.0,0.4,77.08,77.08,0.0,0.02,3
64.76949600,64769496,0.0,0.01,0.0,0.4,77.08,77.08,0.0,0.01,3
64.86949900,64869499,0.0,0.01,0.0,0.39,77.08,77.08,0.0,0.01,3
64.96937000,64969370,0.0,0.02,0.0,0.4,77.08,77.08,0.0,0.01,3
65.06942300,65069423,0.0,0.02,0.0,0.4,77.07000000000001,77.07000000000001,0.0,0.01,3
65.16957400,65169574,0.0,0.02,0.0,0.39,77.07000000000001,77.07000000000001,0.0,0.01,3
65.26947600,65269476,0.0,0.02,0.0,0.39,77.06,77.06,0.0,0.01,3
65.36947800,65369478,0.0,0.02,0.0,0.39,77.06,77.06,0.0,0.01,3
65.46949700,65469497,0.0,0.02,0.0,0.39,77.07000000000001,77.07000000000001,0.0,0.01,3
65.56945700,65569457,0.0,0.02,0.0,0.39,77.06,77.06,0.0,0.01,3
65.66949100,65669491,0.0,0.02,0.0,0.4,77.06,77.06,0.0,0.01,3
65.76948700,65769487,0.0,0.03,0.0,0.4,77.07000000000001,77.07000000000001,0.0,0.01,3
65.86938000,65869380,0.0,0.02,0.0,0.4,77.07000000000001,77.07000000000001,0.0,0.01,3
65.96939000,65969390,0.0,0.02,0.0,0.4,77.07000000000001,77.07000000000001,0.0,0.01,3
66.06955600,66069556,0.0,0.02,0.0,0.4,77.08,77.08,0.0,0.01,3
66.16949500,66169495,0.0,0.03,0.0,0.4,77.08,77.08,0.0,0.01,3
66.26949600,66269496,0.0,0.03,0.0,0.4,77.08,77.08,0.0,0.01,3
66.36948500,66369485,0.0,0.02,0.0,0.4,77.10000000000001,77.10000000000001,0.0,0.0,3
66.46975000,66469750,0.0,0.02,0.0,0.4,77.09,77.09,0.0,0.01,3
66.56949400,66569494,0.0,0.02,0.0,0.4,77.10000000000001,77.10000000000001,0.0,0.01,3
66.66950500,66669505,0.0,0.03,0.0,0.4,77.10000000000001,77.10000000000001,0.0,0.01,3
66.76937500,66769375,0.0,0.03,0.0,0.41000000000000003,77.10000000000001,77.10000000000001,0.0,0.0,3
66.86944000,66869440,0.0,0.03,0.0,0.41000000000000003,77.10000000000001,77.10000000000001,0.0,0.0,3
66.96927500,66969275,0.0,0.03,0.0,0.41000000000000003,77.11,77.11,0.0,0.0,3
67.06929800,67069298,0.0,0.03,0.0,0.4,77.11,77.11,0.0,0.0,3
67.16932700,67169327,0.0,0.03,0.0,0.4,77.11,77.11,0.0,0.0,3
67.26935700,67269357,0.0,0.03,0.0,0.41000000000000003,77.12,77.12,0.0,0.0,3
67.36928200,67369282,0.0,0.03,0.0,0.4,77.12,77.12,0.0,0.01,3
67.46933600,67469336,0.0,0.03,0.0,0.4,77.12,77.12,0.0,0.02,3
67.56918800,67569188,0.0,0.03,0.0,0.41000000000000003,77.11,77.11,0.0,0.02,3
67.66937900,67669379,0.0,0.03,0.0,0.41000000000000003,77.10000000000001,77.10000000000001,0.0,0.02,3
67.76938800,67769388,0.0,0.03,0.0,0.41000000000000003,77.09,77.09,0.0,0.01,3
67.86955900,67869559,0.0,0.03,0.0,0.41000000000000003,77.09,77.09,0.0,0.01,3
67.96946300,67969463,0.0,0.03,0.0,0.41000000000000003,77.09,77.09,0.0,0.01,3
68.06949900,68069499,0.0,0.03,0.0,0.41000000000000003,77.10000000000001,77.10000000000001,0.0,0.01,3
68.16950500,68169505,0.0,0.03,0.0,0.42,77.10000000000001,77.10000000000001,0.0,0.01,3
68.26948600,68269486,0.0,0.03,0.0,0.42,77.10000000000001,77.10000000000001,0.0,0.01,3
68.36947600,68369476,0.0,0.03,0.0,0.42,77.10000000000001,77.10000000000001,0.0,0.01,3
68.46949000,68469490,0.0,0.03,0.0,0.41000000000000003,77.11,77.11,0.0,0.01,3
68.56936800,68569368,0.0,0.03,0.0,0.42,77.10000000000001,77.10000000000001,0.0,0.01,3
68.66941600,68669416,0.0,0.03,0.0,0.42,77.10000000000001,77.10000000000001,0.0,0.01,3
68.76954800,68769548,0.0,0.03,0.0,0.42,77.10000000000001,77.10000000000001,0.0,0.01,3
68.86932000,68869320,0.0,0.03,0.0,0.42,77.09,77.09,0.0,0.01,3
68.96931400,68969314,0.0,0.03,0.0,0.42,77.09,77.09,0.0,0.01,3
69.06934400,69069344,0.0,0.03,0.0,0.43,77.10000000000001,77.10000000000001,0.0,0.01,3
69.16930000,69169300,0.0,0.03,0.0,0.42,77.10000000000001,77.10000000000001,0.0,0.01,3
69.26931200,69269312,0.0,0.04,0.0,0.43,77.10000000000001,77.10000000000001,0.0,0.01,3
69.36925200,69369252,0.0,0.04,0.0,0.42,77.11,77.11,0.0,0.01,3
69.46912600,69469126,0.0,0.04,0.0,0.42,77.11,77.11,0.0,0.01,3
69.56917800,69569178,0.0,0.04,0.0,0.43,77.11,77.11,0.0,0.01,3
69.66928300,69669283,0.0,0.04,0.0,0.42,77.11,77.11,0.0,0.01,3
69.76930800,69769308,0.0,0.04,0.0,0.42,77.10000000000001,77.10000000000001,0.0,0.01,3
69.86933300,69869333,0.0,0.04,0.0,0.42,77.10000000000001,77.10000000000001,0.0,0.01,3
69.96933000,69969330,0.0,0.04,0.0,0.43,77.09,77.09,0.0,0.01,3
70.06932300,70069323,0.0,0.04,0.0,0.43,77.09,77.09,0.0,0.01,3
70.16932900,70169329,0.0,0.04,0.0,0.43,77.09,77.09,0.0,0.01,3
70.26919300,70269193,0.0,0.04,0.0,0.43,77.08,77.08,0.0,0.01,3
70.36911600,70369116,0.0,0.04,0.0,0.44,77.08,77.08,0.0,0.01,3
70.46916200,70469162,0.0,0.04,0.0,0.43,77.07000000000001,77.07000000000001,0.0,0.01,3
70.56926100,70569261,0.0,0.04,0.0,0.43,77.07000000000001,77.07000000000001,0.0,0.01,3
70.66930100,70669301,0.0,0.04,0.0,0.44,77.08,77.08,0.0,0.01,3
70.76929600,70769296,0.0,0.04,0.0,0.44,77.08,77.08,0.0,0.01,3
70.86932100,70869321,0.0,0.04,0.0,0.44,77.08,77.08,0.0,0.01,3
70.96929800,70969298,0.0,0.04,0.0,0.45,77.09,77.09,0.0,0.01,3
71.06928900,71069289,0.0,0.04,0.0,0.44,77.09,77.09,0.0,0.01,3
71.16921500,71169215,0.0,0.04,0.0,0.44,77.09,77.09,0.0,0.01,3
71.26912600,71269126,0.0,0.04,0.0,0.44,77.09,77.09,0.0,0.01,3
71.36915100,71369151,0.0,0.04,0.0,0.44,77.10000000000001,77.10000000000001,0.0,0.01,3
71.46926300,71469263,0.0,0.03,0.0,0.44,77.09,77.09,0.0,0.01,3
71.56928000,71569280,0.0,0.04,0.0,0.44,77.10000000000001,77.10000000000001,0.0,0.01,3
71.66929200,71669292,0.0,0.04,0.0,0.45,77.10000000000001,77.10000000000001,0.0,0.02,3
71.76930400,71769304,0.0,0.04,0.0,0.44,77.11,77.11,0.0,0.02,3
71.86930900,71869309,0.0,0.04,0.0,0.44,77.11,77.11,0.0,0.02,3
71.96930200,71969302,0.0,0.04,0.0,0.44,77.11,77.11,0.0,0.02,3
72.06949900,72069499,0.0,0.04,0.0,0.44,77.11,77.11,0.0,0.02,3
72.16944700,72169447,0.0,0.04,0.0,0.44,77.10000000000001,77.10000000000001,0.0,0.02,3
72.26942500,72269425,0.0,0.04,0.0,0.44,77.10000000000001,77.10000000000001,0.0,0.01,3
72.36953000,72369530,0.0,0.04,0.0,0.44,77.09,77.09,0.0,0.01,3
72.46947100,72469471,0.0,0.04,0.0,0.44,77.09,77.09,0.0,0.01,3
72.56947400,72569474,0.0,0.04,0.0,0.45,77.09,77.09,0.0,0.01,3
72.66950000,72669500,0.0,0.04,0.0,0.45,77.09,77.09,0.0,0.01,3
72.76949500,72769495,0.0,0.04,0.0,0.45,77.08,77.08,0.0,0.01,3
72.86930200,72869302,0.0,0.04,0.0,0.45,77.07000000000001,77.07000000000001,0.0,0.01,3
72.96919200,72969192,0.0,0.04,0.0,0.45,77.07000000000001,77.07000000000001,0.0,0.01,3
73.06913500,73069135,0.0,0.05,0.0,0.45,77.07000000000001,77.07000000000001,0.0,0.01,3
73.16919100,73169191,0.0,0.05,0.0,0.45,77.07000000000001,77.07000000000001,0.0,0.0,3
73.26926700,73269267,0.0,0.05,0.0,0.45,77.07000000000001,77.07000000000001,0.0,0.01,3
73.36929400,73369294,0.0,0.05,0.0,0.45,77.08,77.08,0.0,0.01,3
73.46931800,73469318,0.0,0.05,0.0,0.45,77.08,77.08,0.0,0.0,3
73.56936300,73569363,0.0,0.05,0.0,0.45,77.08,77.08,0.0,0.0,3
73.66929800,73669298,0.0,0.05,0.0,0.45,77.09,77.09,0.0,0.0,3
73.76929000,73769290,0.0,0.05,0.0,0.45,77.08,77.08,0.0,0.0,3
73.86918600,73869186,0.0,0.05,0.0,0.45,77.08,77.08,0.0,0.0,3
73.96912000,73969120,0.0,0.05,0.0,0.45,77.08,77.08,0.0,0.0,3
74.06917200,74069172,0.0,0.06,0.0,0.45,77.09,77.09,0.0,0.01,3
74.16927900,74169279,0.0,0.06,0.0,0.45,77.09,77.09,0.0,0.0,3
74.26930300,74269303,0.0,0.06,0.0,0.45,77.09,77.09,0.0,0.0,3
74.36929100,74369291,0.0,0.06,0.0,0.45,77.10000000000001,77.10000000000001,0.0,0.0,3
74.46931900,74469319,0.0,0.06,0.0,0.44,77.10000000000001,77.10000000000001,0.0,0.01,3
74.56929200,74569292,0.0,0.06,0.0,0.45,77.09,77.09,0.0,0.0,3
74.66930500,74669305,0.0,0.06,0.0,0.44,77.10000000000001,77.10000000000001,0.0,0.01,3
74.76917700,74769177,0.0,0.06,0.0,0.44,77.10000000000001,77.10000000000001,0.0,0.01,3
74.86913300,74869133,0.0,0.06,0.0,0.45,77.09,77.09,0.0,0.01,3
74.96916500,74969165,0.0,0.06,0.0,0.44,77.09,77.09,0.0,0.01,3
75.06926500,75069265,0.0,0.06,0.0,0.43,77.10000000000001,77.10000000000001,0.0,0.01,3
75.16932700,75169327,0.0,0.06,0.0,0.45,77.09,77.09,0.0,0.01,3
75.26931200,75269312,0.0,0.06,0.0,0.45,77.10000000000001,77.10000000000001,0.0,0.01,3
75.36930800,75369308,0.0,0.06,0.0,0.45,77.10000000000001,77.10000000000001,0.0,0.01,3
75.46947400,75469474,0.0,0.06,0.0,0.45,77.10000000000001,77.10000000000001,0.0,0.0,3
75.56949200,75569492,0.0,0.06,0.0,0.45,77.09,77.09,0.0,0.0,3
75.66962600,75669626,0.0,0.06,0.0,0.45,77.10000000000001,77.10000000000001,0.0,0.0,3
75.76936400,75769364,0.0,0.06,0.0,0.45,77.10000000000001,77.10000000000001,0.0,0.0,3
75.86942800,75869428,0.0,0.07,0.0,0.45,77.09,77.09,0.0,0.0,3
75.96953900,75969539,0.0,0.06,0.0,0.45,77.10000000000001,77.10000000000001,0.0,0.0,3
76.06947700,76069477,0.0,0.06,0.0,0.45,77.10000000000001,77.10000000000001,0.0,0.01,3
76.16951500,76169515,0.0,0.07,0.0,0.44,77.10000000000001,77.10000000000001,0.0,0.01,3
76.26949300,76269493,0.0,0.06,0.0,0.46,77.10000000000001,77.10000000000001,0.0,0.01,3
76.36947100,76369471,0.0,0.07,0.0,0.45,77.09,77.09,0.0,0.01,3
76.46929800,76469298,0.0,0.06,0.0,0.45,77.10000000000001,77.10000000000001,0.0,0.01,3
76.56918900,76569189,0.0,0.06,0.0,0.45,77.10000000000001,77.10000000000001,0.0,0.01,3
76.66912900,76669129,0.0,0.06,0.0,0.45,77.10000000000001,77.10000000000001,0.0,0.01,3
76.76914500,76769145,0.0,0.06,0.0,0.45,77.11,77.11,0.0,0.0,3
76.86927200,76869272,0.0,0.06,0.0,0.45,77.10000000000001,77.10000000000001,0.0,0.0,3
76.96928100,76969281,0.0,0.06,0.0,0.45,77.09,77.09,0.0,0.01,3
77.06929800,77069298,0.0,0.06,0.0,0.46,77.11,77.11,0.0,0.01,3
77.16934400,77169344,0.0,0.06,0.0,0.45,77.10000000000001,77.10000000000001,0.0,0.01,3
77.26930800,77269308,0.0,0.07,0.0,0.46,77.10000000000001,77.10000000000001,0.0,0.01,3
77.36929200,77369292,0.0,0.07,0.0,0.45,77.11,77.11,0.0,0.01,3
77.46919700,77469197,0.0,0.07,0.0,0.45,77.11,77.11,0.0,0.01,3
77.56910700,77569107,0.0,0.07,0.0,0.46,77.11,77.11,0.0,0.01,3
77.66916100,77669161,0.0,0.08,0.0,0.46,77.11,77.11,0.0,0.01,3
77.76924500,77769245,0.0,0.08,0.0,0.45,77.10000000000001,77.10000000000001,0.0,0.01,3
77.86929500,77869295,0.0,0.08,0.0,0.45,77.09,77.09,0.0,0.01,3
77.96928400,77969284,0.0,0.08,0.0,0.45,77.09,77.09,0.0,0.01,3
78.06946200,78069462,0.0,0.08,0.0,0.45,77.08,77.08,0.0,0.01,3
78.16944700,78169447,0.0,0.08,0.0,0.45,77.08,77.08,0.0,0.01,3
78.26945900,78269459,0.0,0.08,0.0,0.45,77.08,77.08,0.0,0.01,3
78.36943800,78369438,0.0,0.08,0.0,0.45,77.08,77.08,0.0,0.01,3
78.46936200,78469362,0.0,0.08,0.0,0.45,77.09,77.09,0.0,0.01,3
78.56932000,78569320,0.0,0.08,0.0,0.45,77.09,77.09,0.0,0.01,3
78.66945300,78669453,0.0,0.08,0.0,0.45,77.09,77.09,0.0,0.01,3
78.76945000,78769450,0.0,0.08,0.0,0.45,77.09,77.09,0.0,0.02,3
78.86944200,78869442,0.0,0.08,0.0,0.45,77.09,77.09,0.0,0.01,3
78.96945700,78969457,0.0,0.08,0.0,0.45,77.09,77.09,0.0,0.01,3
79.06944100,79069441,0.0,0.08,0.0,0.45,77.08,77.08,0.0,0.01,3
79.16948400,79169484,0.0,0.09,0.0,0.45,77.08,77.08,0.0,0.01,3
79.26968300,79269683,0.0,0.09,0.0,0.45,77.08,77.08,0.0,0.01,3
79.36937400,79369374,0.0,0.09,0.0,0.45,77.08,77.08,0.0,0.01,3
79.46943200,79469432,0.0,0.09,0.0,0.45,77.07000000000001,77.07000000000001,0.0,0.01,3
79.56954900,79569549,0.0,0.09,0.0,0.45,77.07000000000001,77.07000000000001,0.0,0.01,3
79.66949200,79669492,0.0,0.08,0.0,0.46,77.07000000000001,77.07000000000001,0.0,0.01,3
79.76946900,79769469,0.0,0.08,0.0,0.46,77.07000000000001,77.07000000000001,0.0,0.01,3
79.86939800,79869398,0.0,0.09,0.0,0.45,77.07000000000001,77.07000000000001,0.0,0.01,3
79.96930000,79969300,0.0,0.08,0.0,0.46,77.07000000000001,77.07000000000001,0.0,0.01,3
80.06930700,80069307,0.0,0.08,0.0,0.45,77.07000000000001,77.07000000000001,0.0,0.01,3
80.16922000,80169220,0.0,0.08,0.0,0.46,77.07000000000001,77.07000000000001,0.0,0.0,3
80.26912700,80269127,0.0,0.08,0.0,0.46,77.08,77.08,0.0,0.0,3
80.36915100,80369151,0.0,0.09,0.0,0.45,77.08,77.08,0.0,0.01,3
80.46927300,80469273,0.0,0.09,0.0,0.45,77.08,77.08,0.0,0.01,3
80.56928600,80569286,0.0,0.09,0.0,0.45,77.09,77.09,0.0,0.01,3
80.66930800,80669308,0.0,0.09,0.0,0.44,77.09,77.09,0.0,0.01,3
80.76930800,80769308,0.0,0.09,0.0,0.44,77.09,77.09,0.0,0.01,3
80.86930100,80869301,0.0,0.09,0.0,0.44,77.09,77.09,0.0,0.01,3
80.96928600,80969286,0.0,0.09,0.0,0.44,77.08,77.08,0.0,0.0,3
81.06919600,81069196,0.0,0.1,0.0,0.44,77.08,77.08,0.0,0.01,3
81.16916000,81169160,0.0,0.1,0.0,0.44,77.08,77.08,0.0,0.01,3
81.26918300,81269183,0.0,0.1,0.0,0.43,77.08,77.08,0.0,0.01,3
81.36927500,81369275,0.0,0.1,0.0,0.44,77.08,77.08,0.0,0.01,3
81.46931000,81469310,0.0,0.09,0.0,0.44,77.08,77.08,0.0,0.01,3
81.56932100,81569321,0.0,0.1,0.0,0.44,77.09,77.09,0.0,0.01,3
81.66930200,81669302,0.0,0.1,0.0,0.44,77.08,77.08,0.0,0.01,3
81.76945400,81769454,0.0,0.1,0.0,0.44,77.09,77.09,0.0,0.01,3
81.86949900,81869499,0.0,0.1,0.0,0.44,77.09,77.09,0.0,0.02,3
81.96960800,81969608,0.0,0.1,0.0,0.45,77.08,77.08,0.0,0.01,3
82.06913800,82069138,0.0,0.1,0.0,0.45,77.08,77.08,0.0,0.01,3
82.16919000,82169190,0.0,0.1,0.0,0.45,77.07000000000001,77.07000000000001,0.0,0.01,3
82.26926400,82269264,0.0,0.1,0.0,0.45,77.07000000000001,77.07000000000001,0.0,0.01,3
82.36930400,82369304,0.0,0.1,0.0,0.45,77.07000000000001,77.07000000000001,0.0,0.01,3
82.46932300,82469323,0.0,0.1,0.0,0.46,77.06,77.06,0.0,0.01,3
82.56931700,82569317,0.0,0.1,0.0,0.46,77.06,77.06,0.0,0.01,3
82.66931100,82669311,0.0,0.1,0.0,0.47000000000000003,77.07000000000001,77.07000000000001,0.0,0.01,3
82.76929300,82769293,0.0,0.09,0.0,0.47000000000000003,77.08,77.08,0.0,0.01,3
82.86918900,82869189,0.0,0.1,0.0,0.47000000000000003,77.08,77.08,0.0,0.01,3
82.96912200,82969122,0.0,0.1,0.0,0.47000000000000003,77.08,77.08,0.0,0.01,3
83.06917100,83069171,0.0,0.1,0.0,0.47000000000000003,77.08,77.08,0.0,0.01,3
83.16927600,83169276,0.0,0.09,0.0,0.47000000000000003,77.08,77.08,0.0,0.01,3
83.26931000,83269310,0.0,0.1,0.0,0.47000000000000003,77.07000000000001,77.07000000000001,0.0,0.01,3
83.36930600,83369306,0.0,0.1,0.0,0.48,77.07000000000001,77.07000000000001,0.0,0.01,3
83.46931000,83469310,0.0,0.09,0.0,0.47000000000000003,77.06,77.06,0.0,0.0,3
83.56928000,83569280,0.0,0.1,0.0,0.47000000000000003,77.06,77.06,0.0,0.0,3
83.66929800,83669298,0.0,0.09,0.0,0.48,77.06,77.06,0.0,0.0,3
83.76918700,83769187,0.0,0.1,0.0,0.48,77.06,77.06,0.0,0.01,3
83.86913400,83869134,0.0,0.09,0.0,0.49,77.06,77.06,0.0,0.01,3
83.96916200,83969162,0.0,0.1,0.0,0.49,77.06,77.06,0.0,0.01,3
84.06926100,84069261,0.0,0.09,0.0,0.49,77.06,77.06,0.0,0.01,3
84.16932000,84169320,0.0,0.1,0.0,0.5,77.07000000000001,77.07000000000001,0.0,0.01,3
84.26930800,84269308,0.0,0.09,0.0,0.49,77.08,77.08,0.0,0.02,3
84.36929500,84369295,0.0,0.09,0.0,0.49,77.09,77.09,0.0,0.01,3
84.46927500,84469275,0.0,0.1,0.0,0.49,77.10000000000001,77.10000000000001,0.0,0.01,3
84.56928500,84569285,0.0,0.09,0.0,0.49,77.10000000000001,77.10000000000001,0.0,0.01,3
84.66919600,84669196,0.0,0.09,0.0,0.49,77.11,77.11,0.0,0.01,3
84.76912800,84769128,0.0,0.09,0.0,0.49,77.10000000000001,77.10000000000001,0.0,0.01,3
84.86943100,84869431,0.0,0.09,0.0,0.49,77.10000000000001,77.10000000000001,0.0,0.01,3
84.96955000,84969550,0.0,0.1,0.0,0.49,77.11,77.11,0.0,0.01,3
85.06949700,85069497,0.0,0.09,0.0,0.49,77.10000000000001,77.10000000000001,0.0,0.01,3
85.16932500,85169325,0.0,0.09,0.0,0.48,77.10000000000001,77.10000000000001,0.0,0.01,3
85.26933500,85269335,0.0,0.1,0.0,0.48,77.09,77.09,0.0,0.01,3
85.36929000,85369290,0.0,0.09,0.0,0.48,77.09,77.09,0.0,0.01,3
85.46929000,85469290,0.0,0.08,0.0,0.48,77.08,77.08,0.0,0.01,3
85.56918800,85569188,0.0,0.09,0.0,0.49,77.08,77.08,0.0,0.01,3
85.66912700,85669127,0.0,0.1,0.0,0.5,77.07000000000001,77.07000000000001,0.0,0.01,3
85.76916200,85769162,0.0,0.09,0.0,0.49,77.07000000000001,77.07000000000001,0.0,0.01,3
85.86954700,85869547,0.0,0.09,0.0,0.5,77.07000000000001,77.07000000000001,0.0,0.01,3
85.96946200,85969462,0.0,0.09,0.0,0.49,77.06,77.06,0.0,0.01,3
86.06928100,86069281,0.0,0.1,0.0,0.49,77.07000000000001,77.07000000000001,0.0,0.01,3
86.16960000,86169600,0.0,0.09,0.0,0.5,77.06,77.06,0.0,0.01,3
86.26942800,86269428,0.0,0.08,0.0,0.49,77.06,77.06,0.0,0.01,3
86.36943400,86369434,0.0,0.09,0.0,0.49,77.06,77.06,0.0,0.01,3
86.46946700,86469467,0.0,0.08,0.0,0.49,77.06,77.06,0.0,0.01,3
86.56933300,86569333,0.0,0.09,0.0,0.5,77.06,77.06,0.0,0.01,3
86.66940100,86669401,0.0,0.09,0.0,0.49,77.06,77.06,0.0,0.02,3
86.76944600,86769446,0.0,0.09,0.0,0.49,77.06,77.06,0.0,0.01,3
86.86945200,86869452,0.0,0.09,0.0,0.49,77.08,77.08,0.0,0.01,3
86.96944400,86969444,0.0,0.09,0.0,0.49,77.08,77.08,0.0,0.01,3
87.06945400,87069454,0.0,0.09,0.0,0.48,77.08,77.08,0.0,0.01,3
87.16945400,87169454,0.0,0.08,0.0,0.48,77.08,77.08,0.0,0.01,3
87.26945100,87269451,0.0,0.09,0.0,0.48,77.08,77.08,0.0,0.01,3
87.36943200,87369432,0.0,0.09,0.0,0.48,77.08,77.08,0.0,0.01,3
87.46934300,87469343,0.0,0.08,0.0,0.48,77.08,77.08,0.0,0.01,3
87.56936100,87569361,0.0,0.09,0.0,0.48,77.07000000000001,77.07000000000001,0.0,0.01,3
87.66952800,87669528,0.0,0.08,0.0,0.48,77.06,77.06,0.0,0.0,3
87.76944700,87769447,0.0,0.09,0.0,0.49,77.06,77.06,0.0,0.0,3
87.86948300,87869483,0.0,0.08,0.0,0.49,77.05,77.05,0.0,0.0,3
87.96945000,87969450,0.0,0.08,0.0,0.49,77.05,77.05,0.0,0.0,3
88.06945400,88069454,0.0,0.08,0.0,0.49,77.05,77.05,0.0,0.01,3
88.16949500,88169495,0.0,0.09,0.0,0.49,77.04,77.04,0.0,0.01,3
88.26958800,88269588,0.0,0.09,0.0,0.49,77.04,77.04,0.0,0.0,3
88.36934000,88369340,0.0,0.09,0.0,0.49,77.04,77.04,0.0,0.01,3
88.46931900,88469319,0.0,0.09,0.0,0.49,77.04,77.04,0.0,0.01,3
88.56945600,88569456,0.0,0.09,0.0,0.49,77.04,77.04,0.0,0.01,3
88.66944600,88669446,0.0,0.1,0.0,0.49,77.04,77.04,0.0,0.0,3
88.76944700,88769447,0.0,0.1,0.0,0.49,77.04,77.04,0.0,0.0,3
88.86943100,88869431,0.0,0.1,0.0,0.49,77.04,77.04,0.0,0.01,3
88.96946600,88969466,0.0,0.1,0.0,0.49,77.04,77.04,0.0,0.01,3
89.06949700,89069497,0.0,0.09,0.0,0.49,77.04,77.04,0.0,0.0,3
89.16950400,89169504,0.0,0.1,0.0,0.49,77.04,77.04,0.0,0.0,3
89.26952100,89269521,0.0,0.09,0.0,0.49,77.05,77.05,0.0,0.0,3
89.36939100,89369391,0.0,0.1,0.0,0.49,77.05,77.05,0.0,0.0,3
89.46954600,89469546,0.0,0.09,0.0,0.49,77.05,77.05,0.0,0.0,3
89.56948400,89569484,0.0,0.09,0.0,0.49,77.05,77.05,0.0,0.0,3
89.66932000,89669320,0.0,0.1,0.0,0.48,77.04,77.04,0.0,0.0,3
89.76929800,89769298,0.0,0.09,0.0,0.48,77.04,77.04,0.0,0.0,3
89.86928700,89869287,0.0,0.1,0.0,0.48,77.04,77.04,0.0,0.0,3
89.96929500,89969295,0.0,0.1,0.0,0.48,77.03,77.03,0.0,0.01,3
90.06919400,90069194,0.0,0.09,0.0,0.49,77.04,77.04,0.0,0.01,3
90.16915300,90169153,0.0,0.1,0.0,0.48,77.03,77.03,0.0,0.01,3
90.26919300,90269193,0.0,0.09,0.0,0.48,77.03,77.03,0.0,0.01,3
90.36927300,90369273,0.0,0.09,0.0,0.49,77.03,77.03,0.0,0.01,3
90.46932100,90469321,0.0,0.1,0.0,0.48,77.03,77.03,0.0,0.01,3
90.56931900,90569319,0.0,0.09,0.0,0.49,77.03,77.03,0.0,0.01,3
90.66933600,90669336,0.0,0.1,0.0,0.49,77.02,77.02,0.0,0.01,3
90.76929200,90769292,0.0,0.09,0.0,0.49,77.03,77.03,0.0,0.01,3
90.86929800,90869298,0.0,0.09,0.0,0.49,77.03,77.03,0.0,0.01,3
90.96919800,90969198,0.0,0.09,0.0,0.48,77.03,77.03,0.0,0.01,3
91.06913500,91069135,0.0,0.09,0.0,0.49,77.03,77.03,0.0,0.01,3
91.16921000,91169210,0.0,0.08,0.0,0.49,77.03,77.03,0.0,0.01,3
91.26927500,91269275,0.0,0.08,0.0,0.49,77.02,77.02,0.0,0.01,3
91.36947600,91369476,0.0,0.08,0.0,0.49,77.04,77.04,0.0,0.01,3
91.46949700,91469497,0.0,0.07,0.0,0.49,77.03,77.03,0.0,0.01,3
91.56947600,91569476,0.0,0.08,0.0,0.49,77.03,77.03,0.0,0.01,3
91.66948000,91669480,0.0,0.08,0.0,0.5,77.03,77.03,0.0,0.01,3
91.76949400,91769494,0.0,0.08,0.0,0.49,77.02,77.02,0.0,0.01,3
91.86949100,91869491,0.0,0.07,0.0,0.5,77.01,77.01,0.0,0.01,3
91.96936900,91969369,0.0,0.08,0.0,0.5,77.01,77.01,0.0,0.02,3
92.06916600,92069166,0.0,0.08,0.0,0.5,77.0,77.0,0.0,0.01,3
92.16927600,92169276,0.0,0.07,0.0,0.51,77.0,77.0,0.0,0.01,3
92.26929300,92269293,0.0,0.07,0.0,0.5,77.0,77.0,0.0,0.01,3
92.36929300,92369293,0.0,0.07,0.0,0.51,77.0,77.0,0.0,0.01,3
92.46937300,92469373,0.0,0.07,0.0,0.51,77.0,77.0,0.0,0.01,3
92.56927200,92569272,0.0,0.07,0.0,0.51,77.0,77.0,0.0,0.01,3
92.66929800,92669298,0.0,0.07,0.0,0.51,77.0,77.0,0.0,0.01,3
92.76917900,92769179,0.0,0.07,0.0,0.52,77.0,77.0,0.0,0.01,3
92.86913100,92869131,0.0,0.07,0.0,0.51,77.0,77.0,0.0,0.01,3
92.96917100,92969171,0.0,0.08,0.0,0.51,77.0,77.0,0.0,0.01,3
93.06929100,93069291,0.0,0.08,0.0,0.51,77.0,77.0,0.0,0.01,3
93.16932100,93169321,0.0,0.08,0.0,0.51,77.0,77.0,0.0,0.01,3
93.26949800,93269498,0.0,0.08,0.0,0.52,76.99,76.99,0.0,0.01,3
93.36950200,93369502,0.0,0.09,0.0,0.51,76.98,76.98,0.0,0.01,3
93.46947200,93469472,0.0,0.08,0.0,0.51,76.97,76.97,0.0,0.01,3
93.56949900,93569499,0.0,0.08,0.0,0.52,76.97,76.97,0.0,0.01,3
93.66950100,93669501,0.0,0.08,0.0,0.52,76.97,76.97,0.0,0.01,3
93.76937600,93769376,0.0,0.08,0.0,0.53,76.97,76.97,0.0,0.01,3
93.86918700,93869187,0.0,0.09,0.0,0.53,76.97,76.97,0.0,0.01,3
93.96926900,93969269,0.0,0.08,0.0,0.52,76.96000000000001,76.96000000000001,0.0,0.01,3
94.06929500,94069295,0.0,0.09,0.0,0.53,76.96000000000001,76.96000000000001,0.0,0.01,3
94.16931800,94169318,0.0,0.09,0.0,0.53,76.96000000000001,76.96000000000001,0.0,0.01,3
94.26932800,94269328,0.0,0.09,0.0,0.52,76.96000000000001,76.96000000000001,0.0,0.01,3
94.36929500,94369295,0.0,0.08,0.0,0.54,76.96000000000001,76.96000000000001,0.0,0.01,3
94.46930800,94469308,0.0,0.08,0.0,0.54,76.97,76.97,0.0,0.01,3
94.56950300,94569503,0.0,0.09,0.0,0.52,76.97,76.97,0.0,0.01,3
94.66937500,94669375,0.0,0.08,0.0,0.52,76.97,76.97,0.0,0.01,3
94.76934700,94769347,0.0,0.09,0.0,0.52,76.97,76.97,0.0,0.01,3
94.86945400,94869454,0.0,0.09,0.0,0.52,76.97,76.97,0.0,0.01,3
94.96943200,94969432,0.0,0.09,0.0,0.52,76.97,76.97,0.0,0.01,3
95.06945000,95069450,0.0,0.1,0.0,0.51,76.97,76.97,0.0,0.01,3
95.16947300,95169473,0.0,0.1,0.0,0.51,76.97,76.97,0.0,0.01,3
95.26944900,95269449,0.0,0.1,0.0,0.51,76.97,76.97,0.0,0.01,3
95.36944100,95369441,0.0,0.1,0.0,0.51,76.96000000000001,76.96000000000001,0.0,0.01,3
95.46944400,95469444,0.0,0.1,0.0,0.51,76.96000000000001,76.96000000000001,0.0,0.01,3
95.56933600,95569336,0.0,0.1,0.0,0.51,76.96000000000001,76.96000000000001,0.0,0.01,3
95.66933000,95669330,0.0,0.1,0.0,0.51,76.96000000000001,76.96000000000001,0.0,0.0,3
95.76944900,95769449,0.0,0.11,0.0,0.51,76.95,76.95,0.0,0.01,3
95.86945200,95869452,0.0,0.11,0.0,0.51,76.95,76.95,0.0,0.01,3
95.96944300,95969443,0.0,0.11,0.0,0.51,76.95,76.95,0.0,0.01,3
96.06946100,96069461,0.0,0.1,0.0,0.51,76.95,76.95,0.0,0.01,3
96.16946100,96169461,0.0,0.11,0.0,0.5,76.95,76.95,0.0,0.01,3
96.26947500,96269475,0.0,0.11,0.0,0.51,76.95,76.95,0.0,0.01,3
96.36966700,96369667,0.0,0.11,0.0,0.51,76.95,76.95,0.0,0.01,3
96.46938700,96469387,0.0,0.11,0.0,0.5,76.94,76.94,0.0,0.01,3
96.56941300,96569413,0.0,0.11,0.0,0.51,76.94,76.94,0.0,0.01,3
96.66956900,96669569,0.0,0.11,0.0,0.5,76.94,76.94,0.0,0.01,3
96.76946500,96769465,0.0,0.11,0.0,0.5,76.94,76.94,0.0,0.01,3
96.86947800,96869478,0.0,0.11,0.0,0.49,76.95,76.95,0.0,0.01,3
96.96944900,96969449,0.0,0.11,0.0,0.49,76.95,76.95,0.0,0.02,3
97.06946900,97069469,0.0,0.11,0.0,0.5,76.95,76.95,0.0,0.02,3
97.16949600,97169496,0.0,0.11,0.0,0.49,76.96000000000001,76.96000000000001,0.0,0.01,3
97.26951600,97269516,0.0,0.11,0.0,0.5,76.97,76.97,0.0,0.01,3
97.36937500,97369375,0.0,0.11,0.0,0.49,76.97,76.97,0.0,0.01,3
97.46943000,97469430,0.0,0.11,0.0,0.49,76.97,76.97,0.0,0.01,3
97.56952600,97569526,0.0,0.12,0.0,0.49,76.97,76.97,0.0,0.01,3
97.66946700,97669467,0.0,0.11,0.0,0.48,76.97,76.97,0.0,0.01,3
97.76947300,97769473,0.0,0.11,0.0,0.48,76.97,76.97,0.0,0.01,3
97.86931700,97869317,0.0,0.12,0.0,0.48,76.97,76.97,0.0,0.01,3
97.96930200,97969302,0.0,0.11,0.0,0.48,76.97,76.97,0.0,0.01,3
98.06936200,98069362,0.0,0.11,0.0,0.48,76.98,76.98,0.0,0.01,3
98.16920700,98169207,0.0,0.11,0.0,0.48,76.97,76.97,0.0,0.01,3
