timestamp,TimeUS,C,Roll,Pitch,Yaw,VN,VE,VD,dPD,PN,PE,PD,GX,GY,GZ,OH
12.26876500,12268765,2,0.0,0.0,0.0,0.0,0.0,0.0,0.0,0.0,0.0,0.0,0.0,0.0,0.0,0.0
12.36869900,12368699,2,0.0,0.0,0.0,0.0,0.0,0.0,0.0,0.0,0.0,0.0,0.0,0.0,0.0,0.0
12.46870000,12468700,2,0.0,0.0,0.0,0.0,0.0,0.0,0.0,0.0,0.0,0.0,0.0,0.0,0.0,0.0
12.56873400,12568734,2,0.0,0.0,0.0,0.0,0.0,0.0,0.0,0.0,0.0,0.0,0.0,0.0,0.0,0.0
12.66869200,12668692,2,0.0,0.0,0.0,0.0,0.0,0.0,0.0,0.0,0.0,0.0,0.0,0.0,0.0,0.0
12.76869900,12768699,2,0.0,0.0,0.0,0.0,0.0,0.0,0.0,0.0,0.0,0.0,0.0,0.0,0.0,0.0
12.86874300,12868743,2,0.0,0.0,0.0,0.0,0.0,0.0,0.0,0.0,0.0,0.0,0.0,0.0,0.0,0.0
12.96876500,12968765,2,0.0,0.0,0.0,0.0,0.0,0.0,0.0,0.0,0.0,0.0,0.0,0.0,0.0,0.0
13.06880300,13068803,2,0.0,0.0,0.0,0.0,0.0,0.0,0.0,0.0,0.0,0.0,0.0,0.0,0.0,0.0
13.16876000,13168760,2,0.0,0.0,0.0,0.0,0.0,0.0,0.0,0.0,0.0,0.0,0.0,0.0,0.0,0.0
13.26873900,13268739,2,0.15,0.76,359.99,-0.0011103542055934668,0.0038876936305314302,0.01074502058327198,-0.00030223565408959985,0.0,0.0,0.00038832996506243944,0.0,0.0,0.0,0.0
13.36875000,13368750,2,0.16,0.77,359.99,-0.0013523271773010492,0.0033363746479153633,0.048686008900403976,0.02447618544101715,0.0,0.0,0.0036956798285245895,0.0,0.0,0.0,0.0
13.46869800,13468698,2,0.15,0.77,359.99,-0.00040029341471381485,0.006492119748145342,0.09228376299142838,2.494198799133301,0.0,0.0,0.29427945613861084,0.0,0.0,0.0,0.0
13.56873500,13568735,2,0.16,0.77,359.98,-0.0022571529261767864,0.007608193438500166,0.12407604604959488,3.8433499336242676,0.0,0.0,0.6095781922340393,0.0,0.0,0.0,0.0
13.66873800,13668738,2,0.15,0.78,359.98,-0.0023359484039247036,0.009729365818202496,0.1455201804637909,3.4366939067840576,0.0,0.0,0.8811908960342407,0.0,0.0,0.0,0.0
13.76872200,13768722,2,0.15,0.78,359.98,-0.003167555434629321,0.011490819975733757,0.16066062450408936,2.550659418106079,0.0,0.0,1.104184865951538,0.0,0.0,0.0,0.0
13.86874000,13868740,2,0.15,0.78,359.98,-0.0038749498780816793,0.01188611052930355,0.1727585345506668,1.872662901878357,0.0,0.0,1.2890352010726929,0.0,0.0,0.0,0.0
13.96878400,13968784,2,0.15,0.78,359.98,-0.004639776423573494,0.015070424415171146,0.1816977709531784,1.3823398351669312,0.0,0.0,1.4387428760528564,0.0,0.0,0.0,0.0
14.06874200,14068742,2,0.15,0.78,359.97,-0.006020210217684507,0.015296920202672482,0.18773891031742096,1.0130393505096436,0.0,0.0,1.5575577020645142,0.0,0.0,0.0,0.0
14.16873800,14168738,2,0.14,0.78,359.98,-0.007119318470358849,0.017423659563064575,0.1918998658657074,0.7894542217254639,0.0,0.0,1.656663417816162,0.0,0.0,0.0,0.0
14.26875100,14268751,2,0.14,0.78,359.98,-0.007949735037982464,0.018044136464595795,0.1964864730834961,0.6550213694572449,0.0,0.0,1.738707184791565,0.0,0.0,0.0,0.0
14.36873700,14368737,2,0.12,0.78,359.98,-0.008852716535329819,0.018072405830025673,0.20076720416545868,0.5706617832183838,0.0,0.0,1.8102011680603027,0.0,0.0,0.0,0.0
14.46869800,14468698,2,0.11,0.79,359.99,-0.009090703912079334,0.018440445885062218,0.20395906269550323,0.5000774264335632,0.0,0.0,1.8703480958938599,0.0,0.0,0.0,0.0
14.56870100,14568701,2,0.1,0.79,359.98,-0.00866440124809742,0.017136218026280403,0.20651060342788696,0.4328177273273468,0.0,0.0,1.92255699634552,0.0,0.0,0.0,0.0
14.66873100,14668731,2,0.09,0.79,359.98,-0.009748190641403198,0.016980629414319992,0.2072090208530426,0.371362566947937,0.0,0.0,1.9662333726882935,0.0,0.0,0.0,0.0
14.76874300,14768743,2,0.09,0.77,76.02,-0.009698818437755108,0.014610012993216515,0.20666761696338654,0.2842916250228882,0.0,0.0,2.000485420227051,0.0,0.0,0.0,0.0
14.86878900,14868789,2,0.08,0.78,76.05,-0.010048913769423962,0.009611665271222591,0.20852474868297577,0.29888537526130676,0.0,0.0,2.0383639335632324,0.0,0.0,0.0,0.0
14.96875700,14968757,2,0.08,0.79,76.14,-0.009252200834453106,0.005261835642158985,0.21158599853515625,0.35054805874824524,0.0,0.0,2.075565814971924,0.0,0.0,0.0,0.0
15.06874300,15068743,2,0.07,0.79,76.23,-0.009354452602565289,0.002388940192759037,0.21262098848819733,0.3266203999519348,0.0,0.0,2.1089437007904053,0.0,0.0,0.0,0.0
15.16869400,15168694,2,0.07,0.8,76.21000000000001,-0.00894251186400652,-0.0012662633089348674,0.21031354367733002,0.2548142969608307,0.0,0.0,2.134279251098633,0.0,0.0,0.0,0.0
15.26873500,15268735,2,0.06,0.81,76.14,-0.009395550936460495,-0.0032858706545084715,0.20606490969657898,0.16901159286499023,0.0,0.0,2.1536762714385986,0.0,0.0,0.0,0.0
15.36874200,15368742,2,0.06,0.81,76.08,-0.010286442935466766,-0.005811959505081177,0.20188304781913757,0.1369965672492981,0.0,0.0,2.1710128784179688,0.0,0.0,0.0,0.0
15.46869500,15468695,2,0.05,0.81,76.02,-0.009449297562241554,-0.008613759651780128,0.1952231228351593,0.08693184703588486,0.0,0.0,2.18123197555542,0.0,0.0,0.0,0.0
15.56872700,15568727,2,0.05,0.81,75.95,-0.010111741721630096,-0.010456941090524197,0.1850709468126297,0.008438142947852612,0.0,0.0,2.184894561767578,0.0,0.0,0.0,0.0
15.66875300,15668753,2,0.05,0.8200000000000001,75.92,-0.009242347441613674,-0.01230656262487173,0.17436960339546204,-0.03414301574230194,0.0,0.0,2.185014247894287,0.0,0.0,0.0,0.0
15.76877900,15768779,2,0.05,0.8200000000000001,75.92,-0.00882409606128931,-0.013631080277264118,0.16138848662376404,-0.06650740653276443,0.0,0.0,2.181262493133545,0.0,0.0,0.0,0.0
15.86875700,15868757,2,0.05,0.8200000000000001,75.94,-0.00807883869856596,-0.01395748183131218,0.14962522685527802,-0.07470910996198654,0.0,0.0,2.1772921085357666,0.0,0.0,0.0,0.0
15.96869500,15968695,2,0.05,0.8200000000000001,75.96000000000001,-0.007034357637166977,-0.014303249306976795,0.1389804482460022,-0.051762696355581284,0.0,0.0,2.1742680072784424,0.0,0.0,0.0,0.0
16.06868700,16068687,2,0.04,0.8200000000000001,75.97,-0.006053953897207975,-0.015121791511774063,0.12840287387371063,-0.04511536657810211,0.0,0.0,2.170397996902466,0.0,0.0,0.0,0.0
16.16868800,16168688,2,0.04,0.8200000000000001,75.97,-0.004492501728236675,-0.014275457710027695,0.11975570768117905,-0.022519703954458237,0.0,0.0,2.1696038246154785,0.0,0.0,0.0,0.0
16.26869300,16268693,2,0.04,0.81,75.97,-0.004068967420607805,-0.013524898327887058,0.11113409698009491,-0.008550762198865414,0.0,0.0,2.1678316593170166,0.0,0.0,0.0,0.0
16.36872500,16368725,2,0.03,0.81,75.96000000000001,-0.00329501717351377,-0.014004497788846493,0.10281314700841904,-0.02467424049973488,0.0,0.0,2.1651620864868164,0.0,0.01,0.0,0.0
16.46872500,16468725,2,0.02,0.8200000000000001,75.94,-0.0016070249257609248,-0.014066671952605247,0.09886152297258377,0.029115768149495125,0.0,0.0,2.1698009967803955,0.0,0.01,0.01,0.0
16.56875600,16568756,2,0.02,0.81,75.91,-0.00034665531711652875,-0.014025786891579628,0.09831546992063522,0.12421970814466476,0.0,0.0,2.1814568042755127,0.0,0.01,0.01,0.0
16.66879700,16668797,2,0.02,0.8,75.88,-0.0001319761504419148,-0.013989315368235111,0.09838303923606873,0.16303688287734985,0.0,0.0,2.1944727897644043,0.0,0.01,0.01,0.0
16.76875100,16768751,2,0.01,0.8,75.86,0.0005604545003734529,-0.01352346409112215,0.0968022570014,0.15069907903671265,0.0,0.0,2.206784963607788,0.0,0.01,0.01,0.0
16.86872800,16868728,2,0.01,0.79,75.83,0.0010315454564988613,-0.011722598224878311,0.09164980798959732,0.09826867282390594,0.0,0.0,2.2140040397644043,0.0,0.02,0.01,0.0
16.96869400,16968694,2,0.01,0.79,75.83,0.0016696805832907557,-0.010697908699512482,0.08780331164598465,0.06408623605966568,0.0,0.0,2.221677780151367,0.0,0.02,0.0,0.0
17.06874100,17068741,2,0.01,0.79,75.87,0.0024003288708627224,-0.01012132503092289,0.08407077193260193,0.07664378732442856,0.0,0.0,2.2302377223968506,0.0,0.02,-0.01,0.0
17.16872400,17168724,2,0.01,0.79,75.91,0.0033628763630986214,-0.009335446171462536,0.07563713937997818,0.008350789546966553,0.0,0.0,2.2291290760040283,0.0,0.02,0.0,0.0
17.26868900,17268689,2,0.01,0.79,75.95,0.003989712800830603,-0.009684419259428978,0.0659264549612999,-0.06136753410100937,0.0,0.0,2.2253684997558594,0.0,0.02,-0.01,0.0
17.36872100,17368721,2,0.01,0.78,75.98,0.003906648140400648,-0.00851152092218399,0.057623185217380524,-0.05911553278565407,0.0,0.0,2.2225120067596436,0.0,0.02,-0.01,0.0
17.46874000,17468740,2,0.01,0.78,76.01,0.004303584340959787,-0.008152495138347149,0.04954288899898529,-0.04007624089717865,0.0,0.0,2.220179557800293,0.0,0.03,-0.02,0.0
17.56878300,17568783,2,0.01,0.78,76.03,0.005446369294077158,-0.007354064844548702,0.04127955436706543,-0.04856500029563904,0.0,0.0,2.2152762413024902,0.0,0.03,-0.02,0.0
17.66875800,17668758,2,0.02,0.78,76.05,0.005185439717024565,-0.006620525848120451,0.03317181393504143,-0.05302591621875763,0.0,0.0,2.211137056350708,0.0,0.03,-0.01,0.0
17.76868600,17768686,2,0.01,0.78,76.04,0.004508371464908123,-0.007047149818390608,0.030227215960621834,0.017713595181703568,0.0,0.0,2.215181589126587,0.0,0.03,0.0,0.0
17.86868900,17868689,2,0.02,0.78,76.02,0.004243026953190565,-0.007541847415268421,0.03014218993484974,0.09670440107584,0.0,0.0,2.223567485809326,0.0,0.03,0.0,0.0
17.96869600,17968696,2,0.01,0.78,76.0,0.004344459157437086,-0.007131787016987801,0.029092935845255852,0.09631560742855072,0.0,0.0,2.2296552658081055,0.0,0.03,0.0,0.0
18.06868700,18068687,2,0.02,0.77,75.99,0.0035470123402774334,-0.006382596679031849,0.027366144582629204,0.07734400779008865,0.0,0.0,2.2362241744995117,0.0,0.03,-0.01,0.0
18.16868800,18168688,2,0.02,0.77,75.98,0.0025895622093230486,-0.005588577128946781,0.0264021847397089,0.07487475126981735,0.0,0.0,2.243001937866211,0.0,0.03,0.0,0.0
18.26873300,18268733,2,0.02,0.76,75.97,0.00271363346837461,-0.005719320382922888,0.021935652941465378,0.03545296937227249,0.0,0.0,2.2451987266540527,0.0,0.03,0.0,0.0
18.36874200,18368742,2,0.02,0.76,75.97,0.0030407970771193504,-0.005114630330353975,0.015604281798005104,-0.02122260257601738,0.0,0.0,2.243255615234375,0.0,0.03,0.0,0.0
18.46878400,18468784,2,0.02,0.76,75.95,0.003450342919677496,-0.0048000565730035305,0.00640061916783452,-0.0729992464184761,0.0,0.0,2.2372052669525146,0.0,0.04,0.0,0.0
18.56875700,18568757,2,0.02,0.76,75.93,0.0025708680041134357,-0.005092250183224678,0.000541847082786262,-0.07323247939348221,0.0,0.0,2.2329132556915283,0.0,0.04,0.01,0.0
18.66869400,18668694,2,0.03,0.76,75.89,0.002184890676289797,-0.006095347460359335,-0.0048630936071276665,-0.03536874055862427,0.0,0.0,2.231090545654297,0.0,0.04,0.02,0.0
18.76873300,18768733,2,0.03,0.76,75.87,0.002719832118600607,-0.005576784722507,-0.007712723221629858,0.00995207391679287,0.0,0.0,2.2326159477233887,0.0,0.04,0.01,0.0
18.86873100,18868731,2,0.03,0.76,75.86,0.002652925904840231,-0.0059403772465884686,-0.012843732722103596,-0.0031218817457556725,0.0,0.0,2.2300057411193848,0.0,0.04,0.01,0.0
18.96869000,18968690,2,0.03,0.76,75.86,0.002192123793065548,-0.005679309368133545,-0.017670882865786552,-0.026236869394779205,0.0,0.0,2.227696418762207,0.0,0.04,0.0,0.0
19.06868700,19068687,2,0.04,0.76,75.87,0.0008927462622523308,-0.006271856836974621,-0.018007583916187286,0.019046014174818993,0.0,0.0,2.23125958442688,0.0,0.04,0.0,0.0
19.16874600,19168746,2,0.04,0.77,75.88,0.0004973426111973822,-0.006190395914018154,-0.01888781599700451,0.058327481150627136,0.0,0.0,2.2357687950134277,0.0,0.04,0.0,0.0
19.26875300,19268753,2,0.04,0.77,75.88,0.00012640903878491372,-0.005173916928470135,-0.020730018615722656,0.03656919300556183,0.0,0.0,2.2370493412017822,0.0,0.04,0.01,0.0
19.36878600,19368786,2,0.04,0.77,75.87,-0.0003969931567553431,-0.005239215213805437,-0.023370806127786636,-0.003932646010071039,0.0,0.0,2.2359917163848877,0.0,0.04,0.02,0.0
19.46874800,19468748,2,0.05,0.76,75.85000000000001,-0.0015338216908276081,-0.004474426154047251,-0.02753475308418274,-0.032278843224048615,0.0,0.0,2.233175754547119,0.0,0.04,0.02,0.0
19.56869000,19568690,2,0.05,0.76,75.83,-0.001887155114673078,-0.0039327871054410934,-0.03166580945253372,-0.047542475163936615,0.0,0.0,2.2293484210968018,0.0,0.04,0.01,0.0
19.66869100,19668691,2,0.05,0.76,75.81,-0.0017292515840381384,-0.0037965502124279737,-0.03731304407119751,-0.055142562836408615,0.0,0.0,2.224785089492798,0.0,0.04,0.02,0.0
19.76868700,19768687,2,0.05,0.76,75.8,-0.002911101561039686,-0.003289418760687113,-0.039743416011333466,-0.039766132831573486,0.0,0.0,2.222130298614502,0.0,0.04,0.02,0.0
19.86869600,19868696,2,0.06,0.75,75.78,-0.0038307697977870703,-0.003645599354058504,-0.04230303689837456,-0.035833682864904404,0.0,0.0,2.2179198265075684,0.0,0.04,0.01,0.0
19.96869700,19968697,2,0.06,0.75,75.78,-0.004724469967186451,-0.003818858414888382,-0.04775407537817955,-0.07170719653367996,0.0,0.0,2.2100250720977783,0.0,0.05,0.02,0.0
20.06873200,20068732,2,0.06,0.75,75.76,-0.0045710839331150055,-0.004183420445770025,-0.05206391215324402,-0.08677496016025543,0.0,0.0,2.2027995586395264,0.0,0.05,0.02,0.0
20.16875300,20168753,2,0.06,0.75,75.75,-0.005031763110309839,-0.004284612834453583,-0.05329549312591553,-0.03075583092868328,0.0,0.0,2.2016615867614746,0.0,0.05,0.03,0.0
20.26880000,20268800,2,0.05,0.76,75.74,-0.005456697661429644,-0.004346185829490423,-0.05545199662446976,-0.012964235618710518,0.0,0.0,2.198361396789551,0.0,0.05,0.01,0.0
20.36874200,20368742,2,0.05,0.76,75.75,-0.006075792945921421,-0.00395053718239069,-0.058952998369932175,-0.04433996230363846,0.0,0.0,2.1933810710906982,0.0,0.05,0.01,0.0
20.46868700,20468687,2,0.05,0.77,75.76,-0.006351853720843792,-0.004025263711810112,-0.06197699159383774,-0.05595238134264946,0.0,0.0,2.1877684593200684,0.0,0.05,0.0,0.0
20.56873700,20568737,2,0.05,0.76,75.77,-0.006539502181112766,-0.003832684364169836,-0.06374659389257431,-0.03044893778860569,0.0,0.0,2.1858057975769043,0.0,0.05,0.01,0.0
20.66869500,20668695,2,0.04,0.76,75.77,-0.00682360865175724,-0.00401461822912097,-0.06412730365991592,0.002633251715451479,0.0,0.0,2.1852619647979736,0.0,0.05,0.01,0.0
20.76873200,20768732,2,0.04,0.76,75.77,-0.007080777548253536,-0.0049050347879529,-0.06584791094064713,-0.020328925922513008,0.0,0.0,2.1816656589508057,0.0,0.05,0.02,0.0
20.86874400,20868744,2,0.04,0.76,75.76,-0.006729136686772108,-0.004651444964110851,-0.07018173485994339,-0.08425326645374298,0.0,0.0,2.172593593597412,0.0,0.05,0.01,0.0
20.96872400,20968724,2,0.03,0.76,75.76,-0.0062055583111941814,-0.0053679002448916435,-0.07381654530763626,-0.10614810883998871,0.0,0.0,2.1640665531158447,0.0,0.05,0.01,0.0
21.06874100,21068741,2,0.03,0.76,75.75,-0.0060500334948301315,-0.004796003457158804,-0.07436760514974594,-0.047348178923130035,0.0,0.0,2.16135835647583,0.0,0.05,0.01,0.0
21.16878300,21168783,2,0.03,0.76,75.75,-0.00729011045768857,-0.005086262244731188,-0.07435829192399979,0.004064273089170456,0.0,0.0,2.1608471870422363,0.0,0.05,0.01,0.0
21.26876700,21268767,2,0.03,0.76,75.76,-0.00713181821629405,-0.006236836779862642,-0.07379332929849625,0.024523813277482986,0.0,0.0,2.161918878555298,0.0,0.05,0.0,0.0
21.36869200,21368692,2,0.03,0.76,75.76,-0.007179945707321167,-0.006306609138846397,-0.07237830758094788,0.034236472100019455,0.0,0.0,2.163764715194702,0.0,0.05,0.0,0.0
21.46872900,21468729,2,0.03,0.76,75.78,-0.00725296838209033,-0.00674997316673398,-0.07201605290174484,0.020248427987098694,0.0,0.0,2.164433002471924,0.0,0.05,0.0,0.0
21.56869000,21568690,2,0.03,0.76,75.78,-0.007335248868912458,-0.007777505554258823,-0.07093209773302078,0.023643765598535538,0.0,0.0,2.1668198108673096,0.0,0.05,0.0,0.0
21.66872800,21668728,2,0.03,0.76,75.77,-0.007154788356274366,-0.008294749073684216,-0.07162421941757202,-0.005022867117077112,0.0,0.0,2.1648364067077637,0.0,0.05,0.01,0.0
21.76869300,21768693,2,0.03,0.76,75.76,-0.007339417934417725,-0.009426631033420563,-0.07451760023832321,-0.07797083258628845,0.0,0.0,2.157142400741577,0.0,0.05,0.02,0.0
21.86872000,21868720,2,0.03,0.75,75.72,-0.007877697236835957,-0.009882573038339615,-0.07610812783241272,-0.07393437623977661,0.0,0.0,2.1528208255767822,0.0,0.05,0.03,0.0
21.96874500,21968745,2,0.02,0.74,75.68,-0.007416551001369953,-0.009923369623720646,-0.07566038519144058,-0.02282865345478058,0.0,0.0,2.151423454284668,0.0,0.05,0.03,0.0
22.06878400,22068784,2,0.02,0.74,75.65,-0.006847667973488569,-0.010515731759369373,-0.07532461732625961,-0.0013031106209382415,0.0,0.0,2.150705099105835,0.0,0.05,0.03,0.0
22.16875500,22168755,2,0.02,0.74,75.64,-0.006790356710553169,-0.010509730316698551,-0.07517945766448975,-0.00966449361294508,0.0,0.0,2.1484618186950684,0.0,0.05,0.02,0.0
22.26869700,22268697,2,0.02,0.73,75.64,-0.00687034334987402,-0.009725681506097317,-0.07506358623504639,0.0009467889904044569,0.0,0.0,2.149097204208374,0.0,0.05,0.01,0.0
22.36868800,22368688,2,0.02,0.73,75.64,-0.005625103134661913,-0.010219446383416653,-0.07208046317100525,0.05035609006881714,0.0,0.0,2.1537578105926514,0.0,0.05,0.02,0.0
22.46868700,22468687,2,0.02,0.73,75.65,-0.0047229379415512085,-0.010050484910607338,-0.06928322464227676,0.07688649743795395,0.0,0.0,2.1597492694854736,0.0,0.05,0.02,0.0
22.56874100,22568741,2,0.02,0.73,75.65,-0.003801845945417881,-0.00962745025753975,-0.06637033075094223,0.07466751337051392,0.0,0.0,2.165417432785034,0.0,0.06,0.02,0.0
22.66868700,22668687,2,0.02,0.72,75.67,-0.003887941362336278,-0.0093843387439847,-0.06400222331285477,0.07006776332855225,0.0,0.0,2.171570062637329,0.0,0.06,0.01,0.0
22.76872900,22768729,2,0.02,0.72,75.68,-0.003501509316265583,-0.009176751598715782,-0.06069326400756836,0.0796617791056633,0.0,0.0,2.1790831089019775,0.0,0.06,0.0,0.0
22.86874200,22868742,2,0.02,0.72,75.71000000000001,-0.0028569840360432863,-0.007865657098591328,-0.056528013199567795,0.11450386047363281,0.0,0.0,2.190552234649658,0.0,0.06,0.0,0.0
22.96878200,22968782,2,0.01,0.72,75.75,-0.002194856759160757,-0.007209260482341051,-0.051877159625291824,0.13634659349918365,0.0,0.0,2.2023468017578125,0.0,0.06,0.0,0.0
23.06875000,23068750,2,0.01,0.72,75.77,-0.0016712711658328772,-0.006387973669916391,-0.046277035027742386,0.15608513355255127,0.0,0.0,2.2173409461975098,0.0,0.06,0.0,0.0
23.16868800,23168688,2,0.01,0.72,75.78,-0.0016248297179117799,-0.005321419797837734,-0.041480857878923416,0.16023923456668854,0.0,0.0,2.231017589569092,0.0,0.06,0.0,0.0
23.26869000,23268690,2,0.01,0.72,75.8,-0.0005600334261544049,-0.0058410027995705605,-0.03780659660696983,0.11470557749271393,0.0,0.0,2.241096258163452,0.0,0.06,0.0,0.0
23.36873500,23368735,2,0.01,0.72,75.8,-0.0003406440082471818,-0.005043317098170519,-0.035419922322034836,0.07475562393665314,0.0,0.0,2.248793601989746,0.0,0.06,0.0,0.0
23.46873000,23468730,2,0.01,0.72,75.8,-0.0005307195242494345,-0.004575537983328104,-0.0344245545566082,0.03801974654197693,0.0,0.0,2.2532970905303955,0.0,0.06,0.0,0.0
23.56869500,23568695,2,0.0,0.72,75.81,0.00048446108121424913,-0.004866332281380892,-0.033304061740636826,0.011707381345331669,0.0,0.0,2.2559473514556885,0.0,0.06,-0.01,0.0
23.66873400,23668734,2,0.0,0.71,75.82000000000001,0.0004949429421685636,-0.0052052331157028675,-0.03191491216421127,0.02401282638311386,0.0,0.0,2.2603344917297363,0.0,0.06,0.0,0.0
23.76875100,23768751,2,0.0,0.71,75.82000000000001,0.0009977681329473853,-0.00579388253390789,-0.03045455552637577,0.04982805997133255,0.0,0.0,2.2659032344818115,0.0,0.06,0.0,0.0
23.86880500,23868805,2,0.0,0.71,75.81,0.0013560260413214564,-0.005428547505289316,-0.028975212946534157,0.06519278883934021,0.0,0.0,2.2723231315612793,0.0,0.06,0.0,0.0
23.96875200,23968752,2,0.0,0.71,75.82000000000001,0.0014393961755558848,-0.00608396390452981,-0.028321390971541405,0.05027477815747261,0.0,0.0,2.2761764526367188,0.0,0.06,-0.01,0.0
24.06868700,24068687,2,0.0,0.72,75.83,0.0018438562983646989,-0.005019838456064463,-0.027639122679829597,0.016790496185421944,0.0,0.0,2.2779767513275146,0.0,0.06,-0.01,0.0
24.16873000,24168730,2,0.0,0.71,75.84,0.0014522196725010872,-0.005240324884653091,-0.027673492208123207,-0.005021985154598951,0.0,0.0,2.277897596359253,0.0,0.06,0.0,0.0
24.26873800,24268738,2,0.0,0.71,75.85000000000001,0.0012752972543239594,-0.005292996298521757,-0.02909497730433941,-0.028110139071941376,0.0,0.0,2.275916576385498,0.0,0.06,-0.01,0.0
24.36872200,24368722,2,0.0,0.7000000000000001,75.86,0.0019706403836607933,-0.005499014165252447,-0.030836286023259163,-0.049254659563302994,0.0,0.0,2.2718522548675537,0.0,0.06,-0.02,0.0
24.46876700,24468767,2,0.0,0.7000000000000001,75.88,0.0022627071011811495,-0.0044619920663535595,-0.033559124916791916,-0.07620547711849213,0.0,0.0,2.2651050090789795,0.0,0.06,-0.02,0.0
24.56874700,24568747,2,0.0,0.7000000000000001,75.88,0.003300042124465108,-0.003619690192863345,-0.03565184772014618,-0.07390345633029938,0.0,0.0,2.259840250015259,0.0,0.06,0.0,0.0
24.66874200,24668742,2,0.0,0.6900000000000001,75.87,0.00447101192548871,-0.0033041476272046566,-0.03754185512661934,-0.05106440559029579,0.0,0.0,2.255384683609009,0.0,0.06,0.0,0.0
24.76878900,24768789,2,0.0,0.6900000000000001,75.85000000000001,0.004633898846805096,-0.002862819703295827,-0.0397987887263298,-0.05213411524891853,0.0,0.0,2.2499279975891113,0.0,0.06,0.0,0.0
24.86875900,24868759,2,0.0,0.68,75.83,0.005670192185789347,-0.001322466298006475,-0.04092772677540779,-0.04645675793290138,0.0,0.0,2.245725631713867,0.0,0.06,0.0,0.0
24.96869000,24968690,2,0.0,0.68,75.79,0.006419159006327391,-6.965996726648882e-05,-0.04278450086712837,-0.031705472618341446,0.0,0.0,2.2424607276916504,0.0,0.06,0.0,0.0
25.06868700,25068687,2,0.0,0.68,75.76,0.00804090965539217,0.0005674301064573228,-0.04345645755529404,-0.01707642339169979,0.0,0.0,2.240586996078491,0.0,0.06,0.0,0.0
25.16876700,25168767,2,0.0,0.68,75.73,0.008593933656811714,0.00134745251853019,-0.04370926320552826,-0.007721736095845699,0.0,0.0,2.238961935043335,0.0,0.06,0.0,0.0
25.26868900,25268689,2,0.0,0.68,75.71000000000001,0.009882285259664059,0.002960298443213105,-0.0433560349047184,0.008831934072077274,0.0,0.0,2.2397797107696533,0.0,0.06,0.0,0.0
25.36869000,25368690,2,0.0,0.67,75.7,0.010984859429299831,0.00290565169416368,-0.044025715440511703,0.008249706588685513,0.0,0.0,2.2389867305755615,0.0,0.06,0.0,0.0
25.46873000,25468730,2,0.0,0.67,75.69,0.012147998437285423,0.003462218912318349,-0.04480532556772232,-0.008264233358204365,0.0,0.0,2.2381274700164795,0.0,0.06,0.0,0.0
25.56874500,25568745,2,0.0,0.66,75.69,0.013089948333799839,0.0037841240409761667,-0.04462600126862526,-0.0036224217619746923,0.0,0.0,2.237700939178467,0.0,0.06,0.0,0.0
25.66878600,25668786,2,0.0,0.67,75.68,0.013662508688867092,0.004700324963778257,-0.04517938941717148,-0.013286162167787552,0.0,0.0,2.235917806625366,0.0,0.06,0.0,0.0
25.76875500,25768755,2,0.0,0.67,75.67,0.014186887070536613,0.0049591162241995335,-0.04563664272427559,-0.024821074679493904,0.0,0.0,2.2336292266845703,0.0,0.06,0.01,0.0
25.86874000,25868740,2,0.0,0.67,75.66,0.013582808896899223,0.005093174055218697,-0.04528941959142685,-0.0025244553107768297,0.0,0.0,2.2344858646392822,0.0,0.06,0.0,0.0
25.96872800,25968728,2,0.0,0.67,75.66,0.013490471057593822,0.0054260375909507275,-0.044448234140872955,0.0249802079051733,0.0,0.0,2.2362890243530273,0.0,0.06,0.0,0.0
26.06868700,26068687,2,0.0,0.67,75.67,0.013897324912250042,0.005670876707881689,-0.043993379920721054,0.009640448726713657,0.0,0.0,2.2358086109161377,0.0,0.06,0.0,0.0
26.16868800,26168688,2,0.0,0.67,75.68,0.013262098655104637,0.005925983656197786,-0.04312792792916298,0.003931654151529074,0.0,0.0,2.2366421222686768,0.0,0.06,0.0,0.0
26.26869500,26268695,2,0.0,0.67,75.7,0.012339472770690918,0.006570017896592617,-0.04125390574336052,0.035285867750644684,0.0,0.0,2.2407569885253906,0.0,0.06,0.0,0.0
26.36872700,26368727,2,0.0,0.67,75.7,0.011808358132839203,0.006718699354678392,-0.03889743611216545,0.06276588886976242,0.0,0.0,2.2460718154907227,0.0,0.06,0.0,0.0
26.46874000,26468740,2,0.0,0.67,75.7,0.011603174731135368,0.007116868160665035,-0.0363713838160038,0.07159372419118881,0.0,0.0,2.252197265625,0.0,0.06,0.0,0.0
26.56878200,26568782,2,0.0,0.67,75.68,0.011689377948641777,0.006758360657840967,-0.035531267523765564,0.04603489115834236,0.0,0.0,2.254786252975464,0.0,0.06,0.0,0.0
26.66874200,26668742,2,0.0,0.67,75.68,0.011716511100530624,0.00684357900172472,-0.03468424454331398,-0.013679128140211105,0.0,0.0,2.2527124881744385,0.0,0.06,0.0,0.0
26.76868800,26768688,2,0.0,0.68,75.7,0.011747404932975769,0.005885255988687277,-0.036024756729602814,-0.046881213784217834,0.0,0.0,2.249674081802368,0.0,0.06,0.0,0.0
26.86873600,26868736,2,0.0,0.67,75.73,0.011060591787099838,0.005587812978774309,-0.03671623766422272,-0.05886727198958397,0.0,0.0,2.2450010776519775,0.0,0.06,0.0,0.0
26.96872600,26968726,2,0.0,0.67,75.75,0.011205426417291164,0.00602490222081542,-0.037889864295721054,-0.0674261525273323,0.0,0.0,2.2394888401031494,0.0,0.06,0.0,0.0
27.06873000,27068730,2,0.0,0.67,75.77,0.01053477544337511,0.005580832250416279,-0.03899378702044487,-0.06053631380200386,0.0,0.0,2.2346787452697754,0.0,0.06,-0.01,0.0
27.16873700,27168737,2,0.0,0.67,75.79,0.01071680337190628,0.0060620494186878204,-0.04013704136013985,-0.05217883363366127,0.0,0.0,2.2299587726593018,0.0,0.06,-0.01,0.0
27.26872600,27268726,2,0.0,0.66,75.81,0.010852226056158543,0.006945191416889429,-0.04055280238389969,-0.023894818499684334,0.0,0.0,2.2282462120056152,0.0,0.06,-0.02,0.0
27.36875000,27368750,2,0.0,0.66,75.85000000000001,0.010987218469381332,0.007182028144598007,-0.03933107852935791,0.012919901870191097,0.0,0.0,2.2288670539855957,0.0,0.06,-0.02,0.0
27.46878200,27468782,2,0.0,0.65,75.87,0.010931339114904404,0.008126447908580303,-0.03873607888817787,0.029625698924064636,0.0,0.0,2.230625867843628,0.0,0.06,-0.02,0.0
27.56879600,27568796,2,0.0,0.65,75.89,0.010207418352365494,0.008370625786483288,-0.03743744269013405,0.04208953678607941,0.0,0.0,2.2337167263031006,0.0,0.06,-0.02,0.0
27.66876400,27668764,2,0.01,0.66,75.91,0.009909427724778652,0.008580950088799,-0.03527205064892769,0.037248171865940094,0.0,0.0,2.2360405921936035,0.0,0.06,-0.02,0.0
27.76874700,27768747,2,0.01,0.66,75.92,0.009227573871612549,0.009024860337376595,-0.03242282196879387,0.0443241223692894,0.0,0.0,2.240328073501587,0.0,0.06,-0.02,0.0
27.86874000,27868740,2,0.01,0.66,75.95,0.009025209583342075,0.008506844751536846,-0.030907103791832924,0.06559827923774719,0.0,0.0,2.246293067932129,0.0,0.06,-0.03,0.0
27.96873900,27968739,2,0.02,0.67,75.97,0.007232935633510351,0.008286378346383572,-0.02804543264210224,0.07731379568576813,0.0,0.0,2.25313401222229,0.0,0.06,-0.03,0.0
28.06873800,28068738,2,0.01,0.68,76.0,0.006631894037127495,0.007664242759346962,-0.024951698258519173,0.07673578709363937,0.0,0.0,2.2597546577453613,0.0,0.06,-0.03,0.0
28.16873600,28168736,2,0.01,0.68,76.01,0.005955824628472328,0.007713650818914175,-0.022832905873656273,0.07030010968446732,0.0,0.0,2.2663419246673584,0.0,0.06,-0.03,0.0
28.26875900,28268759,2,0.02,0.68,76.02,0.004019096493721008,0.007753879297524691,-0.021336132660508156,0.056251440197229385,0.0,0.0,2.271430730819702,0.0,0.06,-0.03,0.0
28.36880200,28368802,2,0.02,0.67,76.02,0.003101925365626812,0.007266753353178501,-0.0208249744027853,0.02193984016776085,0.0,0.0,2.2736010551452637,0.0,0.06,-0.03,0.0
28.46876400,28468764,2,0.02,0.67,76.01,0.003067582380026579,0.007643213961273432,-0.020210914313793182,-0.005019969306886196,0.0,0.0,2.2739346027374268,0.0,0.06,-0.03,0.0
28.56874100,28568741,2,0.02,0.67,76.02,0.003159590996801853,0.008693036623299122,-0.018711095675826073,0.011342625133693218,0.0,0.0,2.2768068313598633,0.0,0.06,-0.03,0.0
28.66874400,28668744,2,0.03,0.67,76.03,0.00274090189486742,0.008916856721043587,-0.01800578460097313,0.03581451252102852,0.0,0.0,2.2803735733032227,0.0,0.06,-0.03,0.0
28.76874600,28768746,2,0.03,0.67,76.02,0.003201253479346633,0.009657847695052624,-0.017868822440505028,0.015900125727057457,0.0,0.0,2.2810826301574707,0.0,0.06,-0.02,0.0
28.86869800,28868698,2,0.03,0.67,76.0,0.0028115420136600733,0.010189339518547058,-0.01762525551021099,0.009943903423845768,0.0,0.0,2.2829370498657227,0.0,0.06,-0.02,0.0
28.96869000,28968690,2,0.03,0.67,76.0,0.0011999731650575995,0.01039524283260107,-0.016029654070734978,0.0027387714944779873,0.0,0.0,2.2826225757598877,0.0,0.06,-0.02,0.0
29.06872100,29068721,2,0.03,0.67,75.98,-0.00019340089056640863,0.009771816432476044,-0.015098837204277515,-0.010141684673726559,0.0,0.0,2.2824087142944336,0.0,0.06,-0.02,0.0
29.16874400,29168744,2,0.04,0.67,75.98,-0.0012559173628687859,0.009520073421299458,-0.01451205275952816,-0.011417928151786327,0.0,0.0,2.2813611030578613,0.0,0.06,-0.02,0.0
29.26878300,29268783,2,0.04,0.67,75.97,-0.0025304779410362244,0.009817499667406082,-0.014392171986401081,-0.022577347233891487,0.0,0.0,2.2795498371124268,0.0,0.06,-0.02,0.0
29.36876000,29368760,2,0.05,0.67,75.96000000000001,-0.0034859459847211838,0.010247625410556793,-0.014359714463353157,-0.025937778875231743,0.0,0.0,2.277390718460083,0.0,0.06,-0.02,0.0
29.46869100,29468691,2,0.05,0.67,75.96000000000001,-0.004402616061270237,0.010165316052734852,-0.014897298999130726,-0.03363332897424698,0.0,0.0,2.274341344833374,0.0,0.06,-0.02,0.0
29.56872300,29568723,2,0.05,0.67,75.95,-0.005914032459259033,0.009382267482578754,-0.013035108335316181,-0.012752978131175041,0.0,0.0,2.274057626724243,0.0,0.06,-0.02,0.0
29.66874300,29668743,2,0.05,0.67,75.94,-0.0068780421279370785,0.010408972389996052,-0.01385536789894104,-0.004657006822526455,0.0,0.0,2.272768020629883,0.0,0.06,-0.02,0.0
29.76873900,29768739,2,0.05,0.66,75.94,-0.007822477258741856,0.009858574718236923,-0.014206958934664726,-0.02120835892856121,0.0,0.0,2.2704975605010986,0.0,0.06,-0.02,0.0
29.86873300,29868733,2,0.05,0.66,75.95,-0.008179234340786934,0.010137730278074741,-0.013733334839344025,-0.007521388586610556,0.0,0.0,2.270317554473877,0.0,0.06,-0.02,0.0
29.96873200,29968732,2,0.05,0.66,75.95,-0.009740926325321198,0.009844688698649406,-0.012256522662937641,0.03196030855178833,0.0,0.0,2.2736589908599854,0.0,0.06,-0.02,0.0
30.06872600,30068726,2,0.05,0.66,75.96000000000001,-0.010048611089587212,0.009919445030391216,-0.010724038816988468,0.051834024488925934,0.0,0.0,2.277531147003174,0.0,0.06,-0.02,0.0
30.16878000,30168780,2,0.05,0.67,75.97,-0.01032418292015791,0.009783068671822548,-0.008938106708228588,0.044605884701013565,0.0,0.0,2.280734062194824,0.0,0.06,-0.03,0.0
30.26873300,30268733,2,0.05,0.67,75.99,-0.010350551456212997,0.009856326505541801,-0.007887348532676697,0.030516503378748894,0.0,0.0,2.283055067062378,0.0,0.06,-0.03,0.0
30.36868200,30368682,2,0.05,0.67,76.02,-0.012242164462804794,0.010005851276218891,-0.007867077365517616,0.031149977818131447,0.0,0.0,2.286625623703003,0.0,0.06,-0.03,0.0
30.46868800,30468688,2,0.05,0.67,76.06,-0.013198659755289555,0.009904482401907444,-0.00627520214766264,0.058827683329582214,0.0,0.0,2.292724847793579,0.0,0.06,-0.04,0.0
30.56871700,30568717,2,0.06,0.66,76.09,-0.01351055596023798,0.009800789877772331,-0.005014475900679827,0.07723759114742279,0.0,0.0,2.2995173931121826,0.0,0.06,-0.03,0.0
30.66868600,30668686,2,0.06,0.66,76.10000000000001,-0.013560961931943893,0.01057091448456049,-0.0031216696370393038,0.08143686503171921,0.0,0.0,2.306809186935425,0.0,0.06,-0.03,0.0
30.76872800,30768728,2,0.06,0.66,76.10000000000001,-0.013190900906920433,0.010051669552922249,-0.0017571275820955634,0.06732159107923508,0.0,0.0,2.312314510345459,0.0,0.06,-0.03,0.0
30.86872300,30868723,2,0.05,0.66,76.11,-0.01280809286981821,0.010885198600590229,-0.001953874947503209,0.02839328721165657,0.0,0.0,2.3146350383758545,0.0,0.06,-0.03,0.0
30.96873100,30968731,2,0.05,0.66,76.11,-0.01358339749276638,0.010861961171030998,-0.0026263240724802017,-0.00029172649374231696,0.0,0.0,2.3154685497283936,0.0,0.06,-0.04,0.0
31.06878600,31068786,2,0.05,0.66,76.12,-0.013496268540620804,0.010283417999744415,-0.0028353820089250803,-0.010290004312992096,0.0,0.0,2.315446376800537,0.0,0.06,-0.03,0.0
31.16874700,31168747,2,0.04,0.67,76.12,-0.013538682833313942,0.011406498961150646,-0.003707895753905177,-0.02926277555525303,0.0,0.0,2.3129563331604004,0.0,0.06,-0.03,0.0
31.26871200,31268712,2,0.04,0.67,76.12,-0.013856161385774612,0.011159534566104412,-0.003891505766659975,-0.029009094461798668,0.0,0.0,2.311798572540283,0.0,0.06,-0.03,0.0
31.36868900,31368689,2,0.04,0.67,76.12,-0.013367180712521076,0.010691160336136818,-0.00303539726883173,-0.005395115353167057,0.0,0.0,2.3117363452911377,0.0,0.06,-0.03,0.0
31.46872200,31468722,2,0.03,0.68,76.12,-0.012831518426537514,0.010970700532197952,-0.0025639436207711697,-6.934637349331751e-05,0.0,0.0,2.3115334510803223,0.0,0.06,-0.03,0.0
31.56868400,31568684,2,0.03,0.68,76.13,-0.012364638037979603,0.010112617164850235,-0.00220800400711596,0.004734924994409084,0.0,0.0,2.3120102882385254,0.0,0.06,-0.03,0.0
31.66873300,31668733,2,0.03,0.68,76.13,-0.011315388604998589,0.010451584123075008,-0.002730713225901127,-0.00947197712957859,0.0,0.0,2.310194969177246,0.0,0.06,-0.03,0.0
31.76873300,31768733,2,0.03,0.6900000000000001,76.14,-0.01040465384721756,0.010386035777628422,-0.0029974463395774364,-0.01948569156229496,0.0,0.0,2.3090693950653076,0.0,0.06,-0.04,0.0
31.86873900,31868739,2,0.03,0.6900000000000001,76.16,-0.010157530196011066,0.009916892275214195,-0.003838774748146534,-0.01682880148291588,0.0,0.0,2.307307243347168,0.0,0.06,-0.04,0.0
31.96878300,31968783,2,0.03,0.7000000000000001,76.19,-0.009634695947170258,0.009818684309720993,-0.003334084525704384,-0.012289724312722683,0.0,0.0,2.3067471981048584,0.0,0.06,-0.04,0.0
32.06874100,32068741,2,0.02,0.7000000000000001,76.22,-0.00880983006209135,0.009663044475018978,-0.003261126112192869,0.009222175925970078,0.0,0.0,2.307731866836548,0.0,0.06,-0.04,0.0
32.16867700,32168677,2,0.02,0.7000000000000001,76.24,-0.007860606536269188,0.008958936668932438,-0.0029462724924087524,0.02646506205201149,0.0,0.0,2.310091257095337,0.0,0.06,-0.04,0.0
32.26868200,32268682,2,0.01,0.7000000000000001,76.25,-0.007354360073804855,0.008833928033709526,-0.0029289661906659603,0.03151525557041168,0.0,0.0,2.3122832775115967,0.0,0.06,-0.04,0.0
32.36867500,32368675,2,0.01,0.7000000000000001,76.27,-0.0063646347261965275,0.008257238194346428,-0.0024190018884837627,0.015132594853639603,0.0,0.0,2.3129513263702393,0.0,0.06,-0.04,0.0
32.46867500,32468675,2,0.01,0.7000000000000001,76.28,-0.006236643996089697,0.007862154394388199,-0.002008952898904681,0.004363906569778919,0.0,0.0,2.3136398792266846,0.0,0.06,-0.04,0.0
32.56867900,32568679,2,0.01,0.71,76.29,-0.006365268491208553,0.006777714006602764,-0.001667250064201653,0.0079196123406291,0.0,0.0,2.3146557807922363,0.0,0.06,-0.04,0.0
32.66872000,32668720,2,0.01,0.71,76.3,-0.006141165271401405,0.006176932714879513,-0.0009800841799005866,0.019986089318990707,0.0,0.0,2.3170111179351807,0.0,0.06,-0.04,0.0
32.76874200,32768742,2,0.01,0.71,76.31,-0.005852953530848026,0.005640901625156403,0.0003503925399854779,0.045808423310518265,0.0,0.0,2.321559190750122,0.0,0.06,-0.04,0.0
32.86878100,32868781,2,0.01,0.71,76.31,-0.00562929455190897,0.005004609003663063,0.001885951030999422,0.06731677055358887,0.0,0.0,2.327669382095337,0.0,0.06,-0.04,0.0
32.96874400,32968744,2,0.01,0.72,76.31,-0.004887470044195652,0.004778202623128891,0.0010888685937970877,0.03838522732257843,0.0,0.0,2.329421281814575,0.0,0.06,-0.04,0.0
33.06867900,33068679,2,0.01,0.72,76.31,-0.003133767982944846,0.004615885205566883,0.0009902998572215438,0.00848163478076458,0.0,0.0,2.330784559249878,0.0,0.06,-0.04,0.0
33.16871200,33168712,2,0.01,0.72,76.31,-0.0023518777452409267,0.003156608436256647,0.0007703946903347969,0.0066971927881240845,0.0,0.0,2.3321218490600586,0.0,0.06,-0.04,0.0
33.26867800,33268678,2,0.0,0.72,76.3,-0.0015012575313448906,0.0031098779290914536,0.0007542292005382478,0.0065793730318546295,0.0,0.0,2.3331804275512695,0.0,0.06,-0.04,0.0
33.36868500,33368685,2,0.0,0.73,76.3,-0.001240910030901432,0.002696437994018197,0.0019065826199948788,0.02413221076130867,0.0,0.0,2.336332082748413,0.0,0.06,-0.04,0.0
33.46867600,33468676,2,0.0,0.73,76.29,-0.0007643518038094044,0.001164965215139091,0.0032905449625104666,0.04511091485619545,0.0,0.0,2.3405230045318604,0.0,0.06,-0.04,0.0
33.56870800,33568708,2,0.0,0.73,76.29,-0.0005379260401241481,-0.00026040131342597306,0.005056952591985464,0.06340283155441284,0.0,0.0,2.346475124359131,0.0,0.06,-0.04,0.0
33.66873300,33668733,2,0.0,0.73,76.28,-0.0001685951865511015,-0.00099186843726784,0.007115908432751894,0.07223622500896454,0.0,0.0,2.352705717086792,0.0,0.06,-0.04,0.0
33.76877600,33768776,2,0.0,0.73,76.27,0.000946658372413367,-0.0018727910937741399,0.009335333481431007,0.07021249085664749,0.0,0.0,2.358926773071289,0.0,0.06,-0.04,0.0
33.86873600,33868736,2,0.0,0.74,76.27,0.001777224475517869,-0.0019735493697226048,0.011085881851613522,0.048206627368927,0.0,0.0,2.3626930713653564,0.0,0.06,-0.04,0.0
33.96868200,33968682,2,0.0,0.73,76.28,0.0023698320146650076,-0.003698651446029544,0.012029397301375866,0.010740759782493114,0.0,0.0,2.363586664199829,0.0,0.06,-0.04,0.0
34.06867600,34068676,2,0.0,0.73,76.29,0.003033778630197048,-0.004083354026079178,0.012667815200984478,0.003297572722658515,0.0,0.0,2.3654191493988037,0.0,0.06,-0.04,0.0
34.16867600,34168676,2,0.0,0.73,76.3,0.0032220527064055204,-0.004877268336713314,0.012893415056169033,0.012611676007509232,0.0,0.0,2.3673601150512695,0.0,0.06,-0.04,0.0
34.26871600,34268716,2,0.0,0.73,76.3,0.0036860089749097824,-0.006202344782650471,0.014390452764928341,0.030163858085870743,0.0,0.0,2.3709876537323,0.0,0.06,-0.04,0.0
34.36867900,34368679,2,0.0,0.73,76.29,0.004332376644015312,-0.006474804133176804,0.015351693145930767,0.03131246194243431,0.0,0.0,2.3734047412872314,0.0,0.06,-0.03,0.0
34.46871700,34468717,2,-0.01,0.73,76.27,0.004562076181173325,-0.008112672716379166,0.014911187812685966,0.007977575063705444,0.0,0.0,2.3738296031951904,0.0,0.06,-0.03,0.0
34.56873100,34568731,2,0.0,0.72,76.26,0.005292245652526617,-0.008940132334828377,0.014922565780580044,0.0011957752285525203,0.0,0.0,2.3747174739837646,0.0,0.06,-0.03,0.0
34.66877600,34668776,2,-0.01,0.72,76.24,0.006482850760221481,-0.009131934493780136,0.014822453260421753,0.011431043967604637,0.0,0.0,2.3764259815216064,0.0,0.06,-0.03,0.0
34.76873800,34768738,2,-0.01,0.72,76.24,0.006649913266301155,-0.009395680390298367,0.015211004763841629,0.012420634739100933,0.0,0.0,2.377422332763672,0.0,0.06,-0.03,0.0
34.86867900,34868679,2,-0.02,0.72,76.24,0.007296429947018623,-0.010157781653106213,0.01599869132041931,0.010857568122446537,0.0,0.0,2.37862491607666,0.0,0.06,-0.03,0.0
34.96867800,34968678,2,-0.01,0.72,76.23,0.008595804683864117,-0.010542530566453934,0.015335495583713055,0.008472340181469917,0.0,0.0,2.3794455528259277,0.0,0.06,-0.03,0.0
35.06867500,35068675,2,-0.01,0.71,76.21000000000001,0.009475474245846272,-0.01131051778793335,0.014107976108789444,-0.007498792838305235,0.0,0.0,2.3784890174865723,0.0,0.06,-0.03,0.0
35.16867500,35168675,2,-0.01,0.71,76.2,0.010165520943701267,-0.011075381189584732,0.014314391650259495,-0.006026907823979855,0.0,0.0,2.378777265548706,0.0,0.06,-0.03,0.0
35.26867800,35268678,2,-0.01,0.71,76.19,0.010589770041406155,-0.011504031717777252,0.013595585711300373,-0.011015919037163258,0.0,0.0,2.377397298812866,0.0,0.06,-0.03,0.0
35.36872200,35368722,2,0.0,0.72,76.19,0.01133982464671135,-0.011591455899178982,0.013144776225090027,-0.009950865991413593,0.0,0.0,2.377166271209717,0.0,0.06,-0.03,0.0
35.46872800,35468728,2,0.0,0.72,76.19,0.011018491350114346,-0.011004219762980938,0.011812107637524605,-0.004208766855299473,0.0,0.0,2.3767571449279785,0.0,0.06,-0.03,0.0
35.56877000,35568770,2,0.0,0.72,76.19,0.010748597793281078,-0.01124666165560484,0.011505160480737686,-0.0012231067521497607,0.0,0.0,2.3767526149749756,0.0,0.06,-0.03,0.0
35.66875200,35668752,2,0.0,0.72,76.19,0.0098872734233737,-0.011306929402053356,0.012572121806442738,0.026773100718855858,0.0,0.0,2.3800253868103027,0.0,0.06,-0.03,0.0
35.76870400,35768704,2,-0.01,0.71,76.19,0.009748674929141998,-0.01185497734695673,0.012414505705237389,0.014125768095254898,0.0,0.0,2.3794212341308594,0.0,0.06,-0.03,0.0
35.86867800,35868678,2,-0.01,0.72,76.2,0.010264848358929157,-0.012003784067928791,0.011437620967626572,-0.030257683247327805,0.0,0.0,2.376168966293335,0.0,0.06,-0.03,0.0
35.96868200,35968682,2,0.0,0.72,76.2,0.010759814642369747,-0.011454704217612743,0.010725514963269234,-0.043920572847127914,0.0,0.0,2.3729567527770996,0.0,0.06,-0.03,0.0
36.06868300,36068683,2,0.0,0.72,76.2,0.01062378752976656,-0.011941119097173214,0.009629203006625175,-0.038300782442092896,0.0,0.0,2.3701226711273193,0.0,0.06,-0.03,0.0
36.16867600,36168676,2,0.0,0.72,76.2,0.010165081359446049,-0.011918782256543636,0.009196634404361248,-0.018332796171307564,0.0,0.0,2.3691351413726807,0.0,0.06,-0.03,0.0
36.26873500,36268735,2,0.0,0.72,76.2,0.009886871092021465,-0.01219874806702137,0.0087214894592762,-0.003351195016875863,0.0,0.0,2.3685240745544434,0.0,0.06,-0.03,0.0
36.36873100,36368731,2,0.0,0.72,76.2,0.009612570516765118,-0.012113818898797035,0.00874200090765953,0.021511493250727654,0.0,0.0,2.370944023132324,0.0,0.06,-0.03,0.0
36.46877400,36468774,2,0.0,0.72,76.2,0.00925541017204523,-0.013370142318308353,0.00940764881670475,0.0372932143509388,0.0,0.0,2.3734612464904785,0.0,0.06,-0.03,0.0
36.56874600,36568746,2,0.0,0.72,76.22,0.00836175587028265,-0.01391027495265007,0.010110312141478062,0.02977765165269375,0.0,0.0,2.3754241466522217,0.0,0.06,-0.03,0.0
36.66867800,36668678,2,0.0,0.72,76.23,0.008414634503424168,-0.01287413015961647,0.010626525618135929,0.026443449780344963,0.0,0.0,2.3778131008148193,0.0,0.06,-0.03,0.0
36.76867800,36768678,2,0.01,0.72,76.24,0.007686530239880085,-0.011907029896974564,0.010288882069289684,0.015289912931621075,0.0,0.0,2.3788177967071533,0.0,0.06,-0.03,0.0
36.86867800,36868678,2,0.01,0.72,76.25,0.008216672576963902,-0.012082140892744064,0.010784031823277473,0.0029692184180021286,0.0,0.0,2.379260778427124,0.0,0.06,-0.03,0.0
36.96872400,36968724,2,0.01,0.72,76.26,0.0077208043076097965,-0.012195540592074394,0.011602478101849556,0.018781093880534172,0.0,0.0,2.3820528984069824,0.0,0.06,-0.04,0.0
37.06867600,37068676,2,0.01,0.72,76.28,0.0061980681493878365,-0.012085695751011372,0.011382261291146278,0.028366297483444214,0.0,0.0,2.3844261169433594,0.0,0.06,-0.04,0.0
37.16871500,37168715,2,0.01,0.72,76.31,0.005718659609556198,-0.011659955605864525,0.012109288945794106,0.02345169149339199,0.0,0.0,2.3864169120788574,0.0,0.06,-0.04,0.0
37.26873600,37268736,2,0.0,0.72,76.33,0.00504000810906291,-0.011543224565684795,0.012920734472572803,0.02072804421186447,0.0,0.0,2.3884012699127197,0.0,0.06,-0.04,0.0
37.36877900,37368779,2,0.01,0.72,76.34,0.0054280925542116165,-0.01107363123446703,0.013263633474707603,0.020078470930457115,0.0,0.0,2.3904528617858887,0.0,0.06,-0.04,0.0
37.46872600,37468726,2,0.0,0.72,76.35000000000001,0.005236553493887186,-0.011231297627091408,0.013924980536103249,0.014307975769042969,0.0,0.0,2.391615390777588,0.0,0.06,-0.04,0.0
37.56867800,37568678,2,0.0,0.72,76.36,0.00538224121555686,-0.010423186235129833,0.013466385193169117,0.028665635734796524,0.0,0.0,2.39558744430542,0.0,0.06,-0.04,0.0
37.66868800,37668688,2,0.01,0.72,76.35000000000001,0.004854925908148289,-0.00969208125025034,0.01496763527393341,0.04424770176410675,0.0,0.0,2.3992505073547363,0.0,0.06,-0.03,0.0
37.76867600,37768676,2,0.01,0.72,76.34,0.004119204822927713,-0.008719820529222488,0.014934367500245571,0.032298337668180466,0.0,0.0,2.401679039001465,0.0,0.06,-0.03,0.0
37.86867700,37868677,2,0.01,0.72,76.33,0.0042776260524988174,-0.008368078619241714,0.015060801059007645,0.0166475772857666,0.0,0.0,2.4032397270202637,0.0,0.06,-0.03,0.0
37.96868200,37968682,2,0.01,0.71,76.33,0.00360847101546824,-0.008909775875508785,0.015557903796434402,0.010269036516547203,0.0,0.0,2.4046061038970947,0.0,0.06,-0.03,0.0
38.06871600,38068716,2,0.01,0.72,76.33,0.004275558982044458,-0.008288470096886158,0.01636374555528164,0.016943642869591713,0.0,0.0,2.406689167022705,0.0,0.06,-0.03,0.0
38.16873500,38168735,2,0.01,0.71,76.33,0.0037298141978681087,-0.008958430029451847,0.01756579428911209,0.02935631573200226,0.0,0.0,2.409715414047241,0.0,0.06,-0.03,0.0
38.26878800,38268788,2,0.02,0.72,76.32000000000001,0.0031003321055322886,-0.008960633538663387,0.018169350922107697,0.0316595695912838,0.0,0.0,2.412445068359375,0.0,0.06,-0.03,0.0
38.36873600,38368736,2,0.01,0.72,76.32000000000001,0.00314266886562109,-0.009068639017641544,0.01903834380209446,0.029132626950740814,0.0,0.0,2.415173292160034,0.0,0.06,-0.03,0.0
38.46871200,38468712,2,0.01,0.72,76.32000000000001,0.0008768282714299858,-0.00931643322110176,0.01951085589826107,0.031744975596666336,0.0,0.0,2.4183402061462402,0.0,0.06,-0.03,0.0
38.56867800,38568678,2,0.01,0.71,76.3,0.002299433806911111,-0.006824960932135582,0.020718805491924286,0.0405413918197155,0.0,0.0,2.422398567199707,0.0,0.06,-0.03,0.0
38.66867700,38668677,2,0.01,0.71,76.3,0.0009498271392658353,-0.010296747088432312,0.020526017993688583,0.022819554433226585,0.0,0.0,2.4239320755004883,0.0,0.06,-0.03,0.0
38.76867500,38768675,2,0.01,0.71,76.3,0.0032048758585006,-0.009550127200782299,0.019710231572389603,0.004312622826546431,0.0,0.0,2.4249796867370605,0.0,0.06,-0.03,0.0
38.86867600,38868676,2,0.01,0.71,76.3,0.0013154612388461828,-0.009808034636080265,0.019521279260516167,0.00717706885188818,0.0,0.0,2.426201820373535,0.0,0.06,-0.03,0.0
38.96870700,38968707,2,0.02,0.71,76.3,0.0013621007092297077,-0.011729382909834385,0.01991873048245907,-0.0006292693433351815,0.0,0.0,2.4262256622314453,0.0,0.06,-0.03,0.0
39.06873100,39068731,2,0.01,0.71,76.3,0.001104402937926352,-0.01062130369246006,0.01981678232550621,-0.014379620552062988,0.0,0.0,2.4251163005828857,0.0,0.06,-0.03,0.0
39.16877300,39168773,2,0.01,0.71,76.31,0.0008797814953140914,-0.012001548893749714,0.019439904019236565,-0.028680577874183655,0.0,0.0,2.4225645065307617,0.0,0.06,-0.03,0.0
39.26875600,39268756,2,0.01,0.72,76.32000000000001,0.0014025467680767179,-0.011387842707335949,0.018686115741729736,-0.03652256727218628,0.0,0.0,2.41982102394104,0.0,0.06,-0.03,0.0
39.36868000,39368680,2,0.01,0.72,76.34,0.000353561423253268,-0.01117952261120081,0.01909378543496132,-0.0227944478392601,0.0,0.0,2.4184043407440186,0.0,0.06,-0.03,0.0
39.46867600,39468676,2,0.01,0.72,76.36,-0.00010591932368697599,-0.01277239341288805,0.020318228751420975,0.003805446671321988,0.0,0.0,2.4190595149993896,0.0,0.06,-0.04,0.0
39.56868200,39568682,2,0.01,0.72,76.37,-0.0007646510493941605,-0.010850473307073116,0.020695416256785393,0.01859983615577221,0.0,0.0,2.42026948928833,0.0,0.06,-0.04,0.0
39.66868200,39668682,2,0.02,0.71,76.38,0.00013473950093612075,-0.013056213036179543,0.021948229521512985,0.011890287511050701,0.0,0.0,2.420598030090332,0.0,0.06,-0.04,0.0
39.76867500,39768675,2,0.02,0.71,76.4,-0.0012500542216002941,-0.014635586179792881,0.021332016214728355,0.0147933354601264,0.0,0.0,2.4223451614379883,0.0,0.06,-0.04,0.0
39.86873400,39868734,2,0.02,0.71,76.42,-3.799664045800455e-05,-0.010671840980648994,0.022488001734018326,0.014847168698906898,0.0,0.0,2.423041820526123,0.0,0.06,-0.04,0.0
39.96874000,39968740,2,0.03,0.71,76.44,-0.001791805843822658,-0.0172701608389616,0.02163170650601387,-0.009383929893374443,0.0,0.0,2.4218897819519043,0.0,0.06,-0.04,0.0
40.06878000,40068780,2,0.02,0.72,76.46000000000001,0.0005645030178129673,-0.01527013722807169,0.021193979308009148,-0.031073709949851036,0.0,0.0,2.419173002243042,0.0,0.06,-0.04,0.0
40.16874300,40168743,2,0.02,0.73,76.46000000000001,-0.0013536615297198296,-0.01801040582358837,0.020842667669057846,-0.044171273708343506,0.0,0.0,2.4156570434570312,0.0,0.06,-0.04,0.0
40.26871700,40268717,2,0.02,0.74,76.46000000000001,-0.0017430747393518686,-0.015045995824038982,0.020905835554003716,-0.045019201934337616,0.0,0.0,2.412019968032837,0.0,0.06,-0.04,0.0
40.36867700,40368677,2,0.01,0.72,76.46000000000001,-0.0032472885213792324,-0.013942411169409752,0.018922708928585052,-0.04350525513291359,0.0,0.0,2.4083402156829834,0.0,0.06,-0.04,0.0
40.46867600,40468676,2,0.01,0.73,76.45,-0.002756891306489706,-0.01710350811481476,0.01816113106906414,-0.03142598271369934,0.0,0.0,2.405816078186035,0.0,0.06,-0.04,0.0
40.56867900,40568679,2,0.01,0.73,76.44,-0.002844157163053751,-0.013091429136693478,0.01707778126001358,-0.009728658013045788,0.0,0.0,2.4050216674804688,0.0,0.06,-0.04,0.0
40.66868600,40668686,2,0.01,0.72,76.43,-0.004055352415889502,-0.015345747582614422,0.01786910556256771,0.012512215413153172,0.0,0.0,2.4058337211608887,0.0,0.06,-0.04,0.0
40.76873400,40768734,2,0.01,0.73,76.43,-0.0034072333946824074,-0.01645968109369278,0.01755497418344021,0.004575195722281933,0.0,0.0,2.404813766479492,0.0,0.06,-0.04,0.0
40.86872800,40868728,2,0.01,0.73,76.42,-0.0030545759946107864,-0.014232647605240345,0.017636075615882874,-0.008703762665390968,0.0,0.0,2.4041099548339844,0.0,0.06,-0.04,0.0
40.96877200,40968772,2,0.01,0.73,76.42,-0.0025447672232985497,-0.017163148149847984,0.0180448517203331,0.010232444852590561,0.0,0.0,2.4055416584014893,0.0,0.06,-0.04,0.0
41.06872900,41068729,2,0.01,0.74,76.42,-0.003770947689190507,-0.015265208669006824,0.018822578713297844,0.03300267830491066,0.0,0.0,2.408543825149536,0.0,0.06,-0.04,0.0
41.16867800,41168678,2,0.01,0.73,76.43,-0.004417405463755131,-0.01524866558611393,0.021332649514079094,0.05630826950073242,0.0,0.0,2.4136664867401123,0.0,0.06,-0.04,0.0
41.26867800,41268678,2,0.01,0.74,76.43,-0.005016131326556206,-0.01743442378938198,0.022256189957261086,0.06400367617607117,0.0,0.0,2.4187850952148438,0.0,0.06,-0.04,0.0
41.36867900,41368679,2,0.02,0.74,76.44,-0.005603627767413855,-0.015021154657006264,0.022504476830363274,0.03388546407222748,0.0,0.0,2.4207382202148438,0.0,0.06,-0.04,0.0
41.46867900,41468679,2,0.01,0.73,76.44,-0.0058275386691093445,-0.01731455884873867,0.023117652162909508,0.004169445484876633,0.0,0.0,2.4215385913848877,0.0,0.06,-0.04,0.0
41.56867700,41568677,2,0.01,0.73,76.46000000000001,-0.007008546497672796,-0.01770266331732273,0.023222746327519417,-0.008294886909425259,0.0,0.0,2.421252965927124,0.0,0.06,-0.04,0.0
41.66871800,41668718,2,0.01,0.73,76.48,-0.006578220520168543,-0.01687721721827984,0.022614294663071632,-0.012169298715889454,0.0,0.0,2.4210638999938965,0.0,0.06,-0.04,0.0
41.76872700,41768727,2,0.01,0.73,76.49,-0.0074257324449718,-0.018664686009287834,0.023763690143823624,-0.001909587881527841,0.0,0.0,2.4214251041412354,0.0,0.06,-0.04,0.0
41.86877300,41868773,2,0.0,0.73,76.51,-0.0077622453682124615,-0.017007533460855484,0.024947652593255043,0.012131189927458763,0.0,0.0,2.4229984283447266,0.0,0.06,-0.04,0.0
41.96873200,41968732,2,0.0,0.73,76.52,-0.009264461696147919,-0.017472412437200546,0.025788135826587677,0.030482975766062737,0.0,0.0,2.426013469696045,0.0,0.06,-0.04,0.0
42.06871500,42068715,2,0.0,0.73,76.54,-0.010108419694006443,-0.018320996314287186,0.027047893032431602,0.028985098004341125,0.0,0.0,2.427870273590088,0.0,0.06,-0.04,0.0
42.16867900,42168679,2,0.0,0.73,76.54,-0.009339721873402596,-0.01717262528836727,0.02742232009768486,0.016248757019639015,0.0,0.0,2.4294347763061523,0.0,0.06,-0.04,0.0
42.26867900,42268679,2,0.0,0.73,76.55,-0.010223006829619408,-0.01988445594906807,0.027548329904675484,0.01855642907321453,0.0,0.0,2.431506633758545,0.0,0.06,-0.04,0.0
42.36867700,42368677,2,0.0,0.73,76.57000000000001,-0.010340833105146885,-0.020291084423661232,0.02886686474084854,0.028805365785956383,0.0,0.0,2.434540033340454,0.0,0.06,-0.04,0.0
42.46867800,42468678,2,0.0,0.73,76.56,-0.011123539879918098,-0.01982690766453743,0.02995876967906952,0.03783222660422325,0.0,0.0,2.4380760192871094,0.0,0.06,-0.04,0.0
42.56871700,42568717,2,-0.01,0.73,76.55,-0.010226337239146233,-0.02065187878906727,0.030491827055811882,0.043415188789367676,0.0,0.0,2.4422554969787598,0.0,0.06,-0.04,0.0
42.66873500,42668735,2,-0.01,0.73,76.54,-0.009454396553337574,-0.018756506964564323,0.03086024336516857,0.04576341062784195,0.0,0.0,2.4463846683502197,0.0,0.06,-0.04,0.0
42.76878600,42768786,2,-0.01,0.73,76.53,-0.008784367702901363,-0.020171932876110077,0.031104447320103645,0.02990463562309742,0.0,0.0,2.448699712753296,0.0,0.06,-0.04,0.0
42.86874200,42868742,2,-0.02,0.73,76.52,-0.006901862099766731,-0.019506873562932014,0.031136035919189453,0.0073333680629730225,0.0,0.0,2.4495890140533447,0.0,0.06,-0.04,0.0
42.96868000,42968680,2,-0.02,0.73,76.51,-0.005322059150785208,-0.017427077516913414,0.030193163082003593,-0.010027178563177586,0.0,0.0,2.449056386947632,0.0,0.06,-0.04,0.0
43.06868000,43068680,2,-0.02,0.74,76.51,-0.003458793740719557,-0.01901399902999401,0.028707729652523994,-0.024623563513159752,0.0,0.0,2.4474215507507324,0.0,0.06,-0.04,0.0
43.16868000,43168680,2,-0.02,0.75,76.51,-0.002083224942907691,-0.01753113977611065,0.02837402932345867,-0.00847790576517582,0.0,0.0,2.448089838027954,0.0,0.06,-0.04,0.0
43.26868500,43268685,2,-0.02,0.75,76.52,0.00023924493871163577,-0.018297303467988968,0.027790842577815056,0.008099251426756382,0.0,0.0,2.4486348628997803,0.0,0.06,-0.04,0.0
43.36867900,43368679,2,-0.02,0.75,76.52,0.0012593914289027452,-0.019225258380174637,0.027262508869171143,-0.005566207226365805,0.0,0.0,2.447701930999756,0.0,0.06,-0.04,0.0
43.46871600,43468716,2,-0.02,0.75,76.52,0.002177764195948839,-0.017480337992310524,0.025815850123763084,-0.032122932374477386,0.0,0.0,2.4443395137786865,0.0,0.06,-0.04,0.0
43.56874200,43568742,2,-0.03,0.75,76.52,0.0025803837925195694,-0.01874377951025963,0.024748114868998528,-0.054215919226408005,0.0,0.0,2.4397547245025635,0.0,0.06,-0.03,0.0
43.66878600,43668786,2,-0.03,0.76,76.51,0.0037019490264356136,-0.018420372158288956,0.022840818390250206,-0.07276207953691483,0.0,0.0,2.4330759048461914,0.0,0.06,-0.03,0.0
43.76874000,43768740,2,-0.02,0.75,76.5,0.004582035820931196,-0.018814871087670326,0.020721198990941048,-0.08264542371034622,0.0,0.0,2.425973653793335,0.0,0.06,-0.03,0.0
43.86867600,43868676,2,-0.03,0.76,76.5,0.005398577079176903,-0.019635803997516632,0.019397590309381485,-0.06341390311717987,0.0,0.0,2.4211409091949463,0.0,0.06,-0.03,0.0
43.96871900,43968719,2,-0.03,0.76,76.5,0.005748397205024958,-0.01858593337237835,0.019052138552069664,-0.02442168816924095,0.0,0.0,2.4192280769348145,0.0,0.06,-0.03,0.0
44.06867600,44068676,2,-0.04,0.76,76.49,0.006199730560183525,-0.019371990114450455,0.019304178655147552,0.004530461970716715,0.0,0.0,2.419008731842041,0.0,0.06,-0.03,0.0
44.16867600,44168676,2,-0.03,0.76,76.49,0.006839890498667955,-0.019879747182130814,0.019501598551869392,0.01608682982623577,0.0,0.0,2.4194629192352295,0.0,0.06,-0.03,0.0
44.26868500,44268685,2,-0.04,0.76,76.49,0.007468591444194317,-0.019959239289164543,0.019508130848407745,0.005288387183099985,0.0,0.0,2.418623685836792,0.0,0.06,-0.03,0.0
44.36871900,44368719,2,-0.04,0.75,76.48,0.007678557652980089,-0.02073529362678528,0.019663935527205467,-0.012468731962144375,0.0,0.0,2.4169342517852783,0.0,0.06,-0.03,0.0
44.46874800,44468748,2,-0.03,0.75,76.48,0.008920462802052498,-0.020261483266949654,0.018914883956313133,-0.011100053787231445,0.0,0.0,2.416466236114502,0.0,0.06,-0.03,0.0
44.56877600,44568776,2,-0.04,0.75,76.48,0.010028872638940811,-0.021128062158823013,0.018410880118608475,-0.005457800347357988,0.0,0.0,2.4158084392547607,0.0,0.06,-0.03,0.0
44.66874400,44668744,2,-0.04,0.75,76.49,0.010497791692614555,-0.021112050861120224,0.019429277628660202,-0.00042322365334257483,0.0,0.0,2.4158661365509033,0.0,0.06,-0.03,0.0
44.76867800,44768678,2,-0.04,0.75,76.5,0.009965900331735611,-0.02076263166964054,0.019774120301008224,-0.01388205774128437,0.0,0.0,2.4135165214538574,0.0,0.06,-0.03,0.0
44.86867500,44868675,2,-0.04,0.75,76.5,0.01133890450000763,-0.022403286769986153,0.01900349371135235,-0.03432765230536461,0.0,0.0,2.410491466522217,0.0,0.06,-0.03,0.0
44.96868400,44968684,2,-0.04,0.76,76.51,0.012800195254385471,-0.02246401645243168,0.01848219707608223,-0.019023708999156952,0.0,0.0,2.4099862575531006,0.0,0.06,-0.03,0.0
45.06867900,45068679,2,-0.04,0.76,76.51,0.01351149007678032,-0.0218149833381176,0.017087213695049286,-0.0039634727872908115,0.0,0.0,2.4093284606933594,0.0,0.06,-0.03,0.0
45.16867500,45168675,2,-0.04,0.76,76.5,0.014777199365198612,-0.02247292920947075,0.016085345298051834,0.0008737429161556065,0.0,0.0,2.409419059753418,0.0,0.06,-0.03,0.0
45.26871400,45268714,2,-0.05,0.76,76.51,0.016517819836735725,-0.02247023768723011,0.01586376689374447,0.03756018728017807,0.0,0.0,2.414013385772705,0.0,0.06,-0.03,0.0
45.36873300,45368733,2,-0.04,0.76,76.51,0.017800677567720413,-0.021860674023628235,0.01563699170947075,0.05341352894902229,0.0,0.0,2.4174704551696777,0.0,0.06,-0.03,0.0
45.46877200,45468772,2,-0.04,0.76,76.52,0.018447592854499817,-0.021778536960482597,0.01700901985168457,0.04149556905031204,0.0,0.0,2.4206573963165283,0.0,0.06,-0.03,0.0
45.56872900,45568729,2,-0.05,0.76,76.52,0.017953218892216682,-0.022721119225025177,0.01780887506902218,0.02142476849257946,0.0,0.0,2.421809673309326,0.0,0.06,-0.03,0.0
45.66868100,45668681,2,-0.05,0.75,76.51,0.017858801409602165,-0.023377425968647003,0.01860281266272068,-0.002044033259153366,0.0,0.0,2.421720504760742,0.0,0.06,-0.03,0.0
45.76867900,45768679,2,-0.04,0.76,76.52,0.018623339012265205,-0.024648023769259453,0.017873572185635567,-0.004031968768686056,0.0,0.0,2.422389268875122,0.0,0.06,-0.03,0.0
45.86867500,45868675,2,-0.04,0.76,76.52,0.0190548375248909,-0.024432167410850525,0.017645252868533134,0.008521356619894505,0.0,0.0,2.423837184906006,0.0,0.06,-0.03,0.0
45.96868200,45968682,2,-0.03,0.75,76.53,0.01727958768606186,-0.023509707301855087,0.017254000529646873,-0.0002677619631867856,0.0,0.0,2.4231679439544678,0.0,0.06,-0.03,0.0
46.06867600,46068676,2,-0.03,0.73,76.52,0.018876047804951668,-0.024554427713155746,0.017813729122281075,-0.00566722359508276,0.0,0.0,2.423276901245117,0.0,0.06,-0.03,0.0
46.16870400,46168704,2,0.0,0.7000000000000001,76.53,0.015388072468340397,-0.019108477979898453,0.017243295907974243,-0.0023955886717885733,0.0,0.0,2.423133611679077,0.0,0.06,-0.03,0.0
46.26873100,46268731,2,-0.01,0.68,76.53,0.023907886818051338,-0.0310121588408947,0.018978318199515343,-0.0030075779650360346,0.0,0.0,2.423090934753418,0.0,0.06,-0.03,0.0
46.36877100,46368771,2,-0.02,0.74,76.55,0.01486095692962408,-0.03213684260845184,0.01741592399775982,-0.007655358407646418,0.0,0.0,2.4224772453308105,0.0,0.06,-0.03,0.0
46.46873500,46468735,2,0.0,0.6900000000000001,76.53,0.019405124709010124,-0.01185618992894888,0.01731949672102928,-0.020539050921797752,0.0,0.0,2.420421600341797,0.0,0.06,-0.03,0.0
46.56867900,46568679,2,0.02,0.61,76.53,0.01396184042096138,-0.020604759454727173,0.01693824492394924,-0.03626835346221924,0.0,0.0,2.417100191116333,0.0,0.06,-0.03,0.0
46.66868200,46668682,2,0.04,0.59,76.55,0.021898439154028893,-0.03458535298705101,0.01726001873612404,-0.055308420211076736,0.0,0.0,2.4119229316711426,0.0,0.06,-0.03,0.0
46.76867800,46768678,2,0.01,0.64,76.53,0.01845947653055191,-0.03700534626841545,0.016148867085576057,-0.07445372641086578,0.0,0.0,2.4054346084594727,0.0,0.06,-0.03,0.0
46.86867600,46868676,2,0.02,0.63,76.51,0.018725775182247162,-0.023146605119109154,0.015121127478778362,-0.06251823902130127,0.0,0.0,2.400656223297119,0.0,0.06,-0.03,0.0
46.96867900,46968679,2,0.02,0.59,76.53,0.021748023107647896,-0.03076927922666073,0.01660429872572422,-0.007225570268929005,0.0,0.0,2.4007153511047363,0.0,0.06,-0.03,0.0
47.06872400,47068724,2,0.02,0.63,76.52,0.01724015548825264,-0.0410393625497818,0.017530109733343124,0.03965145722031593,0.0,0.0,2.4035041332244873,0.0,0.06,-0.03,0.0
47.16872800,47168728,2,0.01,0.63,76.52,0.01694108359515667,-0.0233302004635334,0.01888127624988556,0.050520069897174835,0.0,0.0,2.4067206382751465,0.0,0.06,-0.03,0.0
47.26878700,47268787,2,0.03,0.55,76.53,0.017559664323925972,-0.02419942431151867,0.018343111500144005,0.03503229841589928,0.0,0.0,2.408738136291504,0.0,0.06,-0.04,0.0
47.36875300,47368753,2,0.02,0.58,76.55,0.024522338062524796,-0.05055927485227585,0.023059923201799393,0.022705497220158577,0.0,0.0,2.4104018211364746,0.0,0.06,-0.03,0.0
47.46869900,47468699,2,-0.05,0.77,76.59,0.021565686911344528,-0.06588408350944519,0.019188065081834793,0.01836448535323143,0.0,0.0,2.4128358364105225,0.0,0.06,-0.04,0.0
47.56867800,47568678,2,-0.08,0.8200000000000001,76.60000000000001,0.021055050194263458,-0.015411658212542534,0.021321319043636322,0.023841215297579765,0.0,0.0,2.415107011795044,0.0,0.06,-0.03,0.0
47.66868200,47668682,2,-0.05,0.72,76.60000000000001,0.020163634791970253,-0.03139747306704521,0.01876395009458065,0.018040968105196953,0.0,0.0,2.416905641555786,0.0,0.06,-0.03,0.0
47.76867500,47768675,2,-0.08,0.8,76.64,0.02056124247610569,-0.05323617905378342,0.016826873645186424,-0.005204830784350634,0.0,0.0,2.416306495666504,0.0,0.06,-0.03,0.0
