timestamp,TimeUS,C,Q1,Q2,Q3,Q4
12.26876500,12268765,2,1.0,0.0,0.0,0.0
12.36869900,12368699,2,1.0,0.0,0.0,0.0
12.46870000,12468700,2,1.0,0.0,0.0,0.0
12.56873400,12568734,2,1.0,0.0,0.0,0.0
12.66869200,12668692,2,1.0,0.0,0.0,0.0
12.76869900,12768699,2,1.0,0.0,0.0,0.0
12.86874300,12868743,2,1.0,0.0,0.0,0.0
12.96876500,12968765,2,1.0,0.0,0.0,0.0
13.06880300,13068803,2,1.0,0.0,0.0,0.0
13.16876000,13168760,2,1.0,0.0,0.0,0.0
13.26873900,13268739,2,0.9999768137931824,0.00131777033675462,0.006679760757833719,-4.4394564611138776e-05
13.36875000,13368750,2,0.9999762773513794,0.0014033332699909806,0.006744100712239742,-3.976645530201495e-05
13.46869800,13468698,2,0.9999760389328003,0.0013180590467527509,0.006797485053539276,-8.563156734453514e-05
13.56873500,13568735,2,0.9999760985374451,0.0014094471698626876,0.006767315790057182,-9.853163646766916e-05
13.66873800,13668738,2,0.9999756217002869,0.0013701082207262516,0.006842422764748335,-0.0001130033633671701
13.76872200,13768722,2,0.9999755620956421,0.001379990135319531,0.006849507801234722,-0.00017156150715891272
13.86874000,13868740,2,0.9999755620956421,0.0013667935272678733,0.0068591004237532616,-0.00012230554420966655
13.96878400,13968784,2,0.9999755024909973,0.0013769069919362664,0.00686078192666173,-0.00011088639439549297
14.06874200,14068742,2,0.9999756813049316,0.0013192429905757308,0.006846265401691198,-0.00020243696053512394
14.16873800,14168738,2,0.9999756813049316,0.0012461772421374917,0.00686065386980772,-0.00017226376803591847
14.26875100,14268751,2,0.9999756813049316,0.001237001153640449,0.006859196815639734,-9.78577445494011e-05
14.36873700,14368737,2,0.9999759197235107,0.0011265284847468138,0.006845469586551189,-0.00011826268018921837
14.46869800,14468698,2,0.9999755620956421,0.0010182156693190336,0.006916793994605541,-7.342801109189168e-05
14.56870100,14568701,2,0.9999756813049316,0.0009472179226577282,0.006911179516464472,-0.00011307834938634187
14.66873100,14668731,2,0.9999758005142212,0.0008227006183005869,0.006908866576850414,-9.484213660471141e-05
14.76874300,14768743,2,0.7878670692443848,-0.0035528421867638826,0.005822956562042236,0.6158075928688049
14.86878900,14868789,2,0.7877181172370911,-0.003637314075604081,0.0058276657946407795,0.6159975528717041
14.96875700,14968757,2,0.787190318107605,-0.003695190418511629,0.005886314902454615,0.6166710257530212
15.06874300,15068743,2,0.7867538332939148,-0.003793371608480811,0.005892771761864424,0.6172271370887756
15.16869400,15168694,2,0.7868413329124451,-0.0038537485525012016,0.005943368189036846,0.6171147227287292
15.26873500,15268735,2,0.7872081398963928,-0.003938676323741674,0.005975339561700821,0.616645872592926
15.36874200,15368742,2,0.7875285744667053,-0.00398209085687995,0.005939085502177477,0.616236686706543
15.46869500,15468695,2,0.7878792881965637,-0.003996764775365591,0.00593459652736783,0.6157881617546082
15.56872700,15568727,2,0.7882167100906372,-0.0039806789718568325,0.005939628928899765,0.6153562664985657
15.66875300,15668753,2,0.7883915305137634,-0.004009629599750042,0.00598009442910552,0.6151316165924072
15.76877900,15768779,2,0.7884048223495483,-0.004021262284368277,0.006000514607876539,0.6151143312454224
15.86875700,15868757,2,0.7882922887802124,-0.004033947829157114,0.005999232642352581,0.6152584552764893
15.96869500,15968695,2,0.788170337677002,-0.0040307315066456795,0.00597825413569808,0.6154149174690247
16.06868700,16068687,2,0.7881447076797485,-0.004108563531190157,0.005955169443041086,0.6154474020004272
16.16868800,16168688,2,0.7881298065185547,-0.004115175921469927,0.005951767787337303,0.6154664754867554
16.26869300,16268693,2,0.7881284952163696,-0.004115368705242872,0.005849920213222504,0.6154691576957703
16.36872500,16368725,2,0.7881755828857422,-0.004139905329793692,0.005823678337037563,0.6154089570045471
16.46872500,16468725,2,0.788295328617096,-0.004221166018396616,0.005782837048172951,0.6152554154396057
16.56875600,16568756,2,0.7884405851364136,-0.004207956604659557,0.005707968026399612,0.6150700449943542
16.66879700,16668797,2,0.7885879874229431,-0.004160617478191853,0.005680652800947428,0.6148816347122192
16.76875100,16768751,2,0.7887294292449951,-0.004173656925559044,0.005628291517496109,0.6147006154060364
16.86872800,16868728,2,0.788861870765686,-0.0041561732068657875,0.0055926782079041,0.6145310401916504
16.96869400,16968694,2,0.7888551950454712,-0.004122954793274403,0.005536686163395643,0.6145403385162354
17.06874100,17068741,2,0.7886901497840881,-0.0041417949832975864,0.0055877710692584515,0.6147515177726746
17.16872400,17168724,2,0.7884341478347778,-0.0041437349282205105,0.005546138621866703,0.6150801777839661
17.26868900,17268689,2,0.788257896900177,-0.004111440386623144,0.005545415449887514,0.6153063178062439
17.36872100,17368721,2,0.7880781888961792,-0.004121557809412479,0.005502776708453894,0.6155367493629456
17.46874000,17468740,2,0.7879235148429871,-0.0041074370965361595,0.0054871453903615475,0.6157349348068237
17.56878300,17568783,2,0.7878046035766602,-0.004100533202290535,0.005495800171047449,0.6158870458602905
17.66875800,17668758,2,0.7877097129821777,-0.004075334873050451,0.005497531499713659,0.6160085797309875
17.76868600,17768686,2,0.7877395153045654,-0.004091615788638592,0.0055066971108317375,0.615970253944397
17.86868900,17868689,2,0.787868857383728,-0.004093846306204796,0.0055261291563510895,0.6158046722412109
17.96869600,17968696,2,0.7879812121391296,-0.004064818378537893,0.0054847258143126965,0.6156614422798157
18.06868700,18068687,2,0.7880458831787109,-0.003981377929449081,0.005484641995280981,0.6155792474746704
18.16868800,18168688,2,0.7881006598472595,-0.0039842622354626656,0.005481251515448093,0.615509033203125
18.26873300,18268733,2,0.7881194353103638,-0.003951061051338911,0.00543673150241375,0.615485668182373
18.36874200,18368742,2,0.7881527543067932,-0.003945147152990103,0.005422345362603664,0.6154431700706482
18.46878400,18468784,2,0.7882348299026489,-0.003957455512136221,0.005396319553256035,0.615338146686554
18.56875700,18568757,2,0.7883523106575012,-0.0039328839629888535,0.0054367645643651485,0.6151874661445618
18.66869400,18668694,2,0.7885531187057495,-0.003895678324624896,0.0054468861781060696,0.6149301528930664
18.76873300,18768733,2,0.7886866927146912,-0.0038440607022494078,0.005423261318355799,0.6147593855857849
18.86873100,18868731,2,0.7887253761291504,-0.003849038854241371,0.005475989077240229,0.614709198474884
18.96869000,18968690,2,0.7887027263641357,-0.0038652594666928053,0.005486402194947004,0.6147381663322449
19.06868700,19068687,2,0.7886679768562317,-0.0038150001782923937,0.0055243875831365585,0.6147826910018921
19.16874600,19168746,2,0.7886162400245667,-0.0038297714199870825,0.005566332023590803,0.6148485541343689
19.26875300,19268753,2,0.7886053323745728,-0.0038144863210618496,0.005577048286795616,0.6148625016212463
19.36878600,19368786,2,0.7886695861816406,-0.0038138614036142826,0.005574222654104233,0.6147801876068115
19.46874800,19468748,2,0.7887834906578064,-0.003734238911420107,0.005557406228035688,0.6146346926689148
19.56869000,19568690,2,0.7888955473899841,-0.003731242846697569,0.005505812354385853,0.6144912838935852
19.66869100,19668691,2,0.7889940142631531,-0.003691418096423149,0.0055421581491827965,0.6143648028373718
19.76868700,19768687,2,0.7890638709068298,-0.003708453383296728,0.005578646901994944,0.6142746806144714
19.86869600,19868696,2,0.7891309261322021,-0.0036251924466341734,0.005564690101891756,0.614189088344574
19.96869700,19968697,2,0.7891761064529419,-0.003636089153587818,0.005568652413785458,0.614130973815918
20.06873200,20068732,2,0.7892436981201172,-0.0035901525989174843,0.005557875148952007,0.6140444874763489
20.16875300,20168753,2,0.7893134951591492,-0.0036195178981870413,0.005553198512643576,0.6139546036720276
20.26880000,20268800,2,0.7893423438072205,-0.0036991199012845755,0.005543636158108711,0.6139171123504639
20.36874200,20368742,2,0.7893194556236267,-0.003753907745704055,0.005563972983509302,0.6139460206031799
20.46868700,20468687,2,0.7892674207687378,-0.0037767249159514904,0.0055791293270885944,0.6140126585960388
20.56873700,20568737,2,0.7892221808433533,-0.0037686501163989305,0.0055572353303432465,0.6140710711479187
20.66869500,20668695,2,0.7892000675201416,-0.003771035699173808,0.005550164729356766,0.6140995621681213
20.76873200,20768732,2,0.7892078161239624,-0.0037918349262326956,0.005524388048797846,0.6140896677970886
20.86874400,20868744,2,0.7892411351203918,-0.003807710949331522,0.005512271076440811,0.6140468716621399
20.96872400,20968724,2,0.789280891418457,-0.0038534009363502264,0.005494780372828245,0.6139956712722778
21.06874100,21068741,2,0.7893180251121521,-0.0038498230278491974,0.005468511953949928,0.6139481067657471
21.16878300,21168783,2,0.7893145084381104,-0.0038093437906354666,0.005445017013698816,0.613953173160553
21.26876700,21268767,2,0.7892718315124512,-0.003817541990429163,0.005454223603010178,0.614007830619812
21.36869200,21368692,2,0.789245069026947,-0.003839816665276885,0.0054437946528196335,0.6140421628952026
21.46872900,21468729,2,0.7891716957092285,-0.003852777648717165,0.005426357034593821,0.6141365766525269
21.56869000,21568690,2,0.7891417741775513,-0.003870727028697729,0.005444634705781937,0.6141747832298279
21.66872800,21668728,2,0.7891755700111389,-0.0038839003536850214,0.005439269356429577,0.6141312718391418
21.76869300,21768693,2,0.7892595529556274,-0.0038663207087665796,0.005415056832134724,0.6140236854553223
21.86872000,21868720,2,0.7894599437713623,-0.0038281267043203115,0.005389970727264881,0.6137664318084717
21.96874500,21968745,2,0.7896642088890076,-0.0038283509202301502,0.005291406996548176,0.6135044693946838
22.06878400,22068784,2,0.7898380160331726,-0.0038150958716869354,0.005254014860838652,0.6132811307907104
22.16875500,22168755,2,0.7899101376533508,-0.0037735244259238243,0.005250461865216494,0.6131885647773743
22.26869700,22268697,2,0.7899230122566223,-0.0037612994201481342,0.005208966322243214,0.6131723523139954
22.36868800,22368688,2,0.7898736000061035,-0.003774298122152686,0.00520877493545413,0.6132359504699707
22.46868700,22468687,2,0.7898596525192261,-0.003737866645678878,0.005166266113519669,0.6132544279098511
22.56874100,22568741,2,0.7898288369178772,-0.0037610798608511686,0.005164222791790962,0.6132940053939819
22.66868700,22668687,2,0.7897635698318481,-0.0037370931822806597,0.0051122140139341354,0.613378643989563
22.76872900,22768729,2,0.7896660566329956,-0.003724971553310752,0.005109129939228296,0.6135042905807495
22.86874200,22868742,2,0.7895038723945618,-0.0037181000225245953,0.005076667293906212,0.613713264465332
22.96878200,22968782,2,0.789319634437561,-0.0037409369833767414,0.00506412610411644,0.6139501929283142
23.06875000,23068750,2,0.7891966700553894,-0.003770131152123213,0.00506590586155653,0.6141080856323242
23.16868800,23168688,2,0.789137601852417,-0.0037432764656841755,0.005077150650322437,0.6141840815544128
23.26869000,23268690,2,0.7890496253967285,-0.003789047710597515,0.005070382729172707,0.6142968535423279
23.36873500,23368735,2,0.7890332937240601,-0.0038292454555630684,0.005068831145763397,0.6143175959587097
23.46873000,23468730,2,0.7890251278877258,-0.003785161068663001,0.005023693200200796,0.6143287420272827
23.56869500,23568695,2,0.7889801859855652,-0.003810664638876915,0.005017462186515331,0.6143863201141357
23.66873400,23668734,2,0.7889397144317627,-0.00384018337354064,0.004971486050635576,0.614438533782959
23.76875100,23768751,2,0.7889373898506165,-0.0038479138165712357,0.004947415087372065,0.6144416332244873
23.86880500,23868805,2,0.7889717817306519,-0.0038544703274965286,0.004954612348228693,0.6143973469734192
23.96875200,23968752,2,0.7889373898506165,-0.0038524786941707134,0.004940382670611143,0.6144416928291321
24.06868700,24068687,2,0.7888758182525635,-0.003878421150147915,0.004950435366481543,0.6145204901695251
24.16873000,24168730,2,0.7888239622116089,-0.003868492553010583,0.004936147015541792,0.6145871877670288
24.26873800,24268738,2,0.7887935638427734,-0.003800021018832922,0.0049210176803171635,0.6146267652511597
24.36872200,24368722,2,0.7887139320373535,-0.003734791185706854,0.004919665865600109,0.6147293448448181
24.46876700,24468767,2,0.7886266112327576,-0.0037110697012394667,0.004892547149211168,0.6148417592048645
24.56874700,24568747,2,0.7886161804199219,-0.0037636402994394302,0.004845367278903723,0.614855170249939
24.66874200,24668742,2,0.7886928915977478,-0.0037383344024419785,0.00481207761913538,0.6147571802139282
24.76878900,24768789,2,0.7887611389160156,-0.003750633215531707,0.004776530433446169,0.6146697998046875
24.86875900,24868759,2,0.7888979911804199,-0.0037217806093394756,0.004723397549241781,0.6144947409629822
24.96869000,24968690,2,0.7890980243682861,-0.0037146618124097586,0.004681331105530262,0.6142382025718689
25.06868700,25068687,2,0.7892698049545288,-0.003723236033692956,0.004688457120209932,0.6140173673629761
25.16876700,25168767,2,0.7894213795661926,-0.003708848264068365,0.0046716597862541676,0.6138226985931396
25.26868900,25268689,2,0.789505124092102,-0.003696722211316228,0.004665215965360403,0.6137151122093201
25.36869000,25368690,2,0.7895628213882446,-0.00364265451207757,0.004653275944292545,0.6136413216590881
25.46873000,25468730,2,0.7896285057067871,-0.0036222259514033794,0.004629664588719606,0.6135570406913757
25.56874500,25568745,2,0.7896442413330078,-0.0035787990782409906,0.004621116444468498,0.613537073135376
25.66878600,25668786,2,0.7896791696548462,-0.0036308506969362497,0.0046276976354420185,0.6134917736053467
25.76875500,25768755,2,0.7897642850875854,-0.003619246417656541,0.004621696658432484,0.6133823394775391
25.86874000,25868740,2,0.7898023724555969,-0.0036145553458482027,0.00468250410631299,0.6133328676223755
25.96872800,25968728,2,0.7897967100143433,-0.003647374454885721,0.004667691886425018,0.6133400797843933
26.06868700,26068687,2,0.7897473573684692,-0.0036566981580108404,0.004625814501196146,0.613403856754303
26.16868800,26168688,2,0.7896661162376404,-0.00365432514809072,0.004614674486219883,0.6135085821151733
26.26869500,26268695,2,0.7895795702934265,-0.0036786377895623446,0.004640684463083744,0.6136196255683899
26.36872700,26368727,2,0.789559006690979,-0.0036402090918272734,0.004652111791074276,0.6136462092399597
26.46874000,26468740,2,0.7896044254302979,-0.0036420458927750587,0.0046381521970033646,0.6135878562927246
26.56878200,26568782,2,0.7896773815155029,-0.0036148526705801487,0.004618723876774311,0.6134942770004272
26.66874200,26668742,2,0.7896638512611389,-0.003648333717137575,0.004635074641555548,0.6135113835334778
26.76868800,26768688,2,0.7895536422729492,-0.003678677137941122,0.004657387267798185,0.6136528253555298
26.86873600,26868736,2,0.7894394993782043,-0.0036703855730593204,0.004654468037188053,0.6137997508049011
26.96872600,26968726,2,0.7893297672271729,-0.003651122795417905,0.004638987593352795,0.6139410734176636
27.06873000,27068730,2,0.7892129421234131,-0.003632449312135577,0.004624180030077696,0.6140915155410767
27.16873700,27168737,2,0.7890869975090027,-0.0035976299550384283,0.004650074988603592,0.6142532825469971
27.26872600,27268726,2,0.7889648675918579,-0.00355260306969285,0.004591077100485563,0.6144108772277832
27.36875000,27368750,2,0.7887774109840393,-0.003493177704513073,0.004597930703312159,0.6146518588066101
27.46878200,27468782,2,0.7886559367179871,-0.003451540134847164,0.004565676208585501,0.6148081421852112
27.56879600,27568796,2,0.7885676622390747,-0.0034642282407730818,0.004582873545587063,0.6149212121963501
27.66876400,27668764,2,0.7884495258331299,-0.003453653771430254,0.004644233733415604,0.6150721907615662
27.76874700,27768747,2,0.7883827686309814,-0.0034208602737635374,0.004667567554861307,0.6151578426361084
27.86874000,27868740,2,0.7882332801818848,-0.003445265581831336,0.004650922492146492,0.6153493523597717
27.96873900,27968739,2,0.7881197333335876,-0.0034619057551026344,0.0047251260839402676,0.6154940724372864
28.06873800,28068738,2,0.7879869341850281,-0.003552529728040099,0.004785120487213135,0.6156631112098694
28.16873600,28168736,2,0.7879096269607544,-0.003568339627236128,0.004804249387234449,0.6157618165016174
28.26875900,28268759,2,0.787882387638092,-0.0035117208026349545,0.004799536429345608,0.6157970428466797
28.36880200,28368802,2,0.7878783345222473,-0.003462967462837696,0.00478564016520977,0.6158026456832886
28.46876400,28468764,2,0.7879090309143066,-0.0034197645727545023,0.004765857011079788,0.6157637238502502
28.56874100,28568741,2,0.7878541946411133,-0.003441654611378908,0.00480977538973093,0.6158334016799927
28.66874400,28668744,2,0.7878168225288391,-0.003420865861698985,0.004817113280296326,0.6158813238143921
28.76874600,28768746,2,0.7878869771957397,-0.0034279844257980585,0.004820975475013256,0.6157914400100708
28.86869800,28868698,2,0.7879565954208374,-0.003377325367182493,0.004815896041691303,0.6157026886940002
28.96869000,28968690,2,0.787988543510437,-0.0033563263714313507,0.004858142230659723,0.6156615614891052
29.06872100,29068721,2,0.7880541682243347,-0.003385823220014572,0.004875019658356905,0.6155772805213928
29.16874400,29168744,2,0.7880997657775879,-0.0033028931356966496,0.004863858222961426,0.6155194044113159
29.26878300,29268783,2,0.7881390452384949,-0.0033012244384735823,0.00491486769169569,0.6154687404632568
29.36876000,29368760,2,0.7881724834442139,-0.003274864051491022,0.0049339234828948975,0.6154259443283081
29.46869100,29468691,2,0.7882097959518433,-0.003253360278904438,0.004965139552950859,0.6153780221939087
29.56872300,29568723,2,0.7882633209228516,-0.0032255302648991346,0.004959569312632084,0.6153096556663513
29.66874300,29668743,2,0.7882953882217407,-0.0032029529102146626,0.004917308688163757,0.6152690052986145
29.76873900,29768739,2,0.7882773280143738,-0.003162082051858306,0.004871724173426628,0.6152927279472351
29.86873300,29868733,2,0.788230299949646,-0.0031797701958566904,0.0048469919711351395,0.6153531074523926
29.96873200,29968732,2,0.7882359623908997,-0.0032252271194010973,0.004869790747761726,0.6153453588485718
30.06872600,30068726,2,0.7881864905357361,-0.003229862544685602,0.00488395057618618,0.6154085993766785
30.16878000,30168780,2,0.7881099581718445,-0.0032410426065325737,0.004896098282188177,0.6155065298080444
30.26873300,30268733,2,0.7880163788795471,-0.0032554822973906994,0.004919437691569328,0.6156260371208191
30.36868200,30368682,2,0.7878740429878235,-0.0032470696605741978,0.004920499864965677,0.6158082485198975
30.46868800,30468688,2,0.7876588702201843,-0.003228782908990979,0.004904128145426512,0.6160836219787598
30.56871700,30568717,2,0.7875080108642578,-0.003181630512699485,0.004923536907881498,0.6162765026092529
30.66868600,30668686,2,0.7874358296394348,-0.003164065768942237,0.004929873626679182,0.6163687705993652
30.76872800,30768728,2,0.7874287366867065,-0.0031843746546655893,0.0049240863882005215,0.6163778305053711
30.86872300,30868723,2,0.7874047160148621,-0.0032153541687875986,0.004902142100036144,0.6164084672927856
30.96873100,30968731,2,0.7873636484146118,-0.0032118973322212696,0.004892015364021063,0.6164610981941223
31.06878600,31068786,2,0.7873347401618958,-0.0031931474804878235,0.004857577383518219,0.6164984107017517
31.16874700,31168747,2,0.7873349189758301,-0.0033084163442254066,0.0048996214754879475,0.6164972186088562
31.26871200,31268712,2,0.7873146533966064,-0.0033114159014075994,0.004908568225800991,0.6165229678153992
31.36868900,31368689,2,0.7873234152793884,-0.0033480471465736628,0.0048904926516115665,0.6165117025375366
31.46872200,31468722,2,0.7873215079307556,-0.003395764622837305,0.004881180822849274,0.6165140271186829
31.56868400,31568684,2,0.7872772216796875,-0.003449689829722047,0.004920614883303642,0.6165699362754822
31.66873300,31668733,2,0.7872648239135742,-0.0034577467013150454,0.004912714473903179,0.6165857911109924
31.76873300,31768733,2,0.7872444987297058,-0.0034471056424081326,0.004952976480126381,0.6166114807128906
31.86873900,31868739,2,0.787136435508728,-0.0034766101744025946,0.004945436958223581,0.6167492866516113
31.96878300,31968783,2,0.7869613766670227,-0.0035484691616147757,0.005002525635063648,0.6169717311859131
32.06874100,32068741,2,0.7867996096611023,-0.0036009519826620817,0.0049952855333685875,0.6171778440475464
32.16867700,32168677,2,0.7866776585578918,-0.0036437055096030235,0.0049738348461687565,0.6173332333564758
32.26868200,32268682,2,0.7866016030311584,-0.0036705497186630964,0.0049314661882817745,0.6174302697181702
32.36867500,32368675,2,0.7865384817123413,-0.003705427050590515,0.004934730473905802,0.6175103783607483
32.46867500,32468675,2,0.7864564061164856,-0.0037257815711200237,0.004898307379335165,0.6176151037216187
32.56867900,32568679,2,0.7864220142364502,-0.0037651981692761183,0.004953951109200716,0.617658257484436
32.66872000,32668720,2,0.786372184753418,-0.003753561992198229,0.004996900912374258,0.6177213788032532
32.76874200,32768742,2,0.7863220572471619,-0.003764840541407466,0.005004660692065954,0.6177850961685181
32.86878100,32868781,2,0.7863117456436157,-0.003742433153092861,0.005042695440351963,0.6177980303764343
32.96874400,32968744,2,0.7862986326217651,-0.00376274436712265,0.005034319125115871,0.6178146600723267
33.06867900,33068679,2,0.786283016204834,-0.00382192712277174,0.005030016414821148,0.6178341507911682
33.16871200,33168712,2,0.7862961888313293,-0.0038537040818482637,0.005063916090875864,0.6178169250488281
33.26867800,33268678,2,0.7863442897796631,-0.0038629393093287945,0.005021586082875729,0.6177560091018677
33.36868500,33368685,2,0.7863742709159851,-0.003950834274291992,0.005047746002674103,0.6177170872688293
33.46867600,33468676,2,0.7863816618919373,-0.003962117712944746,0.005062025040388107,0.6177074909210205
33.56870800,33568708,2,0.7863959670066833,-0.003970010206103325,0.005045359954237938,0.6176893711090088
33.66873300,33668733,2,0.7864413261413574,-0.003970152232795954,0.005049075465649366,0.6176316142082214
33.76877600,33768776,2,0.7864886522293091,-0.003981695510447025,0.005076223984360695,0.6175710558891296
33.86873600,33868736,2,0.7864983081817627,-0.00399697246029973,0.0050927866250276566,0.617558479309082
33.96868200,33968682,2,0.7864415645599365,-0.003987409640103579,0.005065539851784706,0.6176310777664185
34.06867600,34068676,2,0.786395251750946,-0.003986935596913099,0.005031810607761145,0.6176903247833252
34.16867600,34168676,2,0.7863575220108032,-0.004019532818347216,0.005030216183513403,0.6177381277084351
34.26871600,34268716,2,0.7863321900367737,-0.004032460041344166,0.005026001017540693,0.6177703142166138
34.36867900,34368679,2,0.7864215970039368,-0.0040252311155200005,0.005023620557039976,0.6176565289497375
34.46871700,34468717,2,0.7865088582038879,-0.004029992502182722,0.004990526475012302,0.6175456643104553
34.56873100,34568731,2,0.7865819334983826,-0.003983447328209877,0.004944590851664543,0.6174532771110535
34.66877600,34668776,2,0.7866629362106323,-0.0040132333524525166,0.004889152478426695,0.6173503398895264
34.76873800,34768738,2,0.7866573929786682,-0.004029403906315565,0.004874945618212223,0.6173574328422546
34.86867900,34868679,2,0.7866949439048767,-0.004029980394989252,0.004846641793847084,0.6173097491264343
34.96867800,34968678,2,0.7867490649223328,-0.0040370989590883255,0.004871436394751072,0.6172405481338501
35.06867500,35068675,2,0.7868145704269409,-0.003962790593504906,0.004862659610807896,0.6171575784683228
35.16867500,35168675,2,0.7868766784667969,-0.003939368762075901,0.004862962756305933,0.6170785427093506
35.26867800,35268678,2,0.7869216203689575,-0.003951799590140581,0.004870250355452299,0.6170210838317871
35.36872200,35368722,2,0.7869192957878113,-0.003935950342565775,0.004901484586298466,0.6170239448547363
35.46872800,35468728,2,0.7869247794151306,-0.003945311065763235,0.004895616788417101,0.6170169115066528
35.56877000,35568770,2,0.7869374752044678,-0.0039314511232078075,0.004935725126415491,0.6170004606246948
35.66875200,35668752,2,0.7869530916213989,-0.003919882234185934,0.004916105419397354,0.616980791091919
35.76870400,35768704,2,0.7869269251823425,-0.003958790563046932,0.004878663457930088,0.6170141696929932
35.86867800,35868678,2,0.786896824836731,-0.003990426193922758,0.00489847594872117,0.6170522570610046
35.96868200,35968682,2,0.7868776321411133,-0.0039342851378023624,0.004944981541484594,0.6170766949653625
36.06868300,36068683,2,0.7868945598602295,-0.00390809029340744,0.004958307836204767,0.6170552372932434
36.16867600,36168676,2,0.7869071364402771,-0.003951588179916143,0.004959115292876959,0.6170388460159302
36.26873500,36268735,2,0.7869125604629517,-0.003922255709767342,0.0049569085240364075,0.6170321702957153
36.36873100,36368731,2,0.786888837814331,-0.003935426473617554,0.004985713865607977,0.6170620918273926
36.46877400,36468774,2,0.7868709564208984,-0.003893093904480338,0.005040495656430721,0.6170846819877625
36.56874600,36568746,2,0.7868098616600037,-0.0038742227479815483,0.005056370049715042,0.6171625852584839
36.66867800,36668678,2,0.786737859249115,-0.003864109981805086,0.0050218007527291775,0.6172547340393066
36.76867800,36768678,2,0.786693811416626,-0.0038259276188910007,0.005042988806962967,0.6173109412193298
36.86867800,36868678,2,0.7866193056106567,-0.003792927134782076,0.005035304930061102,0.6174061298370361
36.96872400,36968724,2,0.7865610718727112,-0.003808406414464116,0.005039765499532223,0.6174801588058472
37.06867600,37068676,2,0.7864429354667664,-0.003824860556051135,0.005035684909671545,0.6176305413246155
37.16871500,37168715,2,0.7863141894340515,-0.003806368913501501,0.005018638912588358,0.6177947521209717
37.26873600,37268736,2,0.7862087488174438,-0.0038572463672608137,0.005045205820351839,0.6179283261299133
37.36877900,37368779,2,0.7861475944519043,-0.0038275527767837048,0.005020464304834604,0.6180065274238586
37.46872600,37468726,2,0.7860804200172424,-0.003878734540194273,0.005052827764302492,0.6180914044380188
37.56867800,37568678,2,0.7860525846481323,-0.0038654073141515255,0.005032600834965706,0.6181270480155945
37.66868800,37668688,2,0.7860838770866394,-0.0038299851585179567,0.0050755711272358894,0.618087112903595
37.76867600,37768676,2,0.7861211895942688,-0.0038000671193003654,0.005066897254437208,0.6180399656295776
37.86867700,37868677,2,0.786171019077301,-0.003777877427637577,0.005044767167419195,0.6179769039154053
37.96868200,37968682,2,0.7861809730529785,-0.0037446634378284216,0.005018808413296938,0.6179646253585815
38.06871600,38068716,2,0.7861779928207397,-0.003774527460336685,0.005035096313804388,0.6179681420326233
38.16873500,38168735,2,0.7861992716789246,-0.0037409579381346703,0.005032205022871494,0.6179412007331848
38.26878800,38268788,2,0.7862252593040466,-0.0037797230761498213,0.005095117725431919,0.6179074645042419
38.36873600,38368736,2,0.7862588763237,-0.003811868140473962,0.005038045812398195,0.6178649663925171
38.46871200,38468712,2,0.7862675189971924,-0.003833204507827759,0.0050415596924722195,0.6178537607192993
38.56867800,38568678,2,0.7863378524780273,-0.00375528447329998,0.004937261343002319,0.6177656054496765
38.66867700,38668677,2,0.7863401770591736,-0.003771877381950617,0.004962131381034851,0.6177623271942139
38.76867500,38768675,2,0.7863430380821228,-0.00378294475376606,0.004992609843611717,0.6177583932876587
38.86867600,38868676,2,0.7863494157791138,-0.003737303428351879,0.004957242403179407,0.6177508234977722
38.96870700,38968707,2,0.7863571643829346,-0.0036955000832676888,0.004999706521630287,0.6177408695220947
39.06873100,39068731,2,0.7863425612449646,-0.003746727481484413,0.004981017205864191,0.6177592277526855
39.16877300,39168773,2,0.786299467086792,-0.0037393916863948107,0.004968569613993168,0.617814302444458
39.26875600,39268756,2,0.7862261533737183,-0.003806445049121976,0.0050321477465331554,0.6179066896438599
39.36868000,39368680,2,0.7861450910568237,-0.0037834972608834505,0.0050307875499129295,0.6180099248886108
39.46867600,39468676,2,0.7860485315322876,-0.0038276046980172396,0.005066653713583946,0.6181322336196899
39.56868200,39568682,2,0.7859982848167419,-0.0037818176206201315,0.0050359126180410385,0.6181966066360474
39.66868200,39668682,2,0.7859314680099487,-0.003680270165205002,0.004998155869543552,0.6182824969291687
39.76867500,39768675,2,0.7857935428619385,-0.0037134375888854265,0.0050538573414087296,0.6184570789337158
39.86873400,39868734,2,0.7856915593147278,-0.0036753108724951744,0.005008026026189327,0.6185872554779053
39.96874000,39968740,2,0.7855753302574158,-0.003630064893513918,0.0050670551136136055,0.6187346577644348
40.06878000,40068780,2,0.7854746580123901,-0.003711142111569643,0.005110202357172966,0.6188616156578064
40.16874300,40168743,2,0.7854750156402588,-0.0037808718625456095,0.005154173821210861,0.6188603639602661
40.26871700,40268717,2,0.7854758501052856,-0.0038509906735271215,0.005200090818107128,0.6188584566116333
40.36867700,40368677,2,0.785510241985321,-0.0038223688025027514,0.005092272534966469,0.6188158988952637
40.46867600,40468676,2,0.7855260372161865,-0.003830108093097806,0.0051136198453605175,0.6187955737113953
40.56867900,40568679,2,0.7855767607688904,-0.00385669176466763,0.005098964087665081,0.6187311410903931
40.66868600,40668686,2,0.7856415510177612,-0.0037909389939159155,0.0050712344236671925,0.6186496019363403
40.76873400,40768734,2,0.7856443524360657,-0.003904314013198018,0.005118540022522211,0.6186448931694031
40.86872800,40868728,2,0.7856932878494263,-0.003879954805597663,0.005143296904861927,0.6185827255249023
40.96877200,40968772,2,0.7856864929199219,-0.003868891391903162,0.005131176207214594,0.6185915470123291
41.06872900,41068729,2,0.785679042339325,-0.003922874573618174,0.005187322851270437,0.6186001300811768
41.16867800,41168678,2,0.7856766581535339,-0.0038268209900707006,0.005141231697052717,0.6186041235923767
41.26867800,41268678,2,0.7856380343437195,-0.0039091515354812145,0.0052073257975280285,0.6186521649360657
41.36867900,41368679,2,0.7856113910675049,-0.0038536610081791878,0.005220504477620125,0.6186861991882324
41.46867900,41468679,2,0.7855856418609619,-0.003859134390950203,0.00517701543867588,0.618719220161438
41.56867700,41568677,2,0.7854725122451782,-0.0038760537281632423,0.0051410021260380745,0.618863046169281
41.66871800,41668718,2,0.7853991985321045,-0.0038931146264076233,0.005085411015897989,0.618956446647644
41.76872700,41768727,2,0.7853109240531921,-0.003861379809677601,0.005078956019133329,0.6190686821937561
41.86877300,41868773,2,0.7852140665054321,-0.003920350223779678,0.0050727552734315395,0.6191911697387695
41.96873200,41968732,2,0.785149335861206,-0.0039429268799722195,0.005017617717385292,0.6192735433578491
42.06871500,42068715,2,0.7850708961486816,-0.0039643957279622555,0.005055655725300312,0.6193726062774658
42.16867900,42168679,2,0.7850592136383057,-0.0039880601689219475,0.005043261218816042,0.6193873286247253
42.26867900,42268679,2,0.7849876284599304,-0.004031543619930744,0.0050041708163917065,0.6194781064987183
42.36867700,42368677,2,0.7849189639091492,-0.004042359068989754,0.005016956944018602,0.619564950466156
42.46867800,42468678,2,0.7849264740943909,-0.004013075027614832,0.004984632134437561,0.6195558309555054
42.56871700,42568717,2,0.7850083112716675,-0.004037139471620321,0.004972364287823439,0.619452178478241
42.66873500,42668735,2,0.7850329279899597,-0.0040579200722277164,0.004946086090058088,0.6194210052490234
42.76878600,42768786,2,0.7851154208183289,-0.004070742521435022,0.0049156080931425095,0.6193166375160217
42.86874200,42868742,2,0.7851530313491821,-0.004124344792217016,0.004893754608929157,0.6192687749862671
42.96868000,42968680,2,0.7852111458778381,-0.004125445149838924,0.004940878599882126,0.6191946268081665
43.06868000,43068680,2,0.7852319478988647,-0.004224504344165325,0.004962916485965252,0.6191674470901489
43.16868000,43168680,2,0.7851913571357727,-0.004269449971616268,0.004996128845959902,0.6192183494567871
43.26868500,43268685,2,0.7851736545562744,-0.004215531516820192,0.005054488778114319,0.6192406415939331
43.36867900,43368679,2,0.785176694393158,-0.004247583448886871,0.005014938767999411,0.6192368865013123
43.46871600,43468716,2,0.7851737141609192,-0.00426787743344903,0.005018448457121849,0.6192405223846436
43.56874200,43568742,2,0.7851881384849548,-0.004299377556890249,0.0050003114156425,0.6192221641540527
43.66878600,43668786,2,0.7851966023445129,-0.004347092006355524,0.0050559439696371555,0.6192106604576111
43.76874000,43768740,2,0.7852455973625183,-0.004299529828131199,0.005042947828769684,0.6191489696502686
43.86867600,43868676,2,0.7852613925933838,-0.004367238376289606,0.00505702244117856,0.6191283464431763
43.96871900,43968719,2,0.7852604389190674,-0.004364264663308859,0.005028749816119671,0.6191298365592957
44.06867600,44068676,2,0.7853169441223145,-0.004429142456501722,0.0050131818279623985,0.619057834148407
44.16867600,44168676,2,0.7853346467018127,-0.004404701292514801,0.005028516054153442,0.6190353631973267
44.26868500,44268685,2,0.7853447198867798,-0.00440613180398941,0.00500684417784214,0.6190227270126343
44.36871900,44368719,2,0.7853719592094421,-0.004392470698803663,0.00497595127671957,0.6189885139465332
44.46874800,44468748,2,0.7853754162788391,-0.004358295351266861,0.004978498909622431,0.6189844012260437
44.56877600,44568776,2,0.7853754162788391,-0.004351876676082611,0.004941504914313555,0.6189847588539124
44.66874400,44668744,2,0.7853275537490845,-0.00435259472578764,0.004920662846416235,0.619045615196228
44.76867800,44768678,2,0.785286545753479,-0.0043664537370204926,0.004898180719465017,0.6190977096557617
44.86867500,44868675,2,0.7852741479873657,-0.004368511028587818,0.004929818212985992,0.6191132068634033
44.96868400,44968684,2,0.785236656665802,-0.004424599464982748,0.0049766008742153645,0.6191599369049072
45.06867900,45068679,2,0.7852398157119751,-0.004447929561138153,0.00498555600643158,0.6191557049751282
45.16867500,45168675,2,0.7852507829666138,-0.0044058384373784065,0.004975833464413881,0.6191421747207642
45.26871400,45268714,2,0.785233736038208,-0.004493145737797022,0.004971008747816086,0.6191632151603699
45.36873300,45368733,2,0.7851963639259338,-0.004468989558517933,0.00501828920096159,0.6192103624343872
45.46877200,45468772,2,0.7851581573486328,-0.00447496771812439,0.004980428144335747,0.6192590594291687
45.56872900,45568729,2,0.7851599454879761,-0.004495314788073301,0.004974795039743185,0.6192567348480225
45.66868100,45668681,2,0.7851974368095398,-0.004465609323233366,0.004921567626297474,0.6192098259925842
45.76867900,45768679,2,0.7851646542549133,-0.004412620794028044,0.004978852346539497,0.6192513108253479
45.86867500,45868675,2,0.7851572632789612,-0.004397737793624401,0.004989446606487036,0.6192607283592224
45.96868200,45968682,2,0.7851288914680481,-0.004321858752518892,0.0049586049281060696,0.619297444820404
46.06867600,46068676,2,0.7851530313491821,-0.004226386547088623,0.004862797912210226,0.6192682981491089
46.16870400,46168704,2,0.7851325273513794,-0.0038418881595134735,0.0048108771443367004,0.619297206401825
46.26873100,46268731,2,0.7851266264915466,-0.0038271339144557714,0.004623843356966972,0.619306206703186
46.36877100,46368771,2,0.7849817276000977,-0.004174214322119951,0.004973461851477623,0.6194848418235779
46.46873500,46468735,2,0.785104513168335,-0.003729924326762557,0.004797917325049639,0.6193335056304932
46.56867900,46568679,2,0.7851321697235107,-0.003133503021672368,0.004338106606155634,0.6193051338195801
46.66868200,46668682,2,0.7850326895713806,-0.002896326594054699,0.004354930017143488,0.619432270526886
46.76867800,46768678,2,0.785139262676239,-0.0033882069401443005,0.004497144371271133,0.6192936897277832
46.86867600,46868676,2,0.7852133512496948,-0.0032869470305740833,0.004476755857467651,0.6192004084587097
46.96867900,46968679,2,0.7851229310035706,-0.003050503320991993,0.004257418680936098,0.6193177700042725
47.06872400,47068724,2,0.7851691842079163,-0.0032631356734782457,0.004429332911968231,0.6192569136619568
47.16872800,47168728,2,0.785179078578949,-0.0032787511590868235,0.004422321915626526,0.6192443370819092
47.26878700,47268787,2,0.7851136922836304,-0.0027410967741161585,0.004009490367025137,0.6193326115608215
47.36875300,47368753,2,0.785001814365387,-0.0029989187605679035,0.004150114022195339,0.619472324848175
47.46869900,47468699,2,0.7848002910614014,-0.004531587474048138,0.005006094463169575,0.6197119951248169
47.56867800,47568678,2,0.784726619720459,-0.005037364549934864,0.005168707109987736,0.6198000311851501
47.66868200,47668682,2,0.7847339510917664,-0.0043358514085412025,0.004687221720814705,0.6197998523712158
47.76867500,47768675,2,0.7844834923744202,-0.004949762485921383,0.005055239889770746,0.6201093196868896
47.86867500,47868675,2,0.7847688794136047,-0.004880831111222506,0.005097107496112585,0.6197483539581299
47.96873500,47968735,2,0.7847860455513,-0.004549550358206034,0.0048322356306016445,0.6197312474250793
48.06872800,48068728,2,0.7845319509506226,-0.005059153772890568,0.005225214175879955,0.6200457811355591
48.16877400,48168774,2,0.784930408000946,-0.004781538620591164,0.004946747794747353,0.6195457577705383
48.26874600,48268746,2,0.784867525100708,-0.004783841781318188,0.004866900388151407,0.6196260452270508
48.36867600,48368676,2,0.7846197485923767,-0.004967098124325275,0.005140283145010471,0.6199361085891724
48.46867500,48468675,2,0.7850017547607422,-0.004737982992082834,0.004760522395372391,0.6194571256637573
48.56868400,48568684,2,0.784838855266571,-0.004849004093557596,0.004876870661973953,0.6196617484092712
48.66868300,48668683,2,0.78461092710495,-0.004979826044291258,0.004960651509463787,0.6199486255645752
48.76867600,48768676,2,0.784914493560791,-0.004793632309883833,0.004657894838601351,0.6195680499076843
48.86872800,48868728,2,0.7847259640693665,-0.004999257158488035,0.004864272195845842,0.6198036074638367
48.96874300,48968743,2,0.7846595048904419,-0.004955705255270004,0.004829200450330973,0.6198883056640625
49.06878300,49068783,2,0.7849310636520386,-0.004886938259005547,0.004748308565467596,0.619545578956604
49.16874200,49168742,2,0.7847721576690674,-0.005178660154342651,0.004902639891952276,0.6197433471679688
49.26872200,49268722,2,0.7847272753715515,-0.004993578884750605,0.0047484878450632095,0.6198028326034546
49.36868000,49368680,2,0.7848249077796936,-0.005127836484462023,0.004774725064635277,0.6196779608726501
49.46867600,49468676,2,0.7847122550010681,-0.0052178953774273396,0.0048634205013513565,0.619819164276123
49.56867900,49568679,2,0.7847470045089722,-0.004989635664969683,0.004726476036012173,0.6197780966758728
49.66868100,49668681,2,0.7848243713378906,-0.005191497504711151,0.004869252443313599,0.6196773648262024
49.76871200,49768712,2,0.7847657799720764,-0.005169967655092478,0.004882986191660166,0.6197516322135925
49.86873900,49868739,2,0.7847898006439209,-0.005070907063782215,0.004762865137308836,0.6197229623794556
49.96879100,49968791,2,0.7848424911499023,-0.005224915221333504,0.004869837313890457,0.61965411901474
50.06872700,50068727,2,0.7848252058029175,-0.005165776703506708,0.0047364910133183,0.6196776032447815
50.16867500,50168675,2,0.7848111987113953,-0.005155613645911217,0.004697967320680618,0.6196956634521484
50.26867900,50268679,2,0.7848919034004211,-0.005304241552948952,0.0048273964785039425,0.619591236114502
50.36868300,50368683,2,0.7848562002182007,-0.005209930706769228,0.004694906063377857,0.6196382641792297
50.46867600,50468676,2,0.7847347855567932,-0.005270472262054682,0.004782932344824076,0.61979079246521
50.56867900,50568679,2,0.7847762107849121,-0.00531178480014205,0.004721434786915779,0.6197385191917419
50.66871100,50668711,2,0.7847223877906799,-0.005163856782019138,0.004595615901052952,0.6198087930679321
50.76873700,50768737,2,0.7846775650978088,-0.005174993071705103,0.0046512712724506855,0.6198650598526001
50.86878900,50868789,2,0.784821093082428,-0.00508466362953186,0.004556478001177311,0.6196848154067993
50.96874100,50968741,2,0.7846958041191101,-0.005081921815872192,0.004663427826017141,0.6198426485061646
51.06871000,51068710,2,0.7846853137016296,-0.005106243304908276,0.0046673971228301525,0.6198557019233704
51.16867400,51168674,2,0.7848144769668579,-0.005025211255997419,0.004598877392709255,0.6196933388710022
51.26868000,51268680,2,0.784765899181366,-0.005129367578774691,0.004673967137932777,0.6197534203529358
51.36868000,51368680,2,0.7848638892173767,-0.005104321986436844,0.004590800032019615,0.6196301579475403
51.46867700,51468677,2,0.785039484500885,-0.0051022181287407875,0.004605334717780352,0.619407594203949
51.56871700,51568717,2,0.7850480675697327,-0.005201756022870541,0.004689998459070921,0.6193952560424805
51.66873500,51668735,2,0.7851330637931824,-0.005022948142141104,0.00459838192909956,0.6192896962165833
51.76878600,51768786,2,0.7851487994194031,-0.0051100291311740875,0.004574351478368044,0.6192691922187805
51.86874900,51868749,2,0.7851356863975525,-0.00512066762894392,0.0044853780418634415,0.6192863583564758
51.96868300,51968683,2,0.7851781249046326,-0.0050635491497814655,0.0044447085820138454,0.6192333102226257
52.06867700,52068677,2,0.7851667404174805,-0.005174105521291494,0.004539335612207651,0.6192461252212524
52.16867600,52168676,2,0.785161018371582,-0.005056055728346109,0.004502611700445414,0.6192546486854553
52.26868000,52268680,2,0.7851395606994629,-0.005128515884280205,0.004481808748096228,0.6192814707756042
52.36867600,52368676,2,0.7851214408874512,-0.005192772019654512,0.004603740759193897,0.6193029880523682
52.46874000,52468740,2,0.7851046323776245,-0.005072415806353092,0.004523127339780331,0.6193258762359619
52.56873000,52568730,2,0.7850959300994873,-0.005111356265842915,0.004578073043376207,0.6193361878395081
52.66877400,52668774,2,0.7851287126541138,-0.005080191884189844,0.004495303146541119,0.6192954778671265
52.76874700,52768747,2,0.7850649356842041,-0.00495207030326128,0.00445497827604413,0.6193776726722717
52.86870600,52868706,2,0.7849574089050293,-0.004968216177076101,0.0044890353456139565,0.6195135116577148
52.96868500,52968685,2,0.7849866151809692,-0.004943603649735451,0.004404357168823481,0.6194773316383362
53.06867900,53068679,2,0.7848908305168152,-0.004898721817880869,0.004422874189913273,0.619598925113678
53.16867600,53168676,2,0.7848840355873108,-0.00494487676769495,0.004456793423742056,0.6196069121360779
53.26867800,53268678,2,0.7849467992782593,-0.004891536198556423,0.0044096061028540134,0.6195281744003296
53.36871200,53368712,2,0.7848739624023438,-0.004955609794706106,0.004465039819478989,0.6196194887161255
53.46872700,53468727,2,0.7849482893943787,-0.004944800864905119,0.0044004893861711025,0.6195259690284729
53.56877500,53568775,2,0.7850682735443115,-0.004882495850324631,0.004401488695293665,0.6193743348121643
53.66874900,53668749,2,0.7851003408432007,-0.004922643769532442,0.0043911864049732685,0.6193334460258484
53.76871300,53768713,2,0.7852471470832825,-0.004872700199484825,0.004328867420554161,0.6191481351852417
53.86867700,53868677,2,0.7853506207466125,-0.004903656896203756,0.004376142285764217,0.6190162897109985
53.96868200,53968682,2,0.7853838801383972,-0.004911697469651699,0.00431662704795599,0.6189744472503662
54.06867600,54068676,2,0.7854260206222534,-0.004825466312468052,0.004237455315887928,0.6189221739768982
54.16867500,54168675,2,0.7854322195053101,-0.004864229820668697,0.00433270912617445,0.6189134120941162
54.26871200,54268712,2,0.7854052186012268,-0.004812725819647312,0.0043358695693314075,0.6189480423927307
54.36873000,54368730,2,0.7853729724884033,-0.004800624214112759,0.004329761955887079,0.618989109992981
54.46877200,54468772,2,0.7852733731269836,-0.004840308800339699,0.0043463087640702724,0.6191150546073914
54.56873200,54568732,2,0.7851963043212891,-0.004785019438713789,0.004254399798810482,0.6192138195037842
54.66867900,54668679,2,0.7851322293281555,-0.004821335896849632,0.00425391411408782,0.6192947626113892
54.76867500,54768675,2,0.7850604057312012,-0.004828896839171648,0.004269538912922144,0.6193857192993164
54.86867700,54868677,2,0.7850497364997864,-0.004883714485913515,0.004162301309406757,0.6193994879722595
54.96867900,54968679,2,0.7850428223609924,-0.004884073510766029,0.004183833487331867,0.6194080710411072
55.06868000,55068680,2,0.7850398421287537,-0.004925381857901812,0.004152783192694187,0.6194117665290833
55.16870800,55168708,2,0.7850818037986755,-0.004874177742749453,0.004105783067643642,0.6193593144416809
55.26873000,55268730,2,0.7850696444511414,-0.004899709951132536,0.004118800163269043,0.6193744540214539
55.36877500,55368775,2,0.7850220203399658,-0.004940835293382406,0.004045696463435888,0.6194349527359009
55.46872700,55468727,2,0.7849963903427124,-0.004916443955153227,0.0040491800755262375,0.619467556476593
55.56871300,55568713,2,0.7850413918495178,-0.004958865232765675,0.004046100191771984,0.6194102168083191
55.66868200,55668682,2,0.7850779294967651,-0.004865754395723343,0.0039703818038105965,0.6193651556968689
55.76867600,55768676,2,0.7850958704948425,-0.004887038376182318,0.004015590529888868,0.6193419694900513
55.86868000,55868680,2,0.7851386666297913,-0.004884333349764347,0.004049511626362801,0.6192875504493713
55.96868300,55968683,2,0.7851439118385315,-0.004883492831140757,0.004010478500276804,0.6192811131477356
56.06873300,56068733,2,0.7851222157478333,-0.004923613276332617,0.004018430132418871,0.6193082332611084
56.16873500,56168735,2,0.7851598262786865,-0.004880549851804972,0.00400339812040329,0.6192609667778015
56.26877500,56268775,2,0.7851294279098511,-0.0048944526351988316,0.0040374984964728355,0.6192991733551025
56.36874600,56368746,2,0.7850997447967529,-0.004857723135501146,0.0041021546348929405,0.619336724281311
56.46869900,56468699,2,0.785120964050293,-0.004854301456362009,0.004049612674862146,0.619310200214386
56.56867900,56568679,2,0.7850751876831055,-0.0048643541522324085,0.00409823888912797,0.619367778301239
56.66872700,56668727,2,0.7850717306137085,-0.004821457900106907,0.004101836588233709,0.6193724870681763
56.76867600,56768676,2,0.7851076126098633,-0.004806604702025652,0.004058154299855232,0.6193274259567261
56.86868100,56868681,2,0.7850962281227112,-0.004824309144169092,0.004088665824383497,0.6193415522575378
56.96871600,56968716,2,0.7851056456565857,-0.004743036348372698,0.004059125669300556,0.6193304061889648
57.06874900,57068749,2,0.7850987911224365,-0.004756454844027758,0.004079022444784641,0.619338870048523
57.16877900,57168779,2,0.7851157784461975,-0.00478337612003088,0.004113573580980301,0.6193169355392456
57.26875200,57268752,2,0.7851473689079285,-0.004763719625771046,0.004081561230123043,0.6192771792411804
57.36867900,57368679,2,0.7851442098617554,-0.004780519753694534,0.004098379518836737,0.6192809343338013
57.46868000,57468680,2,0.7851279973983765,-0.00473546190187335,0.004070478491485119,0.6193020939826965
57.56867800,57568678,2,0.7851583361625671,-0.004690519068390131,0.0040439157746732235,0.6192640662193298
57.66868200,57668682,2,0.7851772904396057,-0.0047231633216142654,0.0040059504099190235,0.6192401051521301
57.76867600,57768676,2,0.7852300405502319,-0.004724124446511269,0.004004278685897589,0.6191731691360474
57.86871200,57868712,2,0.7852385640144348,-0.004664159845560789,0.003985618241131306,0.6191629767417908
57.96874500,57968745,2,0.7851990461349487,-0.00465637631714344,0.004006382077932358,0.6192130446434021
58.06879100,58068791,2,0.7852171659469604,-0.0046039121225476265,0.004020374268293381,0.6191903352737427
58.16874700,58168747,2,0.7851967215538025,-0.004628368653357029,0.004065040033310652,0.6192157864570618
58.26871400,58268714,2,0.7851999402046204,-0.004643389489501715,0.004166495520621538,0.6192108988761902
58.36867500,58368675,2,0.7851969599723816,-0.004671476315706968,0.004192328080534935,0.6192142367362976
58.46867900,58468679,2,0.7852302193641663,-0.004700208082795143,0.004181214142590761,0.6191719770431519
58.56867700,58568677,2,0.7852316498756409,-0.004645264707505703,0.004123998340219259,0.6191709637641907
58.66867900,58668679,2,0.7852001190185547,-0.004625236615538597,0.004158569499850273,0.6192108988761902
58.76871400,58768714,2,0.7852182984352112,-0.004597288556396961,0.004206489305943251,0.6191877126693726
58.86873300,58868733,2,0.785285472869873,-0.004525674041360617,0.0042009116150438786,0.6191030740737915
58.96878300,58968783,2,0.7853052616119385,-0.004485251847654581,0.004232475999742746,0.6190780401229858
59.06874100,59068741,2,0.7853540182113647,-0.004455015063285828,0.0041966186836361885,0.6190166473388672
59.16867600,59168676,2,0.785340428352356,-0.00437209801748395,0.004251959268003702,0.6190341114997864
59.26867800,59268678,2,0.7853857278823853,-0.0043799602426588535,0.004236075095832348,0.6189766526222229
59.36872100,59368721,2,0.7854224443435669,-0.004288303200155497,0.004207197111099958,0.6189309358596802
59.46868100,59468681,2,0.7854565978050232,-0.00391655508428812,0.004135026130825281,0.6188905835151672
59.56868000,59568680,2,0.7855073809623718,-0.003740133484825492,0.003971068654209375,0.6188282370567322
59.66872800,59668728,2,0.7855095267295837,-0.003637374844402075,0.003940364345908165,0.6188263297080994
59.76873000,59768730,2,0.7855677604675293,-0.0031992485746741295,0.003875424386933446,0.6187552213668823
59.86879200,59868792,2,0.7855362892150879,-0.0031462348997592926,0.003709441516548395,0.6187964677810669
59.96873200,59968732,2,0.7854788303375244,-0.0033162429463118315,0.0038568065501749516,0.6188676357269287
60.06867600,60068676,2,0.7855837345123291,-0.0030804818961769342,0.0037231959868222475,0.6187365055084229
60.16867600,60168676,2,0.7855772376060486,-0.0027854640502482653,0.00354989105835557,0.6187471747398376
60.26867700,60268677,2,0.7855245471000671,-0.0028826638590544462,0.003706241026520729,0.6188127398490906
60.36867500,60368675,2,0.7856506109237671,-0.0031034464482218027,0.003721618792042136,0.6186514496803284
60.46867900,60468679,2,0.7856066226959229,-0.0032778792083263397,0.003845353377982974,0.6187056303024292
60.56871500,60568715,2,0.7856263518333435,-0.00325760873965919,0.003997740801423788,0.6186797618865967
60.66872900,60668729,2,0.7857561111450195,-0.0036074439994990826,0.003922260366380215,0.6185135245323181
60.76877400,60768774,2,0.7856782078742981,-0.004108745139092207,0.004204655531793833,0.6186074614524841
60.86873300,60868733,2,0.7856683135032654,-0.004425347317010164,0.004454435780644417,0.6186161041259766
60.96867800,60968678,2,0.7857970595359802,-0.004269068129360676,0.004160189535468817,0.618455708026886
61.06867900,61068679,2,0.7856553792953491,-0.00442469259724021,0.004301311913877726,0.6186336278915405
61.16867600,61168676,2,0.7857174873352051,-0.004593255929648876,0.004331875126808882,0.6185532808303833
61.26867800,61268678,2,0.7857477068901062,-0.0044208429753780365,0.004267134238034487,0.6185166239738464
61.36867900,61368679,2,0.7855959534645081,-0.0046262675896286964,0.004357083700597286,0.6187071800231934
61.46871100,61468711,2,0.7856833934783936,-0.004557203967124224,0.004286682233214378,0.6185972094535828
61.56873000,61568730,2,0.7856382727622986,-0.0044423118233680725,0.00426266435533762,0.6186555027961731
61.66877300,61668773,2,0.7854188680648804,-0.0045747156254947186,0.004355453886091709,0.6189323663711548
61.76874200,61768742,2,0.7855203151702881,-0.004480756353586912,0.004261549562215805,0.618804931640625
61.86867700,61868677,2,0.7854346036911011,-0.004601628985255957,0.0042870016768574715,0.6189126968383789
61.96871900,61968719,2,0.7853416204452515,-0.004708978813141584,0.004327083472162485,0.6190295815467834
62.06868200,62068682,2,0.7854458093643188,-0.004658252000808716,0.0043027885258197784,0.6188979148864746
62.16867600,62168676,2,0.7853912711143494,-0.004681427963078022,0.004400198347866535,0.6189663410186768
62.26867800,62268678,2,0.7853865623474121,-0.004668567329645157,0.004346110858023167,0.6189727187156677
62.36870700,62368707,2,0.7854874134063721,-0.004702667240053415,0.004364641848951578,0.6188443899154663
62.46873000,62468730,2,0.7854206562042236,-0.004769795574247837,0.0044283801689744,0.6189281344413757
62.56877300,62568773,2,0.7854321002960205,-0.004683914594352245,0.004339539911597967,0.6189149022102356
62.66875200,62668752,2,0.785467803478241,-0.0047419629991054535,0.004372912924736738,0.6188689470291138
62.76870800,62768708,2,0.7854207158088684,-0.004690058995038271,0.004359507467597723,0.6189291477203369
62.86868500,62868685,2,0.785429835319519,-0.004600202664732933,0.004291057586669922,0.6189187169075012
62.96867900,62968679,2,0.7853858470916748,-0.00469577219337225,0.004347545560449362,0.618973433971405
63.06868300,63068683,2,0.7853116393089294,-0.004619943909347057,0.004349450580775738,0.6190681457519531
63.16867400,63168674,2,0.7852925658226013,-0.0045765661634504795,0.004382322076708078,0.6190924048423767
63.26873000,63268730,2,0.7853005528450012,-0.0046393051743507385,0.004415655042976141,0.6190816164016724
63.36873400,63368734,2,0.785237729549408,-0.004603348672389984,0.004375549964606762,0.61916184425354
63.46877600,63468776,2,0.7852311730384827,-0.004642057698220015,0.004419317003339529,0.6191695928573608
63.56874500,63568745,2,0.7852943539619446,-0.004586151335388422,0.004432684276252985,0.6190897226333618
63.66872000,63668720,2,0.7853289842605591,-0.004494987428188324,0.004402462858706713,0.619046688079834
63.76867900,63768679,2,0.7853682041168213,-0.004430202301591635,0.004414886236190796,0.6189972758293152
63.86868300,63868683,2,0.7854841947555542,-0.004437968600541353,0.004363787826150656,0.6188504099845886
63.96869300,63968693,2,0.7855274081230164,-0.004429358523339033,0.004314827732741833,0.6187959909439087
64.06869100,64068691,2,0.7855435013771057,-0.004413572605699301,0.004398203920572996,0.6187750697135925
64.16871600,64168716,2,0.7856003642082214,-0.0045005809515714645,0.004412551876157522,0.6187021136283875
64.26873200,64268732,2,0.7855744957923889,-0.004474197514355183,0.004388606175780296,0.6187353730201721
64.36877200,64368772,2,0.7855319976806641,-0.004536325577646494,0.004386623855680227,0.6187888979911804
64.46874000,64468740,2,0.7855589985847473,-0.0045395465567708015,0.004388580564409494,0.6187545657157898
64.56872200,64568722,2,0.785451352596283,-0.0045554181560873985,0.004425215069204569,0.6188908219337463
64.66869100,64668691,2,0.7854166030883789,-0.004620812367647886,0.004407098516821861,0.6189345717430115
64.76867600,64768676,2,0.7854484915733337,-0.004621672909706831,0.004389368928968906,0.6188942193984985
64.86867700,64868677,2,0.7854134440422058,-0.0046278308145701885,0.004399701487272978,0.6189385652542114
64.96867900,64968679,2,0.7854362726211548,-0.0046117412857711315,0.004426878411322832,0.618909478187561
65.06872700,65068727,2,0.7854737639427185,-0.004587472416460514,0.004427907522767782,0.6188620924949646
65.16872900,65168729,2,0.7854419350624084,-0.004590729717165232,0.004405207931995392,0.6189026236534119
65.26877500,65268775,2,0.7855039834976196,-0.0045852093026041985,0.004425890743732452,0.6188238263130188
65.36874600,65368746,2,0.7855370044708252,-0.004616865422576666,0.004381804261356592,0.6187819242477417
65.46872000,65468720,2,0.7854598760604858,-0.004657757468521595,0.004404708277434111,0.6188793778419495
65.56867900,65568679,2,0.78547602891922,-0.004662349820137024,0.004355094861239195,0.6188592314720154
65.66868200,65668682,2,0.7854588031768799,-0.0046824682503938675,0.004347744397819042,0.6188809275627136
65.76867600,65768676,2,0.785419762134552,-0.004638464655727148,0.004321222193539143,0.6189310550689697
65.86867600,65868676,2,0.7853971123695374,-0.004675447009503841,0.00430587213486433,0.6189596056938171
65.96873400,65968734,2,0.7853977680206299,-0.0046705505810678005,0.004378672689199448,0.6189582943916321
66.06873600,66068736,2,0.7853637337684631,-0.004685279913246632,0.004327549133449793,0.6190017461776733
66.16877300,66168773,2,0.7853741645812988,-0.004694593138992786,0.004364220425486565,0.6189880967140198
66.26873700,66268737,2,0.7853560447692871,-0.00470834132283926,0.00435734773054719,0.6190110445022583
66.36871400,66368714,2,0.7852858901023865,-0.004707851447165012,0.004300503525882959,0.6191004514694214
66.46867700,66468677,2,0.7853058576583862,-0.004731788299977779,0.004333010874688625,0.6190747618675232
66.56867800,66568678,2,0.7853005528450012,-0.004715857096016407,0.004292506258934736,0.6190818548202515
66.66872000,66668720,2,0.7852124571800232,-0.004706236533820629,0.004307379946112633,0.6191936135292053
66.76867600,66768676,2,0.7852186560630798,-0.004735063761472702,0.004366077482700348,0.6191850304603577
66.86872200,66868722,2,0.785176157951355,-0.004811395891010761,0.004394970368593931,0.6192381978034973
66.96874100,66968741,2,0.785168468952179,-0.0048688058741390705,0.004398209508508444,0.6192474961280823
67.06877900,67068779,2,0.7851890325546265,-0.004912731237709522,0.004357587546110153,0.6192213296890259
67.16874100,67168741,2,0.7851927876472473,-0.004905926529318094,0.004308176692575216,0.6192169785499573
67.26871300,67268713,2,0.7851727604866028,-0.004927948582917452,0.0043611000292003155,0.6192418336868286
67.36867900,67368679,2,0.7851870656013489,-0.00494748679921031,0.004375634714961052,0.619223415851593
67.46867700,67468677,2,0.7851835489273071,-0.004982069134712219,0.004341451916843653,0.6192278265953064
67.56867700,67568677,2,0.7852437496185303,-0.005015257745981216,0.004347474314272404,0.6191511750221252
67.66868100,67668681,2,0.7853450775146484,-0.005050126928836107,0.004341358318924904,0.6190224289894104
67.76871400,67768714,2,0.7853487133979797,-0.005075729452073574,0.004368295893073082,0.6190174221992493
67.86873900,67868739,2,0.7853890061378479,-0.005048053804785013,0.004310581833124161,0.6189669370651245
67.96877900,67968779,2,0.7854265570640564,-0.005048037972301245,0.004356078337877989,0.6189189553260803
68.06874600,68068746,2,0.7854129672050476,-0.0050392900593578815,0.0044147176668047905,0.6189358234405518
68.16870800,68168708,2,0.7853912711143494,-0.005067121237516403,0.004405224695801735,0.6189632415771484
68.26868000,68268680,2,0.7854375243186951,-0.005066592246294022,0.004443030804395676,0.6189042329788208
68.36873200,68368732,2,0.7854220271110535,-0.005049107130616903,0.004454050678759813,0.6189240217208862
68.46867600,68468676,2,0.7854321002960205,-0.005089817102998495,0.004424950573593378,0.61891108751297
68.56867600,68568676,2,0.7854616641998291,-0.005084600765258074,0.0044196369126439095,0.618873655796051
68.66871700,68668717,2,0.7854499816894531,-0.005115265026688576,0.004401865880936384,0.6188883781433105
68.76874700,68768747,2,0.7854670286178589,-0.005109958350658417,0.004434547387063503,0.6188665628433228
68.86879300,68868793,2,0.7854480743408203,-0.005069731269031763,0.004477692302316427,0.6188905835151672
68.96874600,68968746,2,0.7854406833648682,-0.005119732115417719,0.004486235324293375,0.6188995242118835
69.06868000,69068680,2,0.7854748368263245,-0.00510166771709919,0.004526245407760143,0.6188560128211975
69.16867600,69168676,2,0.7854582071304321,-0.005095614120364189,0.004536252468824387,0.618877112865448
69.26867900,69268679,2,0.785429835319519,-0.0050464109517633915,0.004617964383214712,0.6189128756523132
69.36871700,69368717,2,0.7854181528091431,-0.005067980382591486,0.00463501550257206,0.6189274191856384
69.46867500,69468675,2,0.7853836417198181,-0.005014222115278244,0.004695434123277664,0.6189711689949036
69.56873500,69568735,2,0.7853640913963318,-0.005045587196946144,0.004698633216321468,0.618995726108551
69.66874000,69668740,2,0.7853769063949585,-0.005033606663346291,0.004723682533949614,0.6189793944358826
69.76878900,69768789,2,0.7854164242744446,-0.005044630728662014,0.004692287649959326,0.618929386138916
69.86874600,69868746,2,0.7854181528091431,-0.005008435342460871,0.004681334365159273,0.618927538394928
69.96871600,69968716,2,0.7854301929473877,-0.005033062770962715,0.004666393157094717,0.6189122200012207
70.06867600,70068676,2,0.7854503393173218,-0.0050445240922272205,0.00464240275323391,0.6188867688179016
70.16868000,70168680,2,0.7854355573654175,-0.005068477243185043,0.004671422298997641,0.6189050078392029
70.26867800,70268678,2,0.785456657409668,-0.005052839871495962,0.004693061113357544,0.6188783049583435
