timestamp,TimeUS,C,Q1,Q2,Q3,Q4
648.97666500,648976665,1,-0.38654592633247375,-0.0017923482228070498,-0.00023323477944359183,0.9222683906555176
649.01667700,649016677,1,-0.3873996138572693,-0.0017799000488594174,-0.00025404279585927725,0.9219101071357727
649.03662800,649036628,1,-0.38778582215309143,-0.0017987375613301992,-0.00025448467931710184,0.9217477440834045
649.05667100,649056671,1,-0.3881547152996063,-0.0017939262324944139,-0.00027422711718827486,0.9215924143791199
649.09662900,649096629,1,-0.38893288373947144,-0.0017597755650058389,-0.00027799123199656606,0.9212643504142761
649.13663200,649136632,1,-0.38967129588127136,-0.0017617838457226753,-0.000264155853074044,0.9209522604942322
649.17668800,649176688,1,-0.39032208919525146,-0.0017796069150790572,-0.00026352659915573895,0.920676589012146
649.21667700,649216677,1,-0.3910645842552185,-0.0018141567707061768,-0.00025499373441562057,0.9203613996505737
649.23663000,649236630,1,-0.39142754673957825,-0.001823917031288147,-0.0002585174806881696,0.9202070832252502
649.25667200,649256672,1,-0.3917636275291443,-0.001823268597945571,-0.00024357507936656475,0.9200640916824341
649.29663600,649296636,1,-0.39230477809906006,-0.0018408781616017222,-0.00024903062148950994,0.9198334217071533
649.33662700,649336627,1,-0.3926527500152588,-0.0018465534085407853,-0.0002437215589452535,0.919684886932373
649.37666100,649376661,1,-0.39293989539146423,-0.0018521324964240193,-0.000246028124820441,0.9195622801780701
649.41666700,649416667,1,-0.3930363655090332,-0.0018474567914381623,-0.00025102414656430483,0.9195210337638855
649.43663400,649436634,1,-0.39305004477500916,-0.0018713657045736909,-0.0002504626172594726,0.9195151329040527
649.45666800,649456668,1,-0.39304983615875244,-0.0018804582068696618,-0.0002460475079715252,0.9195151925086975
649.49666400,649496664,1,-0.39302629232406616,-0.001878384267911315,-0.0002582194283604622,0.9195252656936646
649.53663800,649536638,1,-0.39305365085601807,-0.0018753201002255082,-0.0002612879907246679,0.9195135831832886
649.57663800,649576638,1,-0.3930629789829254,-0.0019107002299278975,-0.00024840791593305767,0.9195095300674438
649.61663800,649616638,1,-0.3930400013923645,-0.0019140441436320543,-0.0002364503452554345,0.9195193648338318
649.63665900,649636659,1,-0.3930129408836365,-0.00191045633982867,-0.0002161002194043249,0.9195309281349182
649.65667300,649656673,1,-0.3929835855960846,-0.0019133152673020959,-0.00021137626026757061,0.919543445110321
649.69664300,649696643,1,-0.3929685354232788,-0.0019009304232895374,-0.0002245751820737496,0.9195499420166016
649.73667800,649736678,1,-0.39301609992980957,-0.001894477754831314,-0.00022929516853764653,0.9195296168327332
649.77664000,649776640,1,-0.39304956793785095,-0.0018846387974917889,-0.00022393852123059332,0.9195153117179871
649.81662800,649816628,1,-0.39306849241256714,-0.0018749868031591177,-0.0002003115223487839,0.9195072650909424
649.83666900,649836669,1,-0.3930801749229431,-0.0018837263341993093,-0.0001988767326110974,0.9195022583007812
649.85661800,649856618,1,-0.3930875062942505,-0.0018959447043016553,-0.000189041078556329,0.9194990992546082
649.89667500,649896675,1,-0.3930934965610504,-0.0018989723175764084,-0.00022198300575837493,0.9194965362548828
649.93667200,649936672,1,-0.3930118680000305,-0.0019156229682266712,-0.0002457161608617753,0.9195313453674316
649.97667300,649976673,1,-0.39293694496154785,-0.0019225095165893435,-0.0002598469436634332,0.919563353061676
650.01662900,650016629,1,-0.3928394317626953,-0.0019222997361794114,-0.00025344459572806954,0.919605016708374
650.03665600,650036656,1,-0.3927953243255615,-0.0019312039948999882,-0.00025894344435073435,0.919623851776123
650.05663900,650056639,1,-0.39273542165756226,-0.0019409585511311889,-0.00025897310115396976,0.9196494221687317
650.09667700,650096677,1,-0.39263203740119934,-0.0019556235056370497,-0.00023895107733551413,0.9196935296058655
650.13665700,650136657,1,-0.3925217390060425,-0.0019500144990161061,-0.00024251022841781378,0.919740617275238
650.17666100,650176661,1,-0.39243921637535095,-0.0019552225712686777,-0.0002380191144766286,0.9197758436203003
650.21665500,650216655,1,-0.39236390590667725,-0.0019630377646535635,-0.00022969725250732154,0.9198079705238342
650.23668500,650236685,1,-0.3923393189907074,-0.0019614247139543295,-0.00022802302555646747,0.9198184609413147
650.25662800,650256628,1,-0.39231544733047485,-0.0019757638219743967,-0.00023857374617364258,0.9198285937309265
650.29663100,650296631,1,-0.3922727406024933,-0.0019875047728419304,-0.00024235385353676975,0.919846773147583
650.33667300,650336673,1,-0.3922712802886963,-0.0019801435992121696,-0.00023492435866501182,0.9198474287986755
650.37664800,650376648,1,-0.3922847509384155,-0.001982361078262329,-0.0002460260293446481,0.9198416471481323
650.41667100,650416671,1,-0.39220911264419556,-0.0020004427060484886,-0.00025779151474125683,0.9198738932609558
650.43668200,650436682,1,-0.39216750860214233,-0.0020111165940761566,-0.00025193451438099146,0.9198915958404541
650.45663700,650456637,1,-0.3921421468257904,-0.002013935474678874,-0.00026447264826856554,0.9199023842811584
650.49664000,650496640,1,-0.39212363958358765,-0.0020149664487689734,-0.0002690047840587795,0.9199102520942688
650.53663000,650536630,1,-0.3921802341938019,-0.001997035462409258,-0.00024995292187668383,0.9198861718177795
650.57666800,650576668,1,-0.3922393321990967,-0.001999438973143697,-0.00024205836234614253,0.9198610186576843
650.61667600,650616676,1,-0.3922731280326843,-0.0019960030913352966,-0.0002333079173695296,0.9198465943336487
650.63664700,650636647,1,-0.39228716492652893,-0.0019982685334980488,-0.00023544747091364115,0.9198405742645264
650.65667200,650656672,1,-0.3923013508319855,-0.002002723515033722,-0.00023478966613765806,0.919834554195404
650.69663600,650696636,1,-0.3923749029636383,-0.0020243655890226364,-0.00023642757150810212,0.9198031425476074
650.73663200,650736632,1,-0.3924837112426758,-0.002013541990891099,-0.0002448948798701167,0.9197567105293274
650.77663500,650776635,1,-0.3925720751285553,-0.0020157205872237682,-0.0002474529028404504,0.9197189807891846
650.81667100,650816671,1,-0.3927154242992401,-0.002035088837146759,-0.00023878246429376304,0.9196577668190002
650.83664500,650836645,1,-0.392785906791687,-0.0020277381408959627,-0.00025222162366844714,0.9196276664733887
650.85668100,650856681,1,-0.39284610748291016,-0.0020160963758826256,-0.0002464459976181388,0.9196019768714905
650.89666700,650896667,1,-0.3929747939109802,-0.001996447332203388,-0.00023646530462428927,0.9195470213890076
650.93663700,650936637,1,-0.39307335019111633,-0.002013472141698003,-0.00022240643738768995,0.9195048809051514
650.97663000,650976630,1,-0.39312148094177246,-0.0020114120561629534,-0.00023519256501458585,0.9194843173027039
651.01669100,651016691,1,-0.3931939899921417,-0.0020253940019756556,-0.00024212458811234683,0.9194532632827759
651.03664100,651036641,1,-0.39321812987327576,-0.0020174214150756598,-0.00025160182849504054,0.9194429516792297
651.05665800,651056658,1,-0.39323359727859497,-0.0020194537937641144,-0.0002644231717567891,0.9194363355636597
651.09667700,651096677,1,-0.3932734429836273,-0.002001841552555561,-0.00028850321541540325,0.9194193482398987
651.13665500,651136655,1,-0.3933976888656616,-0.0020106968004256487,-0.0002884365967474878,0.919366180896759
651.17664100,651176641,1,-0.3934905230998993,-0.0020115841180086136,-0.0002819894871208817,0.9193264245986938
651.21663900,651216639,1,-0.3935994803905487,-0.0020130211487412453,-0.00028352567460387945,0.9192797541618347
651.23667200,651236672,1,-0.3936478793621063,-0.0020074977073818445,-0.00028448496595956385,0.9192590713500977
651.25667600,651256676,1,-0.3936976194381714,-0.001995216589421034,-0.00028124472009949386,0.9192377924919128
651.29667100,651296671,1,-0.39379554986953735,-0.0019895685836672783,-0.0002700394834391773,0.9191958904266357
651.33667400,651336674,1,-0.39389768242836,-0.001991919009014964,-0.00027114374097436666,0.9191520810127258
651.37664400,651376644,1,-0.3939962685108185,-0.0019904542714357376,-0.000269932032097131,0.9191098213195801
651.41663500,651416635,1,-0.39412322640419006,-0.001977577805519104,-0.00025864140479825437,0.9190554618835449
651.43667900,651436679,1,-0.39418208599090576,-0.0019920829217880964,-0.00027104170294478536,0.9190301895141602
651.45662800,651456628,1,-0.394240140914917,-0.0019991761073470116,-0.00026690191589295864,0.919005274772644
651.49666000,651496660,1,-0.3943522870540619,-0.0019800185691565275,-0.00025855275453068316,0.9189571738243103
651.53666500,651536665,1,-0.3944210112094879,-0.0020098339300602674,-0.0002620674786157906,0.9189276099205017
651.57666100,651576661,1,-0.3944823145866394,-0.0020204586908221245,-0.0002530458150431514,0.918901264667511
651.61664300,651616643,1,-0.39451321959495544,-0.00202316977083683,-0.00025550389545969665,0.9188880324363708
651.63665500,651636655,1,-0.39451900124549866,-0.002020031912252307,-0.0002600419975351542,0.9188855290412903
651.65664000,651656640,1,-0.39454150199890137,-0.002030415693297982,-0.0002560598368290812,0.9188758730888367
651.69664400,651696644,1,-0.3945448100566864,-0.002006448106840253,-0.00025765769532881677,0.9188745021820068
651.73667900,651736679,1,-0.3944864571094513,-0.0020150847267359495,-0.00026242464082315564,0.9188995361328125
651.77667600,651776676,1,-0.39440423250198364,-0.002019645646214485,-0.0002710272965487093,0.9189347624778748
651.81666900,651816669,1,-0.3941931426525116,-0.0020133638754487038,-0.0002430548338452354,0.9190253615379333
651.83668800,651836688,1,-0.3940719664096832,-0.0020011330489069223,-0.00023190316278487444,0.9190773963928223
651.85663300,651856633,1,-0.3939557671546936,-0.0020057454239577055,-0.000236281513934955,0.9191271662712097
651.89663200,651896632,1,-0.3937194347381592,-0.0019975414033979177,-0.0002453988417983055,0.9192284345626831
651.93665400,651936654,1,-0.393416166305542,-0.0020003083627671003,-0.00025322017609141767,0.9193583130836487
651.97667100,651976671,1,-0.3931511640548706,-0.0020069268066436052,-0.00025135953910648823,0.9194716215133667
652.01667000,652016670,1,-0.39277705550193787,-0.0020166062749922276,-0.00023701669124420732,0.9196314811706543
652.03661800,652036618,1,-0.3925711214542389,-0.0020113547798246145,-0.00022873606940265745,0.919719398021698
652.05663100,652056631,1,-0.39235544204711914,-0.0020069300662726164,-0.00024318235227838159,0.919811487197876
652.09664200,652096642,1,-0.391936331987381,-0.0020248296204954386,-0.00026219800929538906,0.919990062713623
652.13663200,652136632,1,-0.39151930809020996,-0.0020284235943108797,-0.00027457441319711506,0.9201676249504089
652.17668300,652176683,1,-0.3911723494529724,-0.002043974120169878,-0.0002699378237593919,0.920315146446228
652.21665500,652216655,1,-0.3908237814903259,-0.002077702432870865,-0.0002396023483015597,0.9204631447792053
652.23663100,652236631,1,-0.3906511962413788,-0.0020822323858737946,-0.00026319961762055755,0.9205363988876343
652.25667000,652256670,1,-0.39050111174583435,-0.002071754075586796,-0.0002595686528366059,0.9206001162528992
652.29663100,652296631,1,-0.39020317792892456,-0.0020984320435673,-0.00025350021314807236,0.9207263588905334
652.33663000,652336630,1,-0.3898754119873047,-0.0021179637406021357,-0.0002586485061328858,0.9208651185035706
652.37663100,652376631,1,-0.38960132002830505,-0.0021416342351585627,-0.0002525425225030631,0.9209811091423035
652.41667400,652416674,1,-0.38931792974472046,-0.0021510538645088673,-0.00023292347032111138,0.921100914478302
652.43664700,652436647,1,-0.3891954720020294,-0.002164228819310665,-0.00022581797384191304,0.921152651309967
652.45667900,652456679,1,-0.38908329606056213,-0.0021623694337904453,-0.00022526703833136708,0.9212000370025635
652.49665900,652496659,1,-0.3889193832874298,-0.0021771960891783237,-0.0002253178390674293,0.9212691783905029
652.53663400,652536634,1,-0.3887523114681244,-0.0021861246787011623,-0.0002357253251830116,0.9213396906852722
652.57663100,652576631,1,-0.38862454891204834,-0.002207381883636117,-0.00024509322247467935,0.9213935136795044
652.61665200,652616652,1,-0.38843396306037903,-0.0022041145712137222,-0.00023859486100263894,0.9214739203453064
652.63664000,652636640,1,-0.3883533477783203,-0.002215253422036767,-0.0002512281062081456,0.9215078353881836
652.65668200,652656682,1,-0.38825884461402893,-0.0022255831863731146,-0.00024572969414293766,0.9215476512908936
652.69668900,652696689,1,-0.3880870044231415,-0.0022490182891488075,-0.00025361982989124954,0.9216199517250061
652.73664000,652736640,1,-0.387942910194397,-0.002263465663418174,-0.00021700815705116838,0.9216805696487427
652.77664600,652776646,1,-0.38781410455703735,-0.0022538630291819572,-0.00021059469145257026,0.9217348098754883
652.81663100,652816631,1,-0.3876899480819702,-0.0022674137726426125,-0.00022071972489356995,0.9217870235443115
652.83666900,652836669,1,-0.38762739300727844,-0.002282731933519244,-0.00022161095694173127,0.9218133091926575
652.85667400,652856674,1,-0.38756346702575684,-0.002303722081705928,-0.0002019498497247696,0.9218401312828064
652.89665600,652896656,1,-0.38742637634277344,-0.002296613296493888,-0.00021406063751783222,0.9218977689743042
652.93666600,652936666,1,-0.3872967064380646,-0.00233252695761621,-0.00021332503820303828,0.9219521284103394
652.97664000,652976640,1,-0.38714081048965454,-0.002358938567340374,-0.00022072705905884504,0.9220175743103027
653.01663500,653016635,1,-0.38698071241378784,-0.0023705712519586086,-0.0002322388463653624,0.9220847487449646
653.03667200,653036672,1,-0.3869065046310425,-0.0023608950432389975,-0.0002355685574002564,0.9221158623695374
653.05662800,653056628,1,-0.38685280084609985,-0.0023640356957912445,-0.00026134244399145246,0.9221383929252625
653.09667600,653096676,1,-0.3867136240005493,-0.002385042142122984,-0.0002879867679439485,0.9221967458724976
653.13666200,653136662,1,-0.3865652084350586,-0.00240060081705451,-0.0002831237798091024,0.9222589135169983
653.17667800,653176678,1,-0.3864276707172394,-0.002403360093012452,-0.00027560495072975755,0.9223165512084961
653.21663300,653216633,1,-0.3862460255622864,-0.0024267525877803564,-0.0002923785359598696,0.9223925471305847
653.23667500,653236675,1,-0.3861463665962219,-0.002441884484142065,-0.00028909387765452266,0.9224342703819275
653.25664000,653256640,1,-0.38605451583862305,-0.002438865602016449,-0.00028820097213611007,0.9224727153778076
653.29662500,653296625,1,-0.3858465254306793,-0.0024423031136393547,-0.00028726758318953216,0.9225596785545349
653.33667400,653336674,1,-0.3856530487537384,-0.002453454304486513,-0.0002855781640391797,0.9226405620574951
653.37664200,653376642,1,-0.3854862451553345,-0.0024676453322172165,-0.000281985237961635,0.9227102398872375
653.41666400,653416664,1,-0.3853382170200348,-0.0024954485706984997,-0.0002683898201212287,0.9227719902992249
653.43667200,653436672,1,-0.38526976108551025,-0.002497071400284767,-0.0002645202330313623,0.922800600528717
653.45663000,653456630,1,-0.38520464301109314,-0.00251166895031929,-0.0002676999138202518,0.9228277206420898
653.49664600,653496646,1,-0.38506853580474854,-0.0025146938860416412,-0.00027981819584965706,0.9228845238685608
653.53667100,653536671,1,-0.3848956227302551,-0.0025187646970152855,-0.00026870056171901524,0.922956645488739
653.57668600,653576686,1,-0.3847486972808838,-0.002517524641007185,-0.0002677197626326233,0.9230179190635681
653.61667300,653616673,1,-0.38459649682044983,-0.0025168005377054214,-0.0002643316111061722,0.9230813384056091
653.63663100,653636631,1,-0.384536474943161,-0.0025299210101366043,-0.0002571826335042715,0.92310631275177
653.65665000,653656650,1,-0.3844708502292633,-0.0025396791752427816,-0.00025984461535699666,0.9231336116790771
653.69663700,653696637,1,-0.3843926191329956,-0.0025536026805639267,-0.00025852685212157667,0.9231661558151245
653.73665200,653736652,1,-0.3843591511249542,-0.002582081127911806,-0.00025643472326919436,0.9231799840927124
653.77667000,653776670,1,-0.38432544469833374,-0.0025920115876942873,-0.00025499387993477285,0.9231939911842346
653.81666600,653816666,1,-0.3842372000217438,-0.0026078815571963787,-0.0002579635474830866,0.9232307076454163
653.83663100,653836631,1,-0.38419389724731445,-0.0026232923846691847,-0.0002587135531939566,0.9232486486434937
653.85666900,653856669,1,-0.38414260745048523,-0.0026462050154805183,-0.00025860476307570934,0.9232699275016785
653.89664100,653896641,1,-0.3840515911579132,-0.0026383530348539352,-0.00024769484298303723,0.9233078360557556
653.93663700,653936637,1,-0.38399380445480347,-0.002649943344295025,-0.0002533849619794637,0.9233317971229553
653.97662900,653976629,1,-0.3839453160762787,-0.0026329439133405685,-0.00026001385413110256,0.923352062702179
654.01667000,654016670,1,-0.38390135765075684,-0.002661747159436345,-0.00026634265668690205,0.9233702421188354
654.03663800,654036638,1,-0.38385894894599915,-0.0026675055269151926,-0.0002722012286540121,0.9233878254890442
654.05667500,654056675,1,-0.38383162021636963,-0.002660429337993264,-0.0002731488784775138,0.9233992099761963
654.09665900,654096659,1,-0.38367992639541626,-0.002665086416527629,-0.0002473062486387789,0.9234622716903687
654.13663800,654136638,1,-0.38332244753837585,-0.002656692871823907,-0.00026748329401016235,0.9236107468605042
654.17663500,654176635,1,-0.38293251395225525,-0.0026758911553770304,-0.0002616528363432735,0.923772394657135
654.21663600,654216636,1,-0.38229605555534363,-0.002676161704584956,-0.0002743176301009953,0.9240359663963318
654.23661000,654236610,1,-0.3819407820701599,-0.002683372003957629,-0.00027234721346758306,0.9241828322410583
654.25666600,654256666,1,-0.38159146904945374,-0.002686151536181569,-0.000276742794085294,0.9243271350860596
654.29667800,654296678,1,-0.38091760873794556,-0.002683593425899744,-0.00030438334215432405,0.9246050119400024
654.33663800,654336638,1,-0.3803394138813019,-0.0026756501756608486,-0.00028246265719644725,0.9248430728912354
654.37662600,654376626,1,-0.3797806203365326,-0.0026779507752507925,-0.00031312569626607,0.9250726699829102
654.41662500,654416625,1,-0.37926578521728516,-0.002665044507011771,-0.0002958599361591041,0.9252839088439941
654.43667100,654436671,1,-0.3790493905544281,-0.0026439244393259287,-0.00028856477001681924,0.9253726005554199
654.45666700,654456667,1,-0.378873348236084,-0.00264745787717402,-0.0003068600781261921,0.9254446625709534
654.49667700,654496677,1,-0.37859562039375305,-0.002614530036225915,-0.00034436373971402645,0.9255584478378296
654.53668000,654536680,1,-0.3784945011138916,-0.0026117293164134026,-0.00026510050520300865,0.9255998134613037
654.57663500,654576635,1,-0.3784385621547699,-0.0025890597607940435,-0.0002858563093468547,0.9256227612495422
654.61662800,654616628,1,-0.3785514235496521,-0.002609739312902093,-0.00029787758830934763,0.9255765080451965
654.63666800,654636668,1,-0.37862467765808105,-0.0025921138003468513,-0.0002933173382189125,0.9255466461181641
654.65662600,654656626,1,-0.3787075877189636,-0.0025943599175661802,-0.0002999309217557311,0.9255126714706421
654.69667300,654696673,1,-0.3789350986480713,-0.002620544284582138,-0.00030677643371745944,0.9254195094108582
654.73667300,654736673,1,-0.37934207916259766,-0.002618524245917797,-0.00028318105614744127,0.9252527356147766
654.77668000,654776680,1,-0.37976956367492676,-0.0026060494128614664,-0.00027755540213547647,0.9250774383544922
654.81663700,654816637,1,-0.38031595945358276,-0.002642222447320819,-0.00029678051942028105,0.9248527884483337
654.83664500,654836645,1,-0.3806113004684448,-0.0026558865793049335,-0.00029905358678661287,0.9247312545776367
654.85663300,654856633,1,-0.38088804483413696,-0.0026632340159267187,-0.00031796356779523194,0.9246172904968262
654.89662800,654896628,1,-0.38147661089897156,-0.0026555040385574102,-0.00032390313572250307,0.9243746399879456
654.93665600,654936656,1,-0.38210153579711914,-0.002656154101714492,-0.00030257340404205024,0.9241164922714233
654.97665500,654976655,1,-0.38264939188957214,-0.0026624330785125494,-0.0002929735346697271,0.9238897562026978
655.01664700,655016647,1,-0.38323479890823364,-0.00269676954485476,-0.0002979320997837931,0.9236469864845276
655.03666600,655036666,1,-0.3835293650627136,-0.002717492403462529,-0.00029440849903039634,0.9235246181488037
655.05663500,655056635,1,-0.38380908966064453,-0.0027097465936094522,-0.0002816970809362829,0.9234084486961365
655.09664700,655096647,1,-0.38442057371139526,-0.0027124150656163692,-0.00030689715640619397,0.9231540560722351
655.13667300,655136673,1,-0.38508158922195435,-0.0027465473394840956,-0.0003285085840616375,0.9228783845901489
655.17666700,655176667,1,-0.3856509327888489,-0.002769533544778824,-0.00032821789500303566,0.9226405620574951
655.21667400,655216674,1,-0.38628363609313965,-0.002761486219242215,-0.0003264928236603737,0.9223758578300476
655.23663000,655236630,1,-0.386564701795578,-0.0027854067739099264,-0.00033969435025937855,0.9222580194473267
655.25665800,655256658,1,-0.3868360221385956,-0.0027864815201610327,-0.00034798827255144715,0.9221442341804504
655.29663600,655296636,1,-0.38734784722328186,-0.0027779103256762028,-0.0003512228140607476,0.9219294190406799
655.33662400,655336624,1,-0.3877978026866913,-0.002778099849820137,-0.0003609958803281188,0.9217402338981628
655.37666700,655376667,1,-0.3882148861885071,-0.0028270063921809196,-0.00035782583290711045,0.9215644598007202
655.41666000,655416660,1,-0.3886394798755646,-0.0028220165986567736,-0.0003615586902014911,0.9213855266571045
655.43663700,655436637,1,-0.3888281583786011,-0.002820119494572282,-0.00034030614187940955,0.9213058948516846
655.45667800,655456678,1,-0.3889945149421692,-0.002830929821357131,-0.00035319471498951316,0.9212356209754944
655.49665600,655496656,1,-0.3893398344516754,-0.002828762400895357,-0.0003691740275826305,0.921089768409729
655.53663000,655536630,1,-0.3897213339805603,-0.0028213337063789368,-0.00037872136454097927,0.920928418636322
655.57662500,655576625,1,-0.3900298774242401,-0.002812636084854603,-0.0003794741351157427,0.9207978248596191
655.61668300,655616683,1,-0.39035293459892273,-0.002811031648889184,-0.00039333439781330526,0.9206609129905701
655.63663400,655636634,1,-0.3905283212661743,-0.002824687398970127,-0.0004072222800459713,0.9205864667892456
655.65666200,655656662,1,-0.390704482793808,-0.002810932695865631,-0.00040598586201667786,0.920511782169342
655.69668200,655696682,1,-0.39106225967407227,-0.0028058376628905535,-0.000440391682786867,0.9203598499298096
655.73663700,655736637,1,-0.39142248034477234,-0.002812508260831237,-0.00044185909791849554,0.9202066659927368
655.77662600,655776626,1,-0.39176562428474426,-0.0028229739982634783,-0.0004552147875074297,0.9200606346130371
655.81663300,655816633,1,-0.39204102754592896,-0.00282089551910758,-0.0004887196701020002,0.9199432730674744
655.83664000,655836640,1,-0.3921601176261902,-0.0028232871554791927,-0.0004908178234472871,0.9198924899101257
655.85668100,655856681,1,-0.39227497577667236,-0.002818851266056299,-0.0004924662061966956,0.9198435544967651
655.89666700,655896667,1,-0.3924781084060669,-0.0028363321907818317,-0.000491919694468379,0.9197568297386169
655.93667100,655936671,1,-0.3926835060119629,-0.0028415387496352196,-0.0004946443368680775,0.9196691513061523
655.97663600,655976636,1,-0.39290735125541687,-0.0028396334964782,-0.0004963788669556379,0.9195735454559326
656.01662400,656016624,1,-0.39314037561416626,-0.0028532224241644144,-0.0005267814267426729,0.9194738864898682
656.03666800,656036668,1,-0.39326801896095276,-0.0028576101176440716,-0.0005207668873481452,0.9194192886352539
656.05667600,656056676,1,-0.39338263869285583,-0.002846300834789872,-0.000540704932063818,0.9193702936172485
656.09669100,656096691,1,-0.3936101198196411,-0.002842494286596775,-0.0005388150457292795,0.9192728996276855
656.13667100,656136671,1,-0.39388200640678406,-0.0028734696097671986,-0.0005489232717081904,0.9191563725471497
656.17663600,656176636,1,-0.3940799832344055,-0.0028915393631905317,-0.000560699962079525,0.9190714359283447
656.21662700,656216627,1,-0.3943178653717041,-0.0028572322335094213,-0.0005577291594818234,0.9189695119857788
656.23667700,656236677,1,-0.3944514989852905,-0.0028537255711853504,-0.0005497264792211354,0.9189121723175049
656.25662400,656256624,1,-0.39458009600639343,-0.002853544894605875,-0.0005343890516087413,0.9188569784164429
656.29666900,656296669,1,-0.39484405517578125,-0.0028561875224113464,-0.0005300977500155568,0.9187435507774353
656.33667300,656336673,1,-0.39514562487602234,-0.0028614280745387077,-0.0005258152377791703,0.9186139106750488
656.37666500,656376665,1,-0.39543014764785767,-0.0028561842627823353,-0.00051626015920192,0.9184914827346802
656.41663300,656416633,1,-0.3956855833530426,-0.002842050278559327,-0.0005125072784721851,0.9183815121650696
656.43666900,656436669,1,-0.3958016037940979,-0.0028438535518944263,-0.0005056987865827978,0.918331503868103
656.45664600,656456646,1,-0.39589637517929077,-0.002834127750247717,-0.0005039566894993186,0.9182906746864319
656.49662600,656496626,1,-0.3960816562175751,-0.0028404532931745052,-0.0004885876551270485,0.9182107448577881
656.53666000,656536660,1,-0.3962653577327728,-0.002845935756340623,-0.0004946956760250032,0.9181314706802368
656.57664300,656576643,1,-0.39644643664360046,-0.0028545886743813753,-0.0005056516383774579,0.9180532693862915
656.61667500,656616675,1,-0.3966677486896515,-0.00283282482996583,-0.0005142730078659952,0.9179577231407166
656.63666600,656636666,1,-0.3967646658420563,-0.002840297529473901,-0.0005199884762987494,0.9179158210754395
656.65663000,656656630,1,-0.396852046251297,-0.002830909565091133,-0.0005132503574714065,0.9178780913352966
656.69662600,656696626,1,-0.39700227975845337,-0.0028151574078947306,-0.0005091190105304122,0.9178131818771362
656.73662200,656736622,1,-0.39712050557136536,-0.002807613927870989,-0.0004929285496473312,0.917762041091919
656.77667700,656776677,1,-0.3972088396549225,-0.002803138690069318,-0.00048176312702707946,0.9177238345146179
656.81667400,656816674,1,-0.39733588695526123,-0.002800052985548973,-0.0004732065135613084,0.917668879032135
656.83662800,656836628,1,-0.3973982036113739,-0.002792048966512084,-0.00047567248111590743,0.9176418781280518
656.85665200,656856652,1,-0.3974653482437134,-0.002782817929983139,-0.00048383689136244357,0.9176128506660461
656.89663900,656896639,1,-0.39760106801986694,-0.0027649879921227694,-0.0005057011730968952,0.9175540804862976
656.93662500,656936625,1,-0.39770594239234924,-0.00277522555552423,-0.0004969931324012578,0.917508602142334
656.97667400,656976674,1,-0.3977814018726349,-0.0027605395298451185,-0.0005087664467282593,0.9174759387969971
657.01665000,657016650,1,-0.397832453250885,-0.002747601829469204,-0.0005120692076161504,0.9174538254737854
657.03663200,657036632,1,-0.39784643054008484,-0.0027459366247057915,-0.0005197805003263056,0.9174477458000183
657.05667700,657056677,1,-0.39785632491111755,-0.0027433279901742935,-0.0005215488490648568,0.9174434542655945
657.09667400,657096674,1,-0.3978739380836487,-0.002746183192357421,-0.0005189050571061671,0.9174358248710632
657.13664000,657136640,1,-0.39789557456970215,-0.002726585604250431,-0.0005226123030297458,0.9174265265464783
657.17662500,657176625,1,-0.3979340195655823,-0.0027239499613642693,-0.0005395382759161294,0.9174098372459412
657.21667500,657216675,1,-0.3979593515396118,-0.002721974393352866,-0.0005333992885425687,0.9173988699913025
657.23663500,657236635,1,-0.39795732498168945,-0.002722337143495679,-0.0005317314062267542,0.9173997044563293
657.25666000,657256660,1,-0.3979596793651581,-0.002720091724768281,-0.0005375266773626208,0.9173986911773682
657.29666100,657296661,1,-0.3979588747024536,-0.002692051697522402,-0.0005370494327507913,0.9173991680145264
657.33663800,657336638,1,-0.397911936044693,-0.002698043594136834,-0.0005478525417856872,0.9174194931983948
657.37663800,657376638,1,-0.3979133367538452,-0.002666367683559656,-0.0005314458976499736,0.9174189567565918
657.41662500,657416625,1,-0.3979037404060364,-0.0026385076344013214,-0.0005402291426435113,0.9174231886863708
657.43666800,657436668,1,-0.39790472388267517,-0.002626753645017743,-0.0005473748897202313,0.9174228310585022
657.45664000,657456640,1,-0.3979296386241913,-0.0026135346852242947,-0.0005478238454088569,0.9174120426177979
657.49664200,657496642,1,-0.39794960618019104,-0.002611345611512661,-0.0005518610123544931,0.9174033999443054
657.53666600,657536666,1,-0.39799389243125916,-0.002591374097391963,-0.0005740173510275781,0.9173842072486877
657.57662500,657576625,1,-0.39803847670555115,-0.002599896164610982,-0.0005772208678536117,0.9173648357391357
657.61663900,657616639,1,-0.39802753925323486,-0.002596470294520259,-0.0005336866015568376,0.9173696637153625
657.63667600,657636676,1,-0.39802229404449463,-0.0025851924438029528,-0.0005209532100707293,0.917371928691864
657.65662900,657656629,1,-0.3980077803134918,-0.002575377468019724,-0.0005244933417998254,0.9173782467842102
657.69667600,657696676,1,-0.3980070948600769,-0.0025664891581982374,-0.0005346753168851137,0.9173786044120789
657.73666400,657736664,1,-0.39800363779067993,-0.0025696654338389635,-0.0005287937819957733,0.9173800945281982
657.77665900,657776659,1,-0.398019403219223,-0.002573650097474456,-0.0005307007813826203,0.9173732399940491
657.81663700,657816637,1,-0.39803019165992737,-0.002566942945122719,-0.0005118654808029532,0.9173685908317566
657.83665200,657836652,1,-0.3980242609977722,-0.0025679399259388447,-0.0005105343298055232,0.9173711538314819
657.85664200,657856642,1,-0.39802441000938416,-0.00256835063919425,-0.0004973273607902229,0.9173710942268372
657.89666900,657896669,1,-0.39799490571022034,-0.002546867588534951,-0.0005048445309512317,0.9173839688301086
657.93666800,657936668,1,-0.3979557156562805,-0.002544637070968747,-0.0005082952557131648,0.9174009561538696
657.97667000,657976670,1,-0.3979296088218689,-0.0025508843827992678,-0.0004989849985577166,0.917412281036377
658.01661900,658016619,1,-0.3979119658470154,-0.0025313026271760464,-0.0004972776514478028,0.917419970035553
658.03666500,658036665,1,-0.39788851141929626,-0.0025181572418659925,-0.0005061744013801217,0.9174301624298096
658.05662700,658056627,1,-0.39789262413978577,-0.002522156573832035,-0.0005045689758844674,0.9174283742904663
658.09662600,658096626,1,-0.3979094326496124,-0.002511698054149747,-0.0005004619597457349,0.9174211025238037
658.13666700,658136667,1,-0.39791595935821533,-0.0025006148498505354,-0.0005301424534991384,0.9174183011054993
658.17666600,658176666,1,-0.3979067802429199,-0.0024918506387621164,-0.0005181341548450291,0.9174222946166992
658.21667100,658216671,1,-0.39790254831314087,-0.002491514664143324,-0.0005262375925667584,0.9174241423606873
658.23667700,658236677,1,-0.39790740609169006,-0.0024890215136110783,-0.0005216621793806553,0.9174220561981201
658.25662700,658256627,1,-0.3979034125804901,-0.002481925068423152,-0.0005284019862301648,0.9174237847328186
658.29665300,658296653,1,-0.39789676666259766,-0.002463911660015583,-0.0005246434011496603,0.9174267649650574
658.33662500,658336625,1,-0.3979290723800659,-0.002450807485729456,-0.00050162902334705,0.9174127578735352
658.37666500,658376665,1,-0.3979818522930145,-0.0024449285119771957,-0.0005092769861221313,0.9173898696899414
658.41667700,658416677,1,-0.3979930579662323,-0.002433629473671317,-0.0005184058099985123,0.9173850417137146
658.43663300,658436633,1,-0.3980204463005066,-0.0024183657951653004,-0.00052228121785447,0.9173731803894043
658.45664900,658456649,1,-0.398034006357193,-0.0024070730432868004,-0.0005260005709715188,0.9173673391342163
658.49662700,658496627,1,-0.39804378151893616,-0.0023984143044799566,-0.000517615582793951,0.9173631072044373
658.53663700,658536637,1,-0.39804980158805847,-0.002389089437201619,-0.0005024046986363828,0.9173605442047119
658.57667300,658576673,1,-0.3980659544467926,-0.002366054570302367,-0.0005002681282348931,0.917353630065918
658.61667800,658616678,1,-0.3980874717235565,-0.0023434951435774565,-0.0005240021855570376,0.917344331741333
658.63663500,658636635,1,-0.3980921804904938,-0.0023493943735957146,-0.0005253591225482523,0.9173422455787659
658.65667600,658656676,1,-0.398127943277359,-0.0023543161805719137,-0.0005379738286137581,0.9173267483711243
658.69663900,658696639,1,-0.3981553018093109,-0.0023427100386470556,-0.0005613301764242351,0.917314887046814
658.73662700,658736627,1,-0.3981773853302002,-0.002356395125389099,-0.0005690412945114076,0.9173052310943604
658.77662700,658776627,1,-0.3982038199901581,-0.002351143164560199,-0.0005822947132401168,0.9172937870025635
658.81665100,658816651,1,-0.3981955349445343,-0.002322170650586486,-0.0005945135490037501,0.9172974228858948
658.83663100,658836631,1,-0.39819246530532837,-0.0023209413047879934,-0.0005682584596797824,0.9172987937927246
658.85666200,658856662,1,-0.39817193150520325,-0.002311798045411706,-0.000561102177016437,0.9173077344894409
658.89668200,658896682,1,-0.3981669545173645,-0.002312356373295188,-0.0005472173797897995,0.9173098802566528
658.93664000,658936640,1,-0.3981689512729645,-0.002283783396705985,-0.0005500797415152192,0.9173091053962708
658.97663400,658976634,1,-0.398163378238678,-0.00227059586904943,-0.0005431135068647563,0.9173115491867065
659.01663000,659016630,1,-0.3981667160987854,-0.0022601152304559946,-0.0005462412955239415,0.9173101186752319
659.03663400,659036634,1,-0.398156076669693,-0.0022664221469312906,-0.0005451170727610588,0.9173147082328796
659.05666400,659056664,1,-0.3981471657752991,-0.002267042873427272,-0.0005556836840696633,0.91731858253479
659.09665200,659096652,1,-0.39812934398651123,-0.0022284192964434624,-0.0005607307539321482,0.9173263907432556
659.13666700,659136667,1,-0.3981175422668457,-0.0022443211637437344,-0.0005525575834326446,0.9173315167427063
659.17663600,659176636,1,-0.39810124039649963,-0.0022160611115396023,-0.0005397835629992187,0.9173386693000793
659.21663000,659216630,1,-0.39804449677467346,-0.0022184900008141994,-0.0005548829212784767,0.9173632264137268
659.23667500,659236675,1,-0.3980375826358795,-0.0022123283706605434,-0.0005537550314329565,0.9173662662506104
659.25662700,659256627,1,-0.3980253338813782,-0.0022048812825232744,-0.0005492934724316001,0.9173716306686401
659.29666700,659296667,1,-0.3980194926261902,-0.0021970472298562527,-0.0005537957767955959,0.9173741340637207
659.33667200,659336672,1,-0.3980194926261902,-0.00218990258872509,-0.0005486161098815501,0.9173741936683655
659.37666500,659376665,1,-0.398023396730423,-0.002191428327932954,-0.0005655000568367541,0.917372465133667
659.41662600,659416626,1,-0.39802059531211853,-0.0021588453091681004,-0.0005654399283230305,0.917373776435852
659.43665700,659436657,1,-0.3980173170566559,-0.0021597857121378183,-0.0005729974363930523,0.9173752069473267
659.45662600,659456626,1,-0.39802420139312744,-0.0021559533197432756,-0.0005873526097275317,0.9173721671104431
659.49667100,659496671,1,-0.39801108837127686,-0.0021551658865064383,-0.000594652199652046,0.9173778891563416
659.53666200,659536662,1,-0.3980332911014557,-0.0021407557651400566,-0.0005955045344308019,0.9173682928085327
659.57669600,659576696,1,-0.39807507395744324,-0.0021363398991525173,-0.0005927607417106628,0.917350172996521
659.61667000,659616670,1,-0.398110032081604,-0.0021488373167812824,-0.0005826377891935408,0.9173349738121033
659.63664400,659636644,1,-0.3981340527534485,-0.0021482559386640787,-0.0005834266194142401,0.9173245429992676
659.65663500,659656635,1,-0.398139625787735,-0.0021544841583818197,-0.0005857104551978409,0.9173220992088318
659.69662500,659696625,1,-0.39816489815711975,-0.0021447313483804464,-0.0005846530548296869,0.9173111319541931
659.73666600,659736666,1,-0.39821305871009827,-0.002150051761418581,-0.0005639237351715565,0.9172902703285217
659.77667300,659776673,1,-0.3982296884059906,-0.0021474617533385754,-0.000576394610106945,0.9172830581665039
659.81666700,659816667,1,-0.3982941508293152,-0.002158619463443756,-0.0005913930363021791,0.9172549843788147
659.83667600,659836676,1,-0.3983224630355835,-0.002161000156775117,-0.0005873084301128983,0.917242705821991
659.85664600,659856646,1,-0.39835333824157715,-0.00216658809222281,-0.0005893976194784045,0.9172292947769165
659.89663600,659896636,1,-0.39842718839645386,-0.0021658309269696474,-0.0005715257138945162,0.9171972274780273
659.93664500,659936645,1,-0.39848557114601135,-0.0021644236985594034,-0.0005741147324442863,0.9171718955039978
659.97666500,659976665,1,-0.39852190017700195,-0.0021833088248968124,-0.0005842334940098226,0.9171560406684875
660.01664200,660016642,1,-0.39854902029037476,-0.0021723993122577667,-0.0005854906630702317,0.9171442985534668
660.03662700,660036627,1,-0.3985719382762909,-0.00217639678157866,-0.0005857172072865069,0.9171342849731445
660.05666800,660056668,1,-0.39857882261276245,-0.002180850598961115,-0.0005892227054573596,0.9171313047409058
660.09663700,660096637,1,-0.3986043632030487,-0.002164485165849328,-0.0005818946519866586,0.9171202182769775
660.13662800,660136628,1,-0.39859017729759216,-0.002156949369236827,-0.0005927198217250407,0.9171264171600342
660.17662600,660176626,1,-0.3986028730869293,-0.0021363827399909496,-0.0005760948406532407,0.9171209335327148
660.21667000,660216670,1,-0.39860498905181885,-0.0021267884876579046,-0.0005500405095517635,0.917120099067688
660.23664700,660236647,1,-0.3986136019229889,-0.0021179262548685074,-0.0005520355189219117,0.9171163439750671
660.25665900,660256659,1,-0.3986126482486725,-0.002112759742885828,-0.0005610582884401083,0.9171167612075806
660.29665500,660296655,1,-0.3985811769962311,-0.002087867585942149,-0.0005453542107716203,0.9171305298805237
660.33663500,660336635,1,-0.39857128262519836,-0.00208322168327868,-0.0005446683499030769,0.9171348214149475
660.37663800,660376638,1,-0.39854881167411804,-0.002066005254164338,-0.0005357250920496881,0.9171446561813354
660.41667500,660416675,1,-0.3985341787338257,-0.002041395753622055,-0.0005441894172690809,0.9171510338783264
660.43663500,660436635,1,-0.3985328674316406,-0.002043254906311631,-0.0005460314569063485,0.9171516299247742
660.45666600,660456666,1,-0.39852601289749146,-0.0020402944646775723,-0.0005405356641858816,0.9171546101570129
660.49668400,660496684,1,-0.3985275328159332,-0.002059943974018097,-0.0005283482605591416,0.9171538949012756
660.53664700,660536647,1,-0.3985297977924347,-0.002059848513454199,-0.0005179293220862746,0.9171529412269592
660.57663600,660576636,1,-0.39852073788642883,-0.0020562936551868916,-0.000523662194609642,0.9171568751335144
660.61662700,660616627,1,-0.39850687980651855,-0.002043100306764245,-0.0005460382089950144,0.9171628952026367
660.63667200,660636672,1,-0.398481160402298,-0.0020571814384311438,-0.000553219870198518,0.9171740412712097
660.65667400,660656674,1,-0.39848318696022034,-0.002062103245407343,-0.0005612591630779207,0.9171731472015381
660.69666600,660696666,1,-0.3984590768814087,-0.0020672879181802273,-0.0005690810503438115,0.9171836376190186
660.73667900,660736679,1,-0.39843907952308655,-0.0020576617680490017,-0.0005612983368337154,0.9171923398971558
660.77664000,660776640,1,-0.3984096050262451,-0.002044413471594453,-0.0005657731089740992,0.9172051548957825
660.81663000,660816630,1,-0.398404598236084,-0.0020141524728387594,-0.0005485598812811077,0.9172074198722839
660.83667400,660836674,1,-0.3984147310256958,-0.0020110004115849733,-0.000542883004527539,0.9172030091285706
660.85663600,660856636,1,-0.39840129017829895,-0.002004320500418544,-0.0005381681257858872,0.9172088503837585
660.89667000,660896670,1,-0.3983771502971649,-0.0020122388377785683,-0.0005420123925432563,0.917219340801239
660.93665300,660936653,1,-0.39839887619018555,-0.002003425732254982,-0.0005255320575088263,0.9172099232673645
660.97666300,660976663,1,-0.398406058549881,-0.001982067944481969,-0.0005322773358784616,0.9172068238258362
661.01663000,661016630,1,-0.39841118454933167,-0.001970663433894515,-0.0005261417827568948,0.9172046780586243
661.03667100,661036671,1,-0.39841169118881226,-0.0019682426936924458,-0.0005156076513230801,0.9172044396400452
661.05663000,661056630,1,-0.398427277803421,-0.0019600403029471636,-0.0004939263453707099,0.9171977043151855
661.09661800,661096618,1,-0.3984397351741791,-0.0019539755303412676,-0.0004927524132654071,0.917192280292511
661.13666900,661136669,1,-0.39841294288635254,-0.0019470845581963658,-0.00048456020886078477,0.917203962802887
661.17666800,661176668,1,-0.39839842915534973,-0.0019395522540435195,-0.0004753530374728143,0.9172102808952332
661.21663600,661216636,1,-0.3983617424964905,-0.0019286175956949592,-0.0004794002743437886,0.917226254940033
661.23664100,661236641,1,-0.3983525037765503,-0.0019200403476133943,-0.0004809262463822961,0.9172302484512329
661.25663000,661256630,1,-0.39835068583488464,-0.0019089849665760994,-0.0004775228735525161,0.9172310829162598
661.29663400,661296634,1,-0.39832958579063416,-0.001922542229294777,-0.0004884192603640258,0.9172402024269104
661.33666600,661336666,1,-0.3982956111431122,-0.0019229879835620522,-0.000475823791930452,0.9172549843788147
661.37666900,661376669,1,-0.3982895016670227,-0.00190754234790802,-0.00047734443796798587,0.9172576665878296
661.41666700,661416667,1,-0.398283988237381,-0.0018834673101082444,-0.0004704004677478224,0.9172601103782654
661.43663200,661436632,1,-0.3982744812965393,-0.0018822456477209926,-0.0004719857533928007,0.9172642230987549
661.45666000,661456660,1,-0.3982684910297394,-0.0018812657799571753,-0.0004768140788655728,0.917266845703125
661.49666800,661496668,1,-0.3982730209827423,-0.0018700211076065898,-0.0004592565819621086,0.9172648787498474
661.53662400,661536624,1,-0.3982863128185272,-0.0018596837762743235,-0.00045260676415637136,0.917259156703949
661.57665600,661576656,1,-0.3982993960380554,-0.0018428456969559193,-0.0004563904367387295,0.9172534942626953
661.61666200,661616662,1,-0.39832982420921326,-0.0018451447831466794,-0.0004528843273874372,0.9172402620315552
661.63662500,661636625,1,-0.39834728837013245,-0.001840512384660542,-0.00044708591303788126,0.9172326922416687
661.65666400,661656664,1,-0.39836180210113525,-0.0018424206646159291,-0.00045721084461547434,0.9172263741493225
661.69663200,661696632,1,-0.3983968496322632,-0.0018440134590491652,-0.0004569728334899992,0.9172111749649048
661.73662800,661736628,1,-0.3984116017818451,-0.0018440033309161663,-0.0004612579068634659,0.9172047972679138
661.77663200,661776632,1,-0.3984281122684479,-0.0018357187509536743,-0.0004681349091697484,0.917197585105896
661.81664400,661816644,1,-0.39843398332595825,-0.0018206104869022965,-0.0004512735176831484,0.9171950817108154
661.83663600,661836636,1,-0.3984474837779999,-0.0017948359018191695,-0.00045483894064091146,0.9171893000602722
661.85665800,661856658,1,-0.39845579862594604,-0.0017957061063498259,-0.0004609994648490101,0.9171856641769409
661.89669000,661896690,1,-0.39847511053085327,-0.0017736635636538267,-0.00046913448022678494,0.9171773195266724
661.93662600,661936626,1,-0.3985142409801483,-0.0017484697746112943,-0.0004478559421841055,0.9171603918075562
661.97663500,661976635,1,-0.3985498249530792,-0.0017568108160048723,-0.00044504847028292716,0.9171448945999146
662.01663800,662016638,1,-0.3985622823238373,-0.0017435086192563176,-0.0004368625523056835,0.9171395301818848
662.03663000,662036630,1,-0.3985659182071686,-0.0017497241497039795,-0.00044916055048815906,0.9171379208564758
662.05667500,662056675,1,-0.39857885241508484,-0.0017303124768659472,-0.00044630360207520425,0.9171323180198669
662.09667000,662096670,1,-0.3985975980758667,-0.0017220934387296438,-0.0004379449528641999,0.9171242117881775
662.13664400,662136644,1,-0.39859840273857117,-0.0017235492123290896,-0.0004319539584685117,0.9171238541603088
662.17662700,662176627,1,-0.3986002802848816,-0.0017118440009653568,-0.0004314816906116903,0.9171230792999268
662.21663300,662216633,1,-0.39860206842422485,-0.0016981011722236872,-0.0004149838350713253,0.9171223044395447
662.23666500,662236665,1,-0.398590087890625,-0.001693081110715866,-0.00040619532228447497,0.9171275496482849
662.25666500,662256665,1,-0.3985879123210907,-0.001704384689219296,-0.0004107723943889141,0.9171284437179565
662.29667100,662296671,1,-0.3985796272754669,-0.0017052621114999056,-0.00042144861072301865,0.9171320796012878
662.33665100,662336651,1,-0.3985682725906372,-0.0017011405434459448,-0.00042971211951225996,0.9171369671821594
662.37664000,662376640,1,-0.39855462312698364,-0.0017067751614376903,-0.00044396231533028185,0.917142927646637
662.41663900,662416639,1,-0.39852771162986755,-0.0016957512125372887,-0.0004438469768501818,0.9171546101570129
662.43661800,662436618,1,-0.3985162079334259,-0.0016904966905713081,-0.0004342275788076222,0.9171596169471741
662.45663200,662456632,1,-0.3985045850276947,-0.0016993286553770304,-0.00044228084152564406,0.91716468334198
662.49666800,662496668,1,-0.39850571751594543,-0.001695607672445476,-0.0004347237409092486,0.9171642065048218
662.53666400,662536664,1,-0.39850732684135437,-0.0017113671638071537,-0.00043160939821973443,0.9171634316444397
662.57667000,662576670,1,-0.3985154926776886,-0.0017175787361338735,-0.00043516905861906707,0.917159914970398
662.61664300,662616643,1,-0.39849692583084106,-0.0017172665102407336,-0.000445492216385901,0.9171679615974426
662.63666700,662636667,1,-0.39849212765693665,-0.0017263812478631735,-0.00044299563160166144,0.9171700477600098
662.65664400,662656644,1,-0.3984913229942322,-0.0017257536528632045,-0.00044595293002203107,0.9171703457832336
662.69662400,662696624,1,-0.3984878361225128,-0.0016951578436419368,-0.00044237167458049953,0.9171719551086426
662.73666200,662736662,1,-0.3985022306442261,-0.0016993938479572535,-0.00044995592907071114,0.9171656966209412
662.77665900,662776659,1,-0.39850956201553345,-0.0016942048678174615,-0.000431017077062279,0.9171625375747681
662.81665700,662816657,1,-0.39850711822509766,-0.0016941658686846495,-0.0004290267243050039,0.9171635508537292
662.83667000,662836670,1,-0.398513525724411,-0.0016790691297501326,-0.00042857800144702196,0.9171608090400696
662.85662600,662856626,1,-0.3985280394554138,-0.0016768684145063162,-0.00042647140799090266,0.9171545505523682
662.89662900,662896629,1,-0.39852145314216614,-0.001659414847381413,-0.00042913740617223084,0.9171574115753174
662.93664800,662936648,1,-0.3984832167625427,-0.0016367711359634995,-0.00041972071630880237,0.9171740412712097
662.97666400,662976664,1,-0.39847972989082336,-0.0016422602348029613,-0.0004190544132143259,0.9171755909919739
663.01668000,663016680,1,-0.3984523415565491,-0.001646338845603168,-0.0004036657337564975,0.9171874523162842
663.03662700,663036627,1,-0.39843082427978516,-0.0016476201126351953,-0.00039740928332321346,0.9171968102455139
663.05663400,663056634,1,-0.3984138071537018,-0.0016578652430325747,-0.00038831145502626896,0.9172042012214661
663.09663700,663096637,1,-0.3983956575393677,-0.001656669657677412,-0.0003915584529750049,0.9172120690345764
663.13662900,663136629,1,-0.39840179681777954,-0.0016749098431318998,-0.0003675173211377114,0.9172093868255615
663.17667300,663176673,1,-0.39836785197257996,-0.0016730371862649918,-0.0003625087847467512,0.9172241687774658
663.21667200,663216672,1,-0.39833196997642517,-0.0016848526429384947,-0.0003667168493848294,0.9172397255897522
663.23662600,663236626,1,-0.3983302116394043,-0.001675575622357428,-0.0003608896804507822,0.9172405004501343
663.25670100,663256701,1,-0.3983221650123596,-0.0016620578244328499,-0.00036256673047319055,0.917244017124176
663.29664100,663296641,1,-0.39829203486442566,-0.001638878951780498,-0.0003573999274522066,0.9172571301460266
663.33664200,663336642,1,-0.39827635884284973,-0.0016307547921314836,-0.0003549977554939687,0.917263925075531
663.37662800,663376628,1,-0.39827197790145874,-0.0016135170590132475,-0.0003453200333751738,0.9172658920288086
663.41667200,663416672,1,-0.39828014373779297,-0.0015985287027433515,-0.00033038787660188973,0.9172623753547668
663.43663900,663436639,1,-0.39828577637672424,-0.0016019047470763326,-0.0003163680376019329,0.917259931564331
663.45665700,663456657,1,-0.39827433228492737,-0.001590705825947225,-0.0003267182328272611,0.9172648787498474
663.49667700,663496677,1,-0.39828503131866455,-0.001566540915518999,-0.00030357998912222683,0.9172602891921997
663.53663600,663536636,1,-0.39827924966812134,-0.0015892720548436046,-0.0002915880468208343,0.9172627925872803
663.57662500,663576625,1,-0.39825427532196045,-0.0015873401425778866,-0.00027979284641332924,0.9172736406326294
663.61664900,663616649,1,-0.3982684016227722,-0.0015980289317667484,-0.00027365866117179394,0.9172675013542175
663.63664400,663636644,1,-0.3982793092727661,-0.0015832075150683522,-0.0002581929147709161,0.9172627925872803
663.65666700,663656667,1,-0.3982882797718048,-0.0015930341323837638,-0.0002544268500059843,0.9172588586807251
663.69667300,663696673,1,-0.39830148220062256,-0.0015810503391548991,-0.0002551082579884678,0.9172531366348267
663.73664300,663736643,1,-0.3983381986618042,-0.001582704484462738,-0.00024447147734463215,0.9172372221946716
663.77666700,663776667,1,-0.39835917949676514,-0.0015475251711905003,-0.00022397618158720434,0.9172281622886658
663.81662700,663816627,1,-0.39837899804115295,-0.0015475812833756208,-0.00023375435557682067,0.9172195792198181
663.83667800,663836678,1,-0.39838266372680664,-0.0015492354286834598,-0.00023102252453099936,0.9172179698944092
663.85666500,663856665,1,-0.3983946740627289,-0.001550038461573422,-0.0002262355701532215,0.9172127842903137
663.89666700,663896667,1,-0.39840370416641235,-0.001532127265818417,-0.00021756569913122803,0.9172088503837585
663.93667800,663936678,1,-0.39842095971107483,-0.0015261922962963581,-0.0002094575174851343,0.9172013998031616
663.97663000,663976630,1,-0.39845940470695496,-0.001537078875117004,-0.0002059317339444533,0.9171846508979797
664.01662300,664016623,1,-0.3985123634338379,-0.001551837776787579,-0.00022406190691981465,0.9171616435050964
664.03666700,664036667,1,-0.3985179662704468,-0.0015544071793556213,-0.00022782465384807438,0.9171591997146606
664.05662600,664056626,1,-0.3985244333744049,-0.001564746373333037,-0.00022355194960255176,0.9171563386917114
664.09666600,664096666,1,-0.39854875206947327,-0.0015680348733440042,-0.00021569909586105496,0.9171457886695862
664.13665100,664136651,1,-0.3985862731933594,-0.0015402390854433179,-0.00022073346190154552,0.9171295166015625
664.17667500,664176675,1,-0.39862507581710815,-0.0015327066648751497,-0.00020693959959317,0.9171126484870911
664.21664000,664216640,1,-0.39865589141845703,-0.001512454473413527,-0.00020151349599473178,0.9170992970466614
664.23667400,664236674,1,-0.3986782729625702,-0.0015104899648576975,-0.00019101507496088743,0.917089581489563
664.25663700,664256637,1,-0.39869600534439087,-0.0015103929908946157,-0.00018423277651891112,0.917081892490387
664.29663600,664296636,1,-0.39873287081718445,-0.0015039315912872553,-0.00016368717479053885,0.9170658588409424
664.33666400,664336664,1,-0.39878755807876587,-0.0014755731681361794,-0.0001486064138589427,0.9170421361923218
664.37664200,664376642,1,-0.3988119661808014,-0.0014850894222036004,-0.00015275375335477293,0.9170315265655518
664.41666900,664416669,1,-0.39884981513023376,-0.0015028298366814852,-0.00014768540859222412,0.917015016078949
664.43668200,664436682,1,-0.39885830879211426,-0.0014990557683631778,-0.00013386014325078577,0.9170113205909729
664.45663500,664456635,1,-0.3988639712333679,-0.001502990024164319,-0.00012796132068615407,0.9170088768005371
664.49662700,664496627,1,-0.39886733889579773,-0.0015124187339097261,-0.00011036871001124382,0.9170073866844177
664.53662400,664536624,1,-0.398894339799881,-0.001493228250183165,-0.00011551982606761158,0.916995644569397
664.57666400,664576664,1,-0.39891517162323,-0.0014919579261913896,-0.00010641635162755847,0.9169865846633911
664.61662000,664616620,1,-0.398931086063385,-0.0014970469055697322,-0.00010046736133517697,0.9169796705245972
664.63662600,664636626,1,-0.3989303708076477,-0.0014921261463314295,-9.975887223845348e-05,0.9169800281524658
664.65663900,664656639,1,-0.3989291489124298,-0.0014931620098650455,-0.00010571411257842556,0.916980504989624
664.69663300,664696633,1,-0.39893627166748047,-0.0014782862272113562,-9.357865928905085e-05,0.9169774651527405
664.73662400,664736624,1,-0.3989291787147522,-0.0014661271125078201,-9.525111818220466e-05,0.9169805645942688
664.77667400,664776674,1,-0.3989270031452179,-0.0014514033682644367,-8.284983050543815e-05,0.9169815182685852
664.81666800,664816668,1,-0.3988996744155884,-0.0014582640724256635,-8.57858540257439e-05,0.9169934391975403
664.83663100,664836631,1,-0.3989047408103943,-0.0014476004289463162,-7.201927655842155e-05,0.9169912338256836
664.85666600,664856666,1,-0.39890342950820923,-0.0014328508405014873,-5.718411193811335e-05,0.9169918298721313
664.89663600,664896636,1,-0.3989090919494629,-0.0014242904726415873,-8.907142910175025e-05,0.9169893860816956
664.93662600,664936626,1,-0.3988971710205078,-0.001419922336935997,-9.616216993890703e-05,0.916994571685791
664.97663800,664976638,1,-0.3988979458808899,-0.0014296426670625806,-6.823922012699768e-05,0.9169942140579224
665.01666700,665016667,1,-0.39887097477912903,-0.0014194739051163197,-6.551427213707939e-05,0.9170059561729431
665.03662600,665036626,1,-0.3988686800003052,-0.0014137716498225927,-5.6427405070280656e-05,0.9170069694519043
665.05665600,665056656,1,-0.3988673985004425,-0.0014042642433196306,-5.216649515205063e-05,0.917007565498352
665.09665800,665096658,1,-0.3988579213619232,-0.001396890147589147,-4.6990135160740465e-05,0.9170116782188416
665.13664000,665136640,1,-0.3988550007343292,-0.0013797625433653593,-3.113825368927792e-05,0.9170129895210266
665.17663800,665176638,1,-0.39886072278022766,-0.0013666293816640973,-3.570712578948587e-05,0.917010486125946
665.21662400,665216624,1,-0.39886102080345154,-0.0013743913732469082,-3.9423335692845285e-05,0.9170103669166565
665.23663800,665236638,1,-0.39883846044540405,-0.0013707837788388133,-5.371070801629685e-05,0.9170202016830444
665.25667600,665256676,1,-0.39881792664527893,-0.0013579890364781022,-4.9805399612523615e-05,0.9170291423797607
665.29666900,665296669,1,-0.3987811505794525,-0.0013489006087183952,-3.22990381391719e-05,0.9170451164245605
665.33667100,665336671,1,-0.3987455666065216,-0.0013671718770638108,-3.2325948268407956e-05,0.9170605540275574
665.37664200,665376642,1,-0.3987213671207428,-0.0013634320348501205,-3.2793672289699316e-05,0.9170711040496826
665.41662600,665416626,1,-0.3986896872520447,-0.0013604210689663887,-4.115785122849047e-05,0.9170848727226257
665.43667600,665436676,1,-0.3986872732639313,-0.0013619111850857735,-4.93904335598927e-05,0.9170859456062317
665.45662100,665456621,1,-0.39867284893989563,-0.001354337204247713,-4.2258488974766806e-05,0.9170922040939331
665.49667400,665496674,1,-0.3986513912677765,-0.001344395219348371,-4.3964981159660965e-05,0.9171015620231628
665.53667100,665536671,1,-0.39861366152763367,-0.0013621432008221745,-6.081408355385065e-05,0.9171179533004761
665.57666300,665576663,1,-0.39857378602027893,-0.0013585954438894987,-5.9535232139751315e-05,0.9171352386474609
665.61662500,665616625,1,-0.39853575825691223,-0.0013414910063147545,-5.9132944443263113e-05,0.9171518087387085
665.63664500,665636645,1,-0.3985241949558258,-0.0013504483504220843,-8.036223152885213e-05,0.9171568155288696
665.65662700,665656627,1,-0.39851078391075134,-0.0013471369165927172,-7.469279080396518e-05,0.9171626567840576
665.69666900,665696669,1,-0.398468017578125,-0.001348766265437007,-8.808263373794034e-05,0.9171812534332275
665.73665700,665736657,1,-0.39846861362457275,-0.0013393452391028404,-0.00011470719618955627,0.9171810150146484
665.77667200,665776672,1,-0.39845675230026245,-0.0013500539353117347,-0.00013493259029928595,0.9171861410140991
665.81663900,665816639,1,-0.3984748423099518,-0.001352035440504551,-0.00013460677291732281,0.9171782732009888
665.83667200,665836672,1,-0.39848434925079346,-0.0013541958760470152,-0.00013542301894631237,0.9171741008758545
665.85662700,665856627,1,-0.3984708786010742,-0.0013552854070439935,-0.00013554673932958394,0.9171800017356873
665.89663400,665896634,1,-0.39846962690353394,-0.0013379082083702087,-0.00014623992319684476,0.9171805381774902
665.93666100,665936661,1,-0.39847928285598755,-0.0013414198765531182,-0.0001410598197253421,0.917176365852356
665.97667400,665976674,1,-0.39850756525993347,-0.00134428427554667,-0.0001340114395134151,0.9171640276908875
666.01667200,666016672,1,-0.3984805941581726,-0.0013235057704150677,-0.00014317229215521365,0.9171757698059082
666.03666500,666036665,1,-0.39848217368125916,-0.0013167498400434852,-0.00012575474102050066,0.9171751141548157
666.05662700,666056627,1,-0.39848044514656067,-0.0013224302092567086,-0.0001113054677261971,0.9171758890151978
666.09663100,666096631,1,-0.398480087518692,-0.0013322117738425732,-0.00011430229642428458,0.9171760082244873
666.13662500,666136625,1,-0.39844241738319397,-0.0013422523625195026,-0.00011875753989443183,0.9171923398971558
666.17667000,666176670,1,-0.3984474837779999,-0.0013284501619637012,-0.0001151643882622011,0.9171901941299438
666.21664800,666216648,1,-0.39842599630355835,-0.00132052693516016,-0.00010999887308571488,0.9171994924545288
666.23663700,666236637,1,-0.39839762449264526,-0.0013213712954893708,-0.00011586329492274672,0.9172118306159973
666.25665600,666256656,1,-0.3983854055404663,-0.0013146926648914814,-9.751820471137762e-05,0.9172171354293823
666.29664100,666296641,1,-0.39834368228912354,-0.0013059315970167518,-8.37413826957345e-05,0.9172353148460388
666.33662400,666336624,1,-0.39827844500541687,-0.0012985991779714823,-9.821845014812425e-05,0.9172636270523071
666.37667500,666376675,1,-0.3982449769973755,-0.001303632976487279,-0.00011220003943890333,0.9172781705856323
666.41666500,666416665,1,-0.3982076346874237,-0.0013032204005867243,-0.0001234100345754996,0.9172943830490112
666.43662700,666436627,1,-0.3981769382953644,-0.0012948723742738366,-0.00013276211393531412,0.9173076748847961
666.45667100,666456671,1,-0.3981752097606659,-0.00128721515648067,-0.00012979505117982626,0.9173084497451782
666.49665600,666496656,1,-0.3981126546859741,-0.0012832446955144405,-0.00013166798453312367,0.9173356294631958
666.53663900,666536639,1,-0.3980679214000702,-0.001276861410588026,-0.0001390017569065094,0.9173550605773926
666.57662600,666576626,1,-0.39801356196403503,-0.0012988022062927485,-0.00014327577082440257,0.9173786044120789
666.61667600,666616676,1,-0.3979700207710266,-0.0013003787025809288,-0.00014861402451060712,0.9173974990844727
666.63662700,666636627,1,-0.3979710638523102,-0.0013116365298628807,-0.00013181443500798196,0.9173970222473145
666.65667500,666656675,1,-0.3979800343513489,-0.0013282374711707234,-0.00014224241022020578,0.9173930883407593
666.69667800,666696678,1,-0.3979491591453552,-0.001321629504673183,-0.00012375411461107433,0.9174064993858337
666.73663500,666736635,1,-0.39791595935821533,-0.0013233746867626905,-0.00011870387970702723,0.9174209237098694
666.77662900,666776629,1,-0.3978825807571411,-0.0013376254355534911,-0.00012531253742054105,0.917435348033905
666.81663100,666816631,1,-0.39785096049308777,-0.001342359115369618,-0.00011655762500595301,0.9174490571022034
666.83664000,666836640,1,-0.39782431721687317,-0.0013408464146777987,-0.00011077684757765383,0.9174606204032898
666.85667200,666856672,1,-0.3978114426136017,-0.0013467306271195412,-0.00010905417730100453,0.9174662232398987
666.89665300,666896653,1,-0.39781513810157776,-0.0013491924619302154,-0.00010788117651827633,0.9174646139144897
666.93668600,666936686,1,-0.3977862000465393,-0.001348325633443892,-0.00011310172703815624,0.9174771308898926
666.97663000,666976630,1,-0.39776599407196045,-0.00134846952278167,-8.914453064789996e-05,0.9174858927726746
667.01663600,667016636,1,-0.3977462351322174,-0.001342444447800517,-9.841235441854224e-05,0.9174944758415222
667.03667900,667036679,1,-0.39772090315818787,-0.001356087508611381,-9.95818991214037e-05,0.9175054430961609
667.05662700,667056627,1,-0.39771509170532227,-0.001363234012387693,-0.00010530881263548508,0.9175079464912415
