timestamp,TimeUS,C,Roll,Pitch,Yaw,VN,VE,VD,dPD,PN,PE,PD,GX,GY,GZ,OH
648.97666500,648976665,1,0.05,0.19,225.47,0.025974780321121216,0.008089395239949226,-0.06521179527044296,-4.201019287109375,0.0,0.0,0.5549299716949463,0.52,-0.11,-0.14,0.0
649.01667700,649016677,1,0.05,0.19,225.58,0.026082312688231468,0.00793034490197897,-0.06489920616149902,-3.0766327381134033,0.0,0.0,0.4403713643550873,0.52,-0.11,-0.14,0.0
649.03662800,649036628,1,0.05,0.2,225.63,0.026273485273122787,0.007953638210892677,-0.06513375788927078,-2.7199811935424805,0.0,0.0,0.3731975555419922,0.52,-0.11,-0.14,0.0
649.05667100,649056671,1,0.05,0.2,225.67000000000002,0.026344384998083115,0.007932761684060097,-0.06502077728509903,-2.433105230331421,0.0,0.0,0.34130793809890747,0.52,-0.11,-0.14,0.0
649.09662900,649096629,1,0.04,0.19,225.77,0.02630568854510784,0.008316501043736935,-0.06471604108810425,-1.9799805879592896,0.0,0.0,0.23063218593597412,0.52,-0.11,-0.14,0.0
649.13663200,649136632,1,0.05,0.19,225.86,0.026434335857629776,0.008630369789898396,-0.06504949182271957,-1.6272928714752197,0.0,0.0,0.1600828468799591,0.52,-0.11,-0.14,0.0
649.17668800,649176688,1,0.05,0.19,225.94,0.027115486562252045,0.00851836521178484,-0.06489202380180359,-1.314387321472168,0.0,0.0,0.09894466400146484,0.53,-0.11,-0.14,0.0
649.21667700,649216677,1,0.05,0.2,226.04,0.027308864519000053,0.008764154277741909,-0.06490080058574677,-1.0433213710784912,0.0,0.0,0.04580436274409294,0.53,-0.11,-0.14,0.0
649.23663000,649236630,1,0.05,0.2,226.08,0.027338765561580658,0.00878441333770752,-0.06512218713760376,-0.923237681388855,0.0,0.0,0.014939426444470882,0.53,-0.11,-0.14,0.0
649.25667200,649256672,1,0.05,0.2,226.12,0.027386071160435677,0.009083200246095657,-0.06520695984363556,-0.8151340484619141,0.0,0.0,-6.058751023374498e-05,0.53,-0.11,-0.14,0.0
649.29663600,649296636,1,0.05,0.2,226.19,0.02810353972017765,0.009088347665965557,-0.06547950953245163,-0.6308690905570984,0.0,0.0,-0.05097048357129097,0.53,-0.11,-0.14,0.0
649.33662700,649336627,1,0.05,0.2,226.23000000000002,0.028055289760231972,0.009583616629242897,-0.06579084694385529,-0.4955195188522339,0.0,0.0,-0.08368480950593948,0.53,-0.11,-0.14,0.0
649.37666100,649376661,1,0.05,0.2,226.27,0.028405938297510147,0.009300111792981625,-0.06629358977079391,-0.38694316148757935,0.0,0.0,-0.11208032071590424,0.53,-0.11,-0.14,0.0
649.41666700,649416667,1,0.05,0.2,226.28,0.0289926640689373,0.009614103473722935,-0.06656714528799057,-0.30108892917633057,0.0,0.0,-0.1369585543870926,0.53,-0.11,-0.14,0.0
649.43663400,649436634,1,0.05,0.2,226.28,0.029129067435860634,0.009621398523449898,-0.06683624535799026,-0.26687681674957275,0.0,0.0,-0.15112818777561188,0.53,-0.11,-0.14,0.0
649.45666800,649456668,1,0.05,0.2,226.28,0.02929241955280304,0.009570268914103508,-0.0669378787279129,-0.23586250841617584,0.0,0.0,-0.15836212038993835,0.53,-0.11,-0.14,0.0
649.49666400,649496664,1,0.05,0.2,226.28,0.029732372611761093,0.010238434188067913,-0.06718119978904724,-0.18187227845191956,0.0,0.0,-0.18161392211914062,0.53,-0.11,-0.14,0.0
649.53663800,649536638,1,0.05,0.2,226.28,0.030227890238165855,0.010736607015132904,-0.06746829301118851,-0.14412379264831543,0.0,0.0,-0.1967969834804535,0.53,-0.11,-0.14,0.0
649.57663800,649576638,1,0.05,0.21,226.29,0.03053467907011509,0.01095203123986721,-0.06762070953845978,-0.11311205476522446,0.0,0.0,-0.2100003957748413,0.53,-0.11,-0.14,0.0
649.61663800,649616638,1,0.06,0.21,226.28,0.031081730499863625,0.010999491438269615,-0.06767665594816208,-0.09037431329488754,0.0,0.0,-0.22162818908691406,0.53,-0.11,-0.14,0.0
649.63665900,649636659,1,0.06,0.21,226.28,0.03129720687866211,0.010824189521372318,-0.0678173378109932,-0.0813150703907013,0.0,0.0,-0.2280091643333435,0.53,-0.11,-0.14,0.0
649.65667300,649656673,1,0.06,0.21,226.28,0.03156954422593117,0.010873700492084026,-0.06780178099870682,-0.0730840340256691,0.0,0.0,-0.2315831333398819,0.53,-0.11,-0.14,0.0
649.69664300,649696643,1,0.06,0.21,226.27,0.031656477600336075,0.011200149543583393,-0.0685075893998146,-0.05749710649251938,0.0,0.0,-0.24165809154510498,0.53,-0.11,-0.14,0.0
649.73667800,649736678,1,0.06,0.2,226.28,0.032020583748817444,0.011168652214109898,-0.0686827227473259,-0.04389139637351036,0.0,0.0,-0.24845439195632935,0.53,-0.11,-0.14,0.0
649.77664000,649776640,1,0.06,0.2,226.28,0.03233097866177559,0.011362383142113686,-0.06885133683681488,-0.03171127289533615,0.0,0.0,-0.2542785108089447,0.53,-0.11,-0.14,0.0
649.81662800,649816628,1,0.06,0.2,226.29,0.032771386206150055,0.011675666086375713,-0.06891706585884094,-0.022049332037568092,0.0,0.0,-0.25931841135025024,0.53,-0.11,-0.14,0.0
649.83666900,649836669,1,0.06,0.2,226.29,0.032766904681921005,0.011733046732842922,-0.06912776082754135,-0.018333734944462776,0.0,0.0,-0.26174235343933105,0.53,-0.11,-0.14,0.0
649.85661800,649856618,1,0.06,0.2,226.29,0.03312485292553902,0.011760246939957142,-0.0692446157336235,-0.014953752048313618,0.0,0.0,-0.2635428309440613,0.53,-0.11,-0.14,0.0
649.89667500,649896675,1,0.06,0.21,226.29,0.033814601600170135,0.011927698738873005,-0.06946049630641937,-0.011692113243043423,0.0,0.0,-0.26792362332344055,0.53,-0.11,-0.14,0.0
649.93667200,649936672,1,0.06,0.21,226.28,0.03413829579949379,0.012349201366305351,-0.06977356970310211,-0.013328596018254757,0.0,0.0,-0.27136051654815674,0.53,-0.11,-0.14,0.0
649.97667300,649976673,1,0.05,0.21,226.27,0.03466128557920456,0.01263568177819252,-0.07025068998336792,-0.014407366514205933,0.0,0.0,-0.2744550406932831,0.53,-0.11,-0.14,0.0
650.01662900,650016629,1,0.05,0.21,226.26,0.03526799753308296,0.012572163715958595,-0.07048037648200989,-0.016654938459396362,0.0,0.0,-0.27734869718551636,0.53,-0.11,-0.14,0.0
650.03665600,650036656,1,0.05,0.21,226.25,0.03560429811477661,0.012704233638942242,-0.07053175568580627,-0.017370985820889473,0.0,0.0,-0.2785226106643677,0.53,-0.11,-0.14,0.0
650.05663900,650056639,1,0.06,0.21,226.24,0.03578606992959976,0.012811671011149883,-0.07066871225833893,-0.017714541405439377,0.0,0.0,-0.27976393699645996,0.53,-0.11,-0.14,0.0
650.09667700,650096677,1,0.06,0.21,226.23000000000002,0.03605756536126137,0.013024507090449333,-0.07091144472360611,-0.017253080382943153,0.0,0.0,-0.28161731362342834,0.53,-0.11,-0.14,0.0
650.13665700,650136657,1,0.06,0.21,226.22,0.03605959564447403,0.01357203722000122,-0.07110331952571869,-0.015513896942138672,0.0,0.0,-0.28345632553100586,0.53,-0.11,-0.14,0.0
650.17666100,650176661,1,0.06,0.21,226.21,0.03644377738237381,0.014157721772789955,-0.07103031128644943,-0.01253522839397192,0.0,0.0,-0.28487730026245117,0.53,-0.11,-0.14,0.0
650.21665500,650216655,1,0.06,0.21,226.20000000000002,0.03680472820997238,0.014228107407689095,-0.07126019150018692,-0.008498894982039928,0.0,0.0,-0.286062628030777,0.53,-0.11,-0.14,0.0
650.23668500,650236685,1,0.06,0.21,226.20000000000002,0.036763958632946014,0.014184619300067425,-0.07109583914279938,-0.006387361325323582,0.0,0.0,-0.2862336337566376,0.53,-0.11,-0.14,0.0
650.25662800,650256628,1,0.06,0.21,226.19,0.03683498874306679,0.014175226911902428,-0.07107533514499664,-0.004317677579820156,0.0,0.0,-0.2870479226112366,0.53,-0.11,-0.14,0.0
650.29663100,650296631,1,0.06,0.22,226.19,0.037706408649683,0.014230165630578995,-0.07153117656707764,-0.0016835543792694807,0.0,0.0,-0.2871497869491577,0.53,-0.11,-0.14,0.0
650.33667300,650336673,1,0.06,0.21,226.19,0.038125887513160706,0.0147987250238657,-0.07146918028593063,0.001370829762890935,0.0,0.0,-0.2878172695636749,0.53,-0.11,-0.14,0.0
650.37664800,650376648,1,0.06,0.22,226.19,0.038382139056921005,0.015098020434379578,-0.0716775581240654,0.0034004426561295986,0.0,0.0,-0.2882959246635437,0.53,-0.11,-0.14,0.0
650.41667100,650416671,1,0.06,0.22,226.18,0.03883722797036171,0.015580171719193459,-0.0714968666434288,0.006892959587275982,0.0,0.0,-0.28856557607650757,0.53,-0.11,-0.14,0.0
650.43668200,650436682,1,0.06,0.22,226.17000000000002,0.039240092039108276,0.015687748789787292,-0.07142022997140884,0.008313262835144997,0.0,0.0,-0.28820398449897766,0.53,-0.11,-0.14,0.0
650.45663700,650456637,1,0.06,0.22,226.17000000000002,0.039552416652441025,0.01617644540965557,-0.07124297320842743,0.009616078808903694,0.0,0.0,-0.28877827525138855,0.53,-0.11,-0.14,0.0
650.49664000,650496640,1,0.06,0.22,226.17000000000002,0.0402483306825161,0.016441425308585167,-0.07114165276288986,0.011052744463086128,0.0,0.0,-0.28789159655570984,0.53,-0.11,-0.14,0.0
650.53663000,650536630,1,0.06,0.22,226.18,0.04061617702245712,0.016750004142522812,-0.07105419784784317,0.013128966093063354,0.0,0.0,-0.2879057228565216,0.53,-0.11,-0.14,0.0
650.57666800,650576668,1,0.06,0.22,226.18,0.04123174399137497,0.01678248681128025,-0.07047949731349945,0.013900909572839737,0.0,0.0,-0.2880895435810089,0.53,-0.11,-0.14,0.0
650.61667600,650616676,1,0.06,0.22,226.19,0.04182051494717598,0.016959430649876595,-0.07012615352869034,0.009343164041638374,0.0,0.0,-0.28858330845832825,0.53,-0.11,-0.14,0.0
650.63664700,650636647,1,0.06,0.22,226.19,0.04197278246283531,0.016980212181806564,-0.07003936171531677,0.006311314180493355,0.0,0.0,-0.2883743643760681,0.53,-0.11,-0.14,0.0
650.65667200,650656672,1,0.06,0.22,226.19,0.041987381875514984,0.017424343153834343,-0.07006892561912537,0.0035112120676785707,0.0,0.0,-0.28901207447052,0.53,-0.11,-0.14,0.0
650.69663600,650696636,1,0.06,0.22,226.20000000000002,0.04230140894651413,0.017604954540729523,-0.07020358741283417,0.00030556952697224915,0.0,0.0,-0.2882625162601471,0.53,-0.11,-0.14,0.0
650.73663200,650736632,1,0.06,0.22,226.21,0.042441125959157944,0.017818951979279518,-0.07011662423610687,0.0015636603347957134,0.0,0.0,-0.2883460819721222,0.53,-0.11,-0.14,0.0
650.77663500,650776635,1,0.06,0.22,226.22,0.042925700545310974,0.018376164138317108,-0.06990066915750504,0.002868673764169216,0.0,0.0,-0.28845542669296265,0.53,-0.11,-0.14,0.0
650.81667100,650816671,1,0.06,0.22,226.24,0.04353426396846771,0.018203573301434517,-0.06975319236516953,0.0033637667074799538,0.0,0.0,-0.28857162594795227,0.53,-0.11,-0.14,0.0
650.83664500,650836645,1,0.06,0.22,226.25,0.04373669996857643,0.01829642988741398,-0.06971117109060287,0.003179355524480343,0.0,0.0,-0.2882390320301056,0.53,-0.11,-0.14,0.0
650.85668100,650856681,1,0.06,0.22,226.26,0.0436481274664402,0.01851445995271206,-0.06965739279985428,0.0028381883166730404,0.0,0.0,-0.2887325882911682,0.53,-0.11,-0.14,0.0
650.89666700,650896667,1,0.06,0.22,226.27,0.044522836804389954,0.01889818347990513,-0.06970386207103729,-0.0019617853686213493,0.0,0.0,-0.28890109062194824,0.53,-0.11,-0.14,0.0
650.93663700,650936637,1,0.06,0.22,226.29,0.04524456709623337,0.019456595182418823,-0.06979243457317352,-0.01027608197182417,0.0,0.0,-0.2897828221321106,0.53,-0.11,-0.14,0.0
650.97663000,650976630,1,0.06,0.22,226.29,0.045956600457429886,0.019439633935689926,-0.06966403871774673,-0.016517795622348785,0.0,0.0,-0.29047662019729614,0.53,-0.11,-0.14,0.0
651.01669100,651016691,1,0.06,0.22,226.3,0.0460876002907753,0.019644208252429962,-0.06939926743507385,-0.015278097242116928,0.0,0.0,-0.2907859981060028,0.53,-0.11,-0.14,0.0
651.03664100,651036641,1,0.06,0.22,226.31,0.046250518411397934,0.01978946104645729,-0.06931815296411514,-0.013581069186329842,0.0,0.0,-0.2905842363834381,0.53,-0.11,-0.14,0.0
651.05665800,651056658,1,0.06,0.22,226.31,0.046384263783693314,0.019800301641225815,-0.06950240582227707,-0.012183750979602337,0.0,0.0,-0.29117223620414734,0.53,-0.11,-0.14,0.0
651.09667700,651096677,1,0.05,0.22,226.31,0.04673459380865097,0.020346082746982574,-0.06911999732255936,-0.007910274900496006,0.0,0.0,-0.2904110848903656,0.53,-0.11,-0.14,0.0
651.13665500,651136655,1,0.06,0.22,226.33,0.04735869914293289,0.020686132833361626,-0.06862933188676834,-0.0016348408535122871,0.0,0.0,-0.29054510593414307,0.53,-0.11,-0.14,0.0
651.17664100,651176641,1,0.06,0.22,226.34,0.04758920520544052,0.0207766555249691,-0.0687452107667923,0.0009485182235948741,0.0,0.0,-0.29077020287513733,0.53,-0.11,-0.14,0.0
651.21663900,651216639,1,0.06,0.22,226.35,0.048217784613370895,0.021185455843806267,-0.0688323974609375,-6.66552223265171e-05,0.0,0.0,-0.2911510467529297,0.53,-0.11,-0.14,0.0
651.23667200,651236672,1,0.06,0.22,226.36,0.04854033887386322,0.02112186886370182,-0.06877502053976059,-0.0012554374989122152,0.0,0.0,-0.2909848093986511,0.53,-0.11,-0.14,0.0
651.25667600,651256676,1,0.06,0.22,226.36,0.048866692930459976,0.021062111482024193,-0.06963247805833817,-0.0034146131947636604,0.0,0.0,-0.2916009724140167,0.53,-0.11,-0.14,0.0
651.29667100,651296671,1,0.06,0.22,226.38,0.049241796135902405,0.021265579387545586,-0.06936641782522202,-0.005288250278681517,0.0,0.0,-0.2911200523376465,0.53,-0.11,-0.14,0.0
651.33667400,651336674,1,0.06,0.22,226.39000000000001,0.0491294227540493,0.02120695449411869,-0.06851178407669067,-0.004132214933633804,0.0,0.0,-0.29146796464920044,0.53,-0.11,-0.14,0.0
651.37664400,651376644,1,0.06,0.22,226.4,0.0491788350045681,0.02117578685283661,-0.06856291741132736,-0.005185744725167751,0.0,0.0,-0.29210716485977173,0.53,-0.11,-0.14,0.0
651.41663500,651416635,1,0.06,0.21,226.42000000000002,0.04966649413108826,0.021134596318006516,-0.06892521679401398,-0.01184680126607418,0.0,0.0,-0.293146014213562,0.53,-0.11,-0.14,0.0
651.43667900,651436679,1,0.06,0.22,226.43,0.0495433583855629,0.021893274039030075,-0.06917114555835724,-0.015859821811318398,0.0,0.0,-0.29338690638542175,0.53,-0.11,-0.14,0.0
651.45662800,651456628,1,0.06,0.22,226.43,0.049424536526203156,0.021645303815603256,-0.06905530393123627,-0.01905038021504879,0.0,0.0,-0.2941960096359253,0.53,-0.11,-0.14,0.0
651.49666000,651496660,1,0.06,0.22,226.45000000000002,0.05035614222288132,0.02160143107175827,-0.06961531192064285,-0.024912232533097267,0.0,0.0,-0.29469671845436096,0.53,-0.11,-0.14,0.0
651.53666500,651536665,1,0.06,0.22,226.45000000000002,0.05069534480571747,0.022515779361128807,-0.07017888128757477,-0.02819652482867241,0.0,0.0,-0.2957776188850403,0.53,-0.11,-0.14,0.0
651.57666100,651576661,1,0.06,0.22,226.46,0.05095551535487175,0.022454634308815002,-0.07104707509279251,-0.029894283041357994,0.0,0.0,-0.29668861627578735,0.53,-0.11,-0.14,0.0
651.61664300,651616643,1,0.06,0.22,226.47,0.049159936606884,0.021350184455513954,-0.06909167766571045,-0.023035047575831413,0.0,0.0,-0.2972164750099182,0.53,-0.11,-0.14,0.0
651.63665500,651636655,1,0.06,0.22,226.47,0.050579119473695755,0.02153060957789421,-0.06892873346805573,-0.020279129967093468,0.0,0.0,-0.29714417457580566,0.53,-0.11,-0.14,0.0
651.65664000,651656640,1,0.06,0.22,226.47,0.052073169499635696,0.023133641108870506,-0.06906076520681381,-0.017765065655112267,0.0,0.0,-0.2978093922138214,0.53,-0.11,-0.14,0.0
651.69664400,651696644,1,0.06,0.22,226.47,0.051192622631788254,0.02200801856815815,-0.06861111521720886,-0.014271635562181473,0.0,0.0,-0.2977508306503296,0.53,-0.11,-0.14,0.0
651.73667900,651736679,1,0.06,0.22,226.46,0.05237135663628578,0.02295800670981407,-0.0683271586894989,-0.012494755908846855,0.0,0.0,-0.2984582483768463,0.53,-0.11,-0.14,0.0
651.77667600,651776676,1,0.06,0.22,226.45000000000002,0.053992580622434616,0.023870687931776047,-0.06809274107217789,-0.012312829494476318,0.0,0.0,-0.29910680651664734,0.53,-0.11,-0.14,0.0
651.81666900,651816669,1,0.06,0.22,226.43,0.05322444811463356,0.023294858634471893,-0.06821957230567932,-0.011299729347229004,0.0,0.0,-0.29969969391822815,0.53,-0.11,-0.14,0.0
651.83668800,651836688,1,0.06,0.22,226.41,0.054526589810848236,0.024103879928588867,-0.06781253963708878,-0.010774879716336727,0.0,0.0,-0.29961955547332764,0.53,-0.11,-0.14,0.0
651.85663300,651856633,1,0.06,0.22,226.4,0.05495719611644745,0.024255480617284775,-0.06806284189224243,-0.010733960196375847,0.0,0.0,-0.3002850413322449,0.53,-0.11,-0.14,0.0
651.89663200,651896632,1,0.06,0.22,226.37,0.05483263358473778,0.024722598493099213,-0.06789133697748184,-0.009265324100852013,0.0,0.0,-0.299731969833374,0.53,-0.11,-0.14,0.0
651.93665400,651936654,1,0.06,0.22,226.33,0.05502260476350784,0.024159539490938187,-0.06722212582826614,-0.003911678213626146,0.0,0.0,-0.3000158667564392,0.53,-0.11,-0.14,0.0
651.97667100,651976671,1,0.06,0.22,226.3,0.05629813298583031,0.02576662227511406,-0.06688462942838669,-0.001785296481102705,0.0,0.0,-0.3004467785358429,0.53,-0.11,-0.14,0.0
652.01667000,652016670,1,0.06,0.22,226.25,0.05563880875706673,0.025820018723607063,-0.06709150224924088,-0.004448342137038708,0.0,0.0,-0.30112671852111816,0.53,-0.11,-0.14,0.0
652.03661800,652036618,1,0.06,0.22,226.22,0.056471940129995346,0.02679656818509102,-0.06724966317415237,-0.006842467468231916,0.0,0.0,-0.30113768577575684,0.53,-0.11,-0.14,0.0
652.05663100,652056631,1,0.06,0.22,226.20000000000002,0.05606476962566376,0.025592703372240067,-0.0670250728726387,-0.00882403552532196,0.0,0.0,-0.3018699586391449,0.53,-0.11,-0.14,0.0
652.09664200,652096642,1,0.06,0.22,226.15,0.05641608312726021,0.02701745368540287,-0.06693017482757568,-0.011276365257799625,0.0,0.0,-0.3015797436237335,0.53,-0.11,-0.14,0.0
652.13663200,652136632,1,0.06,0.22,226.09,0.05625813081860542,0.02576485462486744,-0.06651241332292557,-0.00942016951739788,0.0,0.0,-0.3020375669002533,0.53,-0.11,-0.14,0.0
652.17668300,652176683,1,0.06,0.22,226.05,0.05689660832285881,0.027200302109122276,-0.06630099564790726,-0.008586261421442032,0.0,0.0,-0.30260226130485535,0.53,-0.11,-0.14,0.0
652.21665500,652216655,1,0.06,0.22,226.01,0.05663444846868515,0.026994183659553528,-0.06621656566858292,-0.010193095542490482,0.0,0.0,-0.30329346656799316,0.53,-0.11,-0.14,0.0
652.23663100,652236631,1,0.06,0.23,225.99,0.057012710720300674,0.028156695887446404,-0.06612515449523926,-0.011603035032749176,0.0,0.0,-0.3033621907234192,0.53,-0.11,-0.14,0.0
652.25667000,652256670,1,0.06,0.23,225.97,0.056500378996133804,0.027608506381511688,-0.06598944962024689,-0.013013537973165512,0.0,0.0,-0.30409982800483704,0.53,-0.11,-0.14,0.0
652.29663100,652296631,1,0.06,0.23,225.93,0.05742025375366211,0.028739189729094505,-0.06558220088481903,-0.011919454671442509,0.0,0.0,-0.30338922142982483,0.53,-0.11,-0.14,0.0
652.33663000,652336630,1,0.06,0.23,225.89000000000001,0.05688508227467537,0.027924301102757454,-0.06533454358577728,-0.004680035635828972,0.0,0.0,-0.3034602403640747,0.53,-0.11,-0.14,0.0
652.37663100,652376631,1,0.06,0.23,225.85,0.05800449475646019,0.029306693002581596,-0.06519680470228195,-0.0005263832863420248,0.0,0.0,-0.30375930666923523,0.53,-0.11,-0.14,0.0
652.41667400,652416674,1,0.07,0.23,225.82,0.05805701017379761,0.02913738787174225,-0.0645870491862297,-0.0015168299432843924,0.0,0.0,-0.30430805683135986,0.53,-0.11,-0.14,0.0
652.43664700,652436647,1,0.07,0.23,225.8,0.05837630480527878,0.029255634173750877,-0.0643877163529396,-0.0032871090807020664,0.0,0.0,-0.3043266534805298,0.53,-0.11,-0.14,0.0
652.45667900,652456679,1,0.07,0.23,225.79,0.05763424187898636,0.02926076389849186,-0.06394287943840027,-0.004938825964927673,0.0,0.0,-0.3049485683441162,0.53,-0.11,-0.14,0.0
652.49665900,652496659,1,0.07,0.23,225.77,0.058671921491622925,0.02983206696808338,-0.06367085129022598,-0.00645419443026185,0.0,0.0,-0.304312527179718,0.53,-0.11,-0.14,0.0
652.53663400,652536634,1,0.07,0.24,225.75,0.05797065794467926,0.030105220153927803,-0.06338422745466232,-0.0026199775747954845,0.0,0.0,-0.3044460117816925,0.53,-0.11,-0.14,0.0
652.57663100,652576631,1,0.07,0.24,225.73000000000002,0.058640629053115845,0.030100706964731216,-0.06357155740261078,-0.001106699462980032,0.0,0.0,-0.304603636264801,0.53,-0.11,-0.14,0.0
652.61665200,652616652,1,0.07,0.24,225.71,0.05954049900174141,0.03103145770728588,-0.06301452964544296,0.0017567527247592807,0.0,0.0,-0.30464959144592285,0.53,-0.11,-0.14,0.0
652.63664000,652636640,1,0.07,0.24,225.70000000000002,0.05964545160531998,0.03081570379436016,-0.0625743418931961,0.0026694252155721188,0.0,0.0,-0.30437806248664856,0.53,-0.11,-0.14,0.0
652.65668200,652656682,1,0.07,0.24,225.69,0.05935678631067276,0.031145518645644188,-0.06278743594884872,0.002302293200045824,0.0,0.0,-0.304855078458786,0.53,-0.11,-0.14,0.0
652.69668900,652696689,1,0.07,0.24,225.67000000000002,0.06048927828669548,0.031220830976963043,-0.062222715467214584,0.002546070609241724,0.0,0.0,-0.3040483295917511,0.53,-0.11,-0.14,0.0
652.73664000,652736640,1,0.07,0.24,225.65,0.061066124588251114,0.03176766633987427,-0.06197359785437584,0.004344665911048651,0.0,0.0,-0.30413034558296204,0.53,-0.11,-0.14,0.0
652.77664600,652776646,1,0.07,0.24,225.63,0.06088133901357651,0.031793780624866486,-0.06203731149435043,0.0030052633956074715,0.0,0.0,-0.30447739362716675,0.53,-0.11,-0.14,0.0
652.81663100,652816631,1,0.07,0.24,225.62,0.061798110604286194,0.03226326033473015,-0.06187057867646217,-0.0019479520851746202,0.0,0.0,-0.3050537109375,0.53,-0.11,-0.14,0.0
652.83666900,652836669,1,0.07,0.25,225.61,0.06111428514122963,0.03197892755270004,-0.061559248715639114,-0.004915808327496052,0.0,0.0,-0.3051339089870453,0.53,-0.11,-0.14,0.0
652.85667400,652856674,1,0.08,0.25,225.6,0.06119614839553833,0.0323503352701664,-0.06154990568757057,-0.008103041909635067,0.0,0.0,-0.30576351284980774,0.53,-0.11,-0.14,0.0
652.89665600,652896656,1,0.07,0.25,225.58,0.06206107139587402,0.03266455605626106,-0.06150030344724655,-0.011643407866358757,0.0,0.0,-0.3054160177707672,0.53,-0.11,-0.14,0.0
652.93666600,652936666,1,0.08,0.25,225.57,0.06268621236085892,0.03326304629445076,-0.06107768416404724,-0.009517730213701725,0.0,0.0,-0.30576497316360474,0.53,-0.11,-0.14,0.0
652.97664000,652976640,1,0.08,0.25,225.55,0.06274540722370148,0.03281383961439133,-0.06056728959083557,-0.008042050525546074,0.0,0.0,-0.3061481714248657,0.53,-0.11,-0.14,0.0
653.01663500,653016635,1,0.08,0.26,225.53,0.06421933323144913,0.033439502120018005,-0.06035155802965164,-0.006224059034138918,0.0,0.0,-0.30640947818756104,0.53,-0.11,-0.14,0.0
653.03667200,653036672,1,0.07,0.25,225.52,0.06378450989723206,0.033363401889801025,-0.06019240990281105,-0.00584125192835927,0.0,0.0,-0.306270569562912,0.53,-0.11,-0.14,0.0
653.05662800,653056628,1,0.07,0.26,225.51,0.06449232995510101,0.033750299364328384,-0.05974436551332474,-0.0055109173990786076,0.0,0.0,-0.3067933917045593,0.53,-0.11,-0.14,0.0
653.09667600,653096676,1,0.07,0.26,225.5,0.06410697102546692,0.03386962413787842,-0.05915850028395653,-0.00754676666110754,0.0,0.0,-0.3068525791168213,0.53,-0.11,-0.14,0.0
653.13666200,653136662,1,0.07,0.26,225.48000000000002,0.06487978249788284,0.034191276878118515,-0.05876100808382034,-0.010986397974193096,0.0,0.0,-0.3076383173465729,0.53,-0.11,-0.14,0.0
653.17667800,653176678,1,0.07,0.26,225.46,0.06470680236816406,0.034076444804668427,-0.05872979387640953,-0.015101400204002857,0.0,0.0,-0.3083834946155548,0.53,-0.11,-0.14,0.0
653.21663300,653216633,1,0.07,0.26,225.44,0.06550437957048416,0.034837160259485245,-0.058428771793842316,-0.017045211046934128,0.0,0.0,-0.3091292083263397,0.53,-0.11,-0.14,0.0
653.23667500,653236675,1,0.07,0.27,225.43,0.06522554904222488,0.034496232867240906,-0.058501217514276505,-0.01817723549902439,0.0,0.0,-0.3092547357082367,0.53,-0.11,-0.14,0.0
653.25664000,653256640,1,0.07,0.27,225.41,0.06611092388629913,0.03475489839911461,-0.05844787508249283,-0.019032688811421394,0.0,0.0,-0.3099568486213684,0.53,-0.11,-0.14,0.0
653.29662500,653296625,1,0.07,0.27,225.39000000000001,0.06547719240188599,0.03508388251066208,-0.05857019126415253,-0.019309749826788902,0.0,0.0,-0.30991020798683167,0.53,-0.11,-0.14,0.0
653.33667400,653336674,1,0.07,0.27,225.36,0.06658167392015457,0.035391587764024734,-0.05824416130781174,-0.016018114984035492,0.0,0.0,-0.3104891777038574,0.53,-0.11,-0.14,0.0
653.37664200,653376642,1,0.07,0.27,225.34,0.0665343627333641,0.03522976487874985,-0.05776992440223694,-0.013805471360683441,0.0,0.0,-0.311020165681839,0.53,-0.11,-0.14,0.0
653.41666400,653416664,1,0.08,0.27,225.32,0.06719977408647537,0.035514749586582184,-0.05712301656603813,-0.00908823311328888,0.0,0.0,-0.3112843930721283,0.53,-0.12,-0.14,0.0
653.43667200,653436672,1,0.08,0.27,225.32,0.0672227218747139,0.035189319401979446,-0.05712434649467468,-0.007719483692198992,0.0,0.0,-0.3111674189567566,0.53,-0.12,-0.14,0.0
653.45663000,653456630,1,0.08,0.27,225.31,0.06788364797830582,0.03522469475865364,-0.0569942407310009,-0.006746034137904644,0.0,0.0,-0.3117034435272217,0.53,-0.12,-0.14,0.0
653.49664600,653496646,1,0.08,0.27,225.29,0.06695905327796936,0.035365570336580276,-0.05636601895093918,-0.0018219758057966828,0.0,0.0,-0.31051474809646606,0.53,-0.12,-0.14,0.0
653.53667100,653536671,1,0.08,0.27,225.27,0.06774690002202988,0.035629332065582275,-0.055758845061063766,0.008293275721371174,0.0,0.0,-0.3101654350757599,0.53,-0.12,-0.14,0.0
653.57668600,653576686,1,0.08,0.27,225.25,0.06772086024284363,0.03640759736299515,-0.054875366389751434,0.013986485078930855,0.0,0.0,-0.3099489212036133,0.53,-0.12,-0.14,0.0
653.61667300,653616673,1,0.08,0.27,225.23000000000002,0.06766612827777863,0.036709193140268326,-0.05428679659962654,0.015722524374723434,0.0,0.0,-0.30982160568237305,0.53,-0.12,-0.14,0.0
653.63663100,653636631,1,0.08,0.27,225.23000000000002,0.0678739994764328,0.037008579820394516,-0.053897324949502945,0.014779207296669483,0.0,0.0,-0.309467077255249,0.53,-0.12,-0.14,0.0
653.65665000,653656650,1,0.08,0.28,225.22,0.0685259997844696,0.03764939680695534,-0.053682759404182434,0.01330807339400053,0.0,0.0,-0.30985480546951294,0.53,-0.12,-0.14,0.0
653.69663700,653696637,1,0.08,0.28,225.21,0.06769772619009018,0.03719126805663109,-0.053390879184007645,0.0143880071118474,0.0,0.0,-0.3079969584941864,0.53,-0.12,-0.14,0.0
653.73665200,653736652,1,0.08,0.28,225.20000000000002,0.06787669658660889,0.03718521073460579,-0.05253468453884125,0.023517977446317673,0.0,0.0,-0.3071199655532837,0.53,-0.12,-0.14,0.0
653.77667000,653776670,1,0.08,0.28,225.20000000000002,0.06791243702173233,0.03737783804535866,-0.05218660458922386,0.028052907437086105,0.0,0.0,-0.30633464455604553,0.53,-0.12,-0.14,0.0
653.81666600,653816666,1,0.08,0.28,225.19,0.0672062486410141,0.03705650568008423,-0.0516008585691452,0.03099488839507103,0.0,0.0,-0.3054911196231842,0.53,-0.12,-0.14,0.0
653.83663100,653836631,1,0.08,0.28,225.18,0.06768472492694855,0.03726302087306976,-0.05141093209385872,0.03073837421834469,0.0,0.0,-0.3047289550304413,0.53,-0.12,-0.14,0.0
653.85666900,653856669,1,0.08,0.29,225.18,0.06767405569553375,0.037644535303115845,-0.051596395671367645,0.029371006414294243,0.0,0.0,-0.30490803718566895,0.53,-0.12,-0.14,0.0
653.89664100,653896641,1,0.08,0.29,225.17000000000002,0.06759922951459885,0.03720919042825699,-0.05068784952163696,0.030734658241271973,0.0,0.0,-0.3024709224700928,0.53,-0.12,-0.14,0.0
653.93663700,653936637,1,0.08,0.29,225.16,0.06775575876235962,0.0375206284224987,-0.049815114587545395,0.038143355399370193,0.0,0.0,-0.301190584897995,0.53,-0.12,-0.14,0.0
653.97662900,653976629,1,0.08,0.29,225.15,0.06860627233982086,0.03802881017327309,-0.04935045540332794,0.04069783166050911,0.0,0.0,-0.29987451434135437,0.53,-0.12,-0.14,0.0
654.01667000,654016670,1,0.08,0.29,225.15,0.06818687170743942,0.03728582710027695,-0.04832117259502411,0.045502450317144394,0.0,0.0,-0.29830968379974365,0.53,-0.12,-0.14,0.0
654.03663800,654036638,1,0.08,0.29,225.14000000000001,0.06884796917438507,0.03753294423222542,-0.04770594835281372,0.04659028351306915,0.0,0.0,-0.2971220910549164,0.53,-0.12,-0.14,0.0
654.05667500,654056675,1,0.08,0.29,225.14000000000001,0.06900259107351303,0.03716937080025673,-0.04771788790822029,0.046105023473501205,0.0,0.0,-0.2970818877220154,0.53,-0.12,-0.14,0.0
654.09665900,654096659,1,0.09,0.29,225.12,0.06035024672746658,0.03310393542051315,-0.046451255679130554,0.06000392138957977,0.0,0.0,-0.2910763621330261,0.53,-0.12,-0.14,0.0
654.13663800,654136638,1,0.08,0.29,225.07,0.052567072212696075,0.029014533385634422,-0.04517672583460808,0.09531281888484955,0.0,0.0,-0.28682711720466614,0.53,-0.12,-0.14,0.0
654.17663500,654176635,1,0.08,0.29,225.03,0.04685391113162041,0.02629171498119831,-0.04436727985739708,0.11663656681776047,0.0,0.0,-0.28254252672195435,0.53,-0.12,-0.14,0.0
654.21663600,654216636,1,0.08,0.29,224.95000000000002,0.04069772735238075,0.02320372872054577,-0.042693112045526505,0.1361847072839737,0.0,0.0,-0.27765122056007385,0.53,-0.12,-0.14,0.0
654.23661000,654236610,1,0.08,0.29,224.9,0.03760141506791115,0.02180250734090805,-0.0421670563519001,0.1417030543088913,0.0,0.0,-0.27453112602233887,0.53,-0.12,-0.14,0.0
654.25666600,654256666,1,0.08,0.29,224.86,0.03603668883442879,0.02093387395143509,-0.04171492159366608,0.14332589507102966,0.0,0.0,-0.2734721302986145,0.53,-0.12,-0.14,0.0
654.29667800,654296678,1,0.08,0.29,224.78,0.031174326315522194,0.01838861219584942,-0.04014796018600464,0.13904309272766113,0.0,0.0,-0.267575204372406,0.53,-0.12,-0.14,0.0
654.33663800,654336638,1,0.08,0.29,224.70000000000002,0.027010507881641388,0.016984015703201294,-0.03953264281153679,0.13063588738441467,0.0,0.0,-0.2641027867794037,0.53,-0.12,-0.14,0.0
654.37662600,654376626,1,0.08,0.29,224.64000000000001,0.025627218186855316,0.015814706683158875,-0.03868990018963814,0.11537954956293106,0.0,0.0,-0.26127681136131287,0.53,-0.12,-0.14,0.0
654.41662500,654416625,1,0.08,0.29,224.57,0.022027364000678062,0.015282904729247093,-0.03836148977279663,0.09341282397508621,0.0,0.0,-0.25915175676345825,0.53,-0.12,-0.14,0.0
654.43667100,654436671,1,0.08,0.29,224.55,0.021457938477396965,0.014497105032205582,-0.037386856973171234,0.08202943205833435,0.0,0.0,-0.25771838426589966,0.53,-0.12,-0.14,0.0
654.45666700,654456667,1,0.08,0.29,224.52,0.020109273493289948,0.013732224702835083,-0.037627555429935455,0.07050807774066925,0.0,0.0,-0.25741124153137207,0.53,-0.12,-0.14,0.0
654.49667700,654496677,1,0.07,0.29,224.49,0.018803048878908157,0.013007858768105507,-0.03381132334470749,0.057409174740314484,0.0,0.0,-0.254134863615036,0.53,-0.12,-0.14,0.0
654.53668000,654536680,1,0.08,0.28,224.48000000000002,0.01828066259622574,0.01209673099219799,-0.037043679505586624,0.04712677374482155,0.0,0.0,-0.25226104259490967,0.53,-0.12,-0.14,0.0
654.57663500,654576635,1,0.08,0.28,224.47,0.0172848179936409,0.013060135766863823,-0.03540040925145149,0.04266192018985748,0.0,0.0,-0.2504059672355652,0.53,-0.12,-0.14,0.0
654.61662800,654616628,1,0.08,0.28,224.48000000000002,0.016673097386956215,0.013052309863269329,-0.03425269573926926,0.04414867237210274,0.0,0.0,-0.24826405942440033,0.53,-0.12,-0.14,0.0
654.63666800,654636668,1,0.08,0.28,224.49,0.015679728239774704,0.012562178075313568,-0.0333002507686615,0.04524058848619461,0.0,0.0,-0.24681735038757324,0.53,-0.12,-0.14,0.0
654.65662600,654656626,1,0.08,0.28,224.5,0.01541341282427311,0.01274837739765644,-0.033605169504880905,0.04448070749640465,0.0,0.0,-0.24648743867874146,0.53,-0.12,-0.14,0.0
654.69667300,654696673,1,0.08,0.29,224.53,0.015585736371576786,0.012708611786365509,-0.03277093544602394,0.042330849915742874,0.0,0.0,-0.24381354451179504,0.53,-0.12,-0.14,0.0
654.73667300,654736673,1,0.08,0.28,224.58,0.013941981829702854,0.0125146908685565,-0.032482121139764786,0.039988573640584946,0.0,0.0,-0.24242645502090454,0.53,-0.12,-0.14,0.0
654.77668000,654776680,1,0.08,0.28,224.63,0.013670227490365505,0.01229844894260168,-0.03153267502784729,0.037054043263196945,0.0,0.0,-0.2404191493988037,0.53,-0.12,-0.14,0.0
654.81663700,654816637,1,0.08,0.29,224.70000000000002,0.014699882827699184,0.012330705299973488,-0.030874863266944885,0.05322648212313652,0.0,0.0,-0.23711052536964417,0.53,-0.12,-0.14,0.0
654.83664500,654836645,1,0.08,0.29,224.74,0.014586728997528553,0.013121950440108776,-0.031103720888495445,0.06070277467370033,0.0,0.0,-0.23495596647262573,0.53,-0.12,-0.14,0.0
654.85663300,654856633,1,0.08,0.29,224.77,0.01435431931167841,0.013130538165569305,-0.030265312641859055,0.06817120313644409,0.0,0.0,-0.2342870980501175,0.53,-0.12,-0.14,0.0
654.89662800,654896628,1,0.08,0.29,224.85,0.015354150906205177,0.013294946402311325,-0.02970869652926922,0.07709602266550064,0.0,0.0,-0.22972659766674042,0.53,-0.12,-0.14,0.0
654.93665600,654936656,1,0.08,0.29,224.92000000000002,0.01607934944331646,0.013925639912486076,-0.02908446080982685,0.08468230813741684,0.0,0.0,-0.22692856192588806,0.53,-0.12,-0.14,0.0
654.97665500,654976655,1,0.08,0.29,224.99,0.01626620441675186,0.013996927998960018,-0.028112750500440598,0.0841555967926979,0.0,0.0,-0.22452616691589355,0.53,-0.12,-0.14,0.0
655.01664700,655016647,1,0.08,0.29,225.06,0.01837434060871601,0.014021886512637138,-0.027506308630108833,0.0771060585975647,0.0,0.0,-0.22238799929618835,0.53,-0.12,-0.14,0.0
655.03666600,655036666,1,0.08,0.3,225.1,0.017149558290839195,0.014314103871583939,-0.02736339531838894,0.07161367684602737,0.0,0.0,-0.22096584737300873,0.53,-0.12,-0.14,0.0
655.05663500,655056635,1,0.08,0.29,225.14000000000001,0.017883840948343277,0.014430337585508823,-0.02709144726395607,0.06594865769147873,0.0,0.0,-0.2205975204706192,0.53,-0.12,-0.14,0.0
655.09664700,655096647,1,0.08,0.3,225.21,0.018201086670160294,0.01470130868256092,-0.026487693190574646,0.05676586180925369,0.0,0.0,-0.21751666069030762,0.53,-0.12,-0.14,0.0
655.13667300,655136673,1,0.08,0.3,225.29,0.020367905497550964,0.015074169263243675,-0.02507639117538929,0.054061997681856155,0.0,0.0,-0.21566621959209442,0.53,-0.12,-0.14,0.0
655.17666700,655176667,1,0.08,0.3,225.36,0.020397137850522995,0.01497179176658392,-0.023599889129400253,0.05123460665345192,0.0,0.0,-0.21362698078155518,0.53,-0.12,-0.14,0.0
655.21667400,655216674,1,0.08,0.3,225.44,0.02171393483877182,0.015626687556505203,-0.02328464947640896,0.05613528937101364,0.0,0.0,-0.21098288893699646,0.53,-0.12,-0.14,0.0
655.23663000,655236630,1,0.08,0.3,225.48000000000002,0.021774202585220337,0.016061464324593544,-0.022929567843675613,0.05846767500042915,0.0,0.0,-0.2092791497707367,0.53,-0.12,-0.14,0.0
655.25665800,655256658,1,0.08,0.3,225.51,0.022207682952284813,0.015769677236676216,-0.022894524037837982,0.05972685292363167,0.0,0.0,-0.20873206853866577,0.53,-0.12,-0.14,0.0
655.29663600,655296636,1,0.08,0.3,225.57,0.02205197513103485,0.01635233499109745,-0.022174419835209846,0.06161508709192276,0.0,0.0,-0.2050934135913849,0.53,-0.12,-0.14,0.0
655.33662400,655336624,1,0.08,0.3,225.63,0.023935290053486824,0.01684398204088211,-0.021143341436982155,0.06524170935153961,0.0,0.0,-0.2028246968984604,0.53,-0.12,-0.14,0.0
655.37666700,655376667,1,0.08,0.31,225.68,0.024355677887797356,0.01705806888639927,-0.020621193572878838,0.06467761099338531,0.0,0.0,-0.2002049684524536,0.53,-0.12,-0.14,0.0
655.41666000,655416660,1,0.08,0.31,225.74,0.0243601705878973,0.01754848286509514,-0.020057523623108864,0.07562144845724106,0.0,0.0,-0.19667014479637146,0.53,-0.12,-0.14,0.0
655.43663700,655436637,1,0.08,0.31,225.76,0.02523724175989628,0.017513828352093697,-0.019835591316223145,0.08110038936138153,0.0,0.0,-0.19446252286434174,0.53,-0.12,-0.14,0.0
655.45667800,655456678,1,0.08,0.31,225.78,0.02621494047343731,0.017790228128433228,-0.01959315501153469,0.08401124179363251,0.0,0.0,-0.19361995160579681,0.53,-0.12,-0.14,0.0
655.49665600,655496656,1,0.08,0.31,225.82,0.02642976865172386,0.017910495400428772,-0.01785612851381302,0.08407533168792725,0.0,0.0,-0.19007304310798645,0.53,-0.12,-0.14,0.0
655.53663000,655536630,1,0.08,0.31,225.87,0.027415132150053978,0.018729833886027336,-0.017422446981072426,0.07658195495605469,0.0,0.0,-0.1880231648683548,0.53,-0.12,-0.14,0.0
655.57662500,655576625,1,0.08,0.31,225.91,0.02816031314432621,0.019444119185209274,-0.016952183097600937,0.06535601615905762,0.0,0.0,-0.1862284243106842,0.53,-0.12,-0.14,0.0
655.61668300,655616683,1,0.08,0.31,225.95000000000002,0.028864389285445213,0.020290331915020943,-0.016276923939585686,0.05421562120318413,0.0,0.0,-0.18462331593036652,0.53,-0.12,-0.14,0.0
655.63663400,655636634,1,0.08,0.31,225.97,0.02876552939414978,0.019940080121159554,-0.01588614657521248,0.048861682415008545,0.0,0.0,-0.18359802663326263,0.53,-0.12,-0.14,0.0
655.65666200,655656662,1,0.08,0.31,225.99,0.029772324487566948,0.021107608452439308,-0.015649013221263885,0.04373420402407646,0.0,0.0,-0.1832686960697174,0.53,-0.12,-0.14,0.0
655.69668200,655696682,1,0.07,0.31,226.04,0.03035283088684082,0.020464476197957993,-0.015112211927771568,0.038888365030288696,0.0,0.0,-0.1804397851228714,0.53,-0.12,-0.14,0.0
655.73663700,655736637,1,0.07,0.31,226.08,0.030310848727822304,0.020898066461086273,-0.014815439470112324,0.04205678403377533,0.0,0.0,-0.17855684459209442,0.53,-0.12,-0.14,0.0
655.77662600,655776626,1,0.07,0.31,226.12,0.03168546035885811,0.0214837733656168,-0.014678075909614563,0.04398803785443306,0.0,0.0,-0.17639590799808502,0.53,-0.12,-0.14,0.0
655.81663300,655816633,1,0.07,0.31,226.16,0.03247678652405739,0.021921277046203613,-0.013423850759863853,0.056106407195329666,0.0,0.0,-0.173488587141037,0.53,-0.12,-0.14,0.0
655.83664000,655836640,1,0.07,0.31,226.17000000000002,0.03274720162153244,0.022335847839713097,-0.013244734145700932,0.061241403222084045,0.0,0.0,-0.17169460654258728,0.53,-0.12,-0.14,0.0
655.85668100,655856681,1,0.07,0.31,226.19,0.032471708953380585,0.022854208946228027,-0.012987024150788784,0.06488926708698273,0.0,0.0,-0.1709810197353363,0.53,-0.12,-0.14,0.0
655.89666700,655896667,1,0.07,0.32,226.21,0.03332037106156349,0.023514678701758385,-0.01148503553122282,0.07042117416858673,0.0,0.0,-0.16717509925365448,0.53,-0.12,-0.14,0.0
655.93667100,655936671,1,0.07,0.32,226.24,0.03358743339776993,0.023700647056102753,-0.010686222463846207,0.07466333359479904,0.0,0.0,-0.16467700898647308,0.53,-0.12,-0.14,0.0
655.97663600,655976636,1,0.07,0.32,226.27,0.034208763390779495,0.024162020534276962,-0.010565639473497868,0.07203889638185501,0.0,0.0,-0.16259904205799103,0.53,-0.12,-0.14,0.0
656.01662400,656016624,1,0.07,0.32,226.3,0.03439752757549286,0.024279840290546417,-0.010399621911346912,0.06283948570489883,0.0,0.0,-0.16093774139881134,0.53,-0.12,-0.14,0.0
656.03666800,656036668,1,0.07,0.32,226.31,0.034903597086668015,0.025084655731916428,-0.009941624477505684,0.05741776153445244,0.0,0.0,-0.1598958522081375,0.53,-0.12,-0.14,0.0
656.05667600,656056676,1,0.07,0.32,226.33,0.034643255174160004,0.0246911458671093,-0.009488672949373722,0.05216608941555023,0.0,0.0,-0.15950506925582886,0.53,-0.12,-0.14,0.0
656.09669100,656096691,1,0.07,0.32,226.35,0.03562982380390167,0.025796974077820778,-0.008534830994904041,0.04062118008732796,0.0,0.0,-0.15793217718601227,0.53,-0.12,-0.14,0.0
656.13667100,656136671,1,0.07,0.32,226.39000000000001,0.036560799926519394,0.02596520073711872,-0.008077174425125122,0.029850047081708908,0.0,0.0,-0.1570674479007721,0.53,-0.12,-0.14,0.0
656.17663600,656176636,1,0.07,0.32,226.41,0.03750238195061684,0.026327654719352722,-0.008076725527644157,0.021488692611455917,0.0,0.0,-0.15584498643875122,0.53,-0.12,-0.14,0.0
656.21662700,656216627,1,0.07,0.32,226.44,0.03818390145897865,0.026768002659082413,-0.007241776678711176,0.027779703959822655,0.0,0.0,-0.15386584401130676,0.53,-0.12,-0.14,0.0
656.23667700,656236677,1,0.07,0.32,226.46,0.038464177399873734,0.02702816016972065,-0.0062921857461333275,0.03245726600289345,0.0,0.0,-0.15264397859573364,0.53,-0.12,-0.14,0.0
656.25662400,656256624,1,0.07,0.32,226.48000000000002,0.03882785513997078,0.02711656503379345,-0.006414269562810659,0.03551690652966499,0.0,0.0,-0.1521391123533249,0.53,-0.12,-0.14,0.0
656.29666900,656296669,1,0.07,0.32,226.51,0.03951764851808548,0.02763224020600319,-0.005269190296530724,0.04558287560939789,0.0,0.0,-0.1485583633184433,0.53,-0.12,-0.14,0.0
656.33667300,656336673,1,0.07,0.32,226.55,0.040450043976306915,0.02753923460841179,-0.004591737873852253,0.060319315642118454,0.0,0.0,-0.1459452360868454,0.53,-0.12,-0.14,0.0
656.37666500,656376665,1,0.07,0.32,226.58,0.04070432856678963,0.02799266204237938,-0.004043149296194315,0.0684061050415039,0.0,0.0,-0.1432780772447586,0.53,-0.12,-0.14,0.0
656.41663300,656416633,1,0.07,0.32,226.61,0.04087105765938759,0.028395742177963257,-0.003305999794974923,0.07799465209245682,0.0,0.0,-0.14020855724811554,0.53,-0.12,-0.14,0.0
656.43666900,656436669,1,0.07,0.32,226.63,0.041336651891469955,0.02845670096576214,-0.0027037174440920353,0.08088572323322296,0.0,0.0,-0.13835465908050537,0.53,-0.12,-0.14,0.0
656.45664600,656456646,1,0.07,0.32,226.64000000000001,0.04157008230686188,0.028822513297200203,-0.002544319722801447,0.08211395144462585,0.0,0.0,-0.13751168549060822,0.53,-0.12,-0.14,0.0
656.49662600,656496626,1,0.07,0.32,226.66,0.04202382266521454,0.028870269656181335,-0.0013605911517515779,0.08714327961206436,0.0,0.0,-0.1325821429491043,0.53,-0.12,-0.14,0.0
656.53666000,656536660,1,0.07,0.32,226.69,0.042634300887584686,0.02899954468011856,-0.00018761312821879983,0.0985197126865387,0.0,0.0,-0.12897954881191254,0.53,-0.12,-0.14,0.0
656.57664300,656576643,1,0.07,0.32,226.71,0.04305444657802582,0.029020141810178757,0.0005918508395552635,0.10243155807256699,0.0,0.0,-0.12543226778507233,0.53,-0.12,-0.14,0.0
656.61667500,656616675,1,0.07,0.32,226.74,0.043121617287397385,0.02939830906689167,0.0016909787664189935,0.10721473395824432,0.0,0.0,-0.12162315845489502,0.53,-0.12,-0.14,0.0
656.63666600,656636666,1,0.07,0.32,226.75,0.043215248733758926,0.029345260933041573,0.0019842793699353933,0.10692249983549118,0.0,0.0,-0.11933818459510803,0.53,-0.12,-0.14,0.0
656.65663000,656656630,1,0.07,0.32,226.76,0.04311894625425339,0.029403848573565483,0.0020374367013573647,0.1055188924074173,0.0,0.0,-0.11824771016836166,0.53,-0.12,-0.14,0.0
656.69662600,656696626,1,0.07,0.31,226.78,0.04349418729543686,0.029464032500982285,0.003274408634752035,0.10527417808771133,0.0,0.0,-0.11284441500902176,0.53,-0.12,-0.14,0.0
656.73662200,656736622,1,0.07,0.31,226.79,0.04397844523191452,0.030127959325909615,0.0041796364821493626,0.11037499457597733,0.0,0.0,-0.10893907397985458,0.53,-0.12,-0.14,0.0
656.77667700,656776677,1,0.07,0.31,226.8,0.044484518468379974,0.030013978481292725,0.005047470331192017,0.10943873971700668,0.0,0.0,-0.10548491030931473,0.53,-0.12,-0.14,0.0
656.81667400,656816674,1,0.07,0.31,226.82,0.044609930366277695,0.030003149062395096,0.005927663762122393,0.1012793779373169,0.0,0.0,-0.10243508964776993,0.53,-0.12,-0.14,0.0
656.83662800,656836628,1,0.07,0.31,226.83,0.044408489018678665,0.029762648046016693,0.006298164837062359,0.09525648504495621,0.0,0.0,-0.10062937438488007,0.53,-0.12,-0.14,0.0
656.85665200,656856652,1,0.07,0.31,226.84,0.04440261423587799,0.030329827219247818,0.006424861028790474,0.0888727530837059,0.0,0.0,-0.09971470385789871,0.53,-0.12,-0.14,0.0
656.89663900,656896639,1,0.07,0.31,226.85,0.04440488666296005,0.030132386833429337,0.007441787049174309,0.08085713535547256,0.0,0.0,-0.09552643448114395,0.53,-0.12,-0.14,0.0
656.93662500,656936625,1,0.07,0.31,226.87,0.04453691840171814,0.030266817659139633,0.008094526827335358,0.08027686178684235,0.0,0.0,-0.0924617275595665,0.53,-0.12,-0.14,0.0
656.97667400,656976674,1,0.07,0.31,226.87,0.04440465569496155,0.030454613268375397,0.009149592369794846,0.0788574367761612,0.0,0.0,-0.08931446075439453,0.53,-0.12,-0.14,0.0
657.01665000,657016650,1,0.07,0.31,226.88,0.04504705220460892,0.030649585649371147,0.009958862327039242,0.08310813456773758,0.0,0.0,-0.08572956919670105,0.53,-0.12,-0.14,0.0
657.03663200,657036632,1,0.07,0.31,226.88,0.04469427093863487,0.030544593930244446,0.010494621470570564,0.08476181328296661,0.0,0.0,-0.08362893760204315,0.53,-0.11,-0.14,0.0
657.05667700,657056677,1,0.07,0.31,226.88,0.04488035663962364,0.0312197245657444,0.010396778583526611,0.08504431694746017,0.0,0.0,-0.08253373950719833,0.53,-0.11,-0.14,0.0
657.09667400,657096674,1,0.07,0.31,226.89000000000001,0.04483885318040848,0.03113098442554474,0.011327968910336494,0.08010271191596985,0.0,0.0,-0.07942664623260498,0.53,-0.11,-0.14,0.0
657.13664000,657136640,1,0.06,0.31,226.89000000000001,0.04529854282736778,0.03168787434697151,0.011719613336026669,0.06875003129243851,0.0,0.0,-0.07738733291625977,0.53,-0.11,-0.14,0.0
657.17662500,657176625,1,0.06,0.31,226.89000000000001,0.04522082209587097,0.031391941010951996,0.01207301951944828,0.05729340761899948,0.0,0.0,-0.07537200301885605,0.53,-0.11,-0.14,0.0
657.21667500,657216675,1,0.06,0.31,226.9,0.04581567645072937,0.031300779432058334,0.012762821279466152,0.05150195583701134,0.0,0.0,-0.07322105765342712,0.53,-0.11,-0.14,0.0
657.23663500,657236635,1,0.06,0.31,226.9,0.04543006420135498,0.031350258737802505,0.012884619645774364,0.04938194900751114,0.0,0.0,-0.07198411971330643,0.53,-0.11,-0.14,0.0
657.25666000,657256660,1,0.06,0.31,226.9,0.04559868574142456,0.03133155405521393,0.01349235326051712,0.04782840609550476,0.0,0.0,-0.07126656174659729,0.53,-0.11,-0.14,0.0
657.29666100,657296661,1,0.06,0.3,226.9,0.044351279735565186,0.03079143725335598,0.014004291035234928,0.04660508781671524,0.0,0.0,-0.06846192479133606,0.53,-0.11,-0.14,0.0
657.33663800,657336638,1,0.06,0.3,226.89000000000001,0.04494980350136757,0.0307028628885746,0.014759351499378681,0.04943767562508583,0.0,0.0,-0.06630285829305649,0.53,-0.11,-0.14,0.0
657.37663800,657376638,1,0.06,0.3,226.89000000000001,0.04430053383111954,0.03052014485001564,0.015394874848425388,0.050041403621435165,0.0,0.0,-0.0643152967095375,0.53,-0.11,-0.14,0.0
657.41662500,657416625,1,0.06,0.3,226.89000000000001,0.043877195566892624,0.030347730964422226,0.01587182655930519,0.04868050292134285,0.0,0.0,-0.06245120242238045,0.53,-0.11,-0.14,0.0
657.43666800,657436668,1,0.06,0.3,226.89000000000001,0.04394124448299408,0.030056435614824295,0.016077160835266113,0.04725069925189018,0.0,0.0,-0.061398040503263474,0.53,-0.11,-0.14,0.0
657.45664000,657456640,1,0.06,0.29,226.89000000000001,0.04410003870725632,0.03064396046102047,0.016370249912142754,0.045702189207077026,0.0,0.0,-0.06074604392051697,0.53,-0.11,-0.14,0.0
657.49664200,657496642,1,0.06,0.29,226.9,0.04341544210910797,0.03050260990858078,0.01719248667359352,0.044056713581085205,0.0,0.0,-0.05841127410531044,0.53,-0.11,-0.14,0.0
657.53666600,657536666,1,0.05,0.29,226.9,0.043780285865068436,0.030665094032883644,0.017749588936567307,0.04495887830853462,0.0,0.0,-0.056557655334472656,0.53,-0.11,-0.14,0.0
657.57662500,657576625,1,0.05,0.29,226.91,0.04354364797472954,0.030464323237538338,0.01785573549568653,0.044700540602207184,0.0,0.0,-0.05455271527171135,0.53,-0.11,-0.14,0.0
657.61663900,657616639,1,0.06,0.29,226.91,0.0431295745074749,0.030578384175896645,0.018512293696403503,0.05050041526556015,0.0,0.0,-0.052137456834316254,0.53,-0.11,-0.14,0.0
657.63667600,657636676,1,0.06,0.29,226.9,0.04293419048190117,0.030115120112895966,0.018918417394161224,0.05338247865438461,0.0,0.0,-0.050773777067661285,0.53,-0.11,-0.14,0.0
657.65662900,657656629,1,0.06,0.29,226.9,0.043351106345653534,0.03024914115667343,0.019068947061896324,0.05516299977898598,0.0,0.0,-0.04994504526257515,0.53,-0.11,-0.14,0.0
657.69667600,657696676,1,0.06,0.29,226.9,0.042857419699430466,0.02968445234000683,0.01972382143139839,0.05911863222718239,0.0,0.0,-0.046807270497083664,0.53,-0.11,-0.14,0.0
657.73666400,657736664,1,0.06,0.29,226.9,0.042653199285268784,0.030169107019901276,0.020899109542369843,0.06517340242862701,0.0,0.0,-0.044323310256004333,0.53,-0.11,-0.14,0.0
657.77665900,657776659,1,0.06,0.29,226.9,0.04257935285568237,0.030071953311562538,0.02157403901219368,0.06664096564054489,0.0,0.0,-0.04198756441473961,0.53,-0.11,-0.14,0.0
657.81663700,657816637,1,0.06,0.29,226.91,0.04202219843864441,0.029835999011993408,0.021903496235609055,0.06481694430112839,0.0,0.0,-0.03979083150625229,0.53,-0.11,-0.14,0.0
657.83665200,657836652,1,0.06,0.29,226.9,0.04222883656620979,0.02940770424902439,0.02247655764222145,0.06325635313987732,0.0,0.0,-0.03857384994626045,0.53,-0.11,-0.14,0.0
657.85664200,657856642,1,0.06,0.29,226.9,0.042244698852300644,0.029450111091136932,0.022787678986787796,0.06121622398495674,0.0,0.0,-0.037759896367788315,0.53,-0.11,-0.14,0.0
657.89666900,657896669,1,0.06,0.29,226.9,0.0418936088681221,0.02886798046529293,0.02363956719636917,0.054692864418029785,0.0,0.0,-0.03588459640741348,0.53,-0.11,-0.14,0.0
657.93666800,657936668,1,0.06,0.29,226.9,0.04162401333451271,0.02888682670891285,0.023978399112820625,0.04577527940273285,0.0,0.0,-0.03443166986107826,0.53,-0.11,-0.14,0.0
657.97667000,657976670,1,0.06,0.29,226.89000000000001,0.04097389057278633,0.02867024950683117,0.02422320283949375,0.03818653151392937,0.0,0.0,-0.03304319828748703,0.53,-0.11,-0.14,0.0
658.01661900,658016619,1,0.06,0.28,226.89000000000001,0.0404822863638401,0.028459766879677773,0.024328140541911125,0.03273501619696617,0.0,0.0,-0.03170861676335335,0.53,-0.11,-0.14,0.0
658.03666500,658036665,1,0.06,0.28,226.89000000000001,0.04025594890117645,0.028885865584015846,0.02440604381263256,0.03076309524476528,0.0,0.0,-0.031026363372802734,0.53,-0.11,-0.14,0.0
658.05662700,658056627,1,0.06,0.28,226.89000000000001,0.04021420702338219,0.028639450669288635,0.024479549378156662,0.029120704159140587,0.0,0.0,-0.030436435714364052,0.53,-0.11,-0.14,0.0
658.09662600,658096626,1,0.06,0.28,226.89000000000001,0.04015079513192177,0.02800578810274601,0.02490621991455555,0.030006252229213715,0.0,0.0,-0.028419237583875656,0.53,-0.11,-0.14,0.0
658.13666700,658136667,1,0.05,0.28,226.89000000000001,0.039926882833242416,0.027657315135002136,0.025202002376317978,0.03576715290546417,0.0,0.0,-0.02661866880953312,0.53,-0.11,-0.14,0.0
658.17666600,658176666,1,0.05,0.28,226.89000000000001,0.0391785092651844,0.027571819722652435,0.025431817397475243,0.04040079191327095,0.0,0.0,-0.024686403572559357,0.53,-0.11,-0.14,0.0
658.21667100,658216671,1,0.05,0.28,226.89000000000001,0.03855392709374428,0.027569085359573364,0.026324115693569183,0.048665519803762436,0.0,0.0,-0.022395076230168343,0.53,-0.11,-0.14,0.0
658.23667700,658236677,1,0.05,0.28,226.89000000000001,0.03829497843980789,0.027530837804079056,0.02646886743605137,0.0518050454556942,0.0,0.0,-0.021131709218025208,0.53,-0.11,-0.14,0.0
658.25662700,658256627,1,0.05,0.28,226.89000000000001,0.03799835965037346,0.027661461383104324,0.026881590485572815,0.054516736418008804,0.0,0.0,-0.020246807485818863,0.53,-0.11,-0.14,0.0
658.29665300,658296653,1,0.05,0.28,226.89000000000001,0.03724971413612366,0.027217745780944824,0.027389580383896828,0.05555025115609169,0.0,0.0,-0.01811031438410282,0.53,-0.11,-0.14,0.0
658.33662500,658336625,1,0.05,0.28,226.89000000000001,0.037238869816064835,0.02703883871436119,0.027555445209145546,0.052632082253694534,0.0,0.0,-0.01639251969754696,0.53,-0.11,-0.14,0.0
658.37666500,658376665,1,0.05,0.28,226.9,0.03754197806119919,0.027277614921331406,0.0280609093606472,0.048407796770334244,0.0,0.0,-0.014913829043507576,0.53,-0.11,-0.14,0.0
658.41667700,658416677,1,0.05,0.27,226.9,0.03732752799987793,0.026917479932308197,0.02828695997595787,0.04027647525072098,0.0,0.0,-0.013748024590313435,0.53,-0.11,-0.14,0.0
658.43663300,658436633,1,0.05,0.27,226.9,0.03720106557011604,0.026566514745354652,0.028457075357437134,0.03629353269934654,0.0,0.0,-0.013179127126932144,0.53,-0.11,-0.14,0.0
658.45664900,658456649,1,0.05,0.27,226.91,0.037130292505025864,0.02644648402929306,0.02873566374182701,0.03291128948330879,0.0,0.0,-0.012611067853868008,0.53,-0.11,-0.14,0.0
658.49662700,658496627,1,0.05,0.27,226.91,0.036495640873909,0.025877423584461212,0.02854885719716549,0.02793285995721817,0.0,0.0,-0.011340295895934105,0.53,-0.11,-0.14,0.0
658.53663700,658536637,1,0.05,0.27,226.91,0.035871900618076324,0.02555309236049652,0.02883828990161419,0.026545805856585503,0.0,0.0,-0.01009405218064785,0.53,-0.11,-0.14,0.0
658.57667300,658576673,1,0.05,0.27,226.91,0.03573174402117729,0.025112060829997063,0.028791598975658417,0.026232320815324783,0.0,0.0,-0.008761334232985973,0.53,-0.11,-0.14,0.0
658.61667800,658616678,1,0.05,0.27,226.91,0.035548243671655655,0.02519533969461918,0.02922140434384346,0.0299305971711874,0.0,0.0,-0.007195507641881704,0.53,-0.11,-0.14,0.0
658.63663500,658636635,1,0.05,0.27,226.91,0.03530571982264519,0.024819621816277504,0.029574787244200706,0.03214779123663902,0.0,0.0,-0.006367586553096771,0.53,-0.11,-0.14,0.0
658.65667600,658656676,1,0.05,0.27,226.92000000000002,0.035395946353673935,0.02506869286298752,0.029669594019651413,0.0337800458073616,0.0,0.0,-0.005671696737408638,0.53,-0.11,-0.14,0.0
658.69663900,658696639,1,0.04,0.27,226.92000000000002,0.03496919572353363,0.02419322356581688,0.030156705528497696,0.037079885601997375,0.0,0.0,-0.0038639444392174482,0.53,-0.11,-0.14,0.0
658.73662700,658736627,1,0.04,0.27,226.92000000000002,0.03455838933587074,0.024051770567893982,0.030333010479807854,0.04006519913673401,0.0,0.0,-0.0022349883802235126,0.53,-0.11,-0.14,0.0
658.77662700,658776627,1,0.04,0.27,226.93,0.03459002450108528,0.023935282602906227,0.030582886189222336,0.04093742370605469,0.0,0.0,-0.000902673986274749,0.53,-0.11,-0.14,0.0
658.81665100,658816651,1,0.04,0.27,226.93,0.0348309651017189,0.023670490831136703,0.03035089187324047,0.03472605347633362,0.0,0.0,1.4240451491787098e-05,0.53,-0.11,-0.14,0.0
658.83663100,658836631,1,0.04,0.26,226.93,0.03455213084816933,0.02363661490380764,0.030599726364016533,0.03138149157166481,0.0,0.0,0.00042338238563388586,0.53,-0.11,-0.14,0.0
658.85666200,658856662,1,0.04,0.26,226.92000000000002,0.03481672331690788,0.0237447340041399,0.030712338164448738,0.028223952278494835,0.0,0.0,0.0009372836793772876,0.53,-0.11,-0.14,0.0
658.89668200,658896682,1,0.04,0.26,226.92000000000002,0.03397759795188904,0.023639127612113953,0.030902894213795662,0.026353007182478905,0.0,0.0,0.0024372979532927275,0.53,-0.11,-0.14,0.0
658.93664000,658936640,1,0.04,0.26,226.92000000000002,0.03371737152338028,0.02333618327975273,0.030919227749109268,0.030211662873625755,0.0,0.0,0.003981351386755705,0.53,-0.11,-0.14,0.0
658.97663400,658976634,1,0.04,0.26,226.92000000000002,0.033157218247652054,0.022673990577459335,0.031154509633779526,0.033548351377248764,0.0,0.0,0.005268105771392584,0.53,-0.11,-0.14,0.0
659.01663000,659016630,1,0.04,0.26,226.92000000000002,0.033067479729652405,0.02228722535073757,0.03131883963942528,0.03062882274389267,0.0,0.0,0.006166132632642984,0.53,-0.11,-0.14,0.0
659.03663400,659036634,1,0.04,0.26,226.92000000000002,0.032679539173841476,0.022120319306850433,0.03144871070981026,0.028431495651602745,0.0,0.0,0.006570139899849892,0.53,-0.11,-0.14,0.0
659.05666400,659056664,1,0.04,0.26,226.92000000000002,0.03299802169203758,0.022048363462090492,0.03138459101319313,0.026172664016485214,0.0,0.0,0.007090225350111723,0.53,-0.11,-0.14,0.0
659.09665200,659096652,1,0.04,0.25,226.92000000000002,0.03266124427318573,0.021454019472002983,0.03181067109107971,0.02741287089884281,0.0,0.0,0.00889462511986494,0.53,-0.11,-0.14,0.0
659.13666700,659136667,1,0.04,0.26,226.92000000000002,0.03259352222084999,0.021389372646808624,0.0320637971162796,0.03535447642207146,0.0,0.0,0.010705040767788887,0.53,-0.11,-0.14,0.0
659.17663600,659176636,1,0.04,0.25,226.91,0.03247716277837753,0.021551549434661865,0.032572194933891296,0.042365897446870804,0.0,0.0,0.012669511139392853,0.53,-0.11,-0.14,0.0
659.21663000,659216630,1,0.04,0.25,226.91,0.03231993317604065,0.021005742251873016,0.03331714868545532,0.05184485390782356,0.0,0.0,0.014982976950705051,0.53,-0.11,-0.14,0.0
659.23667500,659236675,1,0.04,0.25,226.91,0.03198844939470291,0.02063717320561409,0.03366450220346451,0.05574405938386917,0.0,0.0,0.016254954040050507,0.53,-0.11,-0.14,0.0
659.25662700,659256627,1,0.04,0.25,226.9,0.03204170614480972,0.02082681655883789,0.03410178795456886,0.05867134407162666,0.0,0.0,0.01718849502503872,0.53,-0.11,-0.14,0.0
659.29666700,659296667,1,0.04,0.25,226.9,0.0310114286839962,0.020763857290148735,0.03449801355600357,0.06134192645549774,0.0,0.0,0.01963583379983902,0.53,-0.11,-0.14,0.0
659.33667200,659336672,1,0.04,0.25,226.9,0.0310744009912014,0.02065633051097393,0.034925803542137146,0.06179903820157051,0.0,0.0,0.02172003500163555,0.53,-0.11,-0.14,0.0
659.37666500,659376665,1,0.04,0.25,226.9,0.031175369396805763,0.020436065271496773,0.035384878516197205,0.05900329723954201,0.0,0.0,0.0232061930000782,0.53,-0.11,-0.14,0.0
659.41662600,659416626,1,0.03,0.25,226.9,0.030999818816781044,0.019708357751369476,0.0356331504881382,0.042405612766742706,0.0,0.0,0.023654060438275337,0.53,-0.11,-0.14,0.0
659.43665700,659436657,1,0.03,0.25,226.9,0.03083639405667782,0.019600801169872284,0.03573966026306152,0.033351726830005646,0.0,0.0,0.02378137595951557,0.53,-0.11,-0.14,0.0
659.45662600,659456626,1,0.03,0.25,226.9,0.03068026341497898,0.019859369844198227,0.03577892482280731,0.0252669807523489,0.0,0.0,0.02421668916940689,0.53,-0.11,-0.14,0.0
659.49667100,659496671,1,0.03,0.25,226.9,0.030257873237133026,0.019681120291352272,0.035532448440790176,0.009576434269547462,0.0,0.0,0.023555690422654152,0.53,-0.11,-0.14,0.0
659.53666200,659536662,1,0.03,0.25,226.91,0.030053455382585526,0.019318316131830215,0.035507071763277054,-0.006139840930700302,0.0,0.0,0.023360522463917732,0.53,-0.11,-0.14,0.0
659.57669600,659576696,1,0.03,0.25,226.91,0.029573483392596245,0.019527362659573555,0.03550204262137413,-0.013897544704377651,0.0,0.0,0.02364017441868782,0.53,-0.11,-0.14,0.0
659.61667000,659616670,1,0.03,0.25,226.92000000000002,0.028999336063861847,0.019317137077450752,0.03544800356030464,-0.007573280483484268,0.0,0.0,0.0246238112449646,0.53,-0.11,-0.14,0.0
659.63664400,659636644,1,0.03,0.25,226.92000000000002,0.02898264303803444,0.01917741447687149,0.03587481752038002,-0.0016156890196725726,0.0,0.0,0.02506968006491661,0.53,-0.11,-0.14,0.0
659.65663500,659656635,1,0.03,0.25,226.92000000000002,0.02901623398065567,0.019224824383854866,0.03611830621957779,0.004046450834721327,0.0,0.0,0.025651272386312485,0.53,-0.11,-0.14,0.0
659.69662500,659696625,1,0.03,0.25,226.92000000000002,0.028733547776937485,0.018663601949810982,0.03609539940953255,0.010749535635113716,0.0,0.0,0.02590043470263481,0.53,-0.11,-0.14,0.0
659.73666600,659736666,1,0.03,0.25,226.93,0.028151802718639374,0.01848495379090309,0.03580218926072121,0.010709556750953197,0.0,0.0,0.026415318250656128,0.53,-0.11,-0.14,0.0
659.77667300,659776673,1,0.03,0.25,226.93,0.028483284637331963,0.01840243488550186,0.03586626052856445,0.010523508302867413,0.0,0.0,0.02689249999821186,0.53,-0.11,-0.14,0.0
659.81666700,659816667,1,0.03,0.25,226.94,0.02824408933520317,0.018226003274321556,0.03594396635890007,0.008825336582958698,0.0,0.0,0.02727484330534935,0.53,-0.11,-0.14,0.0
659.83667600,659836676,1,0.03,0.25,226.94,0.0281868614256382,0.018151644617319107,0.03585301339626312,0.008290604688227177,0.0,0.0,0.027330204844474792,0.53,-0.11,-0.14,0.0
659.85664600,659856646,1,0.03,0.25,226.95000000000002,0.02790011093020439,0.018142517656087875,0.035916201770305634,0.008109167218208313,0.0,0.0,0.027756033465266228,0.53,-0.11,-0.14,0.0
659.89663600,659896636,1,0.03,0.25,226.96,0.02768843062222004,0.018024003133177757,0.035524312406778336,0.007233198266476393,0.0,0.0,0.027680853381752968,0.53,-0.11,-0.14,0.0
659.93664500,659936645,1,0.03,0.25,226.96,0.027272801846265793,0.018071915954351425,0.035259395837783813,0.005101809278130531,0.0,0.0,0.028020817786455154,0.53,-0.11,-0.14,0.0
659.97666500,659976665,1,0.03,0.25,226.97,0.026776233687996864,0.01777500845491886,0.035377293825149536,0.005316394846886396,0.0,0.0,0.02846895344555378,0.53,-0.11,-0.14,0.0
660.01664200,660016642,1,0.03,0.25,226.97,0.02582750841975212,0.017626052722334862,0.035248998552560806,0.00696936808526516,0.0,0.0,0.029019948095083237,0.53,-0.11,-0.14,0.0
660.03662700,660036627,1,0.03,0.25,226.97,0.025748370215296745,0.017522964626550674,0.03513715788722038,0.008236085064709187,0.0,0.0,0.029177481308579445,0.53,-0.11,-0.14,0.0
660.05666800,660056668,1,0.03,0.25,226.97,0.025664210319519043,0.0174469705671072,0.03531087562441826,0.009907087311148643,0.0,0.0,0.029644368216395378,0.53,-0.11,-0.14,0.0
660.09663700,660096637,1,0.03,0.25,226.98000000000002,0.025277070701122284,0.017614828422665596,0.03593895956873894,0.020106390118598938,0.0,0.0,0.03161845728754997,0.53,-0.11,-0.14,0.0
660.13662800,660136628,1,0.03,0.25,226.98000000000002,0.024836629629135132,0.017399495467543602,0.036650799214839935,0.0384569987654686,0.0,0.0,0.0337524451315403,0.53,-0.11,-0.14,0.0
660.17662600,660176626,1,0.03,0.25,226.98000000000002,0.025054313242435455,0.017268842086195946,0.03738516569137573,0.05296969786286354,0.0,0.0,0.03610408306121826,0.53,-0.11,-0.14,0.0
660.21667000,660216670,1,0.03,0.24,226.98000000000002,0.02453538589179516,0.017595447599887848,0.037999458611011505,0.06724335253238678,0.0,0.0,0.038905706256628036,0.53,-0.11,-0.14,0.0
