timestamp,TimeUS,DesRoll,Roll,DesPitch,Pitch,DesYaw,Yaw,ErrRP,ErrYaw,AEKF
3949.50741500,3949507415,0.0,1.79,0.0,3.9,139.46,139.46,0.0,0.01,0
3949.60734600,3949607346,0.0,1.79,0.0,3.9,139.48,139.48,0.0,0.02,0
3949.70734100,3949707341,0.0,1.79,0.0,3.9,139.47,139.47,0.0,0.02,0
3949.80734800,3949807348,0.0,1.79,0.0,3.9,139.45000000000002,139.45000000000002,0.0,0.02,0
3949.90733800,3949907338,0.0,1.79,0.0,3.9,139.44,139.44,0.0,0.02,0
3950.00739100,3950007391,0.0,1.79,0.0,3.89,139.43,139.43,0.0,0.02,0
3950.10733800,3950107338,0.0,1.79,0.0,3.9,139.43,139.43,0.0,0.02,0
3950.20732900,3950207329,0.0,1.79,0.0,3.9,139.42000000000002,139.42000000000002,0.0,0.02,0
3950.30733400,3950307334,0.0,1.79,0.0,3.9,139.44,139.44,0.0,0.02,0
3950.40762300,3950407623,0.0,1.8,0.0,3.9,139.45000000000002,139.45000000000002,0.0,0.02,0
3950.50739300,3950507393,0.0,1.8,0.0,3.9,139.44,139.44,0.0,0.02,0
3950.60732600,3950607326,0.0,1.79,0.0,3.9,139.43,139.43,0.0,0.02,0
3950.70739600,3950707396,0.0,1.79,0.0,3.9,139.4,139.4,0.0,0.02,0
3950.80739400,3950807394,0.0,1.79,0.0,3.9,139.4,139.4,0.0,0.02,0
3950.90742400,3950907424,0.0,1.79,0.0,3.9,139.4,139.4,0.0,0.01,0
3951.00729600,3951007296,0.0,1.8,0.0,3.9,139.4,139.4,0.0,0.01,0
3951.10738000,3951107380,0.0,1.8,0.0,3.9,139.41,139.41,0.0,0.01,0
3951.20733500,3951207335,0.0,1.8,0.0,3.9,139.41,139.41,0.0,0.01,0
3951.30732200,3951307322,0.0,1.8,0.0,3.9,139.41,139.41,0.0,0.01,0
3951.40754700,3951407547,0.0,1.8,0.0,3.9,139.42000000000002,139.42000000000002,0.0,0.01,0
3951.50732800,3951507328,0.0,1.8,0.0,3.9,139.43,139.43,0.0,0.01,0
3951.60735400,3951607354,0.0,1.8,0.0,3.9,139.42000000000002,139.42000000000002,0.0,0.01,0
3951.70731300,3951707313,0.0,1.8,0.0,3.89,139.42000000000002,139.42000000000002,0.0,0.01,0
3951.80733000,3951807330,0.0,1.8,0.0,3.9,139.43,139.43,0.0,0.0,0
3951.90735000,3951907350,0.0,1.8,0.0,3.89,139.44,139.44,0.0,0.01,0
3952.00731200,3952007312,0.0,1.8,0.0,3.9,139.44,139.44,0.0,0.01,0
3952.10733900,3952107339,0.0,1.8,0.0,3.89,139.43,139.43,0.0,0.01,0
3952.20738100,3952207381,0.0,1.79,0.0,3.9,139.44,139.44,0.0,0.01,0
3952.30748900,3952307489,0.0,1.79,0.0,3.89,139.41,139.41,0.0,0.01,0
3952.40764900,3952407649,0.0,1.79,0.0,3.89,139.42000000000002,139.42000000000002,0.0,0.01,0
3952.50736800,3952507368,0.0,1.79,0.0,3.89,139.42000000000002,139.42000000000002,0.0,0.01,0
3952.60733800,3952607338,0.0,1.8,0.0,3.89,139.42000000000002,139.42000000000002,0.0,0.01,0
3952.70738300,3952707383,0.0,1.8,0.0,3.89,139.42000000000002,139.42000000000002,0.0,0.01,0
3952.80736000,3952807360,0.0,1.8,0.0,3.88,139.39000000000001,139.39000000000001,0.0,0.02,0
3952.90732900,3952907329,0.0,1.8,0.0,3.89,139.39000000000001,139.39000000000001,0.0,0.01,0
3953.00735800,3953007358,0.0,1.8,0.0,3.89,139.39000000000001,139.39000000000001,0.0,0.01,0
3953.10733200,3953107332,0.0,1.8,0.0,3.89,139.37,139.37,0.0,0.02,0
3953.20734300,3953207343,0.0,1.8,0.0,3.89,139.37,139.37,0.0,0.01,0
3953.30734900,3953307349,0.0,1.8,0.0,3.89,139.35,139.35,0.0,0.02,0
3953.40756800,3953407568,0.0,1.79,0.0,3.89,139.32,139.32,0.0,0.02,0
3953.50735200,3953507352,0.0,1.79,0.0,3.89,139.32,139.32,0.0,0.02,0
3953.60740200,3953607402,0.0,1.79,0.0,3.9,139.32,139.32,0.0,0.02,0
3953.70734200,3953707342,0.0,1.79,0.0,3.89,139.32,139.32,0.0,0.01,0
3953.80733200,3953807332,0.0,1.79,0.0,3.9,139.31,139.31,0.0,0.01,0
3953.90742700,3953907427,0.0,1.79,0.0,3.89,139.32,139.32,0.0,0.01,0
3954.00741000,3954007410,0.0,1.79,0.0,3.9,139.33,139.33,0.0,0.01,0
3954.10731300,3954107313,0.0,1.79,0.0,3.89,139.34,139.34,0.0,0.01,0
3954.20735300,3954207353,0.0,1.79,0.0,3.89,139.37,139.37,0.0,0.01,0
3954.30733400,3954307334,0.0,1.79,0.0,3.89,139.37,139.37,0.0,0.01,0
3954.40758000,3954407580,0.0,1.79,0.0,3.89,139.38,139.38,0.0,0.01,0
3954.50732300,3954507323,0.0,1.79,0.0,3.89,139.38,139.38,0.0,0.01,0
3956.60729100,3956607291,0.0,1.8,0.0,3.89,139.34,139.34,0.0,0.01,0
3956.70731100,3956707311,0.0,1.81,0.0,3.89,139.33,139.33,0.0,0.01,0
3956.80733800,3956807338,0.0,1.8,0.0,3.89,139.33,139.33,0.0,0.01,0
3956.90734200,3956907342,0.0,1.81,0.0,3.89,139.35,139.35,0.0,0.01,0
3957.00750300,3957007503,0.0,1.81,0.0,3.89,139.34,139.34,0.0,0.01,0
3957.10739400,3957107394,0.0,1.8,0.0,3.89,139.33,139.33,0.0,0.01,0
3957.20739500,3957207395,0.0,1.81,0.0,3.88,139.32,139.32,0.0,0.01,0
3957.30727300,3957307273,0.0,1.8,0.0,3.89,139.32,139.32,0.0,0.01,0
3957.40758100,3957407581,0.0,1.81,0.0,3.88,139.32,139.32,0.0,0.01,0
3957.50736000,3957507360,0.0,1.8,0.0,3.89,139.33,139.33,0.0,0.01,0
3957.60729800,3957607298,0.0,1.81,0.0,3.88,139.31,139.31,0.0,0.01,0
3957.70732600,3957707326,0.0,1.8,0.0,3.89,139.3,139.3,0.0,0.01,0
3957.80738800,3957807388,0.0,1.81,0.0,3.89,139.32,139.32,0.0,0.01,0
3957.90730700,3957907307,0.0,1.8,0.0,3.89,139.31,139.31,0.0,0.01,0
3958.00731900,3958007319,0.0,1.8,0.0,3.89,139.33,139.33,0.0,0.01,0
3958.10736700,3958107367,0.0,1.8,0.0,3.89,139.34,139.34,0.0,0.01,0
3958.20730900,3958207309,0.0,1.8,0.0,3.9,139.35,139.35,0.0,0.01,0
3958.30733800,3958307338,0.0,1.8,0.0,3.89,139.34,139.34,0.0,0.01,0
3958.40758000,3958407580,0.0,1.8,0.0,3.9,139.36,139.36,0.0,0.01,0
3958.50736900,3958507369,0.0,1.81,0.0,3.89,139.35,139.35,0.0,0.0,0
3958.60739500,3958607395,0.0,1.8,0.0,3.89,139.36,139.36,0.0,0.0,0
3958.70738600,3958707386,0.0,1.81,0.0,3.89,139.37,139.37,0.0,0.01,0
3958.80734200,3958807342,0.0,1.81,0.0,3.89,139.38,139.38,0.0,0.01,0
3958.90734600,3958907346,0.0,1.82,0.0,3.89,139.39000000000001,139.39000000000001,0.0,0.01,0
3959.00737000,3959007370,0.0,1.81,0.0,3.89,139.37,139.37,0.0,0.01,0
3959.10738300,3959107383,0.0,1.81,0.0,3.89,139.39000000000001,139.39000000000001,0.0,0.01,0
3959.20733100,3959207331,0.0,1.81,0.0,3.88,139.36,139.36,0.0,0.01,0
3959.30730800,3959307308,0.0,1.82,0.0,3.89,139.41,139.41,0.0,0.02,0
3959.40753800,3959407538,0.0,1.82,0.0,3.88,139.4,139.4,0.0,0.02,0
3959.50732800,3959507328,0.0,1.82,0.0,3.88,139.43,139.43,0.0,0.02,0
3959.60733700,3959607337,0.0,1.82,0.0,3.88,139.46,139.46,0.0,0.03,0
3959.70733800,3959707338,0.0,1.82,0.0,3.88,139.47,139.47,0.0,0.02,0
3959.80736400,3959807364,0.0,1.83,0.0,3.88,139.49,139.49,0.0,0.02,0
3961.90729800,3961907298,0.0,1.82,0.0,3.87,139.5,139.5,0.0,0.01,0
3962.00735800,3962007358,0.0,1.83,0.0,3.87,139.5,139.5,0.0,0.01,0
3962.10734300,3962107343,0.0,1.83,0.0,3.87,139.5,139.5,0.0,0.01,0
3962.20734700,3962207347,0.0,1.83,0.0,3.87,139.52,139.52,0.0,0.01,0
3962.30733500,3962307335,0.0,1.83,0.0,3.87,139.51,139.51,0.0,0.01,0
3962.40756700,3962407567,0.0,1.83,0.0,3.87,139.51,139.51,0.0,0.01,0
3962.50732100,3962507321,0.0,1.83,0.0,3.87,139.52,139.52,0.0,0.0,0
3962.60734700,3962607347,0.0,1.83,0.0,3.87,139.51,139.51,0.0,0.0,0
3962.70730900,3962707309,0.0,1.83,0.0,3.87,139.53,139.53,0.0,0.0,0
3962.80730400,3962807304,0.0,1.83,0.0,3.87,139.51,139.51,0.0,0.01,0
3962.90737700,3962907377,0.0,1.83,0.0,3.87,139.51,139.51,0.0,0.01,0
3963.00736700,3963007367,0.0,1.83,0.0,3.87,139.5,139.5,0.0,0.01,0
3963.10734200,3963107342,0.0,1.83,0.0,3.87,139.51,139.51,0.0,0.01,0
3963.20737500,3963207375,0.0,1.83,0.0,3.87,139.52,139.52,0.0,0.01,0
3963.30747200,3963307472,0.0,1.83,0.0,3.87,139.52,139.52,0.0,0.01,0
3963.40765100,3963407651,0.0,1.83,0.0,3.87,139.52,139.52,0.0,0.0,0
3963.50736600,3963507366,0.0,1.83,0.0,3.87,139.54,139.54,0.0,0.01,0
3963.60734200,3963607342,0.0,1.83,0.0,3.87,139.54,139.54,0.0,0.01,0
3963.70733600,3963707336,0.0,1.83,0.0,3.87,139.54,139.54,0.0,0.0,0
3963.80731600,3963807316,0.0,1.83,0.0,3.87,139.55,139.55,0.0,0.0,0
3963.90732700,3963907327,0.0,1.83,0.0,3.87,139.55,139.55,0.0,0.0,0
3964.00733700,3964007337,0.0,1.83,0.0,3.87,139.55,139.55,0.0,0.0,0
3964.10733400,3964107334,0.0,1.83,0.0,3.87,139.55,139.55,0.0,0.0,0
3964.20732300,3964207323,0.0,1.83,0.0,3.87,139.54,139.54,0.0,0.0,0
3964.30734300,3964307343,0.0,1.83,0.0,3.87,139.56,139.56,0.0,0.0,0
3964.40762100,3964407621,0.0,1.83,0.0,3.87,139.56,139.56,0.0,0.0,0
3964.50733700,3964507337,0.0,1.83,0.0,3.87,139.55,139.55,0.0,0.0,0
3964.60734900,3964607349,0.0,1.83,0.0,3.87,139.57,139.57,0.0,0.01,0
3964.70736500,3964707365,0.0,1.83,0.0,3.87,139.56,139.56,0.0,0.01,0
3964.80731500,3964807315,0.0,1.83,0.0,3.88,139.54,139.54,0.0,0.01,0
3964.90740700,3964907407,0.0,1.83,0.0,3.88,139.55,139.55,0.0,0.01,0
3965.00730900,3965007309,0.0,1.82,0.0,3.87,139.53,139.53,0.0,0.01,0
3965.10742300,3965107423,0.0,1.72,0.0,3.91,138.99,138.99,0.0,0.01,0
3965.20736700,3965207367,0.0,2.25,0.0,3.67,142.68,142.68,0.0,0.01,0
3965.30734900,3965307349,0.0,2.66,0.0,5.57,143.76,143.76,0.0,0.02,0
3965.40764300,3965407643,0.0,1.02,0.0,10.23,141.63,141.63,0.01,0.03,0
3965.50733400,3965507334,0.0,-1.06,0.0,11.86,141.18,141.18,0.01,0.02,0
3965.60732900,3965607329,0.0,-3.5100000000000002,0.0,9.200000000000001,141.09,141.09,0.0,0.02,0
3965.70733200,3965707332,0.0,-6.0,0.0,2.38,140.99,140.99,0.0,0.03,0
3965.80725600,3965807256,0.0,-4.0,0.0,-4.5600000000000005,144.23,144.23,0.01,0.04,0
3965.90737400,3965907374,0.0,-3.33,0.0,-5.24,144.69,144.69,0.01,0.03,0
3966.00732800,3966007328,0.0,-1.34,0.0,-2.5300000000000002,144.43,144.43,0.01,0.04,0
3966.10735200,3966107352,0.0,-0.6900000000000001,0.0,-0.4,143.24,143.24,0.01,0.05,0
3966.20736400,3966207364,0.0,0.61,0.0,0.53,142.81,142.81,0.0,0.04,0
3966.30737100,3966307371,0.0,2.5100000000000002,0.0,1.68,141.45000000000002,141.45000000000002,0.0,0.04,0
3966.40760000,3966407600,0.0,4.86,0.0,2.58,141.5,141.5,0.0,0.04,0
3966.50735400,3966507354,0.0,4.62,0.0,3.5100000000000002,143.15,143.15,0.0,0.05,0
3966.60732500,3966607325,0.0,4.0,0.0,3.29,142.83,142.83,0.0,0.05,0
3966.70733400,3966707334,0.0,4.64,0.0,3.5700000000000003,142.85,142.85,0.0,0.04,0
3966.80734300,3966807343,0.0,4.65,0.0,3.56,142.84,142.84,0.0,0.03,0
3966.90743800,3966907438,0.0,4.64,0.0,3.5700000000000003,142.82,142.82,0.0,0.03,0
3967.00733200,3967007332,0.0,4.65,0.0,3.56,142.82,142.82,0.0,0.03,0
3967.10733500,3967107335,0.0,4.65,0.0,3.5700000000000003,142.83,142.83,0.0,0.02,0
3967.20732800,3967207328,0.0,4.64,0.0,3.56,142.84,142.84,0.0,0.02,0
3967.30733400,3967307334,0.0,4.64,0.0,3.5700000000000003,142.86,142.86,0.0,0.02,0
3967.40755500,3967407555,0.0,4.64,0.0,3.5700000000000003,142.85,142.85,0.0,0.02,0
3967.50736500,3967507365,0.0,4.64,0.0,3.56,142.86,142.86,0.0,0.02,0
3967.60730500,3967607305,0.0,4.64,0.0,3.5700000000000003,142.85,142.85,0.0,0.02,0
3967.70734300,3967707343,0.0,4.64,0.0,3.56,142.84,142.84,0.0,0.02,0
3967.80736000,3967807360,0.0,4.63,0.0,3.56,142.82,142.82,0.0,0.01,0
3967.90737700,3967907377,0.0,4.6000000000000005,0.0,3.5500000000000003,142.78,142.78,0.0,0.02,0
3968.00742600,3968007426,0.0,4.51,0.0,3.5300000000000002,142.75,142.75,0.0,0.01,0
3968.10732200,3968107322,0.0,4.59,0.0,3.56,142.82,142.82,0.0,0.01,0
3968.20732700,3968207327,0.0,6.57,0.0,3.81,143.13,143.13,0.0,0.01,0
3968.30733800,3968307338,0.0,11.42,0.0,3.6,143.71,143.71,0.0,0.02,0
3968.40758900,3968407589,0.0,14.56,0.0,2.86,145.19,145.19,0.0,0.03,0
3968.50734900,3968507349,0.0,12.25,0.0,1.06,146.42000000000002,146.42000000000002,0.0,0.03,0
3968.60735000,3968607350,0.0,5.6000000000000005,0.0,1.59,148.0,148.0,0.0,0.04,0
3968.70733500,3968707335,0.0,0.78,0.0,2.89,148.25,148.25,0.0,0.06,0
3968.80734800,3968807348,0.0,1.48,0.0,6.84,146.56,146.56,0.0,0.06,0
3968.90734700,3968907347,0.0,3.08,0.0,7.0200000000000005,147.75,147.75,0.0,0.06,0
3969.00733600,3969007336,0.0,7.6000000000000005,0.0,3.92,148.78,148.78,0.0,0.06,0
3969.10737500,3969107375,0.0,8.93,0.0,2.07,147.28,147.28,0.0,0.06,0
3969.20733800,3969207338,0.0,8.24,0.0,2.19,147.15,147.15,0.0,0.05,0
3969.30733900,3969307339,0.0,8.2,0.0,2.2,147.16,147.16,0.0,0.04,0
3969.40760200,3969407602,0.0,8.17,0.0,2.2,147.16,147.16,0.0,0.03,0
3969.50738400,3969507384,0.0,8.15,0.0,2.2,147.18,147.18,0.0,0.03,0
3969.60750200,3969607502,0.0,8.120000000000001,0.0,2.2,147.20000000000002,147.20000000000002,0.0,0.03,0
3969.70736500,3969707365,0.0,8.14,0.0,2.19,147.21,147.21,0.0,0.03,0
3969.80737600,3969807376,0.0,7.75,0.0,2.4,144.16,144.16,0.0,0.02,0
3969.90735300,3969907353,0.0,7.54,0.0,2.61,142.84,142.84,0.0,0.03,0
3970.00735000,3970007350,0.0,7.48,0.0,2.66,142.41,142.41,0.01,0.02,0
3970.10731300,3970107313,0.0,7.46,0.0,2.64,142.42000000000002,142.42000000000002,0.01,0.02,0
3970.20732200,3970207322,0.0,7.49,0.0,2.61,142.45000000000002,142.45000000000002,0.0,0.02,0
3970.30732400,3970307324,0.0,7.3,0.0,2.63,143.04,143.04,0.0,0.02,0
3970.40751800,3970407518,0.0,7.25,0.0,2.63,143.3,143.3,0.0,0.02,0
3970.50733000,3970507330,0.0,7.24,0.0,2.63,143.33,143.33,0.0,0.02,0
3970.60735000,3970607350,0.0,7.17,0.0,2.63,143.77,143.77,0.0,0.01,0
3970.70737900,3970707379,0.0,7.17,0.0,2.62,143.87,143.87,0.0,0.01,0
3970.80740400,3970807404,0.0,7.2,0.0,2.62,143.87,143.87,0.0,0.01,0
3970.90733400,3970907334,0.0,7.2,0.0,2.62,143.86,143.86,0.0,0.01,0
3971.00739100,3971007391,0.0,7.17,0.0,2.63,143.86,143.86,0.0,0.01,0
3971.10738500,3971107385,0.0,7.05,0.0,2.63,144.19,144.19,0.0,0.01,0
3971.20736000,3971207360,0.0,7.11,0.0,2.57,144.56,144.56,0.0,0.01,0
3971.30735600,3971307356,0.0,7.11,0.0,2.57,144.58,144.58,0.0,0.01,0
3971.40761400,3971407614,0.0,7.13,0.0,2.57,144.56,144.56,0.0,0.01,0
3971.50739400,3971507394,0.0,7.11,0.0,2.58,144.54,144.54,0.0,0.01,0
3971.60736500,3971607365,0.0,7.11,0.0,2.58,144.52,144.52,0.0,0.02,0
3971.70736300,3971707363,0.0,7.11,0.0,2.58,144.53,144.53,0.0,0.02,0
3971.80733800,3971807338,0.0,7.1000000000000005,0.0,2.58,144.52,144.52,0.0,0.01,0
3971.90733700,3971907337,0.0,7.09,0.0,2.58,144.52,144.52,0.0,0.01,0
3972.00736300,3972007363,0.0,7.1000000000000005,0.0,2.58,144.52,144.52,0.0,0.01,0
3972.10731700,3972107317,0.0,7.1000000000000005,0.0,2.58,144.52,144.52,0.0,0.01,0
3972.20735100,3972207351,0.0,7.11,0.0,2.58,144.51,144.51,0.0,0.01,0
3972.30733300,3972307333,0.0,7.12,0.0,2.59,144.5,144.5,0.0,0.01,0
3972.40761000,3972407610,0.0,7.09,0.0,2.57,144.52,144.52,0.0,0.02,0
3972.50735500,3972507355,0.0,7.11,0.0,2.59,144.53,144.53,0.0,0.02,0
3972.60738900,3972607389,0.0,7.09,0.0,2.58,144.52,144.52,0.0,0.02,0
3972.70740400,3972707404,0.0,7.1000000000000005,0.0,2.57,144.53,144.53,0.0,0.01,0
3972.80742700,3972807427,0.0,7.09,0.0,2.6,144.52,144.52,0.0,0.01,0
3972.90737500,3972907375,0.0,7.08,0.0,2.56,144.53,144.53,0.0,0.01,0
3973.00736200,3973007362,0.0,7.08,0.0,2.59,144.56,144.56,0.0,0.02,0
3973.10735000,3973107350,0.0,7.08,0.0,2.57,144.56,144.56,0.0,0.02,0
3973.20733800,3973207338,0.0,7.07,0.0,2.58,144.58,144.58,0.0,0.02,0
3973.30731200,3973307312,0.0,7.09,0.0,2.58,144.58,144.58,0.0,0.02,0
3973.40763500,3973407635,0.0,7.07,0.0,2.57,144.59,144.59,0.0,0.01,0
3973.50734400,3973507344,0.0,7.09,0.0,2.58,144.58,144.58,0.0,0.01,0
3973.60733200,3973607332,0.0,7.07,0.0,2.58,144.59,144.59,0.0,0.01,0
3973.70735400,3973707354,0.0,7.08,0.0,2.58,144.6,144.6,0.0,0.01,0
3973.80739800,3973807398,0.0,7.08,0.0,2.58,144.6,144.6,0.0,0.01,0
3973.90734000,3973907340,0.0,7.07,0.0,2.57,144.59,144.59,0.0,0.01,0
3974.00734400,3974007344,0.0,7.08,0.0,2.58,144.6,144.6,0.0,0.01,0
3974.10736600,3974107366,0.0,7.07,0.0,2.57,144.6,144.6,0.0,0.01,0
3974.20731500,3974207315,0.0,7.07,0.0,2.57,144.63,144.63,0.0,0.02,0
3974.30744600,3974307446,0.0,7.32,0.0,2.52,144.69,144.69,0.0,0.02,0
3974.40765000,3974407650,0.0,4.23,0.0,2.8000000000000003,143.58,143.58,0.0,0.02,0
3974.50735700,3974507357,0.0,1.73,0.0,-0.07,146.15,146.15,0.0,0.02,0
3974.60736600,3974607366,0.0,-6.15,0.0,-1.48,148.24,148.24,0.0,0.03,0
3974.70734300,3974707343,0.0,-13.370000000000001,0.0,-1.56,150.84,150.84,0.0,0.05,0
3974.80734600,3974807346,0.0,-19.650000000000002,0.0,-0.63,150.82,150.82,0.0,0.07,0
3974.90736300,3974907363,0.0,-23.22,0.0,1.07,152.69,152.69,0.0,0.07,0
3975.00734400,3975007344,0.0,-26.29,0.0,2.45,153.77,153.77,0.0,0.06,0
3975.10733700,3975107337,0.0,-28.400000000000002,0.0,3.68,154.58,154.58,0.0,0.05,0
3975.20733600,3975207336,0.0,-29.330000000000002,0.0,5.62,156.92000000000002,156.92000000000002,0.0,0.05,0
3975.30735100,3975307351,0.0,-29.900000000000002,0.0,6.97,158.36,158.36,0.01,0.06,0
3975.40760200,3975407602,0.0,-30.25,0.0,8.620000000000001,160.62,160.62,0.01,0.06,0
3975.50736400,3975507364,0.0,-29.97,0.0,11.35,163.46,163.46,0.01,0.07,0
3975.60735500,3975607355,0.0,-29.310000000000002,0.0,12.51,165.41,165.41,0.01,0.08,0
3975.70737500,3975707375,0.0,-28.59,0.0,13.27,167.26,167.26,0.01,0.09,0
3975.80739700,3975807397,0.0,-28.310000000000002,0.0,12.44,167.26,167.26,0.01,0.1,0
3975.90750300,3975907503,0.0,-27.29,0.0,9.61,164.66,164.66,0.01,0.09,0
3976.00736600,3976007366,0.0,-28.1,0.0,5.73,162.96,162.96,0.01,0.07,0
3976.10735400,3976107354,0.0,-29.830000000000002,0.0,3.94,163.23,163.23,0.01,0.06,0
3976.20738300,3976207383,0.0,-31.62,0.0,5.8500000000000005,164.04,164.04,0.01,0.05,0
3976.30734500,3976307345,0.0,-32.01,0.0,4.8100000000000005,161.85,161.85,0.01,0.05,0
3976.40753200,3976407532,0.0,-29.990000000000002,0.0,2.94,161.77,161.77,0.01,0.05,0
3976.50734700,3976507347,0.0,-28.1,0.0,2.82,161.96,161.96,0.01,0.07,0
3976.60735900,3976607359,0.0,-26.8,0.0,3.02,162.27,162.27,0.01,0.08,0
3976.70731800,3976707318,0.0,-25.34,0.0,2.1,162.18,162.18,0.01,0.09,0
3976.80735200,3976807352,0.0,-24.02,0.0,3.06,163.44,163.44,0.01,0.09,0
4002.60733600,4002607336,0.0,2.05,0.0,1.23,177.03,177.03,0.0,0.02,0
4002.70734300,4002707343,0.0,2.05,0.0,1.23,177.0,177.0,0.0,0.02,0
4002.80733100,4002807331,0.0,2.05,0.0,1.23,177.0,177.0,0.0,0.02,0
4002.90730400,4002907304,0.0,2.06,0.0,1.23,177.0,177.0,0.0,0.02,0
4003.00733600,4003007336,0.0,2.06,0.0,1.23,176.99,176.99,0.0,0.02,0
4003.10731700,4003107317,0.0,2.06,0.0,1.22,176.97,176.97,0.0,0.02,0
4003.20734800,4003207348,0.0,2.07,0.0,1.23,176.97,176.97,0.0,0.02,0
4003.30732800,4003307328,0.0,2.08,0.0,1.23,176.95000000000002,176.95000000000002,0.0,0.02,0
4003.40756200,4003407562,0.0,2.08,0.0,1.22,176.94,176.94,0.0,0.02,0
4003.50729600,4003507296,0.0,2.08,0.0,1.22,176.93,176.93,0.0,0.02,0
4003.60734100,4003607341,0.0,2.08,0.0,1.22,176.89000000000001,176.89000000000001,0.0,0.03,0
4003.70738400,4003707384,0.0,2.09,0.0,1.23,176.86,176.86,0.0,0.04,0
4003.80746200,4003807462,0.0,2.09,0.0,1.22,176.85,176.85,0.0,0.03,0
4003.90729500,4003907295,0.0,2.1,0.0,1.23,176.83,176.83,0.0,0.04,0
4004.00743000,4004007430,0.0,2.1,0.0,1.22,176.82,176.82,0.0,0.03,0
4006.10732000,4006107320,0.0,2.18,0.0,1.19,176.6,176.6,0.0,0.02,0
4006.20731900,4006207319,0.0,2.17,0.0,1.19,176.62,176.62,0.0,0.02,0
4006.30732800,4006307328,0.0,2.19,0.0,1.19,176.61,176.61,0.0,0.02,0
4006.40751600,4006407516,0.0,2.18,0.0,1.19,176.6,176.6,0.0,0.02,0
4006.50736100,4006507361,0.0,2.18,0.0,1.19,176.55,176.55,0.0,0.03,0
4006.60732000,4006607320,0.0,2.19,0.0,1.19,176.54,176.54,0.0,0.03,0
4006.70735400,4006707354,0.0,2.19,0.0,1.19,176.54,176.54,0.0,0.02,0
4006.80731300,4006807313,0.0,2.2,0.0,1.19,176.53,176.53,0.0,0.02,0
4006.90741300,4006907413,0.0,2.2,0.0,1.19,176.51,176.51,0.0,0.03,0
4007.00740800,4007007408,0.0,2.2,0.0,1.19,176.5,176.5,0.0,0.02,0
4007.10733600,4007107336,0.0,2.21,0.0,1.19,176.49,176.49,0.0,0.02,0
4007.20736600,4007207366,0.0,2.21,0.0,1.19,176.48,176.48,0.0,0.02,0
4007.30734800,4007307348,0.0,2.21,0.0,1.19,176.46,176.46,0.0,0.02,0
4007.40772400,4007407724,0.0,2.21,0.0,1.19,176.46,176.46,0.0,0.02,0
4007.50735300,4007507353,0.0,2.22,0.0,1.19,176.45000000000002,176.45000000000002,0.0,0.02,0
4007.60735500,4007607355,0.0,2.22,0.0,1.19,176.44,176.44,0.0,0.01,0
4007.70730100,4007707301,0.0,2.23,0.0,1.18,176.43,176.43,0.0,0.01,0
4009.80735600,4009807356,0.0,2.2600000000000002,0.0,1.19,176.12,176.12,0.0,0.02,0
4009.90733400,4009907334,0.0,2.27,0.0,1.19,176.1,176.1,0.0,0.02,0
4010.00736400,4010007364,0.0,2.27,0.0,1.19,176.08,176.08,0.0,0.02,0
4010.10730000,4010107300,0.0,2.27,0.0,1.19,176.07,176.07,0.0,0.02,0
4010.20737300,4010207373,0.0,2.27,0.0,1.19,176.06,176.06,0.0,0.02,0
4010.30734200,4010307342,0.0,2.27,0.0,1.19,176.06,176.06,0.0,0.02,0
4010.40762100,4010407621,0.0,2.27,0.0,1.19,176.07,176.07,0.0,0.01,0
4010.50735200,4010507352,0.0,2.27,0.0,1.19,176.05,176.05,0.0,0.02,0
4010.60734300,4010607343,0.0,2.27,0.0,1.19,176.05,176.05,0.0,0.01,0
4010.70735600,4010707356,0.0,2.2800000000000002,0.0,1.19,176.03,176.03,0.0,0.02,0
4010.80731500,4010807315,0.0,2.2800000000000002,0.0,1.19,175.99,175.99,0.0,0.02,0
4010.90733400,4010907334,0.0,2.2800000000000002,0.0,1.19,175.97,175.97,0.0,0.02,0
4011.00733100,4011007331,0.0,2.2800000000000002,0.0,1.19,175.94,175.94,0.0,0.03,0
4011.10731700,4011107317,0.0,2.2800000000000002,0.0,1.19,175.9,175.9,0.0,0.03,0
4011.20735800,4011207358,0.0,2.2800000000000002,0.0,1.18,175.9,175.9,0.0,0.02,0
4011.30731500,4011307315,0.0,2.2800000000000002,0.0,1.18,175.86,175.86,0.0,0.03,0
4011.40758700,4011407587,0.0,2.2800000000000002,0.0,1.18,175.86,175.86,0.0,0.02,0
4011.50733000,4011507330,0.0,2.2800000000000002,0.0,1.18,175.85,175.85,0.0,0.02,0
4011.60739900,4011607399,0.0,2.2800000000000002,0.0,1.18,175.85,175.85,0.0,0.01,0
4011.70733700,4011707337,0.0,2.2800000000000002,0.0,1.18,175.84,175.84,0.0,0.01,0
4011.80731800,4011807318,0.0,2.29,0.0,1.18,175.82,175.82,0.0,0.01,0
4011.90733300,4011907333,0.0,2.29,0.0,1.18,175.81,175.81,0.0,0.01,0
4012.00734900,4012007349,0.0,2.29,0.0,1.18,175.82,175.82,0.0,0.02,0
4012.10730900,4012107309,0.0,2.29,0.0,1.18,175.82,175.82,0.0,0.01,0
4012.20735500,4012207355,0.0,2.3000000000000003,0.0,1.18,175.81,175.81,0.0,0.01,0
4012.30735300,4012307353,0.0,2.3000000000000003,0.0,1.18,175.8,175.8,0.0,0.01,0
4012.40756000,4012407560,0.0,2.3000000000000003,0.0,1.18,175.78,175.78,0.0,0.01,0
4012.50733000,4012507330,0.0,2.3000000000000003,0.0,1.19,175.76,175.76,0.0,0.01,0
4012.60738500,4012607385,0.0,2.31,0.0,1.18,175.76,175.76,0.0,0.01,0
4012.70733600,4012707336,0.0,2.31,0.0,1.19,175.75,175.75,0.0,0.01,0
4012.80735400,4012807354,0.0,2.31,0.0,1.18,175.74,175.74,0.0,0.01,0
4012.90732400,4012907324,0.0,2.31,0.0,1.18,175.72,175.72,0.0,0.01,0
4013.00736200,4013007362,0.0,2.31,0.0,1.18,175.69,175.69,0.0,0.02,0
4013.10728900,4013107289,0.0,2.32,0.0,1.19,175.70000000000002,175.70000000000002,0.0,0.01,0
4013.20730900,4013207309,0.0,2.31,0.0,1.19,175.68,175.68,0.0,0.01,0
4013.30743000,4013307430,0.0,2.31,0.0,1.19,175.67000000000002,175.67000000000002,0.0,0.01,0
4013.40764000,4013407640,0.0,2.31,0.0,1.19,175.66,175.66,0.0,0.01,0
4015.50739100,4015507391,0.0,2.37,0.0,1.24,174.76,174.76,0.0,0.0,0
4015.60734000,4015607340,0.0,2.35,0.0,1.26,174.92000000000002,174.92000000000002,0.01,0.01,0
4015.70733400,4015707334,0.0,2.34,0.0,1.24,174.93,174.93,0.01,0.01,0
4015.80732400,4015807324,0.0,2.34,0.0,1.22,175.9,175.9,0.01,0.02,0
4015.90731000,4015907310,0.0,-0.18,0.0,1.42,178.26,178.26,0.01,0.01,0
4016.00737200,4016007372,0.0,-9.69,0.0,2.42,181.0,181.01,0.01,0.02,0
4016.10733900,4016107339,0.0,-14.86,0.0,5.95,182.27,182.28,0.01,0.05,0
4016.20731600,4016207316,0.0,-13.34,0.0,7.07,183.27,183.28,0.01,0.06,0
4016.30741100,4016307411,0.0,-13.290000000000001,0.0,7.0600000000000005,183.23,183.24,0.01,0.07,0
4016.40761100,4016407611,0.0,-10.790000000000001,0.0,6.98,183.04,183.05,0.01,0.07,0
4016.50734700,4016507347,0.0,-3.48,0.0,4.29,182.67000000000002,182.68,0.01,0.07,0
4016.60738000,4016607380,0.0,-3.0300000000000002,0.0,4.19,182.52,182.53,0.01,0.08,0
4016.70738900,4016707389,0.0,-2.36,0.0,3.9,182.46,182.47,0.01,0.08,0
4016.80733000,4016807330,0.0,-2.15,0.0,3.81,182.42000000000002,182.43,0.01,0.07,0
4016.90734000,4016907340,0.0,-1.83,0.0,3.67,182.38,182.39000000000001,0.01,0.06,0
4017.00731100,4017007311,0.0,-1.67,0.0,3.6,182.34,182.35,0.0,0.05,0
4017.10732700,4017107327,0.0,-1.58,0.0,3.5500000000000003,182.28,182.29,0.0,0.06,0
4017.20733700,4017207337,0.0,-1.29,0.0,3.42,182.26,182.27,0.0,0.05,0
4017.30736200,4017307362,0.0,-0.17,0.0,2.85,182.15,182.16,0.0,0.05,0
4017.40755700,4017407557,0.0,2.49,0.0,1.02,181.6,181.61,0.0,0.04,0
4017.50737900,4017507379,0.0,2.47,0.0,1.07,181.31,181.32,0.0,0.04,0
4017.60742600,4017607426,0.0,2.49,0.0,1.08,181.24,181.25,0.0,0.03,0
4017.70732100,4017707321,0.0,2.5300000000000002,0.0,1.06,180.95000000000002,180.96,0.0,0.03,0
4017.80737400,4017807374,0.0,2.5500000000000003,0.0,1.05,180.94,180.95000000000002,0.0,0.03,0
4017.90745800,4017907458,0.0,2.66,0.0,1.0,180.54,180.55,0.0,0.03,0
4018.00735700,4018007357,0.0,2.69,0.0,0.98,180.48,180.49,0.0,0.03,0
4018.10737000,4018107370,0.0,2.69,0.0,0.98,180.47,180.48,0.0,0.03,0
4018.20735500,4018207355,0.0,2.69,0.0,0.99,180.44,180.45000000000002,0.0,0.02,0
4018.30734700,4018307347,0.0,2.69,0.0,0.99,180.41,180.42000000000002,0.0,0.03,0
4018.40759900,4018407599,0.0,2.69,0.0,0.99,180.4,180.41,0.0,0.02,0
4018.50736100,4018507361,0.0,2.69,0.0,0.99,180.36,180.37,0.0,0.03,0
4018.60733800,4018607338,0.0,2.69,0.0,0.99,180.37,180.38,0.0,0.02,0
4018.70732800,4018707328,0.0,2.69,0.0,0.99,180.35,180.36,0.0,0.02,0
4018.80735400,4018807354,0.0,2.68,0.0,1.0,180.33,180.34,0.0,0.02,0
4018.90734200,4018907342,0.0,2.69,0.0,0.99,180.32,180.33,0.0,0.02,0
4019.00729700,4019007297,0.0,2.69,0.0,1.0,180.3,180.31,0.0,0.02,0
4019.10729900,4019107299,0.0,2.69,0.0,1.0,180.28,180.29,0.0,0.02,0
4019.20735300,4019207353,0.0,2.69,0.0,1.0,180.25,180.26,0.0,0.02,0
4019.30735400,4019307354,0.0,2.69,0.0,0.99,180.25,180.26,0.0,0.01,0
4019.40763100,4019407631,0.0,2.69,0.0,1.0,180.24,180.25,0.0,0.01,0
4019.50740200,4019507402,0.0,2.69,0.0,0.99,180.23,180.24,0.0,0.01,0
4019.60735300,4019607353,0.0,2.69,0.0,1.0,180.21,180.22,0.0,0.01,0
4019.70733200,4019707332,0.0,2.69,0.0,0.99,180.20000000000002,180.21,0.0,0.01,0
4021.80732300,4021807323,0.0,2.71,0.0,1.0,179.83,179.83,0.0,0.01,0
4021.90733200,4021907332,0.0,2.71,0.0,1.0,179.82,179.82,0.0,0.01,0
4022.00735300,4022007353,0.0,2.72,0.0,1.0,179.8,179.8,0.0,0.01,0
4022.10736100,4022107361,0.0,2.72,0.0,1.0,179.77,179.77,0.0,0.02,0
4022.20737700,4022207377,0.0,2.72,0.0,1.01,179.74,179.74,0.0,0.02,0
4022.30734300,4022307343,0.0,2.72,0.0,1.01,179.72,179.72,0.0,0.02,0
4022.40757100,4022407571,0.0,2.72,0.0,1.0,179.70000000000002,179.70000000000002,0.0,0.02,0
4022.50738500,4022507385,0.0,2.72,0.0,1.01,179.69,179.69,0.0,0.01,0
4022.60739000,4022607390,0.0,2.72,0.0,1.0,179.66,179.66,0.0,0.01,0
4022.70734500,4022707345,0.0,2.72,0.0,1.01,179.66,179.66,0.0,0.01,0
4022.80734900,4022807349,0.0,2.72,0.0,1.0,179.64000000000001,179.64000000000001,0.0,0.01,0
4022.90734100,4022907341,0.0,2.72,0.0,1.01,179.62,179.62,0.0,0.01,0
4023.00734000,4023007340,0.0,2.72,0.0,1.01,179.57,179.57,0.0,0.02,0
4023.10736300,4023107363,0.0,2.72,0.0,1.01,179.57,179.57,0.0,0.01,0
4023.20734200,4023207342,0.0,2.73,0.0,1.01,179.55,179.55,0.0,0.01,0
4023.30734100,4023307341,0.0,2.73,0.0,1.02,179.54,179.54,0.0,0.01,0
4023.40752800,4023407528,0.0,2.73,0.0,1.02,179.51,179.51,0.0,0.01,0
4023.50732700,4023507327,0.0,2.73,0.0,1.02,179.49,179.49,0.0,0.01,0
4023.60730900,4023607309,0.0,2.73,0.0,1.02,179.48,179.48,0.0,0.01,0
4023.70730600,4023707306,0.0,2.74,0.0,1.02,179.47,179.47,0.0,0.01,0
4023.80740400,4023807404,0.0,2.74,0.0,1.02,179.46,179.46,0.0,0.0,0
4023.90733600,4023907336,0.0,2.74,0.0,1.03,179.47,179.47,0.0,0.01,0
4024.00736300,4024007363,0.0,2.74,0.0,1.02,179.46,179.46,0.0,0.01,0
4024.10738500,4024107385,0.0,2.74,0.0,1.03,179.45000000000002,179.45000000000002,0.0,0.01,0
4024.20749100,4024207491,0.0,2.75,0.0,1.02,179.44,179.44,0.0,0.0,0
4024.30731900,4024307319,0.0,2.75,0.0,1.03,179.43,179.43,0.0,0.0,0
4024.40759300,4024407593,0.0,2.75,0.0,1.03,179.44,179.44,0.0,0.01,0
4024.50735300,4024507353,0.0,2.75,0.0,1.03,179.44,179.44,0.0,0.01,0
4024.60729900,4024607299,0.0,2.75,0.0,1.03,179.43,179.43,0.0,0.01,0
4024.70735800,4024707358,0.0,2.75,0.0,1.04,179.4,179.4,0.0,0.01,0
4024.80731800,4024807318,0.0,2.75,0.0,1.04,179.38,179.38,0.0,0.01,0
4024.90733600,4024907336,0.0,2.7600000000000002,0.0,1.04,179.39000000000001,179.39000000000001,0.0,0.01,0
4025.00733300,4025007333,0.0,2.7600000000000002,0.0,1.04,179.39000000000001,179.39000000000001,0.0,0.02,0
4025.10731800,4025107318,0.0,2.7600000000000002,0.0,1.04,179.38,179.38,0.0,0.01,0
4025.20728500,4025207285,0.0,2.7600000000000002,0.0,1.04,179.38,179.38,0.0,0.02,0
4025.30736500,4025307365,0.0,2.7600000000000002,0.0,1.04,179.36,179.36,0.0,0.01,0
4025.40759900,4025407599,0.0,2.7600000000000002,0.0,1.04,179.35,179.35,0.0,0.01,0
4025.50734600,4025507346,0.0,2.7600000000000002,0.0,1.04,179.32,179.32,0.0,0.01,0
4025.60738900,4025607389,0.0,2.77,0.0,1.04,179.33,179.33,0.0,0.02,0
4025.70734300,4025707343,0.0,2.77,0.0,1.04,179.34,179.34,0.0,0.02,0
4025.80743500,4025807435,0.0,2.77,0.0,1.05,179.33,179.33,0.0,0.02,0
4025.90732300,4025907323,0.0,2.77,0.0,1.04,179.34,179.34,0.0,0.02,0
4026.00739100,4026007391,0.0,2.7800000000000002,0.0,1.04,179.33,179.33,0.0,0.02,0
4026.10735700,4026107357,0.0,2.7800000000000002,0.0,1.04,179.31,179.31,0.0,0.01,0
4026.20735200,4026207352,0.0,2.7800000000000002,0.0,1.04,179.27,179.27,0.0,0.02,0
4026.30739100,4026307391,0.0,2.79,0.0,1.05,179.24,179.24,0.0,0.02,0
4026.40755500,4026407555,0.0,2.79,0.0,1.05,179.23,179.23,0.0,0.02,0
4026.50730900,4026507309,0.0,2.79,0.0,1.05,179.23,179.23,0.0,0.02,0
4026.60733000,4026607330,0.0,2.79,0.0,1.05,179.21,179.21,0.0,0.01,0
4028.70737900,4028707379,0.0,2.8000000000000003,0.0,1.06,178.94,178.94,0.0,0.01,0
4028.80729800,4028807298,0.0,2.8000000000000003,0.0,1.07,178.95000000000002,178.95000000000002,0.0,0.02,0
4028.90741600,4028907416,0.0,2.8000000000000003,0.0,1.06,178.95000000000002,178.95000000000002,0.0,0.02,0
4029.00731800,4029007318,0.0,2.79,0.0,1.07,178.94,178.94,0.0,0.01,0
4029.10736300,4029107363,0.0,2.8000000000000003,0.0,1.07,178.92000000000002,178.92000000000002,0.0,0.01,0
4029.20735400,4029207354,0.0,2.8000000000000003,0.0,1.07,178.93,178.93,0.0,0.01,0
4029.30733500,4029307335,0.0,2.79,0.0,1.07,178.93,178.93,0.0,0.02,0
4029.40758900,4029407589,0.0,2.8000000000000003,0.0,1.06,178.92000000000002,178.92000000000002,0.0,0.01,0
4029.50731300,4029507313,0.0,2.79,0.0,1.06,178.9,178.9,0.0,0.01,0
4029.60733300,4029607333,0.0,2.79,0.0,1.06,178.88,178.88,0.0,0.01,0
4029.70734100,4029707341,0.0,2.79,0.0,1.06,178.86,178.86,0.0,0.01,0
4029.80734900,4029807349,0.0,2.79,0.0,1.06,178.85,178.85,0.0,0.01,0
4029.90729900,4029907299,0.0,2.79,0.0,1.06,178.86,178.86,0.0,0.01,0
4030.00737300,4030007373,0.0,2.79,0.0,1.05,178.82,178.82,0.0,0.01,0
4030.10739000,4030107390,0.0,2.8000000000000003,0.0,1.05,178.8,178.8,0.0,0.01,0
4030.20734900,4030207349,0.0,2.79,0.0,1.05,178.79,178.79,0.0,0.01,0
4030.30738800,4030307388,0.0,2.79,0.0,1.05,178.77,178.77,0.0,0.01,0
4030.40761000,4030407610,0.0,2.79,0.0,1.06,178.74,178.74,0.0,0.01,0
4030.50749200,4030507492,0.0,2.79,0.0,1.06,178.75,178.75,0.0,0.01,0
4030.60735000,4030607350,0.0,2.79,0.0,1.06,178.71,178.71,0.0,0.02,0
4030.70733800,4030707338,0.0,2.79,0.0,1.06,178.72,178.72,0.0,0.02,0
4030.80736200,4030807362,0.0,2.79,0.0,1.05,178.72,178.72,0.0,0.02,0
4030.90733100,4030907331,0.0,2.79,0.0,1.06,178.70000000000002,178.70000000000002,0.0,0.01,0
4031.00731800,4031007318,0.0,2.79,0.0,1.06,178.67000000000002,178.67000000000002,0.0,0.02,0
4031.10732000,4031107320,0.0,2.79,0.0,1.06,178.65,178.65,0.0,0.01,0
4031.20733300,4031207333,0.0,2.79,0.0,1.06,178.65,178.65,0.0,0.01,0
4031.30734900,4031307349,0.0,2.79,0.0,1.06,178.63,178.63,0.0,0.01,0
4031.40753200,4031407532,0.0,2.79,0.0,1.05,178.64000000000001,178.64000000000001,0.0,0.01,0
4031.50735700,4031507357,0.0,2.79,0.0,1.06,178.62,178.62,0.0,0.01,0
4031.60737300,4031607373,0.0,2.8000000000000003,0.0,1.05,178.62,178.62,0.0,0.01,0
4031.70734600,4031707346,0.0,2.8000000000000003,0.0,1.06,178.62,178.62,0.0,0.01,0
4031.80734800,4031807348,0.0,2.8000000000000003,0.0,1.04,178.61,178.61,0.0,0.01,0
4031.90740400,4031907404,0.0,2.8000000000000003,0.0,1.06,178.59,178.59,0.0,0.01,0
4032.00738700,4032007387,0.0,2.8000000000000003,0.0,1.04,178.58,178.58,0.0,0.01,0
4032.10732700,4032107327,0.0,2.8000000000000003,0.0,1.06,178.57,178.57,0.0,0.01,0
4032.20736800,4032207368,0.0,2.8000000000000003,0.0,1.04,178.56,178.56,0.0,0.01,0
4032.30736300,4032307363,0.0,2.8000000000000003,0.0,1.05,178.58,178.58,0.0,0.02,0
4032.40756300,4032407563,0.0,2.8000000000000003,0.0,1.03,178.56,178.56,0.0,0.01,0
4032.50735600,4032507356,0.0,2.8000000000000003,0.0,1.05,178.57,178.57,0.0,0.02,0
4032.60734600,4032607346,0.0,2.81,0.0,1.04,178.55,178.55,0.0,0.01,0
4032.70737000,4032707370,0.0,2.81,0.0,1.05,178.55,178.55,0.0,0.01,0
4032.80741600,4032807416,0.0,2.81,0.0,1.05,178.54,178.54,0.0,0.01,0
4032.90734100,4032907341,0.0,2.81,0.0,1.04,178.53,178.53,0.0,0.01,0
4033.00734100,4033007341,0.0,2.81,0.0,1.05,178.53,178.53,0.0,0.01,0
4033.10729200,4033107292,0.0,2.81,0.0,1.04,178.53,178.53,0.0,0.01,0
4033.20734200,4033207342,0.0,2.81,0.0,1.05,178.53,178.53,0.0,0.01,0
4033.30733100,4033307331,0.0,2.82,0.0,1.04,178.53,178.53,0.0,0.01,0
4033.40757100,4033407571,0.0,2.82,0.0,1.05,178.51,178.51,0.0,0.01,0
4033.50729600,4033507296,0.0,2.82,0.0,1.05,178.48,178.48,0.0,0.01,0
4033.60739900,4033607399,0.0,2.82,0.0,1.05,178.47,178.47,0.0,0.01,0
4033.70737200,4033707372,0.0,2.82,0.0,1.04,178.48,178.48,0.0,0.02,0
4033.80735400,4033807354,0.0,2.82,0.0,1.04,178.48,178.48,0.0,0.02,0
4033.90734900,4033907349,0.0,2.82,0.0,1.04,178.49,178.49,0.0,0.02,0
4034.00736700,4034007367,0.0,2.82,0.0,1.04,178.49,178.49,0.0,0.02,0
4034.10734200,4034107342,0.0,2.82,0.0,1.04,178.49,178.49,0.0,0.02,0
4034.20733100,4034207331,0.0,2.82,0.0,1.04,178.5,178.5,0.0,0.02,0
4034.30733200,4034307332,0.0,2.82,0.0,1.04,178.51,178.51,0.0,0.02,0
4034.40755800,4034407558,0.0,2.82,0.0,1.04,178.49,178.49,0.0,0.02,0
4034.50733700,4034507337,0.0,2.82,0.0,1.04,178.49,178.49,0.0,0.01,0
4034.60734100,4034607341,0.0,2.82,0.0,1.04,178.47,178.47,0.0,0.01,0
4034.70748900,4034707489,0.0,2.83,0.0,1.05,178.46,178.46,0.0,0.01,0
4034.80733500,4034807335,0.0,2.83,0.0,1.04,178.46,178.46,0.0,0.01,0
4034.90734600,4034907346,0.0,2.83,0.0,1.05,178.45000000000002,178.45000000000002,0.0,0.01,0
4035.00738500,4035007385,0.0,2.83,0.0,1.05,178.45000000000002,178.45000000000002,0.0,0.01,0
4035.10733800,4035107338,0.0,2.83,0.0,1.06,178.44,178.44,0.0,0.01,0
4035.20735700,4035207357,0.0,2.83,0.0,1.06,178.46,178.46,0.0,0.02,0
4035.30728900,4035307289,0.0,2.83,0.0,1.05,178.47,178.47,0.0,0.02,0
4035.40761200,4035407612,0.0,2.83,0.0,1.05,178.45000000000002,178.45000000000002,0.0,0.02,0
4037.50734900,4037507349,0.0,2.84,0.0,1.04,178.31,178.31,0.0,0.01,0
4037.60734500,4037607345,0.0,2.84,0.0,1.05,178.3,178.3,0.0,0.01,0
4037.70732900,4037707329,0.0,2.84,0.0,1.04,178.3,178.3,0.0,0.01,0
4037.80733000,4037807330,0.0,2.83,0.0,1.04,178.28,178.28,0.0,0.01,0
4037.90739700,4037907397,0.0,2.83,0.0,1.04,178.27,178.27,0.0,0.01,0
4038.00734300,4038007343,0.0,2.83,0.0,1.04,178.28,178.28,0.0,0.01,0
4038.10736900,4038107369,0.0,2.83,0.0,1.04,178.29,178.29,0.0,0.02,0
4038.20741000,4038207410,0.0,2.83,0.0,1.03,178.3,178.3,0.0,0.02,0
4038.30735800,4038307358,0.0,2.83,0.0,1.04,178.3,178.3,0.0,0.02,0
4038.40763600,4038407636,0.0,2.83,0.0,1.04,178.28,178.28,0.0,0.01,0
4038.50734300,4038507343,0.0,2.83,0.0,1.04,178.29,178.29,0.0,0.01,0
4038.60738000,4038607380,0.0,2.83,0.0,1.03,178.3,178.3,0.0,0.02,0
4038.70734500,4038707345,0.0,2.83,0.0,1.04,178.28,178.28,0.0,0.02,0
4038.80732400,4038807324,0.0,2.83,0.0,1.03,178.28,178.28,0.0,0.02,0
4038.90732600,4038907326,0.0,2.83,0.0,1.04,178.27,178.27,0.0,0.01,0
4039.00731400,4039007314,0.0,2.84,0.0,1.03,178.28,178.28,0.0,0.02,0
4039.10735700,4039107357,0.0,2.84,0.0,1.03,178.3,178.3,0.0,0.02,0
4039.20735600,4039207356,0.0,2.84,0.0,1.03,178.29,178.29,0.0,0.02,0
4039.30733000,4039307330,0.0,2.84,0.0,1.03,178.3,178.3,0.0,0.02,0
4039.40760700,4039407607,0.0,2.84,0.0,1.03,178.31,178.31,0.0,0.02,0
4039.50734000,4039507340,0.0,2.84,0.0,1.03,178.31,178.31,0.0,0.02,0
4041.60736200,4041607362,0.0,2.83,0.0,1.01,178.41,178.41,0.0,0.02,0
4041.70735600,4041707356,0.0,2.83,0.0,1.02,178.42000000000002,178.42000000000002,0.0,0.02,0
4041.80731100,4041807311,0.0,2.83,0.0,1.02,178.41,178.41,0.0,0.01,0
4041.90733900,4041907339,0.0,2.83,0.0,1.02,178.4,178.4,0.0,0.01,0
4042.00734300,4042007343,0.0,2.83,0.0,1.01,178.41,178.41,0.0,0.01,0
4042.10731600,4042107316,0.0,2.84,0.0,1.01,178.43,178.43,0.0,0.02,0
4042.20732500,4042207325,0.0,2.84,0.0,1.01,178.44,178.44,0.0,0.02,0
4042.30734000,4042307340,0.0,2.84,0.0,1.0,178.44,178.44,0.0,0.02,0
4042.40756500,4042407565,0.0,2.84,0.0,1.0,178.45000000000002,178.45000000000002,0.0,0.02,0
4042.50733100,4042507331,0.0,2.84,0.0,1.0,178.45000000000002,178.45000000000002,0.0,0.02,0
4042.60734900,4042607349,0.0,2.84,0.0,1.0,178.47,178.47,0.0,0.02,0
4042.70735300,4042707353,0.0,2.84,0.0,1.0,178.45000000000002,178.45000000000002,0.0,0.01,0
4042.80734300,4042807343,0.0,2.84,0.0,1.0,178.44,178.44,0.0,0.01,0
4042.90730800,4042907308,0.0,2.84,0.0,1.0,178.43,178.43,0.0,0.01,0
4043.00743400,4043007434,0.0,2.84,0.0,1.0,178.44,178.44,0.0,0.02,0
4043.10730400,4043107304,0.0,2.83,0.0,1.0,178.45000000000002,178.45000000000002,0.0,0.01,0
4043.20734900,4043207349,0.0,2.83,0.0,1.0,178.43,178.43,0.0,0.01,0
4043.30733600,4043307336,0.0,2.83,0.0,1.0,178.45000000000002,178.45000000000002,0.0,0.01,0
4043.40759800,4043407598,0.0,2.83,0.0,0.99,178.44,178.44,0.0,0.01,0
4043.50729100,4043507291,0.0,2.83,0.0,1.0,178.44,178.44,0.0,0.01,0
4043.60739900,4043607399,0.0,2.83,0.0,1.0,178.43,178.43,0.0,0.01,0
4043.70736000,4043707360,0.0,2.82,0.0,1.0,178.42000000000002,178.42000000000002,0.0,0.01,0
4043.80729200,4043807292,0.0,2.83,0.0,1.0,178.41,178.41,0.0,0.01,0
4043.90727700,4043907277,0.0,2.82,0.0,0.99,178.39000000000001,178.39000000000001,0.0,0.01,0
4044.00734100,4044007341,0.0,2.83,0.0,1.0,178.41,178.41,0.0,0.01,0
4044.10738200,4044107382,0.0,2.83,0.0,0.99,178.4,178.4,0.0,0.01,0
4044.20733900,4044207339,0.0,2.83,0.0,0.99,178.4,178.4,0.0,0.01,0
4044.30733300,4044307333,0.0,2.83,0.0,0.99,178.4,178.4,0.0,0.01,0
4044.40761200,4044407612,0.0,2.83,0.0,0.99,178.42000000000002,178.42000000000002,0.0,0.01,0
4044.50743600,4044507436,0.0,2.84,0.0,0.98,178.42000000000002,178.42000000000002,0.0,0.01,0
4044.60736000,4044607360,0.0,2.84,0.0,0.99,178.43,178.43,0.0,0.01,0
4044.70736000,4044707360,0.0,2.83,0.0,0.99,178.42000000000002,178.42000000000002,0.0,0.01,0
4044.80734200,4044807342,0.0,2.84,0.0,0.99,178.44,178.44,0.0,0.01,0
4044.90732800,4044907328,0.0,2.83,0.0,0.99,178.45000000000002,178.45000000000002,0.0,0.01,0
4045.00731000,4045007310,0.0,2.84,0.0,0.99,178.44,178.44,0.0,0.01,0
4045.10733200,4045107332,0.0,2.84,0.0,0.99,178.44,178.44,0.0,0.01,0
4045.20733700,4045207337,0.0,2.84,0.0,0.99,178.44,178.44,0.0,0.01,0
4045.30733000,4045307330,0.0,2.84,0.0,0.99,178.43,178.43,0.0,0.01,0
4045.40792700,4045407927,0.0,2.84,0.0,0.99,178.46,178.46,0.0,0.02,0
4045.50732600,4045507326,0.0,2.84,0.0,0.98,178.47,178.47,0.0,0.02,0
4045.60736800,4045607368,0.0,2.84,0.0,0.98,178.49,178.49,0.0,0.02,0
4045.70731400,4045707314,0.0,2.84,0.0,0.97,178.5,178.5,0.0,0.02,0
4045.80737400,4045807374,0.0,2.84,0.0,0.98,178.5,178.5,0.0,0.02,0
4045.90734100,4045907341,0.0,2.84,0.0,0.97,178.5,178.5,0.0,0.01,0
4046.00738100,4046007381,0.0,2.84,0.0,0.98,178.53,178.53,0.0,0.02,0
4046.10736600,4046107366,0.0,2.84,0.0,0.97,178.53,178.53,0.0,0.02,0
4046.20735000,4046207350,0.0,2.83,0.0,0.98,178.53,178.53,0.0,0.01,0
4046.30736600,4046307366,0.0,2.83,0.0,0.97,178.55,178.55,0.0,0.02,0
4046.40757600,4046407576,0.0,2.83,0.0,0.96,178.54,178.54,0.0,0.01,0
4046.50733200,4046507332,0.0,2.83,0.0,0.98,178.54,178.54,0.0,0.01,0
4046.60732500,4046607325,0.0,2.83,0.0,0.96,178.54,178.54,0.0,0.01,0
4046.70731200,4046707312,0.0,2.83,0.0,0.98,178.56,178.56,0.0,0.01,0
4046.80730600,4046807306,0.0,2.83,0.0,0.97,178.58,178.58,0.0,0.02,0
4046.90732600,4046907326,0.0,2.83,0.0,0.98,178.59,178.59,0.0,0.02,0
4047.00730400,4047007304,0.0,2.83,0.0,0.97,178.6,178.6,0.0,0.02,0
4047.10729100,4047107291,0.0,2.83,0.0,0.97,178.61,178.61,0.0,0.01,0
4047.20738900,4047207389,0.0,2.83,0.0,0.97,178.61,178.61,0.0,0.01,0
4047.30743100,4047307431,0.0,2.83,0.0,0.97,178.61,178.61,0.0,0.01,0
4047.40760200,4047407602,0.0,2.83,0.0,0.97,178.61,178.61,0.0,0.01,0
4047.50737700,4047507377,0.0,2.83,0.0,0.96,178.62,178.62,0.0,0.01,0
4049.60734800,4049607348,0.0,2.82,0.0,0.97,178.71,178.71,0.0,0.02,0
4049.70731600,4049707316,0.0,2.82,0.0,0.97,178.72,178.72,0.0,0.02,0
4049.80731500,4049807315,0.0,2.83,0.0,0.97,178.73,178.73,0.0,0.02,0
4049.90734900,4049907349,0.0,2.82,0.0,0.96,178.73,178.73,0.0,0.02,0
4050.00732800,4050007328,0.0,2.83,0.0,0.96,178.74,178.74,0.0,0.01,0
4050.10733900,4050107339,0.0,2.83,0.0,0.96,178.73,178.73,0.0,0.01,0
4050.20734900,4050207349,0.0,2.82,0.0,0.96,178.73,178.73,0.0,0.01,0
4050.30736600,4050307366,0.0,2.83,0.0,0.97,178.75,178.75,0.0,0.01,0
4050.40761900,4050407619,0.0,2.82,0.0,0.96,178.72,178.72,0.0,0.02,0
4050.50744500,4050507445,0.0,2.82,0.0,0.97,178.70000000000002,178.70000000000002,0.0,0.02,0
4050.60738500,4050607385,0.0,2.82,0.0,0.96,178.70000000000002,178.70000000000002,0.0,0.01,0
4050.70738700,4050707387,0.0,2.83,0.0,0.97,178.72,178.72,0.0,0.02,0
4050.80736400,4050807364,0.0,2.82,0.0,0.97,178.71,178.71,0.0,0.02,0
4050.90728600,4050907286,0.0,2.82,0.0,0.97,178.70000000000002,178.70000000000002,0.0,0.02,0
4051.00734800,4051007348,0.0,2.83,0.0,0.97,178.72,178.72,0.0,0.02,0
4051.10734800,4051107348,0.0,2.82,0.0,0.97,178.71,178.71,0.0,0.02,0
4051.20734300,4051207343,0.0,2.83,0.0,0.97,178.71,178.71,0.0,0.01,0
4051.30732900,4051307329,0.0,2.83,0.0,0.97,178.71,178.71,0.0,0.01,0
4051.40753100,4051407531,0.0,2.83,0.0,0.97,178.72,178.72,0.0,0.01,0
4051.50733900,4051507339,0.0,2.83,0.0,0.97,178.72,178.72,0.0,0.01,0
4053.60751400,4053607514,0.0,2.83,0.0,0.99,178.67000000000002,178.67000000000002,0.0,0.01,0
4053.70735300,4053707353,0.0,2.83,0.0,1.0,178.69,178.69,0.0,0.01,0
4053.80739600,4053807396,0.0,2.83,0.0,0.98,178.67000000000002,178.67000000000002,0.0,0.01,0
4053.90735400,4053907354,0.0,2.84,0.0,0.99,178.69,178.69,0.0,0.01,0
4054.00741400,4054007414,0.0,2.84,0.0,0.98,178.70000000000002,178.70000000000002,0.0,0.01,0
4054.10735500,4054107355,0.0,2.84,0.0,0.99,178.71,178.71,0.0,0.01,0
4054.20734200,4054207342,0.0,2.84,0.0,0.98,178.71,178.71,0.0,0.01,0
4054.30734700,4054307347,0.0,2.84,0.0,0.98,178.72,178.72,0.0,0.01,0
4054.40763200,4054407632,0.0,2.84,0.0,0.98,178.71,178.71,0.0,0.01,0
4054.50731700,4054507317,0.0,2.84,0.0,0.98,178.75,178.75,0.0,0.02,0
4054.60735300,4054607353,0.0,2.84,0.0,0.98,178.74,178.74,0.0,0.02,0
4054.70729700,4054707297,0.0,2.84,0.0,0.98,178.74,178.74,0.0,0.01,0
4054.80733900,4054807339,0.0,2.84,0.0,0.98,178.73,178.73,0.0,0.02,0
4054.90733000,4054907330,0.0,2.84,0.0,0.98,178.73,178.73,0.0,0.02,0
4055.00738500,4055007385,0.0,2.83,0.0,0.98,178.74,178.74,0.0,0.01,0
4055.10733600,4055107336,0.0,2.84,0.0,0.98,178.75,178.75,0.0,0.01,0
4055.20734100,4055207341,0.0,2.84,0.0,0.98,178.75,178.75,0.0,0.01,0
4055.30740500,4055307405,0.0,2.84,0.0,0.98,178.76,178.76,0.0,0.01,0
4055.40761600,4055407616,0.0,2.84,0.0,0.97,178.75,178.75,0.0,0.01,0
4055.50729600,4055507296,0.0,2.84,0.0,0.97,178.75,178.75,0.0,0.01,0
4055.60734800,4055607348,0.0,2.84,0.0,0.97,178.75,178.75,0.0,0.01,0
4055.70735700,4055707357,0.0,2.84,0.0,0.97,178.76,178.76,0.0,0.0,0
4055.80732900,4055807329,0.0,2.84,0.0,0.98,178.76,178.76,0.0,0.0,0
4055.90734200,4055907342,0.0,2.84,0.0,0.97,178.76,178.76,0.0,0.0,0
4056.00737400,4056007374,0.0,2.84,0.0,0.98,178.78,178.78,0.0,0.01,0
4056.10732100,4056107321,0.0,2.84,0.0,0.97,178.79,178.79,0.0,0.01,0
4056.20734500,4056207345,0.0,2.84,0.0,0.98,178.8,178.8,0.0,0.01,0
4056.30735800,4056307358,0.0,2.84,0.0,0.98,178.78,178.78,0.0,0.01,0
4056.40755600,4056407556,0.0,2.84,0.0,0.98,178.78,178.78,0.0,0.01,0
4056.50731400,4056507314,0.0,2.85,0.0,0.97,178.78,178.78,0.0,0.01,0
4056.60732000,4056607320,0.0,2.84,0.0,0.98,178.78,178.78,0.0,0.01,0
4056.70733300,4056707333,0.0,2.84,0.0,0.98,178.77,178.77,0.0,0.01,0
4056.80737300,4056807373,0.0,2.84,0.0,0.98,178.76,178.76,0.0,0.01,0
4056.90738800,4056907388,0.0,2.85,0.0,0.97,178.78,178.78,0.0,0.01,0
4057.00740100,4057007401,0.0,2.84,0.0,0.98,178.78,178.78,0.0,0.01,0
4057.10730600,4057107306,0.0,2.85,0.0,0.97,178.8,178.8,0.0,0.02,0
4057.20733600,4057207336,0.0,2.85,0.0,0.98,178.8,178.8,0.0,0.01,0
4057.30736300,4057307363,0.0,2.85,0.0,0.97,178.83,178.83,0.0,0.02,0
4057.40758700,4057407587,0.0,2.85,0.0,0.98,178.82,178.82,0.0,0.02,0
4057.50730000,4057507300,0.0,2.85,0.0,0.97,178.84,178.84,0.0,0.02,0
4057.60734700,4057607347,0.0,2.85,0.0,0.98,178.86,178.86,0.0,0.02,0
4057.70733300,4057707333,0.0,2.85,0.0,0.97,178.88,178.88,0.0,0.02,0
4057.80732700,4057807327,0.0,2.85,0.0,0.98,178.87,178.87,0.0,0.02,0
4057.90734700,4057907347,0.0,2.85,0.0,0.98,178.85,178.85,0.0,0.02,0
4058.00735500,4058007355,0.0,2.84,0.0,0.98,178.85,178.85,0.0,0.02,0
4058.10730500,4058107305,0.0,2.85,0.0,0.98,178.84,178.84,0.0,0.02,0
4058.20734800,4058207348,0.0,2.85,0.0,0.97,178.85,178.85,0.0,0.01,0
4058.30734800,4058307348,0.0,2.85,0.0,0.98,178.87,178.87,0.0,0.02,0
4058.40758300,4058407583,0.0,2.85,0.0,0.97,178.9,178.9,0.0,0.02,0
4058.50733400,4058507334,0.0,2.85,0.0,0.97,178.93,178.93,0.0,0.02,0
4058.60738300,4058607383,0.0,2.85,0.0,0.97,178.94,178.94,0.0,0.02,0
4058.70732700,4058707327,0.0,2.85,0.0,0.97,178.93,178.93,0.0,0.02,0
4058.80734800,4058807348,0.0,2.85,0.0,0.97,178.9,178.9,0.0,0.02,0
4058.90735900,4058907359,0.0,2.86,0.0,0.97,178.91,178.91,0.0,0.02,0
4059.00734100,4059007341,0.0,2.85,0.0,0.97,178.92000000000002,178.92000000000002,0.0,0.02,0
4059.10733200,4059107332,0.0,2.86,0.0,0.97,178.92000000000002,178.92000000000002,0.0,0.01,0
4059.20735000,4059207350,0.0,2.85,0.0,0.97,178.91,178.91,0.0,0.01,0
4059.30735000,4059307350,0.0,2.86,0.0,0.97,178.91,178.91,0.0,0.01,0
4059.40750200,4059407502,0.0,2.86,0.0,0.98,178.9,178.9,0.0,0.01,0
4059.50734800,4059507348,0.0,2.86,0.0,0.97,178.91,178.91,0.0,0.01,0
4059.60735100,4059607351,0.0,2.86,0.0,0.97,178.93,178.93,0.0,0.01,0
4059.70736900,4059707369,0.0,2.86,0.0,0.97,178.93,178.93,0.0,0.01,0
4059.80735800,4059807358,0.0,2.85,0.0,0.98,178.9,178.9,0.0,0.01,0
4059.90734200,4059907342,0.0,2.85,0.0,0.98,178.91,178.91,0.0,0.01,0
4060.00738200,4060007382,0.0,2.86,0.0,0.98,178.9,178.9,0.0,0.02,0
4060.10736400,4060107364,0.0,2.86,0.0,0.97,178.88,178.88,0.0,0.01,0
4060.20744800,4060207448,0.0,2.86,0.0,0.98,178.88,178.88,0.0,0.01,0
4060.30730700,4060307307,0.0,2.85,0.0,0.97,178.9,178.9,0.0,0.02,0
4060.40761600,4060407616,0.0,2.85,0.0,0.98,178.89000000000001,178.89000000000001,0.0,0.02,0
4060.50729800,4060507298,0.0,2.85,0.0,0.98,178.88,178.88,0.0,0.01,0
4060.60732600,4060607326,0.0,2.85,0.0,0.98,178.89000000000001,178.89000000000001,0.0,0.01,0
4060.70735000,4060707350,0.0,2.85,0.0,0.98,178.89000000000001,178.89000000000001,0.0,0.01,0
4060.80733100,4060807331,0.0,2.85,0.0,0.98,178.92000000000002,178.92000000000002,0.0,0.02,0
4060.90732800,4060907328,0.0,2.85,0.0,0.98,178.92000000000002,178.92000000000002,0.0,0.01,0
4061.00733100,4061007331,0.0,2.85,0.0,0.98,178.92000000000002,178.92000000000002,0.0,0.01,0
4061.10735000,4061107350,0.0,2.85,0.0,0.98,178.93,178.93,0.0,0.01,0
4061.20728900,4061207289,0.0,2.85,0.0,0.97,178.93,178.93,0.0,0.01,0
4061.30733400,4061307334,0.0,2.85,0.0,0.97,178.94,178.94,0.0,0.01,0
4061.40756100,4061407561,0.0,2.85,0.0,0.97,178.97,178.97,0.0,0.01,0
4061.50733900,4061507339,0.0,2.85,0.0,0.97,179.0,179.0,0.0,0.02,0
4061.60740100,4061607401,0.0,2.85,0.0,0.97,179.01,179.01,0.0,0.02,0
4061.70731500,4061707315,0.0,2.85,0.0,0.97,179.01,179.01,0.0,0.02,0
4061.80731600,4061807316,0.0,2.85,0.0,0.97,179.01,179.01,0.0,0.01,0
4061.90734000,4061907340,0.0,2.85,0.0,0.97,178.99,178.99,0.0,0.01,0
4062.00736800,4062007368,0.0,2.84,0.0,0.98,179.0,179.0,0.0,0.01,0
4062.10735900,4062107359,0.0,2.85,0.0,0.97,179.0,179.0,0.0,0.01,0
4062.20728900,4062207289,0.0,2.84,0.0,0.98,179.01,179.01,0.0,0.01,0
4062.30732200,4062307322,0.0,2.84,0.0,0.98,179.0,179.0,0.0,0.01,0
4062.40756000,4062407560,0.0,2.84,0.0,0.98,179.01,179.01,0.0,0.01,0
4062.50731600,4062507316,0.0,2.84,0.0,0.97,179.03,179.03,0.0,0.01,0
4062.60734200,4062607342,0.0,2.85,0.0,0.98,179.06,179.06,0.0,0.02,0
4062.70733600,4062707336,0.0,2.84,0.0,0.96,179.08,179.08,0.0,0.02,0
4062.80737400,4062807374,0.0,2.84,0.0,0.97,179.09,179.09,0.0,0.02,0
4062.90733500,4062907335,0.0,2.84,0.0,0.97,179.08,179.08,0.0,0.01,0
4063.00732900,4063007329,0.0,2.84,0.0,0.97,179.08,179.08,0.0,0.01,0
4063.10737300,4063107373,0.0,2.84,0.0,0.97,179.1,179.1,0.0,0.02,0
4063.20742200,4063207422,0.0,2.84,0.0,0.97,179.09,179.09,0.0,0.02,0
4065.30733400,4065307334,0.0,2.84,0.0,0.98,179.05,179.05,0.0,0.01,0
4065.40750900,4065407509,0.0,2.84,0.0,0.98,179.07,179.07,0.0,0.01,0
4065.50731800,4065507318,0.0,2.84,0.0,0.98,179.09,179.09,0.0,0.01,0
4065.60733000,4065607330,0.0,2.84,0.0,0.98,179.07,179.07,0.0,0.01,0
4065.70732900,4065707329,0.0,2.84,0.0,0.98,179.08,179.08,0.0,0.01,0
4065.80737600,4065807376,0.0,2.84,0.0,0.98,179.09,179.09,0.0,0.01,0
4065.90735300,4065907353,0.0,2.84,0.0,0.97,179.1,179.1,0.0,0.01,0
4066.00733300,4066007333,0.0,2.84,0.0,0.98,179.1,179.1,0.0,0.01,0
4066.10734300,4066107343,0.0,2.84,0.0,0.98,179.09,179.09,0.0,0.01,0
4066.20750000,4066207500,0.0,2.83,0.0,0.99,179.06,179.06,0.0,0.01,0
4066.30738800,4066307388,0.0,2.83,0.0,0.99,179.08,179.08,0.0,0.01,0
4066.40764700,4066407647,0.0,2.84,0.0,0.98,179.09,179.09,0.0,0.01,0
4066.50735200,4066507352,0.0,2.82,0.0,0.99,179.1,179.1,0.0,0.01,0
4066.60733100,4066607331,0.0,2.84,0.0,0.97,179.07,179.07,0.0,0.01,0
4066.70736500,4066707365,0.0,2.82,0.0,1.0,179.09,179.09,0.0,0.01,0
4066.80733500,4066807335,0.0,2.83,0.0,0.97,179.07,179.07,0.0,0.01,0
4066.90733200,4066907332,0.0,2.82,0.0,1.0,179.08,179.08,0.0,0.01,0
4067.00737300,4067007373,0.0,2.82,0.0,0.98,179.09,179.09,0.0,0.01,0
4067.10730400,4067107304,0.0,2.82,0.0,1.0,179.09,179.09,0.0,0.01,0
4067.20733900,4067207339,0.0,2.81,0.0,0.98,179.1,179.1,0.0,0.01,0
4067.30731100,4067307311,0.0,2.81,0.0,1.0,179.09,179.09,0.0,0.01,0
4067.40756900,4067407569,0.0,2.82,0.0,0.98,179.08,179.08,0.0,0.01,0
4067.50729500,4067507295,0.0,2.81,0.0,0.99,179.08,179.08,0.0,0.01,0
4067.60733000,4067607330,0.0,2.82,0.0,0.98,179.08,179.08,0.0,0.01,0
4067.70737400,4067707374,0.0,2.81,0.0,0.99,179.11,179.11,0.0,0.01,0
4067.80736900,4067807369,0.0,2.81,0.0,0.98,179.1,179.1,0.0,0.02,0
4067.90743100,4067907431,0.0,2.81,0.0,0.99,179.1,179.1,0.0,0.01,0
4068.00736800,4068007368,0.0,2.8000000000000003,0.0,0.98,179.1,179.1,0.0,0.01,0
4068.10732900,4068107329,0.0,2.81,0.0,0.99,179.09,179.09,0.0,0.01,0
4068.20735400,4068207354,0.0,2.8000000000000003,0.0,0.99,179.08,179.08,0.0,0.01,0
4068.30737700,4068307377,0.0,2.8000000000000003,0.0,0.99,179.1,179.1,0.0,0.01,0
4068.40750300,4068407503,0.0,2.81,0.0,0.99,179.11,179.11,0.0,0.01,0
4068.50731900,4068507319,0.0,2.8000000000000003,0.0,0.99,179.12,179.12,0.0,0.01,0
4068.60733500,4068607335,0.0,2.8000000000000003,0.0,0.98,179.13,179.13,0.0,0.01,0
4068.70731000,4068707310,0.0,2.8000000000000003,0.0,0.99,179.13,179.13,0.0,0.01,0
4068.80734900,4068807349,0.0,2.8000000000000003,0.0,0.98,179.12,179.12,0.0,0.01,0
4068.90736500,4068907365,0.0,2.8000000000000003,0.0,0.99,179.13,179.13,0.0,0.01,0
4069.00730700,4069007307,0.0,2.79,0.0,0.98,179.13,179.13,0.0,0.01,0
4069.10733500,4069107335,0.0,2.8000000000000003,0.0,0.99,179.11,179.11,0.0,0.01,0
4069.20734400,4069207344,0.0,2.8000000000000003,0.0,0.99,179.12,179.12,0.0,0.01,0
4069.30728300,4069307283,0.0,2.8000000000000003,0.0,0.99,179.13,179.13,0.0,0.01,0
4069.40760100,4069407601,0.0,2.8000000000000003,0.0,0.99,179.14000000000001,179.14000000000001,0.0,0.01,0
4069.50741500,4069507415,0.0,2.8000000000000003,0.0,0.99,179.16,179.16,0.0,0.01,0
4069.60736500,4069607365,0.0,2.8000000000000003,0.0,0.99,179.16,179.16,0.0,0.01,0
4069.70734700,4069707347,0.0,2.8000000000000003,0.0,0.99,179.15,179.15,0.0,0.01,0
4069.80732900,4069807329,0.0,2.8000000000000003,0.0,0.99,179.18,179.18,0.0,0.01,0
4069.90736600,4069907366,0.0,2.8000000000000003,0.0,0.99,179.21,179.21,0.0,0.02,0
4070.00730600,4070007306,0.0,2.8000000000000003,0.0,0.98,179.23,179.23,0.0,0.02,0
4070.10732400,4070107324,0.0,2.8000000000000003,0.0,0.98,179.23,179.23,0.0,0.02,0
4070.20734400,4070207344,0.0,2.8000000000000003,0.0,0.98,179.24,179.24,0.0,0.01,0
4070.30731300,4070307313,0.0,2.8000000000000003,0.0,0.98,179.25,179.25,0.0,0.02,0
4070.40761400,4070407614,0.0,2.8000000000000003,0.0,0.98,179.24,179.24,0.0,0.02,0
4070.50730200,4070507302,0.0,2.8000000000000003,0.0,0.98,179.24,179.24,0.0,0.01,0
4070.60744200,4070607442,0.0,2.79,0.0,0.98,179.23,179.23,0.0,0.02,0
4070.70736400,4070707364,0.0,2.79,0.0,0.98,179.23,179.23,0.0,0.01,0
4070.80728000,4070807280,0.0,2.79,0.0,0.98,179.25,179.25,0.0,0.01,0
4070.90736600,4070907366,0.0,2.79,0.0,0.98,179.24,179.24,0.0,0.01,0
4071.00739600,4071007396,0.0,2.8000000000000003,0.0,0.99,179.27,179.27,0.0,0.02,0
4071.10732900,4071107329,0.0,2.8000000000000003,0.0,0.98,179.31,179.31,0.0,0.02,0
4071.20732800,4071207328,0.0,2.8000000000000003,0.0,0.99,179.32,179.32,0.0,0.02,0
4071.30734200,4071307342,0.0,2.8000000000000003,0.0,0.98,179.34,179.34,0.0,0.02,0
4071.40759700,4071407597,0.0,2.8000000000000003,0.0,0.99,179.34,179.34,0.0,0.02,0
4071.50729900,4071507299,0.0,2.8000000000000003,0.0,0.99,179.34,179.34,0.0,0.02,0
4071.60733800,4071607338,0.0,2.8000000000000003,0.0,0.99,179.35,179.35,0.0,0.01,0
4071.70738900,4071707389,0.0,2.81,0.0,0.98,179.38,179.38,0.0,0.02,0
4071.80731500,4071807315,0.0,2.8000000000000003,0.0,0.99,179.37,179.37,0.0,0.02,0
4071.90733600,4071907336,0.0,2.8000000000000003,0.0,0.99,179.38,179.38,0.0,0.01,0
4072.00731800,4072007318,0.0,2.8000000000000003,0.0,0.99,179.36,179.36,0.0,0.01,0
4072.10734200,4072107342,0.0,2.8000000000000003,0.0,0.99,179.37,179.37,0.0,0.01,0
4072.20733200,4072207332,0.0,2.8000000000000003,0.0,0.99,179.37,179.37,0.0,0.01,0
4072.30734800,4072307348,0.0,2.79,0.0,0.99,179.38,179.38,0.0,0.01,0
4072.40767300,4072407673,0.0,2.8000000000000003,0.0,0.99,179.39000000000001,179.39000000000001,0.0,0.01,0
4072.50739000,4072507390,0.0,2.8000000000000003,0.0,0.99,179.39000000000001,179.39000000000001,0.0,0.01,0
4072.60735300,4072607353,0.0,2.8000000000000003,0.0,1.0,179.39000000000001,179.39000000000001,0.0,0.0,0
4072.70737600,4072707376,0.0,2.8000000000000003,0.0,1.0,179.37,179.37,0.0,0.01,0
4072.80734200,4072807342,0.0,2.8000000000000003,0.0,1.0,179.37,179.37,0.0,0.01,0
4072.90734500,4072907345,0.0,2.79,0.0,1.0,179.37,179.37,0.0,0.01,0
4073.00734700,4073007347,0.0,2.79,0.0,1.0,179.36,179.36,0.0,0.01,0
4073.10733400,4073107334,0.0,2.79,0.0,1.0,179.36,179.36,0.0,0.01,0
4073.20734300,4073207343,0.0,2.79,0.0,1.0,179.35,179.35,0.0,0.01,0
4073.30733200,4073307332,0.0,2.79,0.0,1.0,179.33,179.33,0.0,0.01,0
4073.40750000,4073407500,0.0,2.79,0.0,1.0,179.34,179.34,0.0,0.01,0
4073.50734500,4073507345,0.0,2.79,0.0,1.0,179.34,179.34,0.0,0.01,0
4073.60734500,4073607345,0.0,2.79,0.0,1.0,179.35,179.35,0.0,0.01,0
4073.70738700,4073707387,0.0,2.79,0.0,1.0,179.34,179.34,0.0,0.01,0
4073.80733600,4073807336,0.0,2.79,0.0,1.0,179.34,179.34,0.0,0.01,0
4073.90734600,4073907346,0.0,2.79,0.0,0.99,179.35,179.35,0.0,0.01,0
4074.00736200,4074007362,0.0,2.79,0.0,1.0,179.34,179.34,0.0,0.01,0
4074.10732900,4074107329,0.0,2.79,0.0,1.0,179.33,179.33,0.0,0.01,0
4074.20742500,4074207425,0.0,2.79,0.0,1.0,179.32,179.32,0.0,0.01,0
4074.30733300,4074307333,0.0,2.79,0.0,1.0,179.32,179.32,0.0,0.01,0
4074.40757500,4074407575,0.0,2.79,0.0,1.0,179.33,179.33,0.0,0.01,0
4074.50734700,4074507347,0.0,2.79,0.0,1.0,179.34,179.34,0.0,0.01,0
4074.60732500,4074607325,0.0,2.79,0.0,1.0,179.35,179.35,0.0,0.01,0
4074.70733600,4074707336,0.0,2.79,0.0,1.0,179.34,179.34,0.0,0.01,0
4074.80731400,4074807314,0.0,2.79,0.0,1.0,179.36,179.36,0.0,0.01,0
4074.90734700,4074907347,0.0,2.79,0.0,1.0,179.36,179.36,0.0,0.01,0
4075.00731000,4075007310,0.0,2.79,0.0,1.0,179.38,179.38,0.0,0.01,0
4075.10737100,4075107371,0.0,2.79,0.0,1.0,179.38,179.38,0.0,0.01,0
4075.20734600,4075207346,0.0,2.8000000000000003,0.0,1.0,179.4,179.4,0.0,0.01,0
4075.30730700,4075307307,0.0,2.8000000000000003,0.0,1.0,179.41,179.41,0.0,0.01,0
4075.40781200,4075407812,0.0,2.8000000000000003,0.0,1.0,179.4,179.4,0.0,0.01,0
4075.50732400,4075507324,0.0,2.8000000000000003,0.0,1.0,179.41,179.41,0.0,0.01,0
4075.60742800,4075607428,0.0,2.8000000000000003,0.0,1.0,179.4,179.4,0.0,0.01,0
4075.70738300,4075707383,0.0,2.79,0.0,1.0,179.39000000000001,179.39000000000001,0.0,0.01,0
4075.80735600,4075807356,0.0,2.79,0.0,1.0,179.41,179.41,0.0,0.01,0
4075.90731500,4075907315,0.0,2.79,0.0,1.0,179.41,179.41,0.0,0.01,0
4076.00737500,4076007375,0.0,2.79,0.0,1.0,179.43,179.43,0.0,0.01,0
4076.10733100,4076107331,0.0,2.8000000000000003,0.0,1.0,179.44,179.44,0.0,0.01,0
4076.20733700,4076207337,0.0,2.8000000000000003,0.0,1.0,179.43,179.43,0.0,0.01,0
4076.30732800,4076307328,0.0,2.8000000000000003,0.0,1.0,179.41,179.41,0.0,0.02,0
4076.40756500,4076407565,0.0,2.8000000000000003,0.0,1.01,179.38,179.38,0.0,0.02,0
4076.50737400,4076507374,0.0,2.8000000000000003,0.0,1.0,179.38,179.38,0.0,0.02,0
4076.60735800,4076607358,0.0,2.8000000000000003,0.0,1.0,179.38,179.38,0.0,0.01,0
4076.70734200,4076707342,0.0,2.8000000000000003,0.0,1.01,179.38,179.38,0.0,0.01,0
4076.80729600,4076807296,0.0,2.8000000000000003,0.0,1.0,179.4,179.4,0.0,0.01,0
4076.90738500,4076907385,0.0,2.8000000000000003,0.0,1.0,179.4,179.4,0.0,0.01,0
4077.00733500,4077007335,0.0,2.8000000000000003,0.0,1.0,179.4,179.4,0.0,0.01,0
4077.10732700,4077107327,0.0,2.8000000000000003,0.0,1.0,179.42000000000002,179.42000000000002,0.0,0.01,0
4077.20742300,4077207423,0.0,2.8000000000000003,0.0,1.0,179.42000000000002,179.42000000000002,0.0,0.01,0
4077.30739700,4077307397,0.0,2.8000000000000003,0.0,1.0,179.42000000000002,179.42000000000002,0.0,0.0,0
4077.40765900,4077407659,0.0,2.8000000000000003,0.0,1.0,179.41,179.41,0.0,0.01,0
4077.50733800,4077507338,0.0,2.8000000000000003,0.0,1.0,179.4,179.4,0.0,0.01,0
4077.60731800,4077607318,0.0,2.8000000000000003,0.0,1.0,179.41,179.41,0.0,0.01,0
4077.70734300,4077707343,0.0,2.8000000000000003,0.0,1.0,179.41,179.41,0.0,0.01,0
4077.80734900,4077807349,0.0,2.8000000000000003,0.0,1.0,179.41,179.41,0.0,0.01,0
4077.90733300,4077907333,0.0,2.8000000000000003,0.0,1.0,179.41,179.41,0.0,0.01,0
4078.00730900,4078007309,0.0,2.8000000000000003,0.0,1.0,179.39000000000001,179.39000000000001,0.0,0.01,0
4078.10733100,4078107331,0.0,2.8000000000000003,0.0,1.01,179.38,179.38,0.0,0.01,0
4078.20734000,4078207340,0.0,2.8000000000000003,0.0,1.01,179.38,179.38,0.0,0.01,0
4078.30735500,4078307355,0.0,2.8000000000000003,0.0,1.01,179.38,179.38,0.0,0.01,0
4078.40757800,4078407578,0.0,2.8000000000000003,0.0,1.01,179.37,179.37,0.0,0.01,0
4078.50733700,4078507337,0.0,2.8000000000000003,0.0,1.01,179.34,179.34,0.0,0.02,0
4078.60736300,4078607363,0.0,2.8000000000000003,0.0,1.01,179.32,179.32,0.0,0.02,0
4078.70738100,4078707381,0.0,2.8000000000000003,0.0,1.01,179.34,179.34,0.0,0.02,0
4078.80744700,4078807447,0.0,2.8000000000000003,0.0,1.01,179.35,179.35,0.0,0.02,0
4078.90736800,4078907368,0.0,2.8000000000000003,0.0,1.01,179.36,179.36,0.0,0.02,0
4079.00731200,4079007312,0.0,2.8000000000000003,0.0,1.01,179.35,179.35,0.0,0.01,0
4079.10735700,4079107357,0.0,2.8000000000000003,0.0,1.01,179.34,179.34,0.0,0.02,0
4079.20735500,4079207355,0.0,2.8000000000000003,0.0,1.01,179.33,179.33,0.0,0.02,0
4079.30734100,4079307341,0.0,2.8000000000000003,0.0,1.01,179.32,179.32,0.0,0.02,0
4079.40751900,4079407519,0.0,2.8000000000000003,0.0,1.01,179.33,179.33,0.0,0.01,0
4079.50734100,4079507341,0.0,2.8000000000000003,0.0,1.01,179.32,179.32,0.0,0.01,0
4079.60736000,4079607360,0.0,2.8000000000000003,0.0,1.01,179.3,179.3,0.0,0.02,0
4079.70733200,4079707332,0.0,2.8000000000000003,0.0,1.01,179.31,179.31,0.0,0.02,0
4079.80731900,4079807319,0.0,2.8000000000000003,0.0,1.01,179.29,179.29,0.0,0.02,0
4079.90734400,4079907344,0.0,2.8000000000000003,0.0,1.01,179.29,179.29,0.0,0.01,0
4080.00736400,4080007364,0.0,2.8000000000000003,0.0,1.01,179.29,179.29,0.0,0.01,0
4080.10735000,4080107350,0.0,2.8000000000000003,0.0,1.01,179.27,179.27,0.0,0.02,0
4080.20731700,4080207317,0.0,2.8000000000000003,0.0,1.02,179.28,179.28,0.0,0.01,0
4098.70739400,4098707394,0.0,2.79,0.0,1.02,179.20000000000002,179.20000000000002,0.0,0.01,0
4098.80734500,4098807345,0.0,2.79,0.0,1.02,179.19,179.19,0.0,0.01,0
4098.90735500,4098907355,0.0,2.79,0.0,1.02,179.18,179.18,0.0,0.01,0
4099.00737200,4099007372,0.0,2.79,0.0,1.02,179.18,179.18,0.0,0.01,0
4099.10737900,4099107379,0.0,2.79,0.0,1.01,179.20000000000002,179.20000000000002,0.0,0.01,0
4099.20740900,4099207409,0.0,2.79,0.0,1.01,179.19,179.19,0.0,0.01,0
4099.30733500,4099307335,0.0,2.79,0.0,1.01,179.18,179.18,0.0,0.01,0
4099.40767500,4099407675,0.0,2.79,0.0,1.01,179.18,179.18,0.0,0.01,0
