timestamp,TimeUS,DesRoll,Roll,DesPitch,Pitch,DesYaw,Yaw,ErrRP,ErrYaw,AEKF
157.88768300,157887683,0.0,0.5700000000000001,0.0,-0.5,118.57000000000001,118.57000000000001,0.0,0.01,0
157.98759000,157987590,0.0,0.5700000000000001,0.0,-0.5,118.57000000000001,118.57000000000001,0.0,0.0,0
158.08771800,158087718,0.0,0.5700000000000001,0.0,-0.5,118.57000000000001,118.57000000000001,0.0,0.0,0
158.18770100,158187701,0.0,0.5700000000000001,0.0,-0.5,118.57000000000001,118.57000000000001,0.0,0.0,0
158.28764900,158287649,0.0,0.5700000000000001,0.0,-0.5,118.57000000000001,118.57000000000001,0.0,0.0,0
158.38798400,158387984,0.0,0.5700000000000001,0.0,-0.5,118.56,118.56,0.0,0.0,0
158.48766400,158487664,0.0,0.5700000000000001,0.0,-0.5,118.55,118.55,0.0,0.0,0
158.58766800,158587668,0.0,0.5700000000000001,0.0,-0.5,118.57000000000001,118.57000000000001,0.0,0.0,0
158.68765400,158687654,0.0,0.5700000000000001,0.0,-0.5,118.56,118.56,0.0,0.0,0
158.78774100,158787741,0.0,0.5700000000000001,0.0,-0.5,118.55,118.55,0.0,0.01,0
158.88768100,158887681,0.0,0.5700000000000001,0.0,-0.5,118.54,118.54,0.0,0.01,0
158.98768200,158987682,0.0,0.5700000000000001,0.0,-0.5,118.51,118.51,0.0,0.01,0
159.08768100,159087681,0.0,0.5700000000000001,0.0,-0.5,118.5,118.5,0.0,0.01,0
159.18764600,159187646,0.0,0.5700000000000001,0.0,-0.5,118.5,118.5,0.0,0.01,0
159.28764000,159287640,0.0,0.5700000000000001,0.0,-0.5,118.46000000000001,118.46000000000001,0.0,0.02,0
159.38786300,159387863,0.0,0.5700000000000001,0.0,-0.5,118.45,118.45,0.0,0.02,0
159.48765000,159487650,0.0,0.5700000000000001,0.0,-0.5,118.45,118.45,0.0,0.01,0
159.58765700,159587657,0.0,0.5700000000000001,0.0,-0.5,118.46000000000001,118.46000000000001,0.0,0.01,0
159.68770400,159687704,0.0,0.5700000000000001,0.0,-0.5,118.45,118.45,0.0,0.01,0
159.78777500,159787775,0.0,0.5700000000000001,0.0,-0.5,118.44,118.44,0.0,0.01,0
159.88765100,159887651,0.0,0.5700000000000001,0.0,-0.5,118.46000000000001,118.46000000000001,0.0,0.01,0
159.98773100,159987731,0.0,0.5700000000000001,0.0,-0.5,118.48,118.48,0.0,0.02,0
160.08772800,160087728,0.0,0.5700000000000001,0.0,-0.5,118.5,118.5,0.0,0.02,0
160.18768400,160187684,0.0,0.5700000000000001,0.0,-0.5,118.53,118.53,0.0,0.02,0
160.28769300,160287693,0.0,0.5700000000000001,0.0,-0.5,118.52,118.52,0.0,0.02,0
160.38798000,160387980,0.0,0.5700000000000001,0.0,-0.5,118.55,118.55,0.0,0.02,0
160.48767200,160487672,0.0,0.58,0.0,-0.5,118.55,118.55,0.0,0.02,0
160.58766600,160587666,0.0,0.58,0.0,-0.5,118.54,118.54,0.0,0.02,0
160.68770800,160687708,0.0,0.58,0.0,-0.5,118.52,118.52,0.0,0.02,0
160.78773300,160787733,0.0,0.58,0.0,-0.5,118.53,118.53,0.0,0.02,0
160.88765200,160887652,0.0,0.58,0.0,-0.5,118.52,118.52,0.0,0.01,0
160.98757300,160987573,0.0,0.58,0.0,-0.5,118.51,118.51,0.0,0.01,0
161.08767100,161087671,0.0,0.58,0.0,-0.5,118.52,118.52,0.0,0.01,0
161.18767000,161187670,0.0,0.58,0.0,-0.5,118.56,118.56,0.0,0.02,0
161.28772800,161287728,0.0,0.58,0.0,-0.5,118.51,118.51,0.0,0.03,0
161.38795500,161387955,0.0,0.58,0.0,-0.5,118.49000000000001,118.49000000000001,0.0,0.03,0
161.48766400,161487664,0.0,0.58,0.0,-0.5,118.49000000000001,118.49000000000001,0.0,0.03,0
161.58766200,161587662,0.0,0.58,0.0,-0.5,118.5,118.5,0.0,0.03,0
161.68766300,161687663,0.0,0.58,0.0,-0.5,118.48,118.48,0.0,0.03,0
161.78790800,161787908,0.0,0.58,0.0,-0.5,118.47,118.47,0.0,0.02,0
161.88769800,161887698,0.0,0.58,0.0,-0.5,118.44,118.44,0.0,0.03,0
161.98767000,161987670,0.0,0.58,0.0,-0.5,118.42,118.42,0.0,0.03,0
162.08767500,162087675,0.0,0.58,0.0,-0.5,118.4,118.4,0.0,0.02,0
162.18768800,162187688,0.0,0.58,0.0,-0.5,118.42,118.42,0.0,0.02,0
162.28770400,162287704,0.0,0.58,0.0,-0.5,118.38,118.38,0.0,0.03,0
162.38787800,162387878,0.0,0.58,0.0,-0.5,118.4,118.4,0.0,0.03,0
162.48765200,162487652,0.0,0.58,0.0,-0.5,118.4,118.4,0.0,0.02,0
162.58756700,162587567,0.0,0.58,0.0,-0.51,118.39,118.39,0.0,0.02,0
162.68768800,162687688,0.0,0.58,0.0,-0.51,118.37,118.37,0.0,0.02,0
162.78775400,162787754,0.0,0.58,0.0,-0.51,118.39,118.39,0.0,0.03,0
162.88763000,162887630,0.0,0.58,0.0,-0.51,118.36,118.36,0.0,0.03,0
162.98763200,162987632,0.0,0.58,0.0,-0.51,118.33,118.33,0.0,0.03,0
163.08775600,163087756,0.0,0.59,0.0,-0.51,118.31,118.31,0.0,0.03,0
163.18767000,163187670,0.0,0.58,0.0,-0.51,118.28,118.28,0.0,0.03,0
163.28767000,163287670,0.0,0.58,0.0,-0.51,118.3,118.3,0.0,0.03,0
163.38792400,163387924,0.0,0.59,0.0,-0.51,118.29,118.29,0.0,0.02,0
163.48766900,163487669,0.0,0.59,0.0,-0.51,118.33,118.33,0.0,0.03,0
163.58767100,163587671,0.0,0.59,0.0,-0.51,118.29,118.29,0.0,0.04,0
163.68766200,163687662,0.0,0.59,0.0,-0.51,118.29,118.29,0.0,0.03,0
163.78775200,163787752,0.0,0.59,0.0,-0.51,118.28,118.28,0.0,0.03,0
163.88769000,163887690,0.0,0.59,0.0,-0.51,118.25,118.25,0.0,0.03,0
163.98768500,163987685,0.0,0.59,0.0,-0.51,118.26,118.26,0.0,0.03,0
164.08765800,164087658,0.0,0.59,0.0,-0.51,118.29,118.29,0.0,0.03,0
164.18767400,164187674,0.0,0.59,0.0,-0.51,118.25,118.25,0.0,0.04,0
164.28770600,164287706,0.0,0.59,0.0,-0.51,118.23,118.23,0.0,0.03,0
164.38795100,164387951,0.0,0.59,0.0,-0.51,118.22,118.22,0.0,0.03,0
164.48766800,164487668,0.0,0.59,0.0,-0.51,118.19,118.19,0.0,0.03,0
164.58766000,164587660,0.0,0.59,0.0,-0.51,118.18,118.18,0.0,0.03,0
164.68766400,164687664,0.0,0.59,0.0,-0.51,118.16,118.16,0.0,0.03,0
164.78769600,164787696,0.0,0.59,0.0,-0.51,118.16,118.16,0.0,0.02,0
164.88765600,164887656,0.0,0.59,0.0,-0.51,118.17,118.17,0.0,0.02,0
164.98767800,164987678,0.0,0.59,0.0,-0.51,118.19,118.19,0.0,0.02,0
165.08766800,165087668,0.0,0.59,0.0,-0.51,118.24000000000001,118.24000000000001,0.0,0.04,0
165.18766000,165187660,0.0,0.59,0.0,-0.51,118.24000000000001,118.24000000000001,0.0,0.03,0
165.28768600,165287686,0.0,0.59,0.0,-0.51,118.22,118.22,0.0,0.03,0
165.38786100,165387861,0.0,0.59,0.0,-0.51,118.21000000000001,118.21000000000001,0.0,0.02,0
165.48766000,165487660,0.0,0.59,0.0,-0.51,118.24000000000001,118.24000000000001,0.0,0.03,0
165.58763300,165587633,0.0,0.59,0.0,-0.51,118.22,118.22,0.0,0.02,0
165.68756700,165687567,0.0,0.59,0.0,-0.51,118.18,118.18,0.0,0.03,0
165.78775200,165787752,0.0,0.59,0.0,-0.51,118.14,118.14,0.0,0.04,0
165.88767400,165887674,0.0,0.59,0.0,-0.51,118.14,118.14,0.0,0.03,0
165.98771300,165987713,0.0,0.59,0.0,-0.51,118.17,118.17,0.0,0.04,0
166.08764800,166087648,0.0,0.59,0.0,-0.5,118.16,118.16,0.0,0.03,0
166.18767500,166187675,0.0,0.6,0.0,-0.5,118.12,118.12,0.0,0.04,0
166.28765200,166287652,0.0,0.6,0.0,-0.5,118.14,118.14,0.0,0.03,0
166.38794500,166387945,0.0,0.6,0.0,-0.5,118.10000000000001,118.10000000000001,0.0,0.04,0
166.48769000,166487690,0.0,0.6,0.0,-0.5,118.04,118.04,0.0,0.05,0
166.58765900,166587659,0.0,0.6,0.0,-0.5,118.01,118.01,0.0,0.04,0
166.68774000,166687740,0.0,0.6,0.0,-0.5,118.05,118.05,0.0,0.05,0
166.78773200,166787732,0.0,0.6,0.0,-0.5,118.14,118.14,0.0,0.07,0
166.88763300,166887633,0.0,0.6,0.0,-0.5,118.11,118.11,0.0,0.07,0
166.98770700,166987707,0.0,0.6,0.0,-0.5,118.10000000000001,118.10000000000001,0.0,0.05,0
167.08764900,167087649,0.0,0.6,0.0,-0.5,118.06,118.06,0.0,0.05,0
167.18763200,167187632,0.0,0.6,0.0,-0.5,118.09,118.09,0.0,0.05,0
167.28762900,167287629,0.0,0.6,0.0,-0.5,118.13,118.13,0.0,0.06,0
167.38790700,167387907,0.0,0.6,0.0,-0.5,118.13,118.13,0.0,0.05,0
167.48773600,167487736,0.0,0.6,0.0,-0.5,118.12,118.12,0.0,0.04,0
167.58763300,167587633,0.0,0.6,0.0,-0.5,118.16,118.16,0.0,0.04,0
167.68772800,167687728,0.0,0.6,0.0,-0.5,118.18,118.18,0.0,0.04,0
167.78783900,167787839,0.0,0.6,0.0,-0.5,118.17,118.17,0.0,0.03,0
167.88765500,167887655,0.0,0.6,0.0,-0.5,118.14,118.14,0.0,0.03,0
167.98768000,167987680,0.0,0.6,0.0,-0.49,118.13,118.13,0.0,0.03,0
168.08765200,168087652,0.0,0.6,0.0,-0.49,118.16,118.16,0.0,0.04,0
168.18770700,168187707,0.0,0.6,0.0,-0.49,118.19,118.19,0.0,0.04,0
168.28767700,168287677,0.0,0.6,0.0,-0.49,118.18,118.18,0.0,0.04,0
168.38790700,168387907,0.0,0.6,0.0,-0.49,118.14,118.14,0.0,0.04,0
168.48771300,168487713,0.0,0.6,0.0,-0.49,118.14,118.14,0.0,0.03,0
168.58762000,168587620,0.0,0.61,0.0,-0.49,118.07000000000001,118.07000000000001,0.0,0.05,0
168.68763700,168687637,0.0,0.61,0.0,-0.49,118.06,118.06,0.0,0.04,0
168.78781600,168787816,0.0,0.61,0.0,-0.49,118.05,118.05,0.0,0.03,0
168.88761900,168887619,0.0,0.61,0.0,-0.49,118.07000000000001,118.07000000000001,0.0,0.03,0
168.98766700,168987667,0.0,0.61,0.0,-0.49,118.09,118.09,0.0,0.03,0
169.08771800,169087718,0.0,0.61,0.0,-0.48,118.07000000000001,118.07000000000001,0.0,0.03,0
169.18765700,169187657,0.0,0.61,0.0,-0.48,118.09,118.09,0.0,0.03,0
169.28767100,169287671,0.0,0.61,0.0,-0.48,118.09,118.09,0.0,0.03,0
169.38803000,169388030,0.0,0.61,0.0,-0.48,118.12,118.12,0.0,0.03,0
169.48771600,169487716,0.0,0.61,0.0,-0.48,118.15,118.15,0.0,0.04,0
169.58770500,169587705,0.0,0.61,0.0,-0.48,118.11,118.11,0.0,0.04,0
169.68766700,169687667,0.0,0.61,0.0,-0.48,118.06,118.06,0.0,0.05,0
169.78774900,169787749,0.0,0.61,0.0,-0.48,118.08,118.08,0.0,0.04,0
169.88768100,169887681,0.0,0.61,0.0,-0.48,118.01,118.01,0.0,0.06,0
169.98766700,169987667,0.0,0.61,0.0,-0.48,118.01,118.01,0.0,0.04,0
170.08769200,170087692,0.0,0.61,0.0,-0.48,117.98,117.98,0.0,0.04,0
170.18763900,170187639,0.0,0.61,0.0,-0.48,117.95,117.95,0.0,0.04,0
170.28765000,170287650,0.0,0.61,0.0,-0.48,117.95,117.95,0.0,0.03,0
170.38784100,170387841,0.0,0.61,0.0,-0.48,117.93,117.93,0.0,0.03,0
170.48765300,170487653,0.0,0.61,0.0,-0.48,117.99000000000001,117.99000000000001,0.0,0.04,0
170.58772400,170587724,0.0,0.61,0.0,-0.48,118.0,118.0,0.0,0.04,0
170.68762500,170687625,0.0,0.61,0.0,-0.48,117.98,117.98,0.0,0.04,0
170.78775500,170787755,0.0,0.61,0.0,-0.48,117.98,117.98,0.0,0.03,0
170.88781300,170887813,0.0,0.61,0.0,-0.48,118.07000000000001,118.07000000000001,0.0,0.06,0
170.98764300,170987643,0.0,0.61,0.0,-0.49,118.06,118.06,0.0,0.04,0
171.08766300,171087663,0.0,0.61,0.0,-0.48,118.09,118.09,0.0,0.05,0
171.18770400,171187704,0.0,0.61,0.0,-0.48,118.10000000000001,118.10000000000001,0.0,0.04,0
171.28768600,171287686,0.0,0.62,0.0,-0.49,118.06,118.06,0.0,0.04,0
171.38792100,171387921,0.0,0.61,0.0,-0.49,118.10000000000001,118.10000000000001,0.0,0.05,0
171.48766000,171487660,0.0,0.61,0.0,-0.49,118.05,118.05,0.0,0.05,0
171.58766300,171587663,0.0,0.61,0.0,-0.49,118.10000000000001,118.10000000000001,0.0,0.06,0
171.68767700,171687677,0.0,0.61,0.0,-0.49,118.10000000000001,118.10000000000001,0.0,0.05,0
171.78773400,171787734,0.0,0.61,0.0,-0.49,118.06,118.06,0.0,0.05,0
171.88764700,171887647,0.0,0.61,0.0,-0.49,118.05,118.05,0.0,0.04,0
171.98764700,171987647,0.0,0.61,0.0,-0.49,118.04,118.04,0.0,0.04,0
172.08760900,172087609,0.0,0.61,0.0,-0.49,117.94,117.94,0.0,0.06,0
172.18763900,172187639,0.0,0.61,0.0,-0.49,118.04,118.04,0.0,0.08,0
172.28766900,172287669,0.0,0.61,0.0,-0.49,118.01,118.01,0.0,0.07,0
172.38796800,172387968,0.0,0.61,0.0,-0.49,118.0,118.0,0.0,0.06,0
172.48766800,172487668,0.0,0.61,0.0,-0.49,117.99000000000001,117.99000000000001,0.0,0.05,0
172.58764600,172587646,0.0,0.61,0.0,-0.49,118.0,118.0,0.0,0.04,0
172.68766600,172687666,0.0,0.61,0.0,-0.49,117.99000000000001,117.99000000000001,0.0,0.03,0
172.78778200,172787782,0.0,0.61,0.0,-0.49,118.02,118.02,0.0,0.03,0
177.78773800,177787738,0.0,0.62,0.0,-0.5,118.02,118.02,0.0,0.04,0
177.88769300,177887693,0.0,0.63,0.0,-0.5,118.01,118.01,0.0,0.03,0
177.98767400,177987674,0.0,0.63,0.0,-0.5,118.04,118.04,0.0,0.04,0
178.08762800,178087628,0.0,0.63,0.0,-0.49,118.03,118.03,0.0,0.03,0
178.18757100,178187571,0.0,0.63,0.0,-0.49,117.96000000000001,117.96000000000001,0.0,0.05,0
178.28767900,178287679,0.0,0.63,0.0,-0.49,117.95,117.95,0.0,0.04,0
178.38797100,178387971,0.0,0.63,0.0,-0.49,117.9,117.9,0.0,0.05,0
180.48772100,180487721,0.0,0.64,0.0,-0.49,117.74000000000001,117.74000000000001,0.0,0.02,0
180.58768200,180587682,0.0,0.64,0.0,-0.49,117.72,117.72,0.0,0.02,0
180.68766200,180687662,0.0,0.64,0.0,-0.49,117.72,117.72,0.0,0.02,0
180.78774200,180787742,0.0,0.64,0.0,-0.49,117.66,117.66,0.0,0.03,0
180.88766400,180887664,0.0,0.65,0.0,-0.49,117.61,117.61,0.0,0.05,0
180.98769100,180987691,0.0,0.64,0.0,-0.49,117.59,117.59,0.0,0.04,0
181.08768700,181087687,0.0,0.65,0.0,-0.49,117.55,117.55,0.0,0.04,0
181.18765000,181187650,0.0,0.64,0.0,-0.49,117.51,117.51,0.0,0.05,0
181.28764200,181287642,0.0,0.64,0.0,-0.49,117.51,117.51,0.0,0.04,0
181.38796700,181387967,0.0,0.64,0.0,-0.49,117.52,117.52,0.0,0.03,0
181.48763800,181487638,0.0,0.64,0.0,-0.49,117.59,117.59,0.0,0.05,0
181.58770800,181587708,0.0,0.64,0.0,-0.49,117.59,117.59,0.0,0.04,0
181.68768200,181687682,0.0,0.64,0.0,-0.49,117.65,117.65,0.0,0.05,0
181.78771700,181787717,0.0,0.64,0.0,-0.5,117.67,117.67,0.0,0.05,0
181.88764500,181887645,0.0,0.64,0.0,-0.5,117.68,117.68,0.0,0.04,0
181.98768900,181987689,0.0,0.64,0.0,-0.49,117.68,117.68,0.0,0.03,0
182.08768100,182087681,0.0,0.64,0.0,-0.5,117.67,117.67,0.0,0.03,0
182.18771400,182187714,0.0,0.64,0.0,-0.49,117.67,117.67,0.0,0.03,0
182.28770000,182287700,0.0,0.64,0.0,-0.49,117.72,117.72,0.0,0.04,0
182.38798000,182387980,0.0,0.64,0.0,-0.49,117.73,117.73,0.0,0.03,0
182.48767900,182487679,0.0,0.64,0.0,-0.49,117.66,117.66,0.0,0.05,0
182.58762800,182587628,0.0,0.64,0.0,-0.49,117.63,117.63,0.0,0.05,0
182.68767100,182687671,0.0,0.64,0.0,-0.5,117.65,117.65,0.0,0.05,0
182.78767300,182787673,0.0,0.64,0.0,-0.5,117.61,117.61,0.0,0.05,0
182.88766500,182887665,0.0,0.63,0.0,-0.5,117.63,117.63,0.0,0.05,0
182.98764800,182987648,0.0,0.63,0.0,-0.5,117.65,117.65,0.0,0.04,0
183.08763100,183087631,0.0,0.63,0.0,-0.49,117.67,117.67,0.0,0.04,0
183.18767700,183187677,0.0,0.63,0.0,-0.5,117.71000000000001,117.71000000000001,0.0,0.05,0
183.28764600,183287646,0.0,0.64,0.0,-0.5,117.71000000000001,117.71000000000001,0.0,0.04,0
183.38799300,183387993,0.0,0.63,0.0,-0.5,117.71000000000001,117.71000000000001,0.0,0.03,0
183.48766200,183487662,0.0,0.63,0.0,-0.5,117.68,117.68,0.0,0.03,0
185.58770800,185587708,0.0,0.62,0.0,-0.51,117.71000000000001,117.71000000000001,0.0,0.03,0
185.68771300,185687713,0.0,0.62,0.0,-0.5,117.71000000000001,117.71000000000001,0.0,0.03,0
185.78773700,185787737,0.0,0.62,0.0,-0.51,117.67,117.67,0.0,0.03,0
185.88764400,185887644,0.0,0.62,0.0,-0.5,117.7,117.7,0.0,0.04,0
185.98760300,185987603,0.0,0.62,0.0,-0.5,117.66,117.66,0.0,0.05,0
186.08758500,186087585,0.0,0.61,0.0,-0.5,117.58,117.58,0.0,0.06,0
186.18768000,186187680,0.0,0.61,0.0,-0.5,117.60000000000001,117.60000000000001,0.0,0.05,0
186.28763800,186287638,0.0,0.61,0.0,-0.49,117.54,117.54,0.0,0.06,0
186.38797400,186387974,0.0,0.61,0.0,-0.5,117.57000000000001,117.57000000000001,0.0,0.05,0
186.48769300,186487693,0.0,0.61,0.0,-0.49,117.55,117.55,0.0,0.05,0
186.58768300,186587683,0.0,0.61,0.0,-0.49,117.57000000000001,117.57000000000001,0.0,0.04,0
186.68769600,186687696,0.0,0.61,0.0,-0.5,117.60000000000001,117.60000000000001,0.0,0.04,0
186.78776200,186787762,0.0,0.61,0.0,-0.49,117.56,117.56,0.0,0.04,0
186.88766300,186887663,0.0,0.61,0.0,-0.49,117.58,117.58,0.0,0.04,0
186.98767700,186987677,0.0,0.62,0.0,-0.49,117.60000000000001,117.60000000000001,0.0,0.04,0
187.08766300,187087663,0.0,0.61,0.0,-0.49,117.61,117.61,0.0,0.03,0
187.18767200,187187672,0.0,0.62,0.0,-0.49,117.58,117.58,0.0,0.03,0
187.28770900,187287709,0.0,0.61,0.0,-0.49,117.60000000000001,117.60000000000001,0.0,0.03,0
187.38802000,187388020,0.0,0.61,0.0,-0.49,117.61,117.61,0.0,0.03,0
187.48763300,187487633,0.0,0.61,0.0,-0.49,117.59,117.59,0.0,0.03,0
187.58758500,187587585,0.0,0.61,0.0,-0.49,117.56,117.56,0.0,0.04,0
187.68760200,187687602,0.0,0.61,0.0,-0.5,117.54,117.54,0.0,0.03,0
187.78773700,187787737,0.0,0.61,0.0,-0.5,117.5,117.5,0.0,0.04,0
187.88767800,187887678,0.0,0.61,0.0,-0.49,117.53,117.53,0.0,0.04,0
187.98767000,187987670,0.0,0.61,0.0,-0.49,117.46000000000001,117.46000000000001,0.0,0.05,0
188.08772100,188087721,0.0,0.61,0.0,-0.49,117.4,117.4,0.0,0.06,0
188.18766800,188187668,0.0,0.61,0.0,-0.49,117.33,117.33,0.0,0.07,0
188.28771800,188287718,0.0,0.61,0.0,-0.49,117.32000000000001,117.32000000000001,0.0,0.05,0
188.38796200,188387962,0.0,0.61,0.0,-0.49,117.36,117.36,0.0,0.06,0
188.48767800,188487678,0.0,0.61,0.0,-0.5,117.35000000000001,117.35000000000001,0.0,0.05,0
188.58766900,188587669,0.0,0.61,0.0,-0.5,117.33,117.33,0.0,0.04,0
188.68770500,188687705,0.0,0.61,0.0,-0.5,117.34,117.34,0.0,0.04,0
188.78775600,188787756,0.0,0.61,0.0,-0.5,117.32000000000001,117.32000000000001,0.0,0.04,0
188.88762400,188887624,0.0,0.61,0.0,-0.5,117.33,117.33,0.0,0.03,0
188.98762200,188987622,0.0,0.61,0.0,-0.5,117.36,117.36,0.0,0.04,0
189.08764700,189087647,0.0,0.61,0.0,-0.5,117.35000000000001,117.35000000000001,0.0,0.03,0
189.18757200,189187572,0.0,0.6,0.0,-0.5,117.41,117.41,0.0,0.04,0
189.28768100,189287681,0.0,0.6,0.0,-0.5,117.38,117.38,0.0,0.04,0
189.38794500,189387945,0.0,0.6,0.0,-0.5,117.38,117.38,0.0,0.03,0
189.48767100,189487671,0.0,0.6,0.0,-0.5,117.33,117.33,0.0,0.04,0
189.58767800,189587678,0.0,0.6,0.0,-0.51,117.3,117.3,0.0,0.04,0
189.68766500,189687665,0.0,0.6,0.0,-0.51,117.31,117.31,0.0,0.04,0
189.78784200,189787842,0.0,0.6,0.0,-0.51,117.27,117.27,0.0,0.04,0
189.88768100,189887681,0.0,0.6,0.0,-0.51,117.21000000000001,117.21000000000001,0.0,0.05,0
189.98769200,189987692,0.0,0.6,0.0,-0.51,117.15,117.15,0.0,0.06,0
190.08767800,190087678,0.0,0.6,0.0,-0.51,117.12,117.12,0.0,0.06,0
190.18766500,190187665,0.0,0.6,0.0,-0.5,117.19,117.19,0.0,0.07,0
190.28769100,190287691,0.0,0.6,0.0,-0.5,117.17,117.17,0.0,0.06,0
190.38788300,190387883,0.0,0.6,0.0,-0.5,117.18,117.18,0.0,0.05,0
190.48762600,190487626,0.0,0.6,0.0,-0.5,117.19,117.19,0.0,0.04,0
190.58763300,190587633,0.0,0.6,0.0,-0.5,117.18,117.18,0.0,0.03,0
190.68761400,190687614,0.0,0.6,0.0,-0.5,117.11,117.11,0.0,0.05,0
190.78773100,190787731,0.0,0.6,0.0,-0.5,117.13,117.13,0.0,0.05,0
190.88765700,190887657,0.0,0.6,0.0,-0.51,117.13,117.13,0.0,0.04,0
190.98766200,190987662,0.0,0.6,0.0,-0.51,117.13,117.13,0.0,0.03,0
191.08769800,191087698,0.0,0.6,0.0,-0.51,117.17,117.17,0.0,0.04,0
191.18774800,191187748,0.0,0.6,0.0,-0.51,117.14,117.14,0.0,0.04,0
191.28764300,191287643,0.0,0.6,0.0,-0.51,117.13,117.13,0.0,0.03,0
191.38796800,191387968,0.0,0.6,0.0,-0.51,117.10000000000001,117.10000000000001,0.0,0.04,0
191.48769300,191487693,0.0,0.6,0.0,-0.51,117.06,117.06,0.0,0.04,0
191.58768500,191587685,0.0,0.6,0.0,-0.52,117.01,117.01,0.0,0.05,0
191.68768000,191687680,0.0,0.6,0.0,-0.52,117.03,117.03,0.0,0.05,0
191.78774400,191787744,0.0,0.6,0.0,-0.52,116.98,116.98,0.0,0.05,0
191.88770500,191887705,0.0,0.59,0.0,-0.52,116.97,116.97,0.0,0.04,0
191.98767200,191987672,0.0,0.59,0.0,-0.52,116.93,116.93,0.0,0.05,0
192.08764700,192087647,0.0,0.59,0.0,-0.52,116.9,116.9,0.0,0.04,0
192.18765200,192187652,0.0,0.59,0.0,-0.52,116.87,116.87,0.0,0.04,0
192.28756500,192287565,0.0,0.59,0.0,-0.52,116.83,116.83,0.0,0.04,0
192.38790500,192387905,0.0,0.59,0.0,-0.53,116.86,116.86,0.0,0.04,0
192.48768300,192487683,0.0,0.59,0.0,-0.53,116.86,116.86,0.0,0.04,0
192.58766800,192587668,0.0,0.59,0.0,-0.53,116.85000000000001,116.85000000000001,0.0,0.03,0
192.68767300,192687673,0.0,0.58,0.0,-0.53,116.88,116.88,0.0,0.04,0
192.78786800,192787868,0.0,0.58,0.0,-0.53,116.82000000000001,116.82000000000001,0.0,0.05,0
192.88768300,192887683,0.0,0.58,0.0,-0.53,116.8,116.8,0.0,0.04,0
192.98764700,192987647,0.0,0.58,0.0,-0.53,116.79,116.79,0.0,0.03,0
193.08769500,193087695,0.0,0.58,0.0,-0.53,116.72,116.72,0.0,0.05,0
193.18768600,193187686,0.0,0.58,0.0,-0.53,116.74000000000001,116.74000000000001,0.0,0.05,0
193.28766200,193287662,0.0,0.58,0.0,-0.53,116.77,116.77,0.0,0.05,0
193.38792600,193387926,0.0,0.58,0.0,-0.53,116.81,116.81,0.0,0.06,0
193.48769100,193487691,0.0,0.58,0.0,-0.53,116.83,116.83,0.0,0.05,0
193.58763400,193587634,0.0,0.58,0.0,-0.53,116.78,116.78,0.0,0.05,0
193.68764300,193687643,0.0,0.58,0.0,-0.53,116.8,116.8,0.0,0.05,0
193.78770100,193787701,0.0,0.58,0.0,-0.53,116.78,116.78,0.0,0.04,0
193.88765600,193887656,0.0,0.58,0.0,-0.53,116.71000000000001,116.71000000000001,0.0,0.05,0
193.98773000,193987730,0.0,0.58,0.0,-0.53,116.7,116.7,0.0,0.04,0
194.08764300,194087643,0.0,0.58,0.0,-0.53,116.74000000000001,116.74000000000001,0.0,0.05,0
194.18763700,194187637,0.0,0.58,0.0,-0.53,116.68,116.68,0.0,0.05,0
194.28767700,194287677,0.0,0.58,0.0,-0.53,116.67,116.67,0.0,0.05,0
194.38795200,194387952,0.0,0.58,0.0,-0.53,116.67,116.67,0.0,0.04,0
194.48765900,194487659,0.0,0.58,0.0,-0.53,116.7,116.7,0.0,0.04,0
194.58768400,194587684,0.0,0.58,0.0,-0.53,116.7,116.7,0.0,0.03,0
194.68765300,194687653,0.0,0.58,0.0,-0.53,116.72,116.72,0.0,0.03,0
194.78776400,194787764,0.0,0.58,0.0,-0.53,116.71000000000001,116.71000000000001,0.0,0.03,0
194.88767700,194887677,0.0,0.58,0.0,-0.53,116.7,116.7,0.0,0.02,0
194.98767000,194987670,0.0,0.5700000000000001,0.0,-0.52,116.68,116.68,0.0,0.02,0
195.08767000,195087670,0.0,0.5700000000000001,0.0,-0.52,116.69,116.69,0.0,0.02,0
195.18769200,195187692,0.0,0.5700000000000001,0.0,-0.53,116.68,116.68,0.0,0.02,0
195.28763800,195287638,0.0,0.5700000000000001,0.0,-0.53,116.65,116.65,0.0,0.02,0
195.38789700,195387897,0.0,0.5700000000000001,0.0,-0.53,116.61,116.61,0.0,0.03,0
195.48765600,195487656,0.0,0.5700000000000001,0.0,-0.53,116.62,116.62,0.0,0.03,0
195.58764700,195587647,0.0,0.5700000000000001,0.0,-0.52,116.64,116.64,0.0,0.03,0
195.68772300,195687723,0.0,0.5700000000000001,0.0,-0.52,116.65,116.65,0.0,0.03,0
195.78776200,195787762,0.0,0.5700000000000001,0.0,-0.52,116.7,116.7,0.0,0.04,0
195.88772000,195887720,0.0,0.5700000000000001,0.0,-0.52,116.66,116.66,0.0,0.04,0
195.98767000,195987670,0.0,0.5700000000000001,0.0,-0.52,116.66,116.66,0.0,0.04,0
196.08777700,196087777,0.0,0.5700000000000001,0.0,-0.52,116.66,116.66,0.0,0.03,0
196.18766100,196187661,0.0,0.5700000000000001,0.0,-0.52,116.69,116.69,0.0,0.04,0
196.28769900,196287699,0.0,0.5700000000000001,0.0,-0.52,116.71000000000001,116.71000000000001,0.0,0.04,0
196.38795400,196387954,0.0,0.5700000000000001,0.0,-0.52,116.74000000000001,116.74000000000001,0.0,0.04,0
196.48771100,196487711,0.0,0.5700000000000001,0.0,-0.52,116.65,116.65,0.0,0.06,0
196.58770600,196587706,0.0,0.5700000000000001,0.0,-0.52,116.60000000000001,116.60000000000001,0.0,0.06,0
196.68764200,196687642,0.0,0.5700000000000001,0.0,-0.51,116.60000000000001,116.60000000000001,0.0,0.05,0
196.78767500,196787675,0.0,0.5700000000000001,0.0,-0.51,116.60000000000001,116.60000000000001,0.0,0.04,0
196.88764400,196887644,0.0,0.5700000000000001,0.0,-0.51,116.65,116.65,0.0,0.05,0
196.98764900,196987649,0.0,0.5700000000000001,0.0,-0.51,116.64,116.64,0.0,0.04,0
197.08765900,197087659,0.0,0.5700000000000001,0.0,-0.51,116.68,116.68,0.0,0.05,0
197.18772300,197187723,0.0,0.5700000000000001,0.0,-0.51,116.68,116.68,0.0,0.04,0
197.28779400,197287794,0.0,0.5700000000000001,0.0,-0.51,116.69,116.69,0.0,0.03,0
197.38806700,197388067,0.0,0.5700000000000001,0.0,-0.51,116.69,116.69,0.0,0.03,0
197.48765600,197487656,0.0,0.5700000000000001,0.0,-0.51,116.7,116.7,0.0,0.03,0
197.58764900,197587649,0.0,0.5700000000000001,0.0,-0.51,116.7,116.7,0.0,0.03,0
197.68767900,197687679,0.0,0.5700000000000001,0.0,-0.52,116.72,116.72,0.0,0.03,0
197.78773600,197787736,0.0,0.58,0.0,-0.51,116.74000000000001,116.74000000000001,0.0,0.03,0
197.88769600,197887696,0.0,0.5700000000000001,0.0,-0.51,116.7,116.7,0.0,0.03,0
197.98769200,197987692,0.0,0.58,0.0,-0.51,116.64,116.64,0.0,0.04,0
198.08767200,198087672,0.0,0.58,0.0,-0.51,116.61,116.61,0.0,0.04,0
198.18768500,198187685,0.0,0.58,0.0,-0.51,116.63,116.63,0.0,0.04,0
198.28769500,198287695,0.0,0.58,0.0,-0.51,116.62,116.62,0.0,0.03,0
198.38787700,198387877,0.0,0.58,0.0,-0.51,116.62,116.62,0.0,0.03,0
198.48756000,198487560,0.0,0.58,0.0,-0.51,116.64,116.64,0.0,0.03,0
198.58759200,198587592,0.0,0.5700000000000001,0.0,-0.51,116.65,116.65,0.0,0.03,0
198.68770700,198687707,0.0,0.5700000000000001,0.0,-0.51,116.64,116.64,0.0,0.02,0
198.78774800,198787748,0.0,0.5700000000000001,0.0,-0.51,116.68,116.68,0.0,0.03,0
198.88761900,198887619,0.0,0.5700000000000001,0.0,-0.51,116.69,116.69,0.0,0.03,0
198.98769800,198987698,0.0,0.5700000000000001,0.0,-0.51,116.75,116.75,0.0,0.05,0
199.08766000,199087660,0.0,0.5700000000000001,0.0,-0.51,116.79,116.79,0.0,0.05,0
199.18767600,199187676,0.0,0.5700000000000001,0.0,-0.51,116.69,116.69,0.0,0.07,0
199.28771400,199287714,0.0,0.5700000000000001,0.0,-0.51,116.73,116.73,0.0,0.07,0
199.38797900,199387979,0.0,0.5700000000000001,0.0,-0.51,116.72,116.72,0.0,0.06,0
199.48764600,199487646,0.0,0.5700000000000001,0.0,-0.51,116.7,116.7,0.0,0.05,0
199.58769800,199587698,0.0,0.58,0.0,-0.51,116.74000000000001,116.74000000000001,0.0,0.05,0
199.68771300,199687713,0.0,0.58,0.0,-0.51,116.79,116.79,0.0,0.06,0
199.78774300,199787743,0.0,0.58,0.0,-0.51,116.8,116.8,0.0,0.05,0
199.88767500,199887675,0.0,0.58,0.0,-0.51,116.84,116.84,0.0,0.06,0
199.98764700,199987647,0.0,0.58,0.0,-0.51,116.84,116.84,0.0,0.05,0
200.08761900,200087619,0.0,0.58,0.0,-0.51,116.85000000000001,116.85000000000001,0.0,0.04,0
200.18766800,200187668,0.0,0.5700000000000001,0.0,-0.51,116.84,116.84,0.0,0.04,0
200.28766300,200287663,0.0,0.58,0.0,-0.51,116.8,116.8,0.0,0.04,0
200.38794800,200387948,0.0,0.5700000000000001,0.0,-0.51,116.79,116.79,0.0,0.03,0
200.48766300,200487663,0.0,0.5700000000000001,0.0,-0.51,116.77,116.77,0.0,0.03,0
237.08769700,237087697,0.0,0.52,0.0,-0.47000000000000003,117.19,117.19,0.0,0.05,0
237.18767500,237187675,0.0,0.53,0.0,-0.47000000000000003,117.24000000000001,117.24000000000001,0.0,0.06,0
237.28765900,237287659,0.0,0.52,0.0,-0.48,117.32000000000001,117.32000000000001,0.0,0.07,0
237.38788400,237387884,0.0,0.53,0.0,-0.48,117.31,117.31,0.0,0.06,0
237.48756300,237487563,0.0,0.53,0.0,-0.48,117.31,117.31,0.0,0.05,0
237.58763200,237587632,0.0,0.53,0.0,-0.48,117.32000000000001,117.32000000000001,0.0,0.04,0
237.68773100,237687731,0.0,0.53,0.0,-0.48,117.34,117.34,0.0,0.03,0
237.78777000,237787770,0.0,0.53,0.0,-0.48,117.37,117.37,0.0,0.04,0
237.88768200,237887682,0.0,0.52,0.0,-0.48,117.4,117.4,0.0,0.04,0
237.98765500,237987655,0.0,0.53,0.0,-0.48,117.38,117.38,0.0,0.03,0
238.08779800,238087798,0.0,0.53,0.0,-0.48,117.45,117.45,0.0,0.05,0
238.18766900,238187669,0.0,0.53,0.0,-0.48,117.48,117.48,0.0,0.04,0
238.28766800,238287668,0.0,0.53,0.0,-0.48,117.5,117.5,0.0,0.04,0
238.38797800,238387978,0.0,0.52,0.0,-0.48,117.49000000000001,117.49000000000001,0.0,0.04,0
238.48770300,238487703,0.0,0.53,0.0,-0.48,117.52,117.52,0.0,0.04,0
238.58771500,238587715,0.0,0.52,0.0,-0.49,117.52,117.52,0.0,0.03,0
238.68769600,238687696,0.0,0.53,0.0,-0.48,117.54,117.54,0.0,0.03,0
238.78773700,238787737,0.0,0.52,0.0,-0.49,117.57000000000001,117.57000000000001,0.0,0.03,0
238.88767400,238887674,0.0,0.52,0.0,-0.49,117.57000000000001,117.57000000000001,0.0,0.02,0
238.98763700,238987637,0.0,0.52,0.0,-0.49,117.53,117.53,0.0,0.03,0
239.08756400,239087564,0.0,0.52,0.0,-0.48,117.48,117.48,0.0,0.04,0
239.18760000,239187600,0.0,0.52,0.0,-0.48,117.5,117.5,0.0,0.04,0
239.28763300,239287633,0.0,0.52,0.0,-0.48,117.49000000000001,117.49000000000001,0.0,0.03,0
239.38796100,239387961,0.0,0.52,0.0,-0.48,117.49000000000001,117.49000000000001,0.0,0.03,0
239.48763400,239487634,0.0,0.52,0.0,-0.48,117.45,117.45,0.0,0.03,0
239.58773000,239587730,0.0,0.52,0.0,-0.48,117.45,117.45,0.0,0.03,0
239.68767500,239687675,0.0,0.52,0.0,-0.48,117.45,117.45,0.0,0.02,0
239.78774800,239787748,0.0,0.52,0.0,-0.48,117.41,117.41,0.0,0.03,0
239.88768300,239887683,0.0,0.52,0.0,-0.48,117.47,117.47,0.0,0.04,0
239.98769200,239987692,0.0,0.52,0.0,-0.48,117.44,117.44,0.0,0.04,0
240.08767800,240087678,0.0,0.52,0.0,-0.48,117.49000000000001,117.49000000000001,0.0,0.05,0
240.18776900,240187769,0.0,0.52,0.0,-0.48,117.48,117.48,0.0,0.04,0
240.28768300,240287683,0.0,0.52,0.0,-0.48,117.5,117.5,0.0,0.04,0
240.38787000,240387870,0.0,0.52,0.0,-0.48,117.51,117.51,0.0,0.03,0
240.48768800,240487688,0.0,0.52,0.0,-0.48,117.47,117.47,0.0,0.04,0
240.58764500,240587645,0.0,0.52,0.0,-0.48,117.42,117.42,0.0,0.05,0
240.68756000,240687560,0.0,0.52,0.0,-0.48,117.42,117.42,0.0,0.04,0
242.78777900,242787779,0.0,0.51,0.0,-0.49,117.4,117.4,0.0,0.04,0
242.88766600,242887666,0.0,0.51,0.0,-0.49,117.39,117.39,0.0,0.03,0
242.98767000,242987670,0.0,0.51,0.0,-0.49,117.4,117.4,0.0,0.03,0
243.08768900,243087689,0.0,0.51,0.0,-0.49,117.43,117.43,0.0,0.03,0
243.18768900,243187689,0.0,0.51,0.0,-0.48,117.44,117.44,0.0,0.03,0
243.28768100,243287681,0.0,0.51,0.0,-0.49,117.48,117.48,0.0,0.03,0
243.38793300,243387933,0.0,0.51,0.0,-0.48,117.47,117.47,0.0,0.03,0
243.48770800,243487708,0.0,0.5,0.0,-0.49,117.51,117.51,0.0,0.04,0
243.58767300,243587673,0.0,0.51,0.0,-0.49,117.48,117.48,0.0,0.04,0
245.68767600,245687676,0.0,0.52,0.0,-0.48,117.35000000000001,117.35000000000001,0.0,0.03,0
245.78778100,245787781,0.0,0.52,0.0,-0.48,117.3,117.3,0.0,0.04,0
245.88765600,245887656,0.0,0.52,0.0,-0.48,117.29,117.29,0.0,0.04,0
245.98768900,245987689,0.0,0.52,0.0,-0.48,117.31,117.31,0.0,0.03,0
246.08770600,246087706,0.0,0.52,0.0,-0.48,117.29,117.29,0.0,0.03,0
246.18765800,246187658,0.0,0.51,0.0,-0.49,117.32000000000001,117.32000000000001,0.0,0.04,0
246.28769800,246287698,0.0,0.52,0.0,-0.49,117.28,117.28,0.0,0.04,0
246.38792900,246387929,0.0,0.51,0.0,-0.49,117.27,117.27,0.0,0.04,0
246.48777300,246487773,0.0,0.52,0.0,-0.49,117.26,117.26,0.0,0.03,0
246.58768400,246587684,0.0,0.52,0.0,-0.48,117.21000000000001,117.21000000000001,0.0,0.04,0
246.68765400,246687654,0.0,0.52,0.0,-0.49,117.23,117.23,0.0,0.04,0
246.78780200,246787802,0.0,0.52,0.0,-0.49,117.2,117.2,0.0,0.04,0
246.88761000,246887610,0.0,0.52,0.0,-0.49,117.17,117.17,0.0,0.04,0
246.98757100,246987571,0.0,0.52,0.0,-0.49,117.15,117.15,0.0,0.04,0
247.08772400,247087724,0.0,0.52,0.0,-0.49,117.21000000000001,117.21000000000001,0.0,0.05,0
247.18772600,247187726,0.0,0.52,0.0,-0.49,117.18,117.18,0.0,0.05,0
247.28763800,247287638,0.0,0.52,0.0,-0.49,117.14,117.14,0.0,0.05,0
247.38798900,247387989,0.0,0.52,0.0,-0.49,117.16,117.16,0.0,0.05,0
247.48766100,247487661,0.0,0.52,0.0,-0.49,117.19,117.19,0.0,0.05,0
247.58768100,247587681,0.0,0.52,0.0,-0.49,117.2,117.2,0.0,0.04,0
247.68768800,247687688,0.0,0.53,0.0,-0.49,117.21000000000001,117.21000000000001,0.0,0.03,0
247.78772500,247787725,0.0,0.52,0.0,-0.49,117.25,117.25,0.0,0.04,0
247.88766600,247887666,0.0,0.52,0.0,-0.49,117.22,117.22,0.0,0.04,0
247.98767600,247987676,0.0,0.53,0.0,-0.49,117.25,117.25,0.0,0.04,0
248.08768500,248087685,0.0,0.52,0.0,-0.49,117.19,117.19,0.0,0.05,0
248.18766400,248187664,0.0,0.53,0.0,-0.49,117.12,117.12,0.0,0.06,0
248.28765000,248287650,0.0,0.52,0.0,-0.49,117.11,117.11,0.0,0.05,0
248.38789500,248387895,0.0,0.53,0.0,-0.49,117.12,117.12,0.0,0.04,0
248.48762600,248487626,0.0,0.53,0.0,-0.49,117.13,117.13,0.0,0.04,0
248.58759400,248587594,0.0,0.52,0.0,-0.49,117.13,117.13,0.0,0.03,0
248.68772500,248687725,0.0,0.53,0.0,-0.49,117.12,117.12,0.0,0.03,0
248.78778200,248787782,0.0,0.52,0.0,-0.49,117.14,117.14,0.0,0.03,0
248.88765100,248887651,0.0,0.53,0.0,-0.49,117.12,117.12,0.0,0.03,0
248.98764600,248987646,0.0,0.53,0.0,-0.49,117.15,117.15,0.0,0.03,0
249.08766700,249087667,0.0,0.53,0.0,-0.49,117.18,117.18,0.0,0.03,0
249.18769100,249187691,0.0,0.53,0.0,-0.49,117.21000000000001,117.21000000000001,0.0,0.04,0
249.28769100,249287691,0.0,0.53,0.0,-0.49,117.22,117.22,0.0,0.03,0
249.38796800,249387968,0.0,0.53,0.0,-0.48,117.26,117.26,0.0,0.04,0
249.48768900,249487689,0.0,0.53,0.0,-0.48,117.26,117.26,0.0,0.04,0
249.58771700,249587717,0.0,0.53,0.0,-0.49,117.28,117.28,0.0,0.03,0
249.68770700,249687707,0.0,0.54,0.0,-0.48,117.26,117.26,0.0,0.03,0
249.78773800,249787738,0.0,0.5700000000000001,0.0,-0.49,117.27,117.27,0.0,0.03,0
249.88764500,249887645,0.0,0.59,0.0,-0.51,117.29,117.29,0.0,0.03,0
249.98763600,249987636,0.0,0.55,0.0,-0.48,117.2,117.2,0.0,0.03,0
250.08755700,250087557,0.0,0.5700000000000001,0.0,-0.51,117.15,117.15,0.0,0.05,0
250.18762400,250187624,0.0,0.6,0.0,-0.5,117.13,117.13,0.0,0.04,0
250.28772200,250287722,0.0,0.56,0.0,-0.48,117.07000000000001,117.07000000000001,0.0,0.04,0
250.38805500,250388055,0.0,0.61,0.0,-0.49,117.14,117.14,0.0,0.04,0
250.48768600,250487686,0.0,0.62,0.0,-0.48,117.11,117.11,0.0,0.04,0
250.58768100,250587681,0.0,0.6,0.0,-0.46,117.03,117.03,0.0,0.03,0
250.68768600,250687686,0.0,0.61,0.0,-0.5,117.11,117.11,0.0,0.03,0
250.78771600,250787716,0.0,0.61,0.0,-0.49,117.06,117.06,0.0,0.03,0
250.88768600,250887686,0.0,0.58,0.0,-0.45,116.99000000000001,116.99000000000001,0.0,0.03,0
250.98767900,250987679,0.0,0.6,0.0,-0.47000000000000003,117.07000000000001,117.07000000000001,0.0,0.03,0
251.08767700,251087677,0.0,0.62,0.0,-0.44,117.07000000000001,117.07000000000001,0.0,0.03,0
251.18769200,251187692,0.0,0.65,0.0,-0.44,117.06,117.06,0.0,0.03,0
251.28772300,251287723,0.0,0.64,0.0,-0.46,117.04,117.04,0.0,0.04,0
251.38788200,251387882,0.0,0.58,0.0,-0.42,116.88,116.88,0.0,0.04,0
251.48762200,251487622,0.0,0.6,0.0,-0.45,116.95,116.95,0.0,0.04,0
251.58755600,251587556,0.0,0.63,0.0,-0.46,116.98,116.98,0.0,0.04,0
251.68759700,251687597,0.0,0.59,0.0,-0.43,116.92,116.92,0.0,0.03,0
251.78776500,251787765,0.0,0.62,0.0,-0.44,116.99000000000001,116.99000000000001,0.0,0.04,0
251.88771700,251887717,0.0,0.62,0.0,-0.45,117.05,117.05,0.0,0.04,0
251.98765500,251987655,0.0,0.61,0.0,-0.44,117.03,117.03,0.0,0.04,0
252.08768200,252087682,0.0,0.62,0.0,-0.45,117.07000000000001,117.07000000000001,0.0,0.03,0
252.18774400,252187744,0.0,0.59,0.0,-0.45,117.02,117.02,0.0,0.04,0
252.28767200,252287672,0.0,0.6,0.0,-0.44,117.02,117.02,0.0,0.03,0
252.38797600,252387976,0.0,0.62,0.0,-0.45,116.98,116.98,0.0,0.05,0
252.48767300,252487673,0.0,0.6,0.0,-0.43,116.9,116.9,0.0,0.05,0
252.58767600,252587676,0.0,0.61,0.0,-0.43,116.89,116.89,0.0,0.05,0
252.68766400,252687664,0.0,0.62,0.0,-0.43,116.94,116.94,0.0,0.05,0
252.78781500,252787815,0.0,0.61,0.0,-0.43,116.94,116.94,0.0,0.05,0
252.88765300,252887653,0.0,0.62,0.0,-0.44,116.91,116.91,0.0,0.05,0
252.98763000,252987630,0.0,0.61,0.0,-0.44,116.91,116.91,0.0,0.04,0
253.08766600,253087666,0.0,0.6,0.0,-0.43,116.93,116.93,0.0,0.04,0
253.18764500,253187645,0.0,0.62,0.0,-0.46,116.99000000000001,116.99000000000001,0.0,0.03,0
253.28766900,253287669,0.0,0.62,0.0,-0.44,116.99000000000001,116.99000000000001,0.0,0.03,0
253.38794700,253387947,0.0,0.6,0.0,-0.43,116.93,116.93,0.0,0.03,0
253.48767300,253487673,0.0,0.63,0.0,-0.44,116.94,116.94,0.0,0.03,0
253.58767400,253587674,0.0,0.61,0.0,-0.44,116.94,116.94,0.0,0.03,0
253.68766000,253687660,0.0,0.61,0.0,-0.46,117.04,117.04,0.0,0.05,0
253.78780300,253787803,0.0,0.62,0.0,-0.44,117.03,117.03,0.0,0.04,0
253.88768900,253887689,0.0,0.59,0.0,-0.45,116.99000000000001,116.99000000000001,0.0,0.04,0
253.98768800,253987688,0.0,0.61,0.0,-0.44,117.06,117.06,0.0,0.06,0
254.08771400,254087714,0.0,0.58,0.0,-0.45,117.09,117.09,0.0,0.06,0
254.18767400,254187674,0.0,0.58,0.0,-0.44,117.07000000000001,117.07000000000001,0.0,0.05,0
254.28771700,254287717,0.0,0.58,0.0,-0.43,117.04,117.04,0.0,0.04,0
254.38791600,254387916,0.0,0.5700000000000001,0.0,-0.45,116.99000000000001,116.99000000000001,0.0,0.06,0
254.48763400,254487634,0.0,0.61,0.0,-0.44,116.98,116.98,0.0,0.05,0
254.58764200,254587642,0.0,0.56,0.0,-0.44,116.98,116.98,0.0,0.05,0
254.68764900,254687649,0.0,0.58,0.0,-0.44,116.98,116.98,0.0,0.04,0
254.78776800,254787768,0.0,0.5700000000000001,0.0,-0.44,117.0,117.0,0.0,0.04,0
254.88770600,254887706,0.0,0.56,0.0,-0.45,116.99000000000001,116.99000000000001,0.0,0.03,0
254.98771600,254987716,0.0,0.59,0.0,-0.45,116.96000000000001,116.96000000000001,0.0,0.04,0
255.08766700,255087667,0.0,0.55,0.0,-0.44,116.96000000000001,116.96000000000001,0.0,0.03,0
255.18766500,255187665,0.0,0.56,0.0,-0.44,116.91,116.91,0.0,0.04,0
255.28765700,255287657,0.0,0.56,0.0,-0.44,116.87,116.87,0.0,0.05,0
255.38789800,255387898,0.0,0.55,0.0,-0.44,116.9,116.9,0.0,0.05,0
255.48765900,255487659,0.0,0.56,0.0,-0.45,116.89,116.89,0.0,0.04,0
255.58769100,255587691,0.0,0.54,0.0,-0.44,116.89,116.89,0.0,0.03,0
255.68765000,255687650,0.0,0.55,0.0,-0.44,116.84,116.84,0.0,0.04,0
255.78774900,255787749,0.0,0.56,0.0,-0.44,116.87,116.87,0.0,0.04,0
255.88770300,255887703,0.0,0.56,0.0,-0.44,116.85000000000001,116.85000000000001,0.0,0.04,0
255.98766300,255987663,0.0,0.56,0.0,-0.45,116.85000000000001,116.85000000000001,0.0,0.03,0
256.08762800,256087628,0.0,0.56,0.0,-0.44,116.87,116.87,0.0,0.03,0
256.18764300,256187643,0.0,0.56,0.0,-0.45,116.86,116.86,0.0,0.03,0
256.28761000,256287610,0.0,0.56,0.0,-0.45,116.9,116.9,0.0,0.04,0
256.38785900,256387859,0.0,0.56,0.0,-0.44,116.92,116.92,0.0,0.04,0
256.48772100,256487721,0.0,0.5700000000000001,0.0,-0.45,116.93,116.93,0.0,0.03,0
256.58769000,256587690,0.0,0.56,0.0,-0.44,116.85000000000001,116.85000000000001,0.0,0.05,0
256.68766000,256687660,0.0,0.5700000000000001,0.0,-0.44,116.84,116.84,0.0,0.04,0
256.78775100,256787751,0.0,0.5700000000000001,0.0,-0.45,116.88,116.88,0.0,0.05,0
256.88768000,256887680,0.0,0.56,0.0,-0.45,116.88,116.88,0.0,0.04,0
256.98768800,256987688,0.0,0.5700000000000001,0.0,-0.45,116.86,116.86,0.0,0.04,0
257.08766400,257087664,0.0,0.5700000000000001,0.0,-0.45,116.83,116.83,0.0,0.04,0
257.18768800,257187688,0.0,0.56,0.0,-0.45,116.82000000000001,116.82000000000001,0.0,0.03,0
257.28765900,257287659,0.0,0.5700000000000001,0.0,-0.45,116.85000000000001,116.85000000000001,0.0,0.04,0
257.38793200,257387932,0.0,0.5700000000000001,0.0,-0.45,116.85000000000001,116.85000000000001,0.0,0.03,0
257.48768300,257487683,0.0,0.5700000000000001,0.0,-0.45,116.82000000000001,116.82000000000001,0.0,0.03,0
257.58772600,257587726,0.0,0.5700000000000001,0.0,-0.45,116.82000000000001,116.82000000000001,0.0,0.03,0
257.68763200,257687632,0.0,0.5700000000000001,0.0,-0.45,116.84,116.84,0.0,0.03,0
257.78771600,257787716,0.0,0.56,0.0,-0.45,116.85000000000001,116.85000000000001,0.0,0.03,0
257.88763300,257887633,0.0,0.56,0.0,-0.45,116.86,116.86,0.0,0.02,0
257.98769800,257987698,0.0,0.56,0.0,-0.45,116.88,116.88,0.0,0.03,0
258.08774900,258087749,0.0,0.56,0.0,-0.45,116.81,116.81,0.0,0.04,0
258.18766600,258187666,0.0,0.5700000000000001,0.0,-0.45,116.82000000000001,116.82000000000001,0.0,0.04,0
258.28768000,258287680,0.0,0.56,0.0,-0.45,116.78,116.78,0.0,0.04,0
258.38795800,258387958,0.0,0.56,0.0,-0.46,116.8,116.8,0.0,0.03,0
258.48769800,258487698,0.0,0.5700000000000001,0.0,-0.46,116.8,116.8,0.0,0.03,0
258.58764900,258587649,0.0,0.56,0.0,-0.45,116.84,116.84,0.0,0.04,0
258.68769300,258687693,0.0,0.56,0.0,-0.45,116.81,116.81,0.0,0.04,0
258.78773900,258787739,0.0,0.56,0.0,-0.45,116.79,116.79,0.0,0.04,0
258.88766700,258887667,0.0,0.56,0.0,-0.45,116.82000000000001,116.82000000000001,0.0,0.04,0
258.98765700,258987657,0.0,0.56,0.0,-0.45,116.81,116.81,0.0,0.03,0
259.08775600,259087756,0.0,0.56,0.0,-0.45,116.78,116.78,0.0,0.04,0
259.18763000,259187630,0.0,0.5700000000000001,0.0,-0.45,116.84,116.84,0.0,0.05,0
259.28764100,259287641,0.0,0.56,0.0,-0.45,116.86,116.86,0.0,0.05,0
259.38789800,259387898,0.0,0.5700000000000001,0.0,-0.46,116.87,116.87,0.0,0.04,0
259.48756700,259487567,0.0,0.56,0.0,-0.45,116.87,116.87,0.0,0.03,0
259.58771600,259587716,0.0,0.5700000000000001,0.0,-0.45,116.84,116.84,0.0,0.03,0
259.68774000,259687740,0.0,0.5700000000000001,0.0,-0.45,116.8,116.8,0.0,0.04,0
259.78776600,259787766,0.0,0.56,0.0,-0.45,116.78,116.78,0.0,0.04,0
259.88768600,259887686,0.0,0.5700000000000001,0.0,-0.45,116.77,116.77,0.0,0.03,0
259.98766300,259987663,0.0,0.5700000000000001,0.0,-0.46,116.78,116.78,0.0,0.03,0
260.08768800,260087688,0.0,0.56,0.0,-0.46,116.81,116.81,0.0,0.03,0
260.18769100,260187691,0.0,0.5700000000000001,0.0,-0.46,116.74000000000001,116.74000000000001,0.0,0.04,0
260.28767400,260287674,0.0,0.56,0.0,-0.46,116.71000000000001,116.71000000000001,0.0,0.04,0
260.38792100,260387921,0.0,0.56,0.0,-0.45,116.68,116.68,0.0,0.04,0
260.48767900,260487679,0.0,0.56,0.0,-0.46,116.67,116.67,0.0,0.03,0
260.58769600,260587696,0.0,0.5700000000000001,0.0,-0.46,116.68,116.68,0.0,0.03,0
281.28765400,281287654,0.0,0.55,0.0,-0.46,116.28,116.28,0.0,0.04,0
281.38805100,281388051,0.0,0.56,0.0,-0.46,116.24000000000001,116.24000000000001,0.0,0.05,0
281.48771200,281487712,0.0,0.54,0.0,-0.46,116.27,116.27,0.0,0.05,0
281.58767600,281587676,0.0,0.56,0.0,-0.46,116.28,116.28,0.0,0.04,0
281.68767500,281687675,0.0,0.56,0.0,-0.46,116.26,116.26,0.0,0.04,0
281.78778600,281787786,0.0,0.55,0.0,-0.45,116.26,116.26,0.0,0.03,0
281.88767600,281887676,0.0,0.56,0.0,-0.46,116.25,116.25,0.0,0.03,0
281.98766100,281987661,0.0,0.55,0.0,-0.46,116.25,116.25,0.0,0.03,0
282.08768800,282087688,0.0,0.56,0.0,-0.46,116.22,116.22,0.0,0.03,0
282.18777700,282187777,0.0,0.56,0.0,-0.45,116.2,116.2,0.0,0.03,0
282.28770600,282287706,0.0,0.55,0.0,-0.46,116.18,116.18,0.0,0.03,0
282.38793200,282387932,0.0,0.56,0.0,-0.46,116.2,116.2,0.0,0.02,0
282.48769900,282487699,0.0,0.55,0.0,-0.46,116.15,116.15,0.0,0.03,0
282.58765800,282587658,0.0,0.56,0.0,-0.46,116.13,116.13,0.0,0.03,0
282.68761100,282687611,0.0,0.56,0.0,-0.45,116.12,116.12,0.0,0.03,0
282.78769700,282787697,0.0,0.55,0.0,-0.45,116.14,116.14,0.0,0.03,0
282.88767200,282887672,0.0,0.56,0.0,-0.45,116.13,116.13,0.0,0.02,0
282.98764600,282987646,0.0,0.55,0.0,-0.45,116.15,116.15,0.0,0.03,0
283.08764200,283087642,0.0,0.56,0.0,-0.45,116.19,116.19,0.0,0.03,0
283.18760900,283187609,0.0,0.55,0.0,-0.45,116.21000000000001,116.21000000000001,0.0,0.03,0
283.28773700,283287737,0.0,0.56,0.0,-0.45,116.2,116.2,0.0,0.02,0
283.38797200,283387972,0.0,0.56,0.0,-0.45,116.24000000000001,116.24000000000001,0.0,0.03,0
283.48763900,283487639,0.0,0.55,0.0,-0.45,116.21000000000001,116.21000000000001,0.0,0.03,0
283.58766300,283587663,0.0,0.55,0.0,-0.45,116.21000000000001,116.21000000000001,0.0,0.03,0
283.68771300,283687713,0.0,0.55,0.0,-0.45,116.23,116.23,0.0,0.03,0
285.78775500,285787755,0.0,0.55,0.0,-0.45,116.52,116.52,0.0,0.03,0
285.88762300,285887623,0.0,0.53,0.0,-0.45,116.51,116.51,0.0,0.02,0
285.98764000,285987640,0.0,0.55,0.0,-0.44,116.48,116.48,0.0,0.03,0
286.08767400,286087674,0.0,0.54,0.0,-0.45,116.49000000000001,116.49000000000001,0.0,0.02,0
286.18764500,286187645,0.0,0.55,0.0,-0.44,116.47,116.47,0.0,0.02,0
286.28768100,286287681,0.0,0.55,0.0,-0.44,116.49000000000001,116.49000000000001,0.0,0.02,0
286.38810900,286388109,0.0,0.54,0.0,-0.44,116.42,116.42,0.0,0.04,0
286.48766500,286487665,0.0,0.55,0.0,-0.44,116.42,116.42,0.0,0.03,0
286.58767700,286587677,0.0,0.55,0.0,-0.43,116.38,116.38,0.0,0.04,0
286.68769400,286687694,0.0,0.54,0.0,-0.44,116.44,116.44,0.0,0.05,0
286.78775100,286787751,0.0,0.55,0.0,-0.44,116.47,116.47,0.0,0.05,0
286.88769300,286887693,0.0,0.54,0.0,-0.44,116.53,116.53,0.0,0.06,0
286.98769600,286987696,0.0,0.55,0.0,-0.45,116.51,116.51,0.0,0.05,0
287.08763800,287087638,0.0,0.54,0.0,-0.44,116.46000000000001,116.46000000000001,0.0,0.06,0
287.18768600,287187686,0.0,0.54,0.0,-0.44,116.45,116.45,0.0,0.05,0
287.28767400,287287674,0.0,0.55,0.0,-0.44,116.44,116.44,0.0,0.04,0
287.38783100,287387831,0.0,0.54,0.0,-0.44,116.44,116.44,0.0,0.03,0
287.48761700,287487617,0.0,0.55,0.0,-0.44,116.42,116.42,0.0,0.03,0
287.58757500,287587575,0.0,0.54,0.0,-0.44,116.42,116.42,0.0,0.02,0
287.68763400,287687634,0.0,0.55,0.0,-0.44,116.42,116.42,0.0,0.02,0
287.78776900,287787769,0.0,0.55,0.0,-0.44,116.44,116.44,0.0,0.02,0
287.88764000,287887640,0.0,0.54,0.0,-0.44,116.43,116.43,0.0,0.02,0
287.98772000,287987720,0.0,0.55,0.0,-0.44,116.44,116.44,0.0,0.01,0
288.08764800,288087648,0.0,0.54,0.0,-0.44,116.45,116.45,0.0,0.01,0
288.18769000,288187690,0.0,0.54,0.0,-0.44,116.44,116.44,0.0,0.02,0
288.28767500,288287675,0.0,0.54,0.0,-0.44,116.45,116.45,0.0,0.01,0
288.38798100,288387981,0.0,0.54,0.0,-0.44,116.42,116.42,0.0,0.02,0
288.48766100,288487661,0.0,0.54,0.0,-0.44,116.47,116.47,0.0,0.03,0
288.58771300,288587713,0.0,0.54,0.0,-0.44,116.49000000000001,116.49000000000001,0.0,0.03,0
288.68770000,288687700,0.0,0.54,0.0,-0.45,116.54,116.54,0.0,0.04,0
288.78774900,288787749,0.0,0.54,0.0,-0.44,116.51,116.51,0.0,0.04,0
288.88762900,288887629,0.0,0.53,0.0,-0.44,116.43,116.43,0.0,0.06,0
288.98761300,288987613,0.0,0.54,0.0,-0.44,116.46000000000001,116.46000000000001,0.0,0.05,0
289.08769800,289087698,0.0,0.53,0.0,-0.44,116.46000000000001,116.46000000000001,0.0,0.04,0
289.18767600,289187676,0.0,0.54,0.0,-0.44,116.46000000000001,116.46000000000001,0.0,0.03,0
289.28771200,289287712,0.0,0.54,0.0,-0.45,116.47,116.47,0.0,0.03,0
289.38794800,289387948,0.0,0.54,0.0,-0.45,116.45,116.45,0.0,0.03,0
289.48766700,289487667,0.0,0.54,0.0,-0.44,116.39,116.39,0.0,0.04,0
289.58767000,289587670,0.0,0.52,0.0,-0.45,116.39,116.39,0.0,0.03,0
289.68767100,289687671,0.0,0.53,0.0,-0.45,116.34,116.34,0.0,0.05,0
289.78776300,289787763,0.0,0.53,0.0,-0.44,116.38,116.38,0.0,0.05,0
289.88768700,289887687,0.0,0.53,0.0,-0.44,116.39,116.39,0.0,0.04,0
289.98769200,289987692,0.0,0.54,0.0,-0.45,116.39,116.39,0.0,0.03,0
290.08766400,290087664,0.0,0.53,0.0,-0.44,116.43,116.43,0.0,0.04,0
290.18768100,290187681,0.0,0.54,0.0,-0.45,116.48,116.48,0.0,0.04,0
290.28767500,290287675,0.0,0.54,0.0,-0.45,116.46000000000001,116.46000000000001,0.0,0.04,0
290.38786600,290387866,0.0,0.55,0.0,-0.44,116.47,116.47,0.0,0.03,0
290.48763800,290487638,0.0,0.54,0.0,-0.44,116.5,116.5,0.0,0.03,0
290.58764400,290587644,0.0,0.55,0.0,-0.44,116.47,116.47,0.0,0.04,0
290.68763500,290687635,0.0,0.56,0.0,-0.44,116.5,116.5,0.0,0.04,0
290.78772700,290787727,0.0,0.54,0.0,-0.44,116.60000000000001,116.60000000000001,0.0,0.06,0
290.88769000,290887690,0.0,0.55,0.0,-0.44,116.66,116.66,0.0,0.07,0
290.98763300,290987633,0.0,0.55,0.0,-0.44,116.60000000000001,116.60000000000001,0.0,0.07,0
291.08770900,291087709,0.0,0.55,0.0,-0.44,116.56,116.56,0.0,0.07,0
291.18766200,291187662,0.0,0.55,0.0,-0.44,116.56,116.56,0.0,0.06,0
291.28765300,291287653,0.0,0.55,0.0,-0.44,116.56,116.56,0.0,0.05,0
291.38797000,291387970,0.0,0.56,0.0,-0.44,116.54,116.54,0.0,0.05,0
291.48769100,291487691,0.0,0.55,0.0,-0.44,116.60000000000001,116.60000000000001,0.0,0.06,0
291.58768100,291587681,0.0,0.55,0.0,-0.44,116.64,116.64,0.0,0.06,0
291.68770000,291687700,0.0,0.56,0.0,-0.44,116.68,116.68,0.0,0.06,0
291.78782600,291787826,0.0,0.55,0.0,-0.43,116.68,116.68,0.0,0.05,0
291.88765900,291887659,0.0,0.56,0.0,-0.44,116.73,116.73,0.0,0.05,0
291.98764400,291987644,0.0,0.55,0.0,-0.43,116.74000000000001,116.74000000000001,0.0,0.04,0
292.08765300,292087653,0.0,0.55,0.0,-0.44,116.7,116.7,0.0,0.05,0
292.18762800,292187628,0.0,0.55,0.0,-0.44,116.72,116.72,0.0,0.05,0
292.28765000,292287650,0.0,0.53,0.0,-0.43,116.74000000000001,116.74000000000001,0.0,0.04,0
292.38793400,292387934,0.0,0.53,0.0,-0.44,116.74000000000001,116.74000000000001,0.0,0.03,0
292.48766600,292487666,0.0,0.52,0.0,-0.43,116.76,116.76,0.0,0.03,0
292.58774400,292587744,0.0,0.52,0.0,-0.43,116.79,116.79,0.0,0.03,0
292.68773800,292687738,0.0,0.53,0.0,-0.44,116.76,116.76,0.0,0.04,0
292.78778700,292787787,0.0,0.53,0.0,-0.43,116.77,116.77,0.0,0.03,0
292.88770000,292887700,0.0,0.52,0.0,-0.43,116.78,116.78,0.0,0.03,0
292.98767000,292987670,0.0,0.52,0.0,-0.43,116.82000000000001,116.82000000000001,0.0,0.03,0
293.08765200,293087652,0.0,0.52,0.0,-0.43,116.81,116.81,0.0,0.03,0
293.18766300,293187663,0.0,0.52,0.0,-0.44,116.82000000000001,116.82000000000001,0.0,0.02,0
293.28769200,293287692,0.0,0.52,0.0,-0.43,116.86,116.86,0.0,0.03,0
293.38793000,293387930,0.0,0.51,0.0,-0.43,116.85000000000001,116.85000000000001,0.0,0.03,0
293.48762100,293487621,0.0,0.52,0.0,-0.44,116.89,116.89,0.0,0.03,0
293.58765100,293587651,0.0,0.52,0.0,-0.43,116.85000000000001,116.85000000000001,0.0,0.04,0
293.68756300,293687563,0.0,0.52,0.0,-0.43,116.86,116.86,0.0,0.03,0
293.78772500,293787725,0.0,0.52,0.0,-0.43,116.92,116.92,0.0,0.04,0
293.88763700,293887637,0.0,0.53,0.0,-0.43,116.92,116.92,0.0,0.04,0
293.98766800,293987668,0.0,0.52,0.0,-0.43,116.95,116.95,0.0,0.04,0
294.08772100,294087721,0.0,0.53,0.0,-0.43,116.95,116.95,0.0,0.03,0
294.18766100,294187661,0.0,0.52,0.0,-0.43,116.94,116.94,0.0,0.03,0
294.28773300,294287733,0.0,0.52,0.0,-0.43,116.91,116.91,0.0,0.03,0
294.38795500,294387955,0.0,0.53,0.0,-0.44,116.87,116.87,0.0,0.04,0
294.48770600,294487706,0.0,0.53,0.0,-0.43,116.82000000000001,116.82000000000001,0.0,0.05,0
294.58768300,294587683,0.0,0.53,0.0,-0.43,116.85000000000001,116.85000000000001,0.0,0.05,0
294.68768000,294687680,0.0,0.53,0.0,-0.43,116.85000000000001,116.85000000000001,0.0,0.04,0
294.78780200,294787802,0.0,0.54,0.0,-0.43,116.83,116.83,0.0,0.04,0
294.88769200,294887692,0.0,0.53,0.0,-0.43,116.78,116.78,0.0,0.05,0
294.98770700,294987707,0.0,0.53,0.0,-0.43,116.73,116.73,0.0,0.06,0
295.08763500,295087635,0.0,0.54,0.0,-0.43,116.68,116.68,0.0,0.07,0
295.18765000,295187650,0.0,0.53,0.0,-0.43,116.68,116.68,0.0,0.05,0
295.28756600,295287566,0.0,0.54,0.0,-0.43,116.65,116.65,0.0,0.05,0
295.38823800,295388238,0.0,0.53,0.0,-0.43,116.66,116.66,0.0,0.04,0
295.48770100,295487701,0.0,0.53,0.0,-0.43,116.66,116.66,0.0,0.03,0
295.58772700,295587727,0.0,0.53,0.0,-0.43,116.64,116.64,0.0,0.04,0
295.68764100,295687641,0.0,0.53,0.0,-0.43,116.63,116.63,0.0,0.03,0
295.78779500,295787795,0.0,0.53,0.0,-0.43,116.67,116.67,0.0,0.04,0
295.88766800,295887668,0.0,0.53,0.0,-0.43,116.62,116.62,0.0,0.05,0
295.98765100,295987651,0.0,0.51,0.0,-0.43,116.65,116.65,0.0,0.04,0
296.08769300,296087693,0.0,0.51,0.0,-0.42,116.61,116.61,0.0,0.05,0
296.18766600,296187666,0.0,0.5,0.0,-0.42,116.61,116.61,0.0,0.04,0
296.28767700,296287677,0.0,0.51,0.0,-0.42,116.65,116.65,0.0,0.04,0
296.38791900,296387919,0.0,0.5,0.0,-0.42,116.63,116.63,0.0,0.04,0
296.48766700,296487667,0.0,0.5,0.0,-0.42,116.64,116.64,0.0,0.03,0
296.58766700,296587667,0.0,0.5,0.0,-0.42,116.66,116.66,0.0,0.03,0
296.68763600,296687636,0.0,0.5,0.0,-0.42,116.63,116.63,0.0,0.03,0
296.78767500,296787675,0.0,0.5,0.0,-0.42,116.65,116.65,0.0,0.03,0
296.88762800,296887628,0.0,0.49,0.0,-0.42,116.66,116.66,0.0,0.02,0
296.98766500,296987665,0.0,0.48,0.0,-0.42,116.65,116.65,0.0,0.02,0
297.08770900,297087709,0.0,0.46,0.0,-0.43,116.62,116.62,0.0,0.03,0
297.18768600,297187686,0.0,0.46,0.0,-0.42,116.65,116.65,0.0,0.03,0
297.28766200,297287662,0.0,0.47000000000000003,0.0,-0.42,116.67,116.67,0.0,0.03,0
297.38793900,297387939,0.0,0.46,0.0,-0.42,116.69,116.69,0.0,0.03,0
297.48767300,297487673,0.0,0.46,0.0,-0.42,116.7,116.7,0.0,0.02,0
297.58784400,297587844,0.0,0.47000000000000003,0.0,-0.42,116.74000000000001,116.74000000000001,0.0,0.03,0
297.68766000,297687660,0.0,0.47000000000000003,0.0,-0.42,116.76,116.76,0.0,0.03,0
297.78774800,297787748,0.0,0.47000000000000003,0.0,-0.42,116.73,116.73,0.0,0.03,0
297.88771100,297887711,0.0,0.47000000000000003,0.0,-0.42,116.66,116.66,0.0,0.05,0
297.98765700,297987657,0.0,0.47000000000000003,0.0,-0.42,116.63,116.63,0.0,0.05,0
298.08770200,298087702,0.0,0.4,0.0,-0.46,116.58,116.58,0.0,0.04,0
298.18768000,298187680,0.0,0.48,0.0,-0.49,116.57000000000001,116.57000000000001,0.0,0.04,0
298.28763700,298287637,0.0,0.49,0.0,-0.48,116.61,116.61,0.0,0.04,0
298.38784600,298387846,0.0,0.47000000000000003,0.0,-0.46,116.64,116.64,0.0,0.05,0
298.48758600,298487586,0.0,0.48,0.0,-0.5,116.62,116.62,0.0,0.06,0
298.58767800,298587678,0.0,0.47000000000000003,0.0,-0.48,116.66,116.66,0.0,0.07,0
298.68764000,298687640,0.0,0.47000000000000003,0.0,-0.5,116.66,116.66,0.0,0.06,0
298.78776100,298787761,0.0,0.48,0.0,-0.49,116.7,116.7,0.0,0.06,0
298.88772200,298887722,0.0,0.46,0.0,-0.48,116.68,116.68,0.0,0.05,0
298.98771800,298987718,0.0,0.47000000000000003,0.0,-0.49,116.69,116.69,0.0,0.04,0
299.08766600,299087666,0.0,0.47000000000000003,0.0,-0.48,116.69,116.69,0.0,0.04,0
299.18764900,299187649,0.0,0.47000000000000003,0.0,-0.48,116.73,116.73,0.0,0.04,0
299.28769400,299287694,0.0,0.47000000000000003,0.0,-0.49,116.75,116.75,0.0,0.04,0
299.38789400,299387894,0.0,0.47000000000000003,0.0,-0.48,116.75,116.75,0.0,0.03,0
299.48769800,299487698,0.0,0.48,0.0,-0.49,116.75,116.75,0.0,0.02,0
299.58769100,299587691,0.0,0.46,0.0,-0.49,116.8,116.8,0.0,0.04,0
299.68768600,299687686,0.0,0.48,0.0,-0.48,116.86,116.86,0.0,0.05,0
299.78773200,299787732,0.0,0.47000000000000003,0.0,-0.49,116.86,116.86,0.0,0.04,0
299.88764300,299887643,0.0,0.46,0.0,-0.48,116.85000000000001,116.85000000000001,0.0,0.03,0
299.98756100,299987561,0.0,0.48,0.0,-0.49,116.85000000000001,116.85000000000001,0.0,0.03,0
300.08759100,300087591,0.0,0.46,0.0,-0.49,116.84,116.84,0.0,0.03,0
300.18773700,300187737,0.0,0.47000000000000003,0.0,-0.48,116.83,116.83,0.0,0.02,0
300.28763600,300287636,0.0,0.47000000000000003,0.0,-0.48,116.82000000000001,116.82000000000001,0.0,0.02,0
300.38798100,300387981,0.0,0.47000000000000003,0.0,-0.48,116.83,116.83,0.0,0.02,0
300.48773600,300487736,0.0,0.48,0.0,-0.49,116.85000000000001,116.85000000000001,0.0,0.02,0
300.58767300,300587673,0.0,0.47000000000000003,0.0,-0.49,116.86,116.86,0.0,0.02,0
300.68773300,300687733,0.0,0.47000000000000003,0.0,-0.49,116.91,116.91,0.0,0.03,0
311.78774200,311787742,0.0,0.49,0.0,-0.51,118.04,118.04,0.0,0.04,0
311.88768200,311887682,0.0,0.49,0.0,-0.51,118.10000000000001,118.10000000000001,0.0,0.05,0
311.98770700,311987707,0.0,0.48,0.0,-0.51,118.12,118.12,0.0,0.04,0
312.08766100,312087661,0.0,0.49,0.0,-0.51,118.17,118.17,0.0,0.05,0
312.18770200,312187702,0.0,0.49,0.0,-0.51,118.18,118.18,0.0,0.04,0
312.28767600,312287676,0.0,0.5,0.0,-0.51,118.19,118.19,0.0,0.03,0
312.38784200,312387842,0.0,0.51,0.0,-0.51,118.21000000000001,118.21000000000001,0.0,0.03,0
312.48769800,312487698,0.0,0.5,0.0,-0.51,118.13,118.13,0.0,0.05,0
312.58762600,312587626,0.0,0.51,0.0,-0.51,118.18,118.18,0.0,0.05,0
312.68762700,312687627,0.0,0.5,0.0,-0.51,118.2,118.2,0.0,0.04,0
312.78769700,312787697,0.0,0.5,0.0,-0.51,118.21000000000001,118.21000000000001,0.0,0.04,0
312.88765400,312887654,0.0,0.51,0.0,-0.5,118.21000000000001,118.21000000000001,0.0,0.03,0
312.98767900,312987679,0.0,0.5,0.0,-0.5,118.24000000000001,118.24000000000001,0.0,0.03,0
313.08768100,313087681,0.0,0.51,0.0,-0.5,118.28,118.28,0.0,0.04,0
313.18765400,313187654,0.0,0.5,0.0,-0.5,118.26,118.26,0.0,0.04,0
313.28768500,313287685,0.0,0.51,0.0,-0.5,118.26,118.26,0.0,0.03,0
313.38804600,313388046,0.0,0.51,0.0,-0.5,118.26,118.26,0.0,0.03,0
313.48766400,313487664,0.0,0.5,0.0,-0.49,118.27,118.27,0.0,0.03,0
313.58766700,313587667,0.0,0.51,0.0,-0.5,118.3,118.3,0.0,0.03,0
313.68774700,313687747,0.0,0.5,0.0,-0.49,118.28,118.28,0.0,0.03,0
313.78775100,313787751,0.0,0.51,0.0,-0.49,118.26,118.26,0.0,0.03,0
313.88763600,313887636,0.0,0.51,0.0,-0.5,118.27,118.27,0.0,0.03,0
313.98765600,313987656,0.0,0.51,0.0,-0.5,118.24000000000001,118.24000000000001,0.0,0.03,0
314.08767800,314087678,0.0,0.52,0.0,-0.5,118.26,118.26,0.0,0.03,0
314.18761000,314187610,0.0,0.51,0.0,-0.5,118.24000000000001,118.24000000000001,0.0,0.03,0
314.28770000,314287700,0.0,0.51,0.0,-0.5,118.27,118.27,0.0,0.02,0
314.38787100,314387871,0.0,0.51,0.0,-0.5,118.3,118.3,0.0,0.03,0
314.48768000,314487680,0.0,0.51,0.0,-0.5,118.29,118.29,0.0,0.02,0
314.58772600,314587726,0.0,0.52,0.0,-0.5,118.29,118.29,0.0,0.02,0
314.68767300,314687673,0.0,0.51,0.0,-0.5,118.33,118.33,0.0,0.03,0
314.78779900,314787799,0.0,0.51,0.0,-0.5,118.34,118.34,0.0,0.02,0
314.88771000,314887710,0.0,0.51,0.0,-0.5,118.36,118.36,0.0,0.02,0
314.98767000,314987670,0.0,0.51,0.0,-0.5,118.35000000000001,118.35000000000001,0.0,0.02,0
315.08769400,315087694,0.0,0.51,0.0,-0.5,118.33,118.33,0.0,0.02,0
315.18771900,315187719,0.0,0.5,0.0,-0.5,118.33,118.33,0.0,0.02,0
315.28770900,315287709,0.0,0.51,0.0,-0.51,118.29,118.29,0.0,0.03,0
315.38787000,315387870,0.0,0.5,0.0,-0.51,118.23,118.23,0.0,0.05,0
315.48764400,315487644,0.0,0.5,0.0,-0.51,118.24000000000001,118.24000000000001,0.0,0.04,0
315.58758300,315587583,0.0,0.51,0.0,-0.51,118.16,118.16,0.0,0.06,0
315.68770600,315687706,0.0,0.5,0.0,-0.51,118.16,118.16,0.0,0.05,0
315.78785300,315787853,0.0,0.5,0.0,-0.51,118.14,118.14,0.0,0.05,0
315.88775000,315887750,0.0,0.5,0.0,-0.51,118.14,118.14,0.0,0.04,0
315.98773300,315987733,0.0,0.5,0.0,-0.51,118.11,118.11,0.0,0.04,0
316.08776100,316087761,0.0,0.5,0.0,-0.51,118.10000000000001,118.10000000000001,0.0,0.04,0
316.18769800,316187698,0.0,0.49,0.0,-0.51,118.11,118.11,0.0,0.03,0
316.28768200,316287682,0.0,0.5,0.0,-0.51,118.15,118.15,0.0,0.03,0
316.38797600,316387976,0.0,0.49,0.0,-0.51,118.15,118.15,0.0,0.03,0
316.48769400,316487694,0.0,0.49,0.0,-0.52,118.14,118.14,0.0,0.03,0
316.58767000,316587670,0.0,0.49,0.0,-0.51,118.09,118.09,0.0,0.04,0
316.68771800,316687718,0.0,0.49,0.0,-0.51,118.03,118.03,0.0,0.05,0
316.78776400,316787764,0.0,0.49,0.0,-0.52,118.02,118.02,0.0,0.05,0
316.88763900,316887639,0.0,0.49,0.0,-0.52,117.95,117.95,0.0,0.06,0
316.98765000,316987650,0.0,0.5,0.0,-0.52,117.92,117.92,0.0,0.06,0
317.08762700,317087627,0.0,0.5,0.0,-0.52,117.91,117.91,0.0,0.05,0
317.18758000,317187580,0.0,0.5,0.0,-0.52,117.91,117.91,0.0,0.04,0
317.28771300,317287713,0.0,0.5,0.0,-0.52,117.92,117.92,0.0,0.03,0
317.38794100,317387941,0.0,0.5,0.0,-0.52,117.92,117.92,0.0,0.03,0
317.48768000,317487680,0.0,0.5,0.0,-0.52,117.95,117.95,0.0,0.03,0
317.58768300,317587683,0.0,0.5,0.0,-0.52,117.96000000000001,117.96000000000001,0.0,0.02,0
317.68763000,317687630,0.0,0.5,0.0,-0.52,117.95,117.95,0.0,0.02,0
317.78770300,317787703,0.0,0.5,0.0,-0.52,117.95,117.95,0.0,0.02,0
317.88769700,317887697,0.0,0.5,0.0,-0.52,117.91,117.91,0.0,0.03,0
317.98768900,317987689,0.0,0.5,0.0,-0.52,117.9,117.9,0.0,0.03,0
318.08770900,318087709,0.0,0.5,0.0,-0.52,117.92,117.92,0.0,0.03,0
318.18766300,318187663,0.0,0.5,0.0,-0.52,117.92,117.92,0.0,0.02,0
318.28767000,318287670,0.0,0.51,0.0,-0.52,117.94,117.94,0.0,0.02,0
318.38792800,318387928,0.0,0.5,0.0,-0.52,117.92,117.92,0.0,0.03,0
318.48766200,318487662,0.0,0.51,0.0,-0.52,117.89,117.89,0.0,0.03,0
318.58763400,318587634,0.0,0.5,0.0,-0.52,117.89,117.89,0.0,0.02,0
318.68755800,318687558,0.0,0.51,0.0,-0.52,117.86,117.86,0.0,0.03,0
318.78775300,318787753,0.0,0.51,0.0,-0.52,117.83,117.83,0.0,0.03,0
318.88771700,318887717,0.0,0.51,0.0,-0.52,117.81,117.81,0.0,0.03,0
318.98768300,318987683,0.0,0.51,0.0,-0.52,117.89,117.89,0.0,0.05,0
319.08768200,319087682,0.0,0.5,0.0,-0.52,117.89,117.89,0.0,0.04,0
319.18766700,319187667,0.0,0.51,0.0,-0.52,117.93,117.93,0.0,0.04,0
319.28768000,319287680,0.0,0.51,0.0,-0.52,117.9,117.9,0.0,0.04,0
319.38793400,319387934,0.0,0.5,0.0,-0.52,117.92,117.92,0.0,0.04,0
319.48773700,319487737,0.0,0.51,0.0,-0.52,117.93,117.93,0.0,0.03,0
319.58769300,319587693,0.0,0.51,0.0,-0.52,117.92,117.92,0.0,0.03,0
319.68770700,319687707,0.0,0.51,0.0,-0.52,117.9,117.9,0.0,0.03,0
319.78776300,319787763,0.0,0.51,0.0,-0.52,117.92,117.92,0.0,0.03,0
319.88767800,319887678,0.0,0.51,0.0,-0.53,117.96000000000001,117.96000000000001,0.0,0.03,0
319.98774200,319987742,0.0,0.51,0.0,-0.53,117.93,117.93,0.0,0.04,0
322.08778300,322087783,0.0,0.49,0.0,-0.52,118.08,118.08,0.0,0.03,0
322.18766200,322187662,0.0,0.48,0.0,-0.53,118.11,118.11,0.0,0.03,0
322.28765400,322287654,0.0,0.48,0.0,-0.53,118.09,118.09,0.0,0.03,0
322.38801000,322388010,0.0,0.49,0.0,-0.52,118.11,118.11,0.0,0.03,0
322.48766900,322487669,0.0,0.48,0.0,-0.52,118.09,118.09,0.0,0.03,0
322.58764700,322587647,0.0,0.49,0.0,-0.52,118.18,118.18,0.0,0.05,0
322.68770200,322687702,0.0,0.48,0.0,-0.52,118.18,118.18,0.0,0.04,0
322.78774200,322787742,0.0,0.49,0.0,-0.52,118.2,118.2,0.0,0.03,0
322.88767000,322887670,0.0,0.48,0.0,-0.52,118.22,118.22,0.0,0.03,0
322.98768200,322987682,0.0,0.48,0.0,-0.52,118.19,118.19,0.0,0.03,0
323.08766500,323087665,0.0,0.49,0.0,-0.53,118.16,118.16,0.0,0.04,0
325.18763500,325187635,0.0,0.51,0.0,-0.52,118.54,118.54,0.0,0.04,0
325.28767100,325287671,0.0,0.49,0.0,-0.53,118.57000000000001,118.57000000000001,0.0,0.04,0
325.38819400,325388194,0.0,0.5,0.0,-0.52,118.58,118.58,0.0,0.03,0
325.48763600,325487636,0.0,0.5,0.0,-0.52,118.55,118.55,0.0,0.04,0
325.58768400,325587684,0.0,0.5,0.0,-0.52,118.47,118.47,0.0,0.05,0
325.68767200,325687672,0.0,0.5,0.0,-0.53,118.5,118.5,0.0,0.05,0
325.78777600,325787776,0.0,0.51,0.0,-0.52,118.43,118.43,0.0,0.06,0
325.88768000,325887680,0.0,0.5,0.0,-0.53,118.46000000000001,118.46000000000001,0.0,0.06,0
325.98768400,325987684,0.0,0.5,0.0,-0.53,118.45,118.45,0.0,0.05,0
326.08765900,326087659,0.0,0.5,0.0,-0.52,118.52,118.52,0.0,0.06,0
326.18771400,326187714,0.0,0.51,0.0,-0.53,118.51,118.51,0.0,0.06,0
326.28765300,326287653,0.0,0.5,0.0,-0.52,118.5,118.5,0.0,0.05,0
326.38788000,326387880,0.0,0.51,0.0,-0.52,118.48,118.48,0.0,0.04,0
326.48755600,326487556,0.0,0.51,0.0,-0.51,118.43,118.43,0.0,0.05,0
326.58759900,326587599,0.0,0.5,0.0,-0.51,118.4,118.4,0.0,0.05,0
326.68770900,326687709,0.0,0.51,0.0,-0.51,118.35000000000001,118.35000000000001,0.0,0.06,0
326.78774300,326787743,0.0,0.5,0.0,-0.51,118.3,118.3,0.0,0.07,0
326.88774500,326887745,0.0,0.51,0.0,-0.51,118.32000000000001,118.32000000000001,0.0,0.06,0
