timestamp,TimeUS,DesRoll,Roll,DesPitch,Pitch,DesYaw,Yaw,ErrRP,ErrYaw,AEKF
110.98298000,110982980,0.0,0.51,0.0,-0.76,1.46,1.46,0.0,0.02,0
111.08293300,111082933,0.0,0.51,0.0,-0.76,1.47,1.47,0.0,0.02,0
111.18295500,111182955,0.0,0.51,0.0,-0.76,1.45,1.45,0.0,0.02,0
111.28293500,111282935,0.0,0.51,0.0,-0.76,1.44,1.44,0.0,0.02,0
111.38322100,111383221,0.0,0.51,0.0,-0.76,1.47,1.47,0.0,0.03,0
111.48293600,111482936,0.0,0.51,0.0,-0.76,1.43,1.43,0.0,0.03,0
111.58290000,111582900,0.0,0.51,0.0,-0.76,1.41,1.41,0.0,0.03,0
111.68290200,111682902,0.0,0.51,0.0,-0.76,1.43,1.43,0.0,0.03,0
111.78292500,111782925,0.0,0.51,0.0,-0.76,1.45,1.45,0.0,0.03,0
111.88293600,111882936,0.0,0.51,0.0,-0.76,1.47,1.47,0.0,0.03,0
111.98290300,111982903,0.0,0.52,0.0,-0.75,1.49,1.49,0.0,0.03,0
112.08291800,112082918,0.0,0.51,0.0,-0.75,1.52,1.52,0.0,0.03,0
112.18291700,112182917,0.0,0.51,0.0,-0.75,1.51,1.51,0.0,0.02,0
112.28291900,112282919,0.0,0.51,0.0,-0.75,1.56,1.56,0.0,0.03,0
112.38325900,112383259,0.0,0.51,0.0,-0.75,1.56,1.56,0.0,0.03,0
112.48295300,112482953,0.0,0.51,0.0,-0.75,1.58,1.58,0.0,0.03,0
112.58292200,112582922,0.0,0.51,0.0,-0.75,1.57,1.57,0.0,0.02,0
112.68292300,112682923,0.0,0.51,0.0,-0.75,1.58,1.58,0.0,0.02,0
112.78294700,112782947,0.0,0.51,0.0,-0.75,1.58,1.58,0.0,0.02,0
112.88294800,112882948,0.0,0.52,0.0,-0.75,1.56,1.56,0.0,0.02,0
112.98297700,112982977,0.0,0.51,0.0,-0.75,1.57,1.57,0.0,0.02,0
113.08293700,113082937,0.0,0.51,0.0,-0.75,1.58,1.58,0.0,0.02,0
113.18289700,113182897,0.0,0.51,0.0,-0.75,1.59,1.59,0.0,0.01,0
113.28290500,113282905,0.0,0.51,0.0,-0.75,1.59,1.59,0.0,0.01,0
113.38323600,113383236,0.0,0.51,0.0,-0.75,1.59,1.59,0.0,0.01,0
113.48291800,113482918,0.0,0.51,0.0,-0.75,1.57,1.57,0.0,0.01,0
113.58289100,113582891,0.0,0.51,0.0,-0.75,1.56,1.56,0.0,0.01,0
113.68290800,113682908,0.0,0.51,0.0,-0.75,1.58,1.58,0.0,0.01,0
113.78294700,113782947,0.0,0.51,0.0,-0.75,1.59,1.59,0.0,0.01,0
113.88295000,113882950,0.0,0.51,0.0,-0.75,1.57,1.57,0.0,0.01,0
113.98292200,113982922,0.0,0.51,0.0,-0.75,1.6,1.6,0.0,0.02,0
114.08296100,114082961,0.0,0.51,0.0,-0.75,1.61,1.61,0.0,0.02,0
114.18294100,114182941,0.0,0.51,0.0,-0.75,1.6,1.6,0.0,0.02,0
114.28294200,114282942,0.0,0.51,0.0,-0.75,1.59,1.59,0.0,0.01,0
114.38322200,114383222,0.0,0.51,0.0,-0.76,1.6,1.6,0.0,0.01,0
114.48295400,114482954,0.0,0.52,0.0,-0.76,1.56,1.56,0.0,0.03,0
114.58294900,114582949,0.0,0.52,0.0,-0.76,1.54,1.54,0.0,0.03,0
114.68293800,114682938,0.0,0.52,0.0,-0.76,1.55,1.55,0.0,0.03,0
114.78291200,114782912,0.0,0.52,0.0,-0.75,1.55,1.55,0.0,0.02,0
114.88294400,114882944,0.0,0.52,0.0,-0.75,1.56,1.56,0.0,0.02,0
114.98295700,114982957,0.0,0.52,0.0,-0.75,1.54,1.54,0.0,0.02,0
115.08290600,115082906,0.0,0.52,0.0,-0.75,1.56,1.56,0.0,0.02,0
115.18290800,115182908,0.0,0.52,0.0,-0.75,1.52,1.52,0.0,0.03,0
115.28293800,115282938,0.0,0.52,0.0,-0.75,1.53,1.53,0.0,0.03,0
115.38334500,115383345,0.0,0.52,0.0,-0.75,1.52,1.52,0.0,0.02,0
115.48293300,115482933,0.0,0.52,0.0,-0.75,1.53,1.53,0.0,0.02,0
115.58297200,115582972,0.0,0.52,0.0,-0.75,1.52,1.52,0.0,0.02,0
115.68293600,115682936,0.0,0.52,0.0,-0.75,1.54,1.54,0.0,0.02,0
115.78292400,115782924,0.0,0.52,0.0,-0.75,1.56,1.56,0.0,0.02,0
115.88294200,115882942,0.0,0.53,0.0,-0.74,1.57,1.57,0.0,0.02,0
115.98294700,115982947,0.0,0.52,0.0,-0.75,1.55,1.55,0.0,0.02,0
116.08294900,116082949,0.0,0.53,0.0,-0.75,1.57,1.57,0.0,0.02,0
116.18294200,116182942,0.0,0.53,0.0,-0.75,1.57,1.57,0.0,0.02,0
116.28291400,116282914,0.0,0.52,0.0,-0.75,1.55,1.55,0.0,0.02,0
116.38315200,116383152,0.0,0.53,0.0,-0.74,1.58,1.58,0.0,0.02,0
116.48291600,116482916,0.0,0.53,0.0,-0.74,1.55,1.55,0.0,0.03,0
116.58296000,116582960,0.0,0.53,0.0,-0.74,1.53,1.53,0.0,0.03,0
116.68290300,116682903,0.0,0.53,0.0,-0.74,1.52,1.52,0.0,0.03,0
116.78290500,116782905,0.0,0.53,0.0,-0.74,1.51,1.51,0.0,0.02,0
116.88291600,116882916,0.0,0.53,0.0,-0.74,1.49,1.49,0.0,0.03,0
116.98295100,116982951,0.0,0.53,0.0,-0.74,1.46,1.46,0.0,0.03,0
117.08291700,117082917,0.0,0.53,0.0,-0.74,1.45,1.45,0.0,0.03,0
117.18295500,117182955,0.0,0.53,0.0,-0.74,1.44,1.44,0.0,0.03,0
117.28296300,117282963,0.0,0.53,0.0,-0.74,1.43,1.43,0.0,0.02,0
117.38317000,117383170,0.0,0.53,0.0,-0.74,1.43,1.43,0.0,0.02,0
117.48294700,117482947,0.0,0.53,0.0,-0.74,1.42,1.42,0.0,0.02,0
117.58298700,117582987,0.0,0.53,0.0,-0.74,1.43,1.43,0.0,0.02,0
117.68294400,117682944,0.0,0.53,0.0,-0.74,1.4000000000000001,1.4000000000000001,0.0,0.02,0
117.78292700,117782927,0.0,0.53,0.0,-0.74,1.42,1.42,0.0,0.02,0
117.88289500,117882895,0.0,0.53,0.0,-0.74,1.44,1.44,0.0,0.02,0
117.98290800,117982908,0.0,0.53,0.0,-0.74,1.45,1.45,0.0,0.02,0
118.08292300,118082923,0.0,0.53,0.0,-0.74,1.42,1.42,0.0,0.02,0
118.18295200,118182952,0.0,0.53,0.0,-0.74,1.3800000000000001,1.3800000000000001,0.0,0.03,0
118.28291000,118282910,0.0,0.53,0.0,-0.74,1.35,1.35,0.0,0.04,0
118.38327300,118383273,0.0,0.53,0.0,-0.74,1.37,1.37,0.0,0.03,0
118.48293500,118482935,0.0,0.53,0.0,-0.74,1.3900000000000001,1.3900000000000001,0.0,0.03,0
118.58295600,118582956,0.0,0.54,0.0,-0.73,1.3800000000000001,1.3800000000000001,0.0,0.03,0
118.68293700,118682937,0.0,0.53,0.0,-0.73,1.4000000000000001,1.4000000000000001,0.0,0.03,0
118.78295400,118782954,0.0,0.53,0.0,-0.73,1.41,1.41,0.0,0.03,0
118.88296800,118882968,0.0,0.53,0.0,-0.73,1.41,1.41,0.0,0.02,0
118.98293500,118982935,0.0,0.53,0.0,-0.73,1.42,1.42,0.0,0.02,0
119.08293000,119082930,0.0,0.53,0.0,-0.73,1.42,1.42,0.0,0.01,0
119.18295200,119182952,0.0,0.53,0.0,-0.73,1.43,1.43,0.0,0.02,0
119.28299400,119282994,0.0,0.53,0.0,-0.73,1.44,1.44,0.0,0.01,0
119.38317000,119383170,0.0,0.53,0.0,-0.73,1.44,1.44,0.0,0.01,0
119.48292500,119482925,0.0,0.53,0.0,-0.73,1.43,1.43,0.0,0.01,0
119.58286300,119582863,0.0,0.53,0.0,-0.73,1.4000000000000001,1.4000000000000001,0.0,0.02,0
119.68290100,119682901,0.0,0.53,0.0,-0.73,1.42,1.42,0.0,0.02,0
119.78289300,119782893,0.0,0.53,0.0,-0.73,1.44,1.44,0.0,0.02,0
119.88292000,119882920,0.0,0.53,0.0,-0.73,1.43,1.43,0.0,0.02,0
119.98291900,119982919,0.0,0.53,0.0,-0.73,1.42,1.42,0.0,0.02,0
120.08295000,120082950,0.0,0.53,0.0,-0.74,1.43,1.43,0.0,0.02,0
120.18293300,120182933,0.0,0.53,0.0,-0.74,1.42,1.42,0.0,0.02,0
120.28291000,120282910,0.0,0.53,0.0,-0.74,1.42,1.42,0.0,0.01,0
120.38325300,120383253,0.0,0.53,0.0,-0.74,1.43,1.43,0.0,0.01,0
120.48296900,120482969,0.0,0.53,0.0,-0.74,1.44,1.44,0.0,0.01,0
120.58294300,120582943,0.0,0.53,0.0,-0.74,1.44,1.44,0.0,0.01,0
120.68294500,120682945,0.0,0.53,0.0,-0.74,1.44,1.44,0.0,0.01,0
120.78294700,120782947,0.0,0.53,0.0,-0.74,1.44,1.44,0.0,0.01,0
120.88294500,120882945,0.0,0.53,0.0,-0.74,1.41,1.41,0.0,0.02,0
120.98289300,120982893,0.0,0.53,0.0,-0.74,1.42,1.42,0.0,0.02,0
121.08293100,121082931,0.0,0.53,0.0,-0.74,1.48,1.48,0.0,0.03,0
121.18295000,121182950,0.0,0.53,0.0,-0.74,1.47,1.47,0.0,0.02,0
121.28290300,121282903,0.0,0.53,0.0,-0.74,1.48,1.48,0.0,0.02,0
121.38320800,121383208,0.0,0.53,0.0,-0.74,1.49,1.49,0.0,0.02,0
121.48292100,121482921,0.0,0.53,0.0,-0.74,1.47,1.47,0.0,0.02,0
121.58291600,121582916,0.0,0.53,0.0,-0.74,1.43,1.43,0.0,0.03,0
121.68294300,121682943,0.0,0.53,0.0,-0.74,1.43,1.43,0.0,0.02,0
121.78297400,121782974,0.0,0.53,0.0,-0.74,1.43,1.43,0.0,0.02,0
121.88292400,121882924,0.0,0.53,0.0,-0.74,1.41,1.41,0.0,0.02,0
121.98297300,121982973,0.0,0.53,0.0,-0.74,1.44,1.44,0.0,0.02,0
122.08294000,122082940,0.0,0.53,0.0,-0.74,1.46,1.46,0.0,0.02,0
122.18294800,122182948,0.0,0.53,0.0,-0.74,1.47,1.47,0.0,0.02,0
122.28288600,122282886,0.0,0.53,0.0,-0.74,1.5,1.5,0.0,0.02,0
122.38314700,122383147,0.0,0.53,0.0,-0.74,1.53,1.53,0.0,0.03,0
122.48289700,122482897,0.0,0.53,0.0,-0.75,1.52,1.52,0.0,0.02,0
122.58290700,122582907,0.0,0.53,0.0,-0.75,1.52,1.52,0.0,0.02,0
122.68290100,122682901,0.0,0.53,0.0,-0.75,1.51,1.51,0.0,0.02,0
122.78289600,122782896,0.0,0.53,0.0,-0.74,1.48,1.48,0.0,0.02,0
122.88295000,122882950,0.0,0.53,0.0,-0.75,1.46,1.46,0.0,0.02,0
122.98289900,122982899,0.0,0.53,0.0,-0.75,1.5,1.5,0.0,0.03,0
123.08291200,123082912,0.0,0.53,0.0,-0.75,1.49,1.49,0.0,0.03,0
123.18294200,123182942,0.0,0.53,0.0,-0.75,1.47,1.47,0.0,0.03,0
123.28292200,123282922,0.0,0.53,0.0,-0.75,1.45,1.45,0.0,0.03,0
123.38318800,123383188,0.0,0.53,0.0,-0.75,1.42,1.42,0.0,0.03,0
123.48298400,123482984,0.0,0.53,0.0,-0.75,1.42,1.42,0.0,0.03,0
123.58293000,123582930,0.0,0.53,0.0,-0.75,1.45,1.45,0.0,0.03,0
123.68292100,123682921,0.0,0.53,0.0,-0.75,1.45,1.45,0.0,0.02,0
123.78294900,123782949,0.0,0.53,0.0,-0.75,1.48,1.48,0.0,0.03,0
123.88294600,123882946,0.0,0.53,0.0,-0.75,1.46,1.46,0.0,0.03,0
123.98292400,123982924,0.0,0.53,0.0,-0.75,1.45,1.45,0.0,0.02,0
124.08288600,124082886,0.0,0.53,0.0,-0.75,1.48,1.48,0.0,0.03,0
124.18290900,124182909,0.0,0.53,0.0,-0.75,1.5,1.5,0.0,0.03,0
124.28292300,124282923,0.0,0.53,0.0,-0.75,1.49,1.49,0.0,0.03,0
124.38320200,124383202,0.0,0.53,0.0,-0.75,1.45,1.45,0.0,0.04,0
124.48292400,124482924,0.0,0.53,0.0,-0.75,1.45,1.45,0.0,0.03,0
124.58289200,124582892,0.0,0.53,0.0,-0.75,1.44,1.44,0.0,0.02,0
124.68293400,124682934,0.0,0.53,0.0,-0.75,1.46,1.46,0.0,0.02,0
124.78293100,124782931,0.0,0.53,0.0,-0.75,1.49,1.49,0.0,0.03,0
124.88291700,124882917,0.0,0.53,0.0,-0.75,1.5,1.5,0.0,0.02,0
124.98293200,124982932,0.0,0.53,0.0,-0.75,1.49,1.49,0.0,0.02,0
125.08295000,125082950,0.0,0.53,0.0,-0.75,1.42,1.42,0.0,0.04,0
125.18292300,125182923,0.0,0.53,0.0,-0.75,1.44,1.44,0.0,0.04,0
125.28291200,125282912,0.0,0.53,0.0,-0.75,1.45,1.45,0.0,0.03,0
125.38334300,125383343,0.0,0.53,0.0,-0.75,1.49,1.49,0.0,0.04,0
125.48295500,125482955,0.0,0.53,0.0,-0.75,1.48,1.48,0.0,0.03,0
125.58296100,125582961,0.0,0.53,0.0,-0.75,1.46,1.46,0.0,0.03,0
125.68291400,125682914,0.0,0.53,0.0,-0.75,1.49,1.49,0.0,0.03,0
125.78291100,125782911,0.0,0.53,0.0,-0.75,1.51,1.51,0.0,0.03,0
125.88292000,125882920,0.0,0.53,0.0,-0.75,1.52,1.52,0.0,0.03,0
