timestamp,TimeUS,DesRoll,Roll,DesPitch,Pitch,DesYaw,Yaw,ErrRP,ErrYaw,AEKF
267.01157700,267011577,0.0,0.28,0.0,-0.3,207.84,207.85,0.0,0.05,0
267.11156400,267111564,0.0,0.28,0.0,-0.3,207.84,207.85,0.0,0.04,0
267.21159600,267211596,0.0,0.28,0.0,-0.3,207.77,207.78,0.0,0.06,0
267.31158300,267311583,0.0,0.28,0.0,-0.3,207.78,207.79,0.0,0.05,0
267.41161800,267411618,0.0,0.28,0.0,-0.3,207.78,207.79,0.0,0.04,0
267.51169900,267511699,0.0,0.28,0.0,-0.3,207.85,207.86,0.0,0.05,0
267.61157200,267611572,0.0,0.28,0.0,-0.3,207.86,207.87,0.0,0.05,0
267.71159400,267711594,0.0,0.28,0.0,-0.3,207.9,207.91,0.0,0.05,0
267.81164700,267811647,0.0,0.28,0.0,-0.3,207.88,207.89000000000001,0.0,0.04,0
267.91172200,267911722,0.0,0.28,0.0,-0.3,207.86,207.87,0.0,0.04,0
268.01155100,268011551,0.0,0.28,0.0,-0.3,207.89000000000001,207.9,0.0,0.04,0
268.11164800,268111648,0.0,0.28,0.0,-0.3,207.86,207.87,0.0,0.04,0
268.21165700,268211657,0.0,0.28,0.0,-0.3,207.89000000000001,207.9,0.0,0.05,0
268.31155200,268311552,0.0,0.28,0.0,-0.31,207.87,207.88,0.0,0.04,0
268.41161500,268411615,0.0,0.28,0.0,-0.31,207.9,207.91,0.0,0.04,0
268.51169700,268511697,0.0,0.28,0.0,-0.31,207.91,207.92000000000002,0.0,0.04,0
268.61157600,268611576,0.0,0.28,0.0,-0.31,207.9,207.91,0.0,0.03,0
268.71154000,268711540,0.0,0.28,0.0,-0.3,207.87,207.88,0.0,0.03,0
268.81159600,268811596,0.0,0.28,0.0,-0.31,207.9,207.91,0.0,0.04,0
268.91155500,268911555,0.0,0.28,0.0,-0.31,207.85,207.86,0.0,0.05,0
269.01158300,269011583,0.0,0.28,0.0,-0.31,207.89000000000001,207.9,0.0,0.05,0
269.11161100,269111611,0.0,0.28,0.0,-0.31,207.91,207.92000000000002,0.0,0.05,0
269.21157200,269211572,0.0,0.28,0.0,-0.31,207.9,207.91,0.0,0.04,0
269.31163300,269311633,0.0,0.28,0.0,-0.31,207.86,207.87,0.0,0.04,0
269.41163000,269411630,0.0,0.28,0.0,-0.31,207.86,207.87,0.0,0.03,0
269.51172700,269511727,0.0,0.28,0.0,-0.31,207.81,207.82,0.0,0.04,0
269.61155600,269611556,0.0,0.28,0.0,-0.31,207.82,207.83,0.0,0.04,0
269.71163900,269711639,0.0,0.28,0.0,-0.31,207.86,207.87,0.0,0.04,0
269.81155400,269811554,0.0,0.28,0.0,-0.31,207.88,207.89000000000001,0.0,0.04,0
269.91157300,269911573,0.0,0.28,0.0,-0.31,207.86,207.87,0.0,0.04,0
270.01163800,270011638,0.0,0.28,0.0,-0.31,207.87,207.88,0.0,0.04,0
270.11155600,270111556,0.0,0.28,0.0,-0.31,207.81,207.82,0.0,0.05,0
271.21158300,271211583,0.0,0.28,0.0,-0.3,207.82,207.83,0.0,0.03,0
271.31165100,271311651,0.0,0.28,0.0,-0.3,207.69,207.70000000000002,0.0,0.07,0
271.41157200,271411572,0.0,0.28,0.0,-0.3,207.62,207.63,0.0,0.08,0
271.51180400,271511804,0.0,0.29,0.0,-0.3,207.62,207.63,0.0,0.06,0
271.61156600,271611566,0.0,0.29,0.0,-0.3,207.59,207.6,0.0,0.06,0
271.71156900,271711569,0.0,0.29,0.0,-0.3,207.5,207.51,0.0,0.08,0
271.81157600,271811576,0.0,0.29,0.0,-0.3,207.47,207.48000000000002,0.0,0.06,0
271.91156300,271911563,0.0,0.29,0.0,-0.3,207.39000000000001,207.4,0.0,0.08,0
272.01162700,272011627,0.0,0.29,0.0,-0.3,207.4,207.41,0.0,0.07,0
272.11157100,272111571,0.0,0.29,0.0,-0.3,207.4,207.41,0.0,0.05,0
272.21158800,272211588,0.0,0.29,0.0,-0.3,207.39000000000001,207.4,0.0,0.04,0
272.31157400,272311574,0.0,0.29,0.0,-0.3,207.32,207.33,0.0,0.06,0
272.41164900,272411649,0.0,0.29,0.0,-0.3,207.27,207.28,0.0,0.06,0
272.51176000,272511760,0.0,0.29,0.0,-0.3,207.28,207.29,0.0,0.05,0
272.61157700,272611577,0.0,0.29,0.0,-0.3,207.29,207.3,0.0,0.05,0
272.71157400,272711574,0.0,0.29,0.0,-0.3,207.3,207.31,0.0,0.04,0
272.81158100,272811581,0.0,0.29,0.0,-0.3,207.31,207.32,0.0,0.04,0
272.91165400,272911654,0.0,0.29,0.0,-0.3,207.28,207.29,0.0,0.04,0
273.01156600,273011566,0.0,0.29,0.0,-0.31,207.24,207.25,0.0,0.04,0
273.11157500,273111575,0.0,0.29,0.0,-0.31,207.28,207.29,0.0,0.05,0
273.21159300,273211593,0.0,0.29,0.0,-0.31,207.25,207.26,0.0,0.04,0
273.31157800,273311578,0.0,0.28,0.0,-0.31,207.27,207.28,0.0,0.04,0
273.41154600,273411546,0.0,0.29,0.0,-0.3,207.3,207.31,0.0,0.04,0
273.51173500,273511735,0.0,0.29,0.0,-0.3,207.25,207.26,0.0,0.05,0
273.61160200,273611602,0.0,0.29,0.0,-0.3,207.22,207.23000000000002,0.0,0.05,0
273.71155900,273711559,0.0,0.29,0.0,-0.3,207.20000000000002,207.21,0.0,0.04,0
273.81155900,273811559,0.0,0.29,0.0,-0.3,207.16,207.17000000000002,0.0,0.04,0
273.91160500,273911605,0.0,0.29,0.0,-0.3,207.20000000000002,207.21,0.0,0.05,0
274.01163200,274011632,0.0,0.29,0.0,-0.3,207.27,207.28,0.0,0.06,0
274.11160400,274111604,0.0,0.28,0.0,-0.3,207.3,207.31,0.0,0.06,0
274.21159800,274211598,0.0,0.29,0.0,-0.3,207.31,207.32,0.0,0.05,0
274.31156400,274311564,0.0,0.29,0.0,-0.3,207.32,207.33,0.0,0.05,0
274.41161700,274411617,0.0,0.29,0.0,-0.3,207.34,207.35,0.0,0.05,0
274.51172800,274511728,0.0,0.29,0.0,-0.3,207.36,207.37,0.0,0.04,0
274.61157200,274611572,0.0,0.29,0.0,-0.3,207.29,207.3,0.0,0.05,0
274.71162500,274711625,0.0,0.29,0.0,-0.29,207.29,207.3,0.0,0.04,0
274.81155400,274811554,0.0,0.29,0.0,-0.29,207.33,207.34,0.0,0.05,0
274.91159500,274911595,0.0,0.29,0.0,-0.29,207.31,207.32,0.0,0.04,0
275.01155400,275011554,0.0,0.29,0.0,-0.29,207.23000000000002,207.24,0.0,0.06,0
275.11160600,275111606,0.0,0.29,0.0,-0.29,207.20000000000002,207.21,0.0,0.05,0
275.21158800,275211588,0.0,0.29,0.0,-0.29,207.11,207.12,0.0,0.07,0
275.31155500,275311555,0.0,0.29,0.0,-0.29,207.11,207.12,0.0,0.06,0
275.41159100,275411591,0.0,0.29,0.0,-0.29,207.12,207.13,0.0,0.05,0
275.51173000,275511730,0.0,0.29,0.0,-0.29,207.15,207.16,0.0,0.05,0
275.61165000,275611650,0.0,0.29,0.0,-0.29,207.18,207.19,0.0,0.05,0
275.71155600,275711556,0.0,0.29,0.0,-0.29,207.09,207.1,0.0,0.07,0
275.81159100,275811591,0.0,0.29,0.0,-0.29,207.17000000000002,207.18,0.0,0.08,0
275.91158500,275911585,0.0,0.29,0.0,-0.29,207.20000000000002,207.21,0.0,0.08,0
276.01163200,276011632,0.0,0.29,0.0,-0.29,207.16,207.17000000000002,0.0,0.07,0
276.11158400,276111584,0.0,0.29,0.0,-0.29,207.11,207.12,0.0,0.07,0
276.21159000,276211590,0.0,0.29,0.0,-0.3,207.14000000000001,207.15,0.0,0.07,0
276.31161000,276311610,0.0,0.29,0.0,-0.29,207.1,207.11,0.0,0.06,0
276.41156400,276411564,0.0,0.29,0.0,-0.29,207.1,207.11,0.0,0.05,0
276.51198800,276511988,0.0,0.29,0.0,-0.29,207.08,207.09,0.0,0.05,0
276.61157100,276611571,0.0,0.29,0.0,-0.29,207.05,207.06,0.0,0.04,0
276.71157600,276711576,0.0,0.28,0.0,-0.29,207.0,207.01,0.0,0.05,0
276.81157100,276811571,0.0,0.28,0.0,-0.29,206.91,206.92000000000002,0.0,0.07,0
276.91160100,276911601,0.0,0.28,0.0,-0.29,206.9,206.91,0.0,0.05,0
277.01157600,277011576,0.0,0.28,0.0,-0.29,206.9,206.91,0.0,0.04,0
277.11164500,277111645,0.0,0.28,0.0,-0.3,206.92000000000002,206.93,0.0,0.04,0
277.21163100,277211631,0.0,0.28,0.0,-0.29,206.88,206.89000000000001,0.0,0.04,0
277.31155300,277311553,0.0,0.28,0.0,-0.3,206.85,206.86,0.0,0.04,0
277.41157000,277411570,0.0,0.28,0.0,-0.3,206.84,206.85,0.0,0.03,0
277.51201400,277512014,0.0,0.28,0.0,-0.3,206.81,206.82,0.0,0.03,0
277.61165000,277611650,0.0,0.28,0.0,-0.3,206.72,206.73000000000002,0.0,0.05,0
277.71154200,277711542,0.0,0.28,0.0,-0.3,206.74,206.75,0.0,0.05,0
277.81161100,277811611,0.0,0.28,0.0,-0.3,206.73000000000002,206.74,0.0,0.04,0
277.91154200,277911542,0.0,0.28,0.0,-0.3,206.72,206.73000000000002,0.0,0.03,0
278.01156300,278011563,0.0,0.28,0.0,-0.3,206.70000000000002,206.71,0.0,0.03,0
278.11158300,278111583,0.0,0.28,0.0,-0.3,206.78,206.79,0.0,0.05,0
278.21157100,278211571,0.0,0.28,0.0,-0.3,206.72,206.73000000000002,0.0,0.06,0
278.31158400,278311584,0.0,0.28,0.0,-0.3,206.76,206.77,0.0,0.06,0
278.41167200,278411672,0.0,0.28,0.0,-0.3,206.8,206.81,0.0,0.06,0
278.51193200,278511932,0.0,0.28,0.0,-0.3,206.77,206.78,0.0,0.06,0
278.61159300,278611593,0.0,0.28,0.0,-0.3,206.78,206.79,0.0,0.05,0
278.71168800,278711688,0.0,0.28,0.0,-0.3,206.75,206.76,0.0,0.05,0
278.81153900,278811539,0.0,0.28,0.0,-0.3,206.73000000000002,206.74,0.0,0.04,0
278.91158000,278911580,0.0,0.28,0.0,-0.3,206.65,206.66,0.0,0.06,0
279.01162300,279011623,0.0,0.28,0.0,-0.3,206.62,206.63,0.0,0.05,0
279.11154900,279111549,0.0,0.28,0.0,-0.3,206.57,206.58,0.0,0.05,0
279.21164400,279211644,0.0,0.29,0.0,-0.31,206.56,206.57,0.0,0.04,0
279.31155600,279311556,0.0,0.28,0.0,-0.3,206.53,206.54,0.0,0.04,0
279.41161600,279411616,0.0,0.28,0.0,-0.3,206.58,206.59,0.0,0.05,0
279.51178000,279511780,0.0,0.29,0.0,-0.3,206.49,206.5,0.0,0.07,0
279.61156600,279611566,0.0,0.29,0.0,-0.3,206.49,206.5,0.0,0.06,0
279.71157900,279711579,0.0,0.29,0.0,-0.3,206.5,206.51,0.0,0.05,0
279.81156500,279811565,0.0,0.29,0.0,-0.3,206.55,206.56,0.0,0.06,0
279.91159400,279911594,0.0,0.29,0.0,-0.3,206.53,206.54,0.0,0.05,0
280.01157700,280011577,0.0,0.29,0.0,-0.3,206.65,206.66,0.0,0.08,0
280.11160700,280111607,0.0,0.29,0.0,-0.31,206.68,206.69,0.0,0.08,0
280.21161900,280211619,0.0,0.29,0.0,-0.31,206.77,206.78,0.0,0.09,0
280.31165400,280311654,0.0,0.3,0.0,-0.31,206.73000000000002,206.74,0.0,0.08,0
280.41156600,280411566,0.0,0.3,0.0,-0.31,206.76,206.77,0.0,0.08,0
282.31166300,282311663,0.0,0.3,0.0,-0.31,206.61,206.62,0.0,0.06,0
282.41158500,282411585,0.0,0.3,0.0,-0.31,206.68,206.69,0.0,0.07,0
282.51184500,282511845,0.0,0.3,0.0,-0.31,206.63,206.64000000000001,0.0,0.07,0
282.61163000,282611630,0.0,0.3,0.0,-0.31,206.65,206.66,0.0,0.06,0
282.71155300,282711553,0.0,0.29,0.0,-0.3,206.71,206.72,0.0,0.07,0
282.81158500,282811585,0.0,0.3,0.0,-0.3,206.72,206.73000000000002,0.0,0.06,0
282.91157500,282911575,0.0,0.3,0.0,-0.31,206.8,206.81,0.0,0.08,0
283.01157900,283011579,0.0,0.3,0.0,-0.31,206.86,206.87,0.0,0.08,0
283.11155800,283111558,0.0,0.3,0.0,-0.3,206.8,206.81,0.0,0.08,0
283.21159900,283211599,0.0,0.3,0.0,-0.3,206.68,206.69,0.0,0.1,0
283.31162600,283311626,0.0,0.3,0.0,-0.31,206.69,206.70000000000002,0.0,0.09,0
283.41163500,283411635,0.0,0.3,0.0,-0.31,206.75,206.76,0.0,0.09,0
283.51173200,283511732,0.0,0.29,0.0,-0.31,206.79,206.8,0.0,0.09,0
283.61158700,283611587,0.0,0.3,0.0,-0.31,206.8,206.81,0.0,0.07,0
283.71158900,283711589,0.0,0.3,0.0,-0.31,206.74,206.75,0.0,0.07,0
283.81153900,283811539,0.0,0.3,0.0,-0.31,206.76,206.77,0.0,0.07,0
283.91165100,283911651,0.0,0.3,0.0,-0.31,206.71,206.72,0.0,0.06,0
284.01155700,284011557,0.0,0.29,0.0,-0.31,206.70000000000002,206.71,0.0,0.05,0
284.11157400,284111574,0.0,0.29,0.0,-0.31,206.75,206.76,0.0,0.06,0
284.21156100,284211561,0.0,0.29,0.0,-0.31,206.74,206.75,0.0,0.05,0
284.31156100,284311561,0.0,0.29,0.0,-0.31,206.73000000000002,206.74,0.0,0.04,0
284.41158500,284411585,0.0,0.29,0.0,-0.31,206.74,206.75,0.0,0.04,0
284.51168800,284511688,0.0,0.29,0.0,-0.31,206.75,206.76,0.0,0.04,0
284.61158800,284611588,0.0,0.29,0.0,-0.31,206.8,206.81,0.0,0.05,0
284.71157700,284711577,0.0,0.29,0.0,-0.31,206.82,206.83,0.0,0.05,0
284.81159300,284811593,0.0,0.29,0.0,-0.31,206.81,206.82,0.0,0.04,0
284.91160800,284911608,0.0,0.29,0.0,-0.31,206.79,206.8,0.0,0.03,0
285.01162400,285011624,0.0,0.29,0.0,-0.31,206.76,206.77,0.0,0.04,0
285.11155200,285111552,0.0,0.29,0.0,-0.31,206.77,206.78,0.0,0.03,0
285.21158100,285211581,0.0,0.29,0.0,-0.31,206.8,206.81,0.0,0.04,0
285.31167600,285311676,0.0,0.28,0.0,-0.31,206.77,206.78,0.0,0.04,0
285.41160500,285411605,0.0,0.28,0.0,-0.31,206.8,206.81,0.0,0.04,0
285.51183000,285511830,0.0,0.28,0.0,-0.31,206.79,206.8,0.0,0.04,0
285.61157300,285611573,0.0,0.29,0.0,-0.31,206.77,206.78,0.0,0.03,0
285.71158900,285711589,0.0,0.29,0.0,-0.31,206.73000000000002,206.74,0.0,0.03,0
285.81159200,285811592,0.0,0.29,0.0,-0.31,206.69,206.70000000000002,0.0,0.04,0
285.91159200,285911592,0.0,0.29,0.0,-0.31,206.67000000000002,206.68,0.0,0.04,0
286.01156800,286011568,0.0,0.29,0.0,-0.31,206.65,206.66,0.0,0.03,0
286.11157800,286111578,0.0,0.29,0.0,-0.31,206.65,206.66,0.0,0.03,0
286.21158200,286211582,0.0,0.29,0.0,-0.31,206.66,206.67000000000002,0.0,0.03,0
286.31157800,286311578,0.0,0.29,0.0,-0.31,206.71,206.72,0.0,0.04,0
286.41161100,286411611,0.0,0.29,0.0,-0.31,206.78,206.79,0.0,0.06,0
286.51176100,286511761,0.0,0.29,0.0,-0.3,206.84,206.85,0.0,0.06,0
286.61156700,286611567,0.0,0.28,0.0,-0.3,206.84,206.85,0.0,0.05,0
286.71160100,286711601,0.0,0.29,0.0,-0.3,206.75,206.76,0.0,0.07,0
286.81161800,286811618,0.0,0.29,0.0,-0.3,206.75,206.76,0.0,0.06,0
286.91160300,286911603,0.0,0.29,0.0,-0.3,206.73000000000002,206.74,0.0,0.05,0
287.01157700,287011577,0.0,0.29,0.0,-0.3,206.74,206.75,0.0,0.04,0
287.11158400,287111584,0.0,0.29,0.0,-0.3,206.77,206.78,0.0,0.04,0
287.21161000,287211610,0.0,0.29,0.0,-0.3,206.78,206.79,0.0,0.04,0
287.31158000,287311580,0.0,0.29,0.0,-0.3,206.73000000000002,206.74,0.0,0.05,0
287.41156800,287411568,0.0,0.29,0.0,-0.3,206.73000000000002,206.74,0.0,0.04,0
287.51173500,287511735,0.0,0.29,0.0,-0.3,206.75,206.76,0.0,0.04,0
288.61161200,288611612,0.0,0.31,0.0,-0.29,206.65,206.66,0.0,0.07,0
288.71157500,288711575,0.0,0.3,0.0,-0.29,206.56,206.57,0.0,0.08,0
288.81158100,288811581,0.0,0.28,0.0,-0.29,206.53,206.54,0.0,0.07,0
288.91163300,288911633,0.0,0.31,0.0,-0.3,206.51,206.52,0.0,0.06,0
289.01157200,289011572,0.0,0.3,0.0,-0.29,206.49,206.5,0.0,0.06,0
289.11156800,289111568,0.0,0.28,0.0,-0.29,206.43,206.44,0.0,0.06,0
289.21157000,289211570,0.0,0.3,0.0,-0.29,206.38,206.39000000000001,0.0,0.06,0
289.31159400,289311594,0.0,0.3,0.0,-0.3,206.36,206.37,0.0,0.05,0
289.41155200,289411552,0.0,0.29,0.0,-0.29,206.38,206.39000000000001,0.0,0.05,0
289.51171800,289511718,0.0,0.3,0.0,-0.3,206.37,206.38,0.0,0.04,0
289.61161600,289611616,0.0,0.31,0.0,-0.3,206.42000000000002,206.43,0.0,0.05,0
289.71164300,289711643,0.0,0.29,0.0,-0.3,206.42000000000002,206.43,0.0,0.04,0
289.81158800,289811588,0.0,0.29,0.0,-0.29,206.4,206.41,0.0,0.04,0
289.91156000,289911560,0.0,0.31,0.0,-0.29,206.35,206.36,0.0,0.05,0
290.01162000,290011620,0.0,0.3,0.0,-0.29,206.27,206.28,0.0,0.06,0
290.11156100,290111561,0.0,0.29,0.0,-0.29,206.29,206.3,0.0,0.06,0
290.21161300,290211613,0.0,0.31,0.0,-0.29,206.3,206.31,0.0,0.05,0
290.31155000,290311550,0.0,0.3,0.0,-0.29,206.33,206.34,0.0,0.05,0
290.41163400,290411634,0.0,0.29,0.0,-0.3,206.32,206.33,0.0,0.04,0
290.51167900,290511679,0.0,0.31,0.0,-0.3,206.32,206.33,0.0,0.03,0
290.61159200,290611592,0.0,0.31,0.0,-0.3,206.3,206.31,0.0,0.03,0
290.71158700,290711587,0.0,0.3,0.0,-0.3,206.31,206.32,0.0,0.03,0
290.81155600,290811556,0.0,0.31,0.0,-0.3,206.25,206.26,0.0,0.04,0
290.91159300,290911593,0.0,0.31,0.0,-0.3,206.22,206.23000000000002,0.0,0.04,0
291.01157500,291011575,0.0,0.3,0.0,-0.3,206.20000000000002,206.21,0.0,0.04,0
291.11160700,291111607,0.0,0.31,0.0,-0.3,206.19,206.20000000000002,0.0,0.03,0
291.21162000,291211620,0.0,0.31,0.0,-0.3,206.07,206.08,0.0,0.06,0
291.31157900,291311579,0.0,0.3,0.0,-0.3,206.1,206.11,0.0,0.06,0
291.41155500,291411555,0.0,0.3,0.0,-0.29,206.09,206.1,0.0,0.04,0
291.51181500,291511815,0.0,0.31,0.0,-0.3,206.1,206.11,0.0,0.04,0
291.61166100,291611661,0.0,0.3,0.0,-0.3,206.03,206.04,0.0,0.05,0
291.71156200,291711562,0.0,0.3,0.0,-0.3,206.06,206.07,0.0,0.05,0
291.81162200,291811622,0.0,0.31,0.0,-0.3,206.03,206.04,0.0,0.04,0
291.91157100,291911571,0.0,0.3,0.0,-0.3,206.04,206.05,0.0,0.04,0
292.01156100,292011561,0.0,0.3,0.0,-0.3,206.0,206.01,0.0,0.04,0
292.11156100,292111561,0.0,0.31,0.0,-0.3,206.0,206.01,0.0,0.03,0
292.21160100,292211601,0.0,0.3,0.0,-0.3,206.01,206.02,0.0,0.03,0
292.31156100,292311561,0.0,0.3,0.0,-0.3,206.01,206.02,0.0,0.03,0
292.41157000,292411570,0.0,0.31,0.0,-0.3,206.01,206.02,0.0,0.02,0
292.51174500,292511745,0.0,0.3,0.0,-0.3,206.01,206.02,0.0,0.02,0
292.61157200,292611572,0.0,0.3,0.0,-0.3,205.92000000000002,205.93,0.0,0.04,0
292.71161600,292711616,0.0,0.3,0.0,-0.3,205.95000000000002,205.96,0.0,0.05,0
292.81163400,292811634,0.0,0.3,0.0,-0.3,205.99,206.0,0.0,0.05,0
292.91157500,292911575,0.0,0.3,0.0,-0.3,205.95000000000002,205.96,0.0,0.06,0
293.01154300,293011543,0.0,0.3,0.0,-0.3,205.98000000000002,205.99,0.0,0.06,0
293.11162700,293111627,0.0,0.3,0.0,-0.3,205.97,205.98000000000002,0.0,0.04,0
293.21156200,293211562,0.0,0.3,0.0,-0.3,205.95000000000002,205.96,0.0,0.04,0
293.31159600,293311596,0.0,0.3,0.0,-0.3,205.98000000000002,205.99,0.0,0.04,0
293.41161500,293411615,0.0,0.3,0.0,-0.3,205.99,206.0,0.0,0.04,0
293.51172300,293511723,0.0,0.3,0.0,-0.3,205.99,206.0,0.0,0.03,0
293.61158400,293611584,0.0,0.3,0.0,-0.3,206.02,206.03,0.0,0.04,0
293.71154000,293711540,0.0,0.3,0.0,-0.3,206.0,206.01,0.0,0.03,0
293.81160200,293811602,0.0,0.3,0.0,-0.3,205.97,205.98000000000002,0.0,0.03,0
293.91157200,293911572,0.0,0.3,0.0,-0.31,206.04,206.05,0.0,0.05,0
294.01157000,294011570,0.0,0.3,0.0,-0.31,206.06,206.07,0.0,0.05,0
294.11156500,294111565,0.0,0.3,0.0,-0.31,206.12,206.13,0.0,0.06,0
294.21160000,294211600,0.0,0.3,0.0,-0.31,206.14000000000001,206.15,0.0,0.06,0
294.31168900,294311689,0.0,0.3,0.0,-0.31,206.13,206.14000000000001,0.0,0.04,0
294.41160700,294411607,0.0,0.3,0.0,-0.31,206.17000000000002,206.18,0.0,0.05,0
294.51201800,294512018,0.0,0.3,0.0,-0.31,206.12,206.13,0.0,0.05,0
294.61157200,294611572,0.0,0.3,0.0,-0.31,206.1,206.11,0.0,0.05,0
294.71163200,294711632,0.0,0.3,0.0,-0.31,206.13,206.14000000000001,0.0,0.05,0
294.81156300,294811563,0.0,0.29,0.0,-0.3,206.19,206.20000000000002,0.0,0.06,0
294.91161200,294911612,0.0,0.3,0.0,-0.31,206.19,206.20000000000002,0.0,0.05,0
295.01155300,295011553,0.0,0.3,0.0,-0.3,206.17000000000002,206.18,0.0,0.04,0
295.11157400,295111574,0.0,0.29,0.0,-0.3,206.21,206.22,0.0,0.05,0
295.21157800,295211578,0.0,0.29,0.0,-0.3,206.23000000000002,206.24,0.0,0.05,0
295.31155800,295311558,0.0,0.3,0.0,-0.3,206.31,206.32,0.0,0.07,0
295.41162100,295411621,0.0,0.29,0.0,-0.3,206.27,206.28,0.0,0.07,0
295.51168500,295511685,0.0,0.3,0.0,-0.31,206.27,206.28,0.0,0.06,0
295.61157400,295611574,0.0,0.3,0.0,-0.3,206.29,206.3,0.0,0.06,0
295.71156500,295711565,0.0,0.29,0.0,-0.3,206.26,206.27,0.0,0.05,0
295.81161500,295811615,0.0,0.29,0.0,-0.31,206.28,206.29,0.0,0.05,0
295.91162300,295911623,0.0,0.29,0.0,-0.31,206.3,206.31,0.0,0.05,0
296.01162300,296011623,0.0,0.29,0.0,-0.3,206.3,206.31,0.0,0.04,0
296.11157000,296111570,0.0,0.29,0.0,-0.3,206.28,206.29,0.0,0.03,0
296.21159900,296211599,0.0,0.3,0.0,-0.3,206.32,206.33,0.0,0.04,0
296.31164700,296311647,0.0,0.29,0.0,-0.3,206.33,206.34,0.0,0.04,0
296.41157200,296411572,0.0,0.29,0.0,-0.3,206.31,206.32,0.0,0.03,0
296.51180000,296511800,0.0,0.3,0.0,-0.3,206.25,206.26,0.0,0.04,0
296.61156800,296611568,0.0,0.29,0.0,-0.3,206.24,206.25,0.0,0.03,0
296.71157800,296711578,0.0,0.29,0.0,-0.3,206.21,206.22,0.0,0.03,0
296.81157200,296811572,0.0,0.3,0.0,-0.3,206.21,206.22,0.0,0.03,0
296.91159000,296911590,0.0,0.29,0.0,-0.3,206.25,206.26,0.0,0.04,0
297.01157000,297011570,0.0,0.29,0.0,-0.3,206.33,206.34,0.0,0.06,0
297.11157300,297111573,0.0,0.29,0.0,-0.31,206.43,206.44,0.0,0.08,0
297.21159600,297211596,0.0,0.29,0.0,-0.31,206.5,206.51,0.0,0.09,0
297.31159100,297311591,0.0,0.29,0.0,-0.31,206.53,206.54,0.0,0.08,0
297.41164400,297411644,0.0,0.3,0.0,-0.31,206.5,206.51,0.0,0.07,0
297.51171800,297511718,0.0,0.3,0.0,-0.31,206.53,206.54,0.0,0.07,0
297.61158100,297611581,0.0,0.29,0.0,-0.31,206.53,206.54,0.0,0.05,0
297.71156000,297711560,0.0,0.3,0.0,-0.31,206.45000000000002,206.46,0.0,0.07,0
297.81164300,297811643,0.0,0.3,0.0,-0.32,206.47,206.48000000000002,0.0,0.06,0
297.91164800,297911648,0.0,0.3,0.0,-0.32,206.49,206.5,0.0,0.05,0
298.01156700,298011567,0.0,0.3,0.0,-0.32,206.46,206.47,0.0,0.05,0
298.11161900,298111619,0.0,0.3,0.0,-0.32,206.5,206.51,0.0,0.06,0
298.21155100,298211551,0.0,0.3,0.0,-0.32,206.5,206.51,0.0,0.05,0
298.31158100,298311581,0.0,0.3,0.0,-0.32,206.51,206.52,0.0,0.04,0
298.41156100,298411561,0.0,0.3,0.0,-0.32,206.47,206.48000000000002,0.0,0.05,0
298.51168100,298511681,0.0,0.3,0.0,-0.32,206.5,206.51,0.0,0.05,0
298.61156500,298611565,0.0,0.3,0.0,-0.32,206.52,206.53,0.0,0.04,0
298.71156800,298711568,0.0,0.3,0.0,-0.32,206.55,206.56,0.0,0.05,0
298.81157700,298811577,0.0,0.3,0.0,-0.32,206.51,206.52,0.0,0.05,0
298.91160300,298911603,0.0,0.3,0.0,-0.32,206.52,206.53,0.0,0.04,0
299.01162800,299011628,0.0,0.3,0.0,-0.32,206.53,206.54,0.0,0.04,0
299.11158600,299111586,0.0,0.3,0.0,-0.32,206.55,206.56,0.0,0.03,0
299.21158500,299211585,0.0,0.3,0.0,-0.32,206.59,206.6,0.0,0.04,0
299.31157500,299311575,0.0,0.3,0.0,-0.32,206.56,206.57,0.0,0.04,0
299.41179000,299411790,0.0,0.3,0.0,-0.32,206.61,206.62,0.0,0.05,0
299.51176400,299511764,0.0,0.29,0.0,-0.32,206.57,206.58,0.0,0.05,0
299.61162400,299611624,0.0,0.3,0.0,-0.32,206.56,206.57,0.0,0.04,0
299.71156800,299711568,0.0,0.3,0.0,-0.32,206.52,206.53,0.0,0.05,0
299.81155700,299811557,0.0,0.3,0.0,-0.32,206.57,206.58,0.0,0.06,0
299.91158200,299911582,0.0,0.3,0.0,-0.32,206.48000000000002,206.49,0.0,0.07,0
300.01155900,300011559,0.0,0.3,0.0,-0.32,206.47,206.48000000000002,0.0,0.06,0
300.11161900,300111619,0.0,0.3,0.0,-0.32,206.45000000000002,206.46,0.0,0.05,0
300.21155400,300211554,0.0,0.3,0.0,-0.32,206.38,206.39000000000001,0.0,0.06,0
300.31160100,300311601,0.0,0.3,0.0,-0.32,206.41,206.42000000000002,0.0,0.06,0
300.41156200,300411562,0.0,0.3,0.0,-0.32,206.35,206.36,0.0,0.07,0
300.51183600,300511836,0.0,0.3,0.0,-0.32,206.38,206.39000000000001,0.0,0.06,0
300.61168600,300611686,0.0,0.3,0.0,-0.32,206.34,206.35,0.0,0.06,0
301.81158800,301811588,0.0,0.29,0.0,-0.32,206.33,206.34,0.0,0.03,0
301.91158800,301911588,0.0,0.3,0.0,-0.32,206.36,206.37,0.0,0.03,0
302.01163500,302011635,0.0,0.31,0.0,-0.32,206.41,206.42000000000002,0.0,0.04,0
302.11165400,302111654,0.0,0.3,0.0,-0.32,206.42000000000002,206.43,0.0,0.04,0
302.21158000,302211580,0.0,0.3,0.0,-0.32,206.43,206.44,0.0,0.03,0
302.31158600,302311586,0.0,0.32,0.0,-0.32,206.35,206.36,0.0,0.05,0
302.41162400,302411624,0.0,0.3,0.0,-0.32,206.34,206.35,0.0,0.04,0
302.51177700,302511777,0.0,0.3,0.0,-0.32,206.36,206.37,0.0,0.04,0
302.61163400,302611634,0.0,0.31,0.0,-0.32,206.34,206.35,0.0,0.04,0
302.71155500,302711555,0.0,0.3,0.0,-0.32,206.35,206.36,0.0,0.03,0
302.81157400,302811574,0.0,0.29,0.0,-0.32,206.37,206.38,0.0,0.03,0
302.91156400,302911564,0.0,0.31,0.0,-0.33,206.39000000000001,206.4,0.0,0.03,0
303.01158900,303011589,0.0,0.3,0.0,-0.33,206.37,206.38,0.0,0.03,0
303.11155900,303111559,0.0,0.29,0.0,-0.33,206.35,206.36,0.0,0.03,0
303.21160400,303211604,0.0,0.31,0.0,-0.33,206.3,206.31,0.0,0.04,0
303.31157600,303311576,0.0,0.31,0.0,-0.33,206.35,206.36,0.0,0.05,0
303.41155700,303411557,0.0,0.29,0.0,-0.33,206.29,206.3,0.0,0.06,0
303.51172300,303511723,0.0,0.3,0.0,-0.33,206.3,206.31,0.0,0.05,0
303.61161600,303611616,0.0,0.31,0.0,-0.33,206.26,206.27,0.0,0.05,0
303.71167500,303711675,0.0,0.3,0.0,-0.33,206.3,206.31,0.0,0.05,0
303.81154500,303811545,0.0,0.3,0.0,-0.33,206.25,206.26,0.0,0.05,0
303.91158100,303911581,0.0,0.31,0.0,-0.33,206.3,206.31,0.0,0.06,0
304.01156600,304011566,0.0,0.3,0.0,-0.33,206.3,206.31,0.0,0.05,0
304.11158800,304111588,0.0,0.29,0.0,-0.33,206.31,206.32,0.0,0.04,0
304.21159700,304211597,0.0,0.3,0.0,-0.32,206.33,206.34,0.0,0.04,0
304.31155400,304311554,0.0,0.3,0.0,-0.32,206.3,206.31,0.0,0.04,0
304.41157800,304411578,0.0,0.29,0.0,-0.32,206.27,206.28,0.0,0.04,0
304.51167600,304511676,0.0,0.3,0.0,-0.32,206.28,206.29,0.0,0.04,0
304.61158100,304611581,0.0,0.3,0.0,-0.32,206.21,206.22,0.0,0.06,0
304.71156400,304711564,0.0,0.29,0.0,-0.32,206.22,206.23000000000002,0.0,0.05,0
304.81157600,304811576,0.0,0.3,0.0,-0.32,206.24,206.25,0.0,0.05,0
304.91156400,304911564,0.0,0.3,0.0,-0.32,206.24,206.25,0.0,0.04,0
305.01156400,305011564,0.0,0.29,0.0,-0.32,206.3,206.31,0.0,0.05,0
305.11159700,305111597,0.0,0.3,0.0,-0.32,206.25,206.26,0.0,0.05,0
305.21163200,305211632,0.0,0.3,0.0,-0.32,206.19,206.20000000000002,0.0,0.06,0
305.31166900,305311669,0.0,0.29,0.0,-0.33,206.12,206.13,0.0,0.07,0
306.01157100,306011571,0.0,0.3,0.0,-0.34,206.37,206.38,0.0,0.07,0
306.11155700,306111557,0.0,0.3,0.0,-0.34,206.35,206.36,0.0,0.07,0
306.21162300,306211623,0.0,0.29,0.0,-0.34,206.39000000000001,206.4,0.0,0.07,0
306.31156600,306311566,0.0,0.29,0.0,-0.34,206.44,206.45000000000002,0.0,0.07,0
306.41159700,306411597,0.0,0.3,0.0,-0.34,206.53,206.54,0.0,0.08,0
306.51167200,306511672,0.0,0.29,0.0,-0.34,206.55,206.56,0.0,0.07,0
306.61158200,306611582,0.0,0.29,0.0,-0.34,206.51,206.52,0.0,0.07,0
306.71157400,306711574,0.0,0.3,0.0,-0.34,206.51,206.52,0.0,0.06,0
306.81162200,306811622,0.0,0.3,0.0,-0.34,206.55,206.56,0.0,0.06,0
306.91167400,306911674,0.0,0.3,0.0,-0.34,206.55,206.56,0.0,0.05,0
307.01155200,307011552,0.0,0.3,0.0,-0.34,206.5,206.51,0.0,0.05,0
307.11160200,307111602,0.0,0.3,0.0,-0.33,206.47,206.48000000000002,0.0,0.05,0
307.21162500,307211625,0.0,0.3,0.0,-0.33,206.47,206.48000000000002,0.0,0.04,0
307.31162600,307311626,0.0,0.3,0.0,-0.34,206.52,206.53,0.0,0.04,0
307.41158300,307411583,0.0,0.3,0.0,-0.34,206.52,206.53,0.0,0.03,0
307.51176500,307511765,0.0,0.3,0.0,-0.33,206.49,206.5,0.0,0.04,0
307.61155400,307611554,0.0,0.3,0.0,-0.33,206.45000000000002,206.46,0.0,0.04,0
307.71158800,307711588,0.0,0.3,0.0,-0.33,206.42000000000002,206.43,0.0,0.04,0
307.81170700,307811707,0.0,0.29,0.0,-0.33,206.44,206.45000000000002,0.0,0.04,0
307.91156600,307911566,0.0,0.3,0.0,-0.33,206.47,206.48000000000002,0.0,0.04,0
308.01157600,308011576,0.0,0.3,0.0,-0.33,206.46,206.47,0.0,0.04,0
308.11158500,308111585,0.0,0.3,0.0,-0.33,206.34,206.35,0.0,0.07,0
308.21159700,308211597,0.0,0.3,0.0,-0.33,206.35,206.36,0.0,0.06,0
308.31159500,308311595,0.0,0.3,0.0,-0.33,206.41,206.42000000000002,0.0,0.07,0
308.41166400,308411664,0.0,0.3,0.0,-0.33,206.52,206.53,0.0,0.09,0
308.51172200,308511722,0.0,0.3,0.0,-0.33,206.54,206.55,0.0,0.07,0
308.61156800,308611568,0.0,0.3,0.0,-0.33,206.53,206.54,0.0,0.06,0
308.71161700,308711617,0.0,0.3,0.0,-0.33,206.53,206.54,0.0,0.05,0
308.81166000,308811660,0.0,0.3,0.0,-0.32,206.52,206.53,0.0,0.04,0
308.91160100,308911601,0.0,0.3,0.0,-0.33,206.5,206.51,0.0,0.04,0
309.01154800,309011548,0.0,0.3,0.0,-0.33,206.49,206.5,0.0,0.04,0
309.11158400,309111584,0.0,0.3,0.0,-0.33,206.54,206.55,0.0,0.04,0
309.21155300,309211553,0.0,0.3,0.0,-0.33,206.48000000000002,206.49,0.0,0.05,0
309.31157000,309311570,0.0,0.3,0.0,-0.33,206.5,206.51,0.0,0.05,0
309.41159400,309411594,0.0,0.3,0.0,-0.33,206.56,206.57,0.0,0.06,0
309.51178400,309511784,0.0,0.3,0.0,-0.33,206.53,206.54,0.0,0.06,0
309.61156600,309611566,0.0,0.3,0.0,-0.33,206.48000000000002,206.49,0.0,0.06,0
309.71155400,309711554,0.0,0.3,0.0,-0.33,206.47,206.48000000000002,0.0,0.05,0
309.81187200,309811872,0.0,0.3,0.0,-0.33,206.52,206.53,0.0,0.05,0
309.91168900,309911689,0.0,0.3,0.0,-0.33,206.5,206.51,0.0,0.05,0
310.01164600,310011646,0.0,0.3,0.0,-0.33,206.55,206.56,0.0,0.05,0
310.11157400,310111574,0.0,0.3,0.0,-0.33,206.51,206.52,0.0,0.06,0
310.21162000,310211620,0.0,0.3,0.0,-0.33,206.49,206.5,0.0,0.05,0
310.31159000,310311590,0.0,0.3,0.0,-0.33,206.5,206.51,0.0,0.04,0
310.41157600,310411576,0.0,0.3,0.0,-0.33,206.54,206.55,0.0,0.05,0
310.51184900,310511849,0.0,0.3,0.0,-0.34,206.55,206.56,0.0,0.04,0
310.61164900,310611649,0.0,0.3,0.0,-0.34,206.58,206.59,0.0,0.04,0
310.71162000,310711620,0.0,0.29,0.0,-0.34,206.63,206.64000000000001,0.0,0.05,0
310.81181100,310811811,0.0,0.29,0.0,-0.34,206.62,206.63,0.0,0.04,0
310.91159000,310911590,0.0,0.29,0.0,-0.33,206.68,206.69,0.0,0.05,0
311.01156900,311011569,0.0,0.29,0.0,-0.33,206.69,206.70000000000002,0.0,0.04,0
311.11156500,311111565,0.0,0.29,0.0,-0.33,206.62,206.63,0.0,0.05,0
311.21156300,311211563,0.0,0.29,0.0,-0.33,206.65,206.66,0.0,0.05,0
311.31157500,311311575,0.0,0.29,0.0,-0.33,206.64000000000001,206.65,0.0,0.04,0
311.41165300,311411653,0.0,0.29,0.0,-0.33,206.59,206.6,0.0,0.05,0
311.51175700,311511757,0.0,0.29,0.0,-0.33,206.62,206.63,0.0,0.05,0
311.61157300,311611573,0.0,0.29,0.0,-0.33,206.61,206.62,0.0,0.04,0
311.71159400,311711594,0.0,0.3,0.0,-0.33,206.63,206.64000000000001,0.0,0.04,0
311.81189600,311811896,0.0,0.3,0.0,-0.34,206.65,206.66,0.0,0.04,0
311.91160100,311911601,0.0,0.29,0.0,-0.33,206.59,206.6,0.0,0.05,0
312.01174200,312011742,0.0,0.3,0.0,-0.33,206.69,206.70000000000002,0.0,0.07,0
312.11155200,312111552,0.0,0.29,0.0,-0.33,206.70000000000002,206.71,0.0,0.06,0
312.21157600,312211576,0.0,0.29,0.0,-0.33,206.71,206.72,0.0,0.05,0
312.31158100,312311581,0.0,0.3,0.0,-0.33,206.73000000000002,206.74,0.0,0.04,0
312.41156200,312411562,0.0,0.3,0.0,-0.33,206.77,206.78,0.0,0.05,0
312.51169900,312511699,0.0,0.29,0.0,-0.33,206.76,206.77,0.0,0.04,0
312.61157100,312611571,0.0,0.29,0.0,-0.33,206.72,206.73000000000002,0.0,0.05,0
312.71159000,312711590,0.0,0.29,0.0,-0.33,206.67000000000002,206.68,0.0,0.05,0
312.81155900,312811559,0.0,0.29,0.0,-0.33,206.71,206.72,0.0,0.05,0
312.91160400,312911604,0.0,0.29,0.0,-0.33,206.78,206.79,0.0,0.07,0
313.01162600,313011626,0.0,0.29,0.0,-0.33,206.81,206.82,0.0,0.06,0
313.11159900,313111599,0.0,0.29,0.0,-0.33,206.8,206.81,0.0,0.05,0
313.21158300,313211583,0.0,0.29,0.0,-0.33,206.79,206.8,0.0,0.05,0
313.31155300,313311553,0.0,0.29,0.0,-0.33,206.83,206.84,0.0,0.05,0
313.41167200,313411672,0.0,0.28,0.0,-0.33,206.87,206.88,0.0,0.05,0
313.51169900,313511699,0.0,0.29,0.0,-0.33,206.85,206.86,0.0,0.05,0
313.61165800,313611658,0.0,0.27,0.0,-0.33,206.87,206.88,0.0,0.04,0
313.71157100,313711571,0.0,0.24,0.0,-0.33,206.85,206.86,0.0,0.05,0
313.81163900,313811639,0.0,0.29,0.0,-0.33,206.86,206.87,0.0,0.04,0
313.91155900,313911559,0.0,0.3,0.0,-0.33,206.79,206.8,0.0,0.06,0
314.01159300,314011593,0.0,0.24,0.0,-0.33,206.76,206.77,0.0,0.06,0
314.11167300,314111673,0.0,0.26,0.0,-0.32,206.81,206.82,0.0,0.06,0
314.21156300,314211563,0.0,0.31,0.0,-0.32,206.76,206.77,0.0,0.07,0
314.31157100,314311571,0.0,0.29,0.0,-0.34,206.82,206.83,0.0,0.07,0
314.41155700,314411557,0.0,0.29,0.0,-0.33,206.86,206.87,0.0,0.07,0
314.51171900,314511719,0.0,0.32,0.0,-0.33,206.91,206.92000000000002,0.0,0.07,0
314.61167100,314611671,0.0,0.29,0.0,-0.35000000000000003,206.95000000000002,206.96,0.0,0.07,0
314.71168000,314711680,0.0,0.26,0.0,-0.34,206.97,206.98000000000002,0.0,0.06,0
314.81156800,314811568,0.0,0.29,0.0,-0.33,206.99,207.0,0.0,0.05,0
314.91158000,314911580,0.0,0.29,0.0,-0.33,207.0,207.01,0.0,0.05,0
315.01166300,315011663,0.0,0.27,0.0,-0.33,207.07,207.08,0.0,0.06,0
315.11154900,315111549,0.0,0.28,0.0,-0.33,207.08,207.09,0.0,0.05,0
315.21162200,315211622,0.0,0.29,0.0,-0.34,207.03,207.04,0.0,0.05,0
315.31155100,315311551,0.0,0.27,0.0,-0.34,207.09,207.1,0.0,0.06,0
315.41159400,315411594,0.0,0.27,0.0,-0.34,207.14000000000001,207.15,0.0,0.06,0
315.51169700,315511697,0.0,0.29,0.0,-0.34,207.11,207.12,0.0,0.06,0
315.61158600,315611586,0.0,0.28,0.0,-0.33,207.09,207.1,0.0,0.05,0
315.71156100,315711561,0.0,0.27,0.0,-0.34,207.09,207.1,0.0,0.04,0
315.81158400,315811584,0.0,0.28,0.0,-0.33,207.14000000000001,207.15,0.0,0.05,0
315.91157500,315911575,0.0,0.28,0.0,-0.33,207.1,207.11,0.0,0.05,0
316.01158200,316011582,0.0,0.27,0.0,-0.33,207.19,207.20000000000002,0.0,0.07,0
316.11160500,316111605,0.0,0.28,0.0,-0.33,207.15,207.16,0.0,0.06,0
316.21164700,316211647,0.0,0.28,0.0,-0.33,207.18,207.19,0.0,0.06,0
316.31156800,316311568,0.0,0.27,0.0,-0.33,207.24,207.25,0.0,0.06,0
316.41156200,316411562,0.0,0.27,0.0,-0.33,207.3,207.31,0.0,0.07,0
316.51180000,316511800,0.0,0.28,0.0,-0.33,207.27,207.28,0.0,0.06,0
316.61155300,316611553,0.0,0.27,0.0,-0.33,207.22,207.23000000000002,0.0,0.07,0
316.71164200,316711642,0.0,0.27,0.0,-0.33,207.22,207.23000000000002,0.0,0.05,0
316.81159400,316811594,0.0,0.28,0.0,-0.33,207.24,207.25,0.0,0.05,0
318.31169600,318311696,0.0,0.28,0.0,-0.32,206.9,206.91,0.0,0.1,0
318.41156300,318411563,0.0,0.28,0.0,-0.32,206.84,206.85,0.0,0.1,0
318.61157100,318611571,0.0,0.27,0.0,-0.32,206.84,206.85,0.0,0.07,0
318.71154600,318711546,0.0,0.28,0.0,-0.32,206.84,206.85,0.0,0.06,0
318.81157700,318811577,0.0,0.27,0.0,-0.32,206.87,206.88,0.0,0.05,0
318.91156200,318911562,0.0,0.27,0.0,-0.32,206.84,206.85,0.0,0.05,0
319.01159900,319011599,0.0,0.28,0.0,-0.32,206.85,206.86,0.0,0.04,0
319.11147600,319111476,0.0,0.27,0.0,-0.32,206.86,206.87,0.0,0.04,0
319.21162400,319211624,0.0,0.27,0.0,-0.32,206.91,206.92000000000002,0.0,0.04,0
319.31160700,319311607,0.0,0.28,0.0,-0.32,206.91,206.92000000000002,0.0,0.03,0
319.41158200,319411582,0.0,0.28,0.0,-0.32,206.91,206.92000000000002,0.0,0.03,0
319.51179200,319511792,0.0,0.26,0.0,-0.32,206.89000000000001,206.9,0.0,0.03,0
319.61157200,319611572,0.0,0.27,0.0,-0.32,206.84,206.85,0.0,0.04,0
319.71161300,319711613,0.0,0.27,0.0,-0.32,206.87,206.88,0.0,0.04,0
319.81155300,319811553,0.0,0.26,0.0,-0.32,206.84,206.85,0.0,0.04,0
319.91160900,319911609,0.0,0.27,0.0,-0.31,206.78,206.79,0.0,0.06,0
320.01155400,320011554,0.0,0.27,0.0,-0.31,206.77,206.78,0.0,0.05,0
320.11157100,320111571,0.0,0.26,0.0,-0.31,206.81,206.82,0.0,0.05,0
320.21155100,320211551,0.0,0.27,0.0,-0.31,206.73000000000002,206.74,0.0,0.06,0
320.31158400,320311584,0.0,0.27,0.0,-0.31,206.70000000000002,206.71,0.0,0.06,0
320.41169300,320411693,0.0,0.27,0.0,-0.31,206.68,206.69,0.0,0.06,0
320.51168200,320511682,0.0,0.27,0.0,-0.31,206.67000000000002,206.68,0.0,0.05,0
320.61157400,320611574,0.0,0.28,0.0,-0.31,206.67000000000002,206.68,0.0,0.04,0
320.71158000,320711580,0.0,0.27,0.0,-0.31,206.65,206.66,0.0,0.04,0
320.81163800,320811638,0.0,0.27,0.0,-0.31,206.63,206.64000000000001,0.0,0.04,0
320.91159500,320911595,0.0,0.28,0.0,-0.31,206.70000000000002,206.71,0.0,0.05,0
321.01158200,321011582,0.0,0.27,0.0,-0.31,206.79,206.8,0.0,0.07,0
321.11156900,321111569,0.0,0.27,0.0,-0.31,206.84,206.85,0.0,0.07,0
321.21158200,321211582,0.0,0.27,0.0,-0.31,206.89000000000001,206.9,0.0,0.07,0
321.31164300,321311643,0.0,0.27,0.0,-0.31,206.91,206.92000000000002,0.0,0.06,0
321.41158800,321411588,0.0,0.26,0.0,-0.31,206.9,206.91,0.0,0.05,0
321.51175800,321511758,0.0,0.27,0.0,-0.31,206.94,206.95000000000002,0.0,0.05,0
321.61156000,321611560,0.0,0.27,0.0,-0.31,206.91,206.92000000000002,0.0,0.05,0
321.71167100,321711671,0.0,0.27,0.0,-0.3,206.79,206.8,0.0,0.08,0
321.81155100,321811551,0.0,0.27,0.0,-0.3,206.8,206.81,0.0,0.06,0
321.91158500,321911585,0.0,0.27,0.0,-0.3,206.81,206.82,0.0,0.05,0
322.01156700,322011567,0.0,0.26,0.0,-0.3,206.8,206.81,0.0,0.04,0
322.11156600,322111566,0.0,0.27,0.0,-0.3,206.84,206.85,0.0,0.04,0
322.21157300,322211573,0.0,0.27,0.0,-0.3,206.89000000000001,206.9,0.0,0.05,0
322.31160200,322311602,0.0,0.27,0.0,-0.3,206.86,206.87,0.0,0.05,0
322.41168200,322411682,0.0,0.27,0.0,-0.3,206.78,206.79,0.0,0.07,0
322.51181700,322511817,0.0,0.27,0.0,-0.3,206.72,206.73000000000002,0.0,0.07,0
322.61165800,322611658,0.0,0.27,0.0,-0.3,206.67000000000002,206.68,0.0,0.07,0
322.71156700,322711567,0.0,0.26,0.0,-0.3,206.56,206.57,0.0,0.1,0
322.81165800,322811658,0.0,0.27,0.0,-0.3,206.6,206.61,0.0,0.09,0
322.91155400,322911554,0.0,0.26,0.0,-0.3,206.6,206.61,0.0,0.07,0
323.01158000,323011580,0.0,0.26,0.0,-0.3,206.64000000000001,206.65,0.0,0.07,0
323.11162900,323111629,0.0,0.27,0.0,-0.3,206.6,206.61,0.0,0.07,0
323.21154600,323211546,0.0,0.27,0.0,-0.3,206.58,206.59,0.0,0.06,0
323.31158000,323311580,0.0,0.26,0.0,-0.3,206.59,206.6,0.0,0.05,0
323.41159500,323411595,0.0,0.27,0.0,-0.3,206.55,206.56,0.0,0.05,0
323.51172200,323511722,0.0,0.27,0.0,-0.3,206.6,206.61,0.0,0.06,0
323.61158700,323611587,0.0,0.27,0.0,-0.3,206.64000000000001,206.65,0.0,0.06,0
323.71156900,323711569,0.0,0.27,0.0,-0.3,206.70000000000002,206.71,0.0,0.06,0
323.81148800,323811488,0.0,0.27,0.0,-0.3,206.71,206.72,0.0,0.05,0
323.91161800,323911618,0.0,0.26,0.0,-0.3,206.75,206.76,0.0,0.05,0
324.01165300,324011653,0.0,0.27,0.0,-0.3,206.75,206.76,0.0,0.04,0
324.11156400,324111564,0.0,0.27,0.0,-0.3,206.77,206.78,0.0,0.04,0
324.21158000,324211580,0.0,0.26,0.0,-0.3,206.76,206.77,0.0,0.03,0
324.31158100,324311581,0.0,0.27,0.0,-0.29,206.65,206.66,0.0,0.06,0
324.41166000,324411660,0.0,0.27,0.0,-0.29,206.62,206.63,0.0,0.06,0
324.51199900,324511999,0.0,0.26,0.0,-0.29,206.57,206.58,0.0,0.06,0
327.71155400,327711554,0.0,0.27,0.0,-0.28,205.58,205.59,0.0,0.08,0
327.81158600,327811586,0.0,0.26,0.0,-0.28,205.53,205.54,0.0,0.08,0
327.91159600,327911596,0.0,0.27,0.0,-0.28,205.57,205.58,0.0,0.08,0
328.01157300,328011573,0.0,0.28,0.0,-0.28,205.6,205.61,0.0,0.07,0
328.11157200,328111572,0.0,0.27,0.0,-0.28,205.56,205.57,0.0,0.07,0
328.21161000,328211610,0.0,0.27,0.0,-0.28,205.59,205.6,0.0,0.06,0
328.31156700,328311567,0.0,0.28,0.0,-0.28,205.59,205.6,0.0,0.05,0
328.41157700,328411577,0.0,0.27,0.0,-0.28,205.58,205.59,0.0,0.04,0
328.51173600,328511736,0.0,0.27,0.0,-0.28,205.49,205.5,0.0,0.06,0
328.61162500,328611625,0.0,0.28,0.0,-0.28,205.51,205.52,0.0,0.05,0
328.71167100,328711671,0.0,0.27,0.0,-0.28,205.54,205.55,0.0,0.06,0
328.81158000,328811580,0.0,0.27,0.0,-0.28,205.47,205.48000000000002,0.0,0.07,0
328.91158500,328911585,0.0,0.28,0.0,-0.28,205.49,205.5,0.0,0.06,0
329.01158800,329011588,0.0,0.27,0.0,-0.28,205.5,205.51,0.0,0.05,0
329.11166000,329111660,0.0,0.27,0.0,-0.28,205.54,205.55,0.0,0.06,0
329.21155300,329211553,0.0,0.27,0.0,-0.28,205.59,205.6,0.0,0.06,0
329.31156900,329311569,0.0,0.27,0.0,-0.28,205.64000000000001,205.65,0.0,0.07,0
329.41160000,329411600,0.0,0.27,0.0,-0.28,205.65,205.66,0.0,0.05,0
329.51168000,329511680,0.0,0.27,0.0,-0.29,205.68,205.69,0.0,0.05,0
329.61160100,329611601,0.0,0.27,0.0,-0.29,205.66,205.67000000000002,0.0,0.05,0
329.71159100,329711591,0.0,0.26,0.0,-0.29,205.65,205.66,0.0,0.04,0
329.81157500,329811575,0.0,0.27,0.0,-0.29,205.6,205.61,0.0,0.05,0
329.91155200,329911552,0.0,0.27,0.0,-0.29,205.59,205.6,0.0,0.04,0
330.01159500,330011595,0.0,0.26,0.0,-0.29,205.59,205.6,0.0,0.03,0
330.11158900,330111589,0.0,0.27,0.0,-0.29,205.66,205.67000000000002,0.0,0.05,0
330.21161800,330211618,0.0,0.27,0.0,-0.29,205.72,205.73000000000002,0.0,0.06,0
330.31160200,330311602,0.0,0.26,0.0,-0.29,205.63,205.64000000000001,0.0,0.08,0
330.41156400,330411564,0.0,0.27,0.0,-0.29,205.64000000000001,205.65,0.0,0.07,0
330.51175800,330511758,0.0,0.27,0.0,-0.29,205.68,205.69,0.0,0.07,0
330.61166200,330611662,0.0,0.27,0.0,-0.29,205.72,205.73000000000002,0.0,0.07,0
330.71165400,330711654,0.0,0.27,0.0,-0.29,205.68,205.69,0.0,0.07,0
330.81154700,330811547,0.0,0.27,0.0,-0.29,205.72,205.73000000000002,0.0,0.07,0
330.91158100,330911581,0.0,0.27,0.0,-0.29,205.77,205.78,0.0,0.07,0
331.01155600,331011556,0.0,0.27,0.0,-0.29,205.78,205.79,0.0,0.06,0
331.11157600,331111576,0.0,0.27,0.0,-0.29,205.76,205.77,0.0,0.05,0
331.21158900,331211589,0.0,0.27,0.0,-0.29,205.81,205.82,0.0,0.06,0
331.31157800,331311578,0.0,0.27,0.0,-0.29,205.83,205.84,0.0,0.05,0
331.41158100,331411581,0.0,0.27,0.0,-0.29,205.87,205.88,0.0,0.05,0
331.51163200,331511632,0.0,0.27,0.0,-0.29,205.86,205.87,0.0,0.05,0
331.61159000,331611590,0.0,0.27,0.0,-0.29,205.89000000000001,205.9,0.0,0.05,0
331.71162600,331711626,0.0,0.27,0.0,-0.29,205.92000000000002,205.93,0.0,0.05,0
331.81169000,331811690,0.0,0.27,0.0,-0.29,205.88,205.89000000000001,0.0,0.05,0
331.91158600,331911586,0.0,0.27,0.0,-0.29,205.87,205.88,0.0,0.04,0
332.01156900,332011569,0.0,0.27,0.0,-0.29,205.84,205.85,0.0,0.04,0
332.11158800,332111588,0.0,0.27,0.0,-0.29,205.89000000000001,205.9,0.0,0.05,0
332.21163500,332211635,0.0,0.27,0.0,-0.29,205.88,205.89000000000001,0.0,0.04,0
332.31161100,332311611,0.0,0.27,0.0,-0.29,205.88,205.89000000000001,0.0,0.03,0
332.41156400,332411564,0.0,0.27,0.0,-0.29,205.86,205.87,0.0,0.03,0
332.51175800,332511758,0.0,0.26,0.0,-0.28,205.85,205.86,0.0,0.03,0
332.61156500,332611565,0.0,0.26,0.0,-0.28,205.79,205.8,0.0,0.04,0
332.71156100,332711561,0.0,0.27,0.0,-0.28,205.79,205.8,0.0,0.03,0
332.81158800,332811588,0.0,0.26,0.0,-0.28,205.78,205.79,0.0,0.03,0
332.91156200,332911562,0.0,0.27,0.0,-0.28,205.8,205.81,0.0,0.03,0
333.01167500,333011675,0.0,0.27,0.0,-0.28,205.8,205.81,0.0,0.02,0
333.11157600,333111576,0.0,0.27,0.0,-0.28,205.78,205.79,0.0,0.02,0
333.21158700,333211587,0.0,0.27,0.0,-0.28,205.79,205.8,0.0,0.02,0
333.31160400,333311604,0.0,0.27,0.0,-0.28,205.81,205.82,0.0,0.02,0
333.41163100,333411631,0.0,0.27,0.0,-0.28,205.81,205.82,0.0,0.02,0
333.51171100,333511711,0.0,0.26,0.0,-0.28,205.77,205.78,0.0,0.03,0
333.61158200,333611582,0.0,0.27,0.0,-0.28,205.77,205.78,0.0,0.02,0
333.71158800,333711588,0.0,0.27,0.0,-0.28,205.72,205.73000000000002,0.0,0.03,0
333.81156800,333811568,0.0,0.27,0.0,-0.28,205.73000000000002,205.74,0.0,0.03,0
333.91160300,333911603,0.0,0.27,0.0,-0.28,205.67000000000002,205.68,0.0,0.05,0
334.01161200,334011612,0.0,0.27,0.0,-0.28,205.66,205.67000000000002,0.0,0.04,0
334.11158100,334111581,0.0,0.27,0.0,-0.28,205.63,205.64000000000001,0.0,0.04,0
334.21154700,334211547,0.0,0.27,0.0,-0.28,205.65,205.66,0.0,0.04,0
334.31159200,334311592,0.0,0.27,0.0,-0.28,205.67000000000002,205.68,0.0,0.03,0
334.41158400,334411584,0.0,0.27,0.0,-0.28,205.74,205.75,0.0,0.05,0
334.51168300,334511683,0.0,0.27,0.0,-0.29,205.70000000000002,205.71,0.0,0.05,0
334.61156900,334611569,0.0,0.28,0.0,-0.29,205.70000000000002,205.71,0.0,0.04,0
334.71156300,334711563,0.0,0.27,0.0,-0.29,205.78,205.79,0.0,0.06,0
334.81160800,334811608,0.0,0.28,0.0,-0.28,205.69,205.70000000000002,0.0,0.07,0
334.91161400,334911614,0.0,0.28,0.0,-0.28,205.70000000000002,205.71,0.0,0.06,0
335.01157400,335011574,0.0,0.28,0.0,-0.29,205.70000000000002,205.71,0.0,0.05,0
335.11160100,335111601,0.0,0.28,0.0,-0.29,205.73000000000002,205.74,0.0,0.05,0
335.21161300,335211613,0.0,0.28,0.0,-0.29,205.8,205.81,0.0,0.06,0
335.31162700,335311627,0.0,0.28,0.0,-0.29,205.9,205.91,0.0,0.08,0
335.41164900,335411649,0.0,0.28,0.0,-0.29,205.98000000000002,205.99,0.0,0.09,0
335.51172900,335511729,0.0,0.28,0.0,-0.29,205.99,206.0,0.0,0.07,0
335.61156700,335611567,0.0,0.28,0.0,-0.29,206.0,206.01,0.0,0.06,0
335.71158800,335711588,0.0,0.28,0.0,-0.29,205.98000000000002,205.99,0.0,0.06,0
335.81154900,335811549,0.0,0.28,0.0,-0.29,205.99,206.0,0.0,0.05,0
335.91160800,335911608,0.0,0.28,0.0,-0.3,206.05,206.06,0.0,0.06,0
336.01154700,336011547,0.0,0.28,0.0,-0.29,206.07,206.08,0.0,0.05,0
336.11156700,336111567,0.0,0.28,0.0,-0.29,206.09,206.1,0.0,0.05,0
336.21158500,336211585,0.0,0.28,0.0,-0.3,206.15,206.16,0.0,0.06,0
336.31158000,336311580,0.0,0.28,0.0,-0.29,206.15,206.16,0.0,0.05,0
336.41161100,336411611,0.0,0.28,0.0,-0.29,206.23000000000002,206.24,0.0,0.07,0
336.51178800,336511788,0.0,0.28,0.0,-0.3,206.24,206.25,0.0,0.05,0
336.61157700,336611577,0.0,0.28,0.0,-0.3,206.24,206.25,0.0,0.04,0
336.71155000,336711550,0.0,0.29,0.0,-0.3,206.08,206.09,0.0,0.08,0
336.81160700,336811607,0.0,0.29,0.0,-0.3,206.14000000000001,206.15,0.0,0.08,0
336.91164100,336911641,0.0,0.28,0.0,-0.3,206.15,206.16,0.0,0.07,0
337.01160300,337011603,0.0,0.29,0.0,-0.29,206.21,206.22,0.0,0.07,0
337.11155900,337111559,0.0,0.28,0.0,-0.31,206.22,206.23000000000002,0.0,0.06,0
337.21160100,337211601,0.0,0.25,0.0,-0.3,206.23000000000002,206.24,0.0,0.05,0
337.31156100,337311561,0.0,0.3,0.0,-0.31,206.26,206.27,0.0,0.05,0
337.41158500,337411585,0.0,0.32,0.0,-0.32,206.28,206.29,0.0,0.05,0
337.51169800,337511698,0.0,0.27,0.0,-0.31,206.36,206.37,0.0,0.06,0
337.61156900,337611569,0.0,0.25,0.0,-0.29,206.37,206.38,0.0,0.05,0
337.71159800,337711598,0.0,0.29,0.0,-0.3,206.37,206.38,0.0,0.04,0
337.81155600,337811556,0.0,0.29,0.0,-0.3,206.39000000000001,206.4,0.0,0.04,0
337.91161300,337911613,0.0,0.26,0.0,-0.3,206.39000000000001,206.4,0.0,0.03,0
338.01162600,338011626,0.0,0.28,0.0,-0.3,206.45000000000002,206.46,0.0,0.04,0
338.11170200,338111702,0.0,0.29,0.0,-0.3,206.47,206.48000000000002,0.0,0.04,0
338.21156700,338211567,0.0,0.27,0.0,-0.3,206.39000000000001,206.4,0.0,0.05,0
338.31157700,338311577,0.0,0.28,0.0,-0.31,206.43,206.44,0.0,0.04,0
338.41166700,338411667,0.0,0.29,0.0,-0.3,206.5,206.51,0.0,0.06,0
338.51171100,338511711,0.0,0.28,0.0,-0.31,206.46,206.47,0.0,0.05,0
338.61160800,338611608,0.0,0.29,0.0,-0.32,206.45000000000002,206.46,0.0,0.05,0
338.71155300,338711553,0.0,0.29,0.0,-0.31,206.41,206.42000000000002,0.0,0.05,0
338.81162700,338811627,0.0,0.28,0.0,-0.31,206.42000000000002,206.43,0.0,0.04,0
338.91155200,338911552,0.0,0.29,0.0,-0.31,206.41,206.42000000000002,0.0,0.04,0
339.01157600,339011576,0.0,0.29,0.0,-0.3,206.4,206.41,0.0,0.03,0
339.11157700,339111577,0.0,0.27,0.0,-0.31,206.49,206.5,0.0,0.06,0
339.21155000,339211550,0.0,0.27,0.0,-0.31,206.54,206.55,0.0,0.06,0
339.31163200,339311632,0.0,0.28,0.0,-0.3,206.57,206.58,0.0,0.05,0
339.41159400,339411594,0.0,0.28,0.0,-0.31,206.61,206.62,0.0,0.06,0
339.51176300,339511763,0.0,0.28,0.0,-0.3,206.55,206.56,0.0,0.07,0
339.61162500,339611625,0.0,0.29,0.0,-0.3,206.55,206.56,0.0,0.05,0
339.71166100,339711661,0.0,0.28,0.0,-0.3,206.52,206.53,0.0,0.05,0
339.81157500,339811575,0.0,0.27,0.0,-0.3,206.56,206.57,0.0,0.05,0
339.91158600,339911586,0.0,0.28,0.0,-0.3,206.57,206.58,0.0,0.04,0
340.01160100,340011601,0.0,0.28,0.0,-0.3,206.54,206.55,0.0,0.04,0
340.11158700,340111587,0.0,0.27,0.0,-0.3,206.61,206.62,0.0,0.06,0
340.21159800,340211598,0.0,0.27,0.0,-0.31,206.70000000000002,206.71,0.0,0.07,0
340.31157100,340311571,0.0,0.29,0.0,-0.3,206.74,206.75,0.0,0.08,0
340.41164000,340411640,0.0,0.29,0.0,-0.28,206.74,206.75,0.0,0.06,0
340.51162400,340511624,0.0,0.27,0.0,-0.3,206.75,206.76,0.0,0.05,0
340.61159500,340611595,0.0,0.27,0.0,-0.29,206.74,206.75,0.0,0.04,0
340.71158300,340711583,0.0,0.29,0.0,-0.29,206.76,206.77,0.0,0.04,0
340.81160100,340811601,0.0,0.27,0.0,-0.3,206.78,206.79,0.0,0.04,0
340.91158700,340911587,0.0,0.27,0.0,-0.29,206.75,206.76,0.0,0.04,0
341.01159100,341011591,0.0,0.29,0.0,-0.3,206.78,206.79,0.0,0.04,0
341.11163300,341111633,0.0,0.28,0.0,-0.3,206.75,206.76,0.0,0.04,0
341.21153800,341211538,0.0,0.27,0.0,-0.29,206.70000000000002,206.71,0.0,0.05,0
341.31164200,341311642,0.0,0.28,0.0,-0.29,206.72,206.73000000000002,0.0,0.05,0
341.41158100,341411581,0.0,0.28,0.0,-0.29,206.70000000000002,206.71,0.0,0.04,0
341.51179700,341511797,0.0,0.27,0.0,-0.29,206.74,206.75,0.0,0.04,0
341.61154300,341611543,0.0,0.28,0.0,-0.3,206.78,206.79,0.0,0.04,0
341.71159100,341711591,0.0,0.28,0.0,-0.29,206.82,206.83,0.0,0.05,0
341.81156400,341811564,0.0,0.28,0.0,-0.3,206.85,206.86,0.0,0.05,0
341.91157500,341911575,0.0,0.28,0.0,-0.3,206.86,206.87,0.0,0.04,0
342.01159800,342011598,0.0,0.29,0.0,-0.29,206.85,206.86,0.0,0.03,0
342.11154400,342111544,0.0,0.28,0.0,-0.29,206.88,206.89000000000001,0.0,0.04,0
342.21159600,342211596,0.0,0.28,0.0,-0.29,206.81,206.82,0.0,0.05,0
342.31155900,342311559,0.0,0.29,0.0,-0.29,206.86,206.87,0.0,0.05,0
342.41156800,342411568,0.0,0.28,0.0,-0.29,206.87,206.88,0.0,0.04,0
342.51168000,342511680,0.0,0.28,0.0,-0.29,206.9,206.91,0.0,0.04,0
342.61160100,342611601,0.0,0.29,0.0,-0.29,206.93,206.94,0.0,0.04,0
342.71163400,342711634,0.0,0.28,0.0,-0.29,206.92000000000002,206.93,0.0,0.04,0
342.81163100,342811631,0.0,0.28,0.0,-0.29,206.94,206.95000000000002,0.0,0.03,0
