timestamp,TimeUS,DesRoll,Roll,DesPitch,Pitch,DesYaw,Yaw,ErrRP,ErrYaw,AEKF
1682370824.19936299,160492299,0.0,0.53,0.0,1.93,342.56,342.57,0.0,0.0,3
1682370824.29960394,160592540,0.0,0.53,0.0,1.93,342.56,342.57,0.0,0.01,3
1682370824.39952898,160692465,0.0,0.53,0.0,1.93,342.56,342.58,0.0,0.01,3
1682370824.49954200,160792478,0.0,0.53,0.0,1.92,342.56,342.57,0.0,0.0,3
1682370824.59962702,160892563,0.0,0.53,0.0,1.92,342.56,342.57,0.0,0.0,3
1682370824.69956899,160992505,0.0,0.53,0.0,1.92,342.56,342.57,0.0,0.01,3
1682370824.79985189,161092788,0.0,0.53,0.0,1.92,342.56,342.57,0.0,0.0,3
1682370824.89945388,161192390,0.0,0.53,0.0,1.9100000000000001,342.56,342.57,0.01,0.01,3
1682370824.99944186,161292378,0.0,0.53,0.0,1.92,342.56,342.57,0.01,0.01,3
1682370825.09949088,161392427,0.0,0.53,0.0,1.9100000000000001,342.56,342.57,0.01,0.0,3
1682370825.19935584,161492292,0.0,0.53,0.0,1.9100000000000001,342.56,342.57,0.01,0.0,3
1682370825.29926801,161592204,0.0,0.53,0.0,1.9100000000000001,342.56,342.58,0.01,0.0,3
1682370825.39935398,161692290,0.0,0.53,0.0,1.92,342.56,342.58,0.01,0.0,3
1682370825.49934602,161792282,0.0,0.53,0.0,1.92,342.56,342.58,0.0,0.01,3
1682370825.59956384,161892500,0.0,0.53,0.0,1.92,342.56,342.58,0.0,0.01,3
1682370825.69969392,161992630,0.0,0.52,0.0,1.93,342.56,342.58,0.0,0.01,3
1682370825.79953885,162092475,0.0,0.53,0.0,1.92,342.56,342.58,0.0,0.0,3
1682370825.89942884,162192365,0.0,0.53,0.0,1.93,342.56,342.57,0.0,0.0,3
1682370825.99933791,162292274,0.0,0.53,0.0,1.92,342.56,342.57,0.0,0.0,3
1682370826.09949303,162392429,0.0,0.52,0.0,1.92,342.56,342.57,0.0,0.0,3
1682370826.19932294,162492259,0.0,0.52,0.0,1.92,342.55,342.56,0.0,0.0,3
1682370826.29933691,162592273,0.0,0.52,0.0,1.92,342.55,342.56,0.0,0.0,3
1682370826.39958596,162692522,0.0,0.52,0.0,1.93,342.56,342.57,0.0,0.0,3
1682370826.49945092,162792387,0.0,0.52,0.0,1.93,342.56,342.57,0.0,0.01,3
1682370826.59961700,162892553,0.0,0.52,0.0,1.93,342.56,342.57,0.0,0.0,3
1682370826.69961786,162992554,0.0,0.52,0.0,1.93,342.56,342.58,0.0,0.0,3
1682370826.79960895,163092545,0.0,0.52,0.0,1.93,342.56,342.58,0.0,0.01,3
1682370826.89959502,163192531,0.0,0.52,0.0,1.93,342.56,342.58,0.0,0.0,3
1682370826.99982500,163292761,0.0,0.52,0.0,1.92,342.56,342.57,0.0,0.0,3
1682370827.09938383,163392320,0.0,0.51,0.0,1.92,342.56,342.58,0.0,0.0,3
1682370827.19934297,163492279,0.0,0.52,0.0,1.92,342.56,342.59000000000003,0.0,0.01,3
1682370827.29954600,163592482,0.0,0.52,0.0,1.92,342.56,342.62,0.0,0.01,3
1682370827.39965701,163692593,0.0,0.52,0.0,1.93,342.56,342.57,0.0,0.0,3
1682370827.49967480,163792611,0.0,0.53,0.0,1.94,342.56,342.62,0.0,0.0,3
1682370827.59979391,163892730,0.0,0.51,0.0,1.96,342.56,342.58,0.0,0.01,3
1682370827.69968700,163992623,-0.01,0.59,-0.03,2.12,342.56,342.56,0.0,0.01,3
1682370827.79967189,164092608,-0.2,0.55,-0.77,2.5,342.57,342.55,0.0,0.01,3
1682370827.90000081,164192937,-0.8,0.8300000000000001,-1.47,0.64,342.57,342.49,0.0,0.04,3
1682370827.99962783,164292564,-1.3,0.99,-1.34,-2.27,342.57,342.26,0.0,0.04,3
1682370828.09985089,164392787,-1.4000000000000001,0.05,-1.35,-2.79,342.57,341.97,0.0,0.04,3
1682370828.19961691,164492553,-1.5,-1.11,-1.2,-1.55,342.56,341.72,0.0,0.05,3
1682370828.29970598,164592642,-1.57,-1.49,-0.85,-0.77,342.56,341.49,0.01,0.04,3
1682370828.39975691,164692693,-1.44,-1.28,-0.76,-0.49,342.55,341.33,0.01,0.03,3
1682370828.49970889,164792645,-1.21,-1.21,-0.72,-0.64,342.55,341.24,0.03,0.03,3
1682370828.60002685,164892963,-1.12,-0.88,-0.74,-0.74,342.55,341.23,0.03,0.02,3
1682370828.69935298,164992289,-1.1,-0.8200000000000001,-0.7000000000000001,-0.7000000000000001,342.55,341.32,0.03,0.02,3
1682370828.79946280,165092399,-1.08,-0.98,-0.5700000000000001,-0.49,342.55,341.43,0.03,0.02,3
1682370828.89933896,165192275,-1.17,-1.04,-0.44,-0.28,342.55,341.58,0.03,0.02,3
1682370828.99953794,165292474,-1.25,-1.19,-0.29,-0.19,342.54,341.72,0.03,0.02,3
1682370829.09946489,165392401,-1.18,-1.1300000000000001,-0.3,-0.06,342.54,341.83,0.04,0.02,3
1682370829.19946694,165492403,-1.12,-0.93,-0.34,-0.01,342.54,341.88,0.04,0.02,3
1682370829.29950094,165592437,-1.03,-0.97,-0.36,0.02,342.54,341.89,0.05,0.02,3
1682370829.39951086,165692447,-1.05,-0.97,-0.38,0.03,342.54,341.84000000000003,0.05,0.02,3
1682370829.49967694,165792613,-1.1,-1.21,-0.37,-0.12,342.54,341.83,0.04,0.02,3
1682370829.59959292,165892529,-1.09,-1.22,-0.41000000000000003,-0.17,342.55,341.72,0.04,0.02,3
1682370829.69946194,165992398,-0.98,-1.18,-0.53,-0.12,342.55,341.6,0.05,0.02,3
1682370829.79933691,166092273,-0.85,-0.85,-0.62,-0.32,342.55,341.45,0.05,0.02,3
1682370829.89935303,166192289,-0.79,-0.59,-0.71,-0.4,342.55,341.36,0.05,0.02,3
1682370829.99941587,166292352,-0.75,-0.61,-0.75,-0.6,342.55,341.16,0.05,0.02,3
1682370830.09950399,166392440,-0.78,-0.54,-0.72,-0.6900000000000001,342.55,341.06,0.04,0.02,3
1682370830.19969583,166492632,-0.86,-0.47000000000000003,-0.61,-0.62,342.55,340.92,0.04,0.02,3
1682370830.29948783,166592424,-0.87,-0.65,-0.62,-0.5700000000000001,342.55,340.82,0.05,0.02,3
1682370830.39950490,166692441,-0.89,-0.7000000000000001,-0.62,-0.63,342.55,340.72,0.05,0.02,3
1682370830.49961901,166792555,-0.78,-0.63,-0.5700000000000001,-0.73,342.55,340.69,0.06,0.02,3
1682370830.59975982,166892696,-0.49,-0.42,-0.5,-0.65,341.78000000000003,339.89,0.06,0.02,3
1682370830.69957495,166992511,-0.46,-0.29,-0.43,-0.59,341.78000000000003,339.79,0.06,0.02,3
1682370830.79995894,167092895,-0.4,-0.31,-0.38,-0.59,341.78000000000003,339.68,0.06,0.02,3
1682370830.89961195,167192548,-0.45,-0.33,-0.36,-0.51,341.78000000000003,339.62,0.05,0.02,3
1682370830.99970603,167292642,-0.53,-0.3,-0.33,-0.5,341.78000000000003,339.77,0.05,0.02,3
1682370831.09979486,167392731,-0.58,-0.36,-0.25,-0.4,341.78000000000003,339.84000000000003,0.05,0.03,3
1682370831.19970202,167492638,-0.76,-0.48,-0.14,-0.31,341.78000000000003,339.92,0.05,0.03,3
1682370831.29967880,167592615,-0.77,-0.53,-0.15,-0.05,341.78000000000003,339.95,0.04,0.03,3
1682370831.39970493,167692641,-0.8,-0.8,-0.15,0.05,341.78000000000003,340.06,0.04,0.03,3
1682370831.49969888,167792635,-0.79,-0.85,-0.15,0.09,341.78000000000003,340.04,0.04,0.02,3
1682370831.59979987,167892736,-0.72,-0.86,-0.16,0.1,341.78000000000003,340.0,0.04,0.02,3
1682370831.69999480,167992931,-0.66,-0.65,-0.08,0.14,341.77,339.85,0.04,0.02,3
1682370831.79963398,168092570,-0.59,-0.73,0.02,0.16,341.77,339.63,0.04,0.01,3
1682370831.89964390,168192580,-0.52,-0.68,-0.06,0.31,341.77,339.63,0.05,0.01,3
1682370831.99969602,168292632,-0.45,-0.6,-0.15,0.04,341.77,339.69,0.05,0.01,3
1682370832.09961295,168392549,-0.32,-0.53,-0.27,-0.21,341.78000000000003,339.79,0.05,0.01,3
1682370832.19950700,168492443,-0.23,-0.35000000000000003,-0.37,-0.37,341.78000000000003,339.98,0.05,0.01,3
1682370832.29934788,168592284,-0.12,-0.15,-0.37,-0.45,341.78000000000003,340.17,0.04,0.01,3
1682370832.39946795,168692404,-0.03,-0.07,-0.41000000000000003,-0.44,341.78000000000003,340.42,0.04,0.01,3
1682370832.49933982,168792276,0.09,0.24,-0.33,-0.38,341.78000000000003,340.73,0.04,0.02,3
1682370832.59955788,168892494,0.18,0.42,-0.29,-0.29,341.78000000000003,341.07,0.04,0.01,3
1682370832.69936895,168992305,0.2,0.37,-0.4,-0.22,341.78000000000003,341.41,0.04,0.01,3
1682370832.79947996,169092416,0.24,0.13,-0.54,-0.37,341.78000000000003,341.76,0.04,0.02,3
1682370832.89969397,169192630,0.17,0.07,-0.84,-0.43,341.77,342.12,0.03,0.02,3
1682370832.99948788,169292424,0.14,-0.05,-1.09,-0.74,341.77,342.40000000000003,0.03,0.02,3
1682370833.09953284,169392469,0.22,0.0,-1.3,-0.9500000000000001,341.77,342.76,0.03,0.02,3
1682370833.19936395,169492300,0.33,0.18,-1.49,-1.06,341.77,343.11,0.03,0.02,3
1682370833.29941893,169592355,0.37,0.24,-1.57,-1.25,341.77,343.47,0.03,0.02,3
1682370833.39935780,169692294,0.33,0.35000000000000003,-1.6500000000000001,-1.32,341.77,343.75,0.03,0.02,3
1682370833.49942088,169792357,0.19,0.23,-1.58,-1.37,341.77,343.90000000000003,0.04,0.01,3
1682370833.59950686,169892443,0.0,0.04,-1.47,-1.35,341.77,343.94,0.04,0.02,3
1682370833.69963098,169992567,-0.15,-0.44,-1.56,-1.1400000000000001,341.77,344.06,0.05,0.02,3
1682370833.79971790,170092654,-0.25,-0.67,-1.7,-1.29,341.77,344.19,0.05,0.02,3
1682370833.89964581,170192582,-0.31,-0.8300000000000001,-1.77,-1.49,341.77,344.3,0.05,0.01,3
1682370833.99959493,170292531,-0.3,-0.8,-1.87,-1.62,341.77,344.33,0.05,0.01,3
1682370834.09967589,170392612,-0.27,-0.62,-1.85,-1.71,341.77,344.28000000000003,0.04,0.01,3
1682370834.19975185,170492688,-0.2,-0.48,-1.81,-1.83,341.77,344.17,0.04,0.01,3
1682370834.29956293,170592499,-0.23,-0.18,-1.9100000000000001,-1.74,341.77,343.97,0.04,0.01,3
1682370834.39968896,170692625,-0.3,-0.33,-2.05,-1.94,341.78000000000003,343.71,0.04,0.02,3
1682370834.49951792,170792454,-0.59,-0.38,-1.77,-2.1,341.78000000000003,343.43,0.03,0.01,3
1682370834.59974790,170892684,-0.78,-0.7000000000000001,-1.3,-1.4000000000000001,341.78000000000003,343.12,0.03,0.02,3
1682370834.69967699,170992613,-0.9400000000000001,-0.97,-0.51,-0.72,341.55,342.82,0.03,0.01,3
1682370834.79964495,171092581,-1.06,-1.1300000000000001,0.26,0.24,340.48,342.44,0.03,0.01,3
1682370834.89966297,171192599,-1.16,-1.22,0.9500000000000001,1.2,338.52,341.85,0.02,0.01,3
1682370834.99948096,171292417,-1.34,-1.28,1.5,1.96,335.69,340.91,0.02,0.01,3
1682370835.09978485,171392721,-1.57,-1.45,1.79,2.45,331.98,339.53000000000003,0.02,0.01,3
1682370835.19969296,171492629,-1.8,-1.67,1.8800000000000001,2.46,327.39,337.66,0.02,0.01,3
1682370835.29972291,171592659,-1.92,-1.56,1.71,2.09,321.93,335.21,0.02,0.01,3
1682370835.39961696,171692553,-1.92,-1.85,1.43,1.77,315.94,332.24,0.02,0.01,3
1682370835.49970102,171792637,-1.8,-1.78,1.09,1.35,309.95,328.76,0.02,0.01,3
1682370835.59986091,171892797,-1.51,-1.41,0.72,1.1400000000000001,303.95,324.83,0.02,0.01,3
1682370835.69969487,171992631,-1.1,-1.12,0.42,0.75,297.96,320.69,0.02,0.01,3
1682370835.79965997,172092596,-0.63,-0.89,0.2,0.33,291.96,316.32,0.02,0.02,3
1682370835.89946389,172192400,-0.14,-0.46,0.05,-0.03,285.96,311.88,0.02,0.03,3
1682370835.99946594,172292402,0.34,0.11,0.05,-0.37,280.75,307.35,0.02,0.05,3
1682370836.09946084,172392397,0.65,0.5,0.19,-0.32,276.31,302.95,0.02,0.06,3
1682370836.19948196,172492418,0.84,0.71,0.46,-0.21,271.69,298.34000000000003,0.02,0.08,3
1682370836.29944086,172592377,0.84,0.75,0.6900000000000001,0.13,266.92,293.62,0.02,0.1,3
1682370836.39951587,172692452,0.76,1.02,0.93,0.39,261.87,288.59000000000003,0.02,0.12,3
1682370836.49954987,172792486,0.71,0.74,1.1300000000000001,0.5,256.56,283.25,0.02,0.14,3
1682370836.59965682,172892593,0.63,0.74,1.31,0.63,250.86,277.51,0.02,0.16,3
1682370836.69967294,172992609,0.6,0.64,1.49,0.56,244.91,271.5,0.02,0.19,3
1682370836.79968381,173092620,0.56,0.7000000000000001,1.69,0.66,238.9,265.11,0.02,0.22,3
1682370836.89973497,173192671,0.5,0.58,1.8900000000000001,0.8200000000000001,232.9,258.32,0.01,0.24,3
1682370836.99969292,173292629,0.38,0.68,2.12,0.9,226.9,251.13,0.01,0.27,3
1682370837.09951591,173392452,0.26,0.49,2.35,1.01,220.9,243.57,0.02,0.31,3
1682370837.19941282,173492349,0.06,0.39,2.57,1.17,214.89000000000001,235.76,0.02,0.34,3
1682370837.29950595,173592442,-0.07,0.23,2.7800000000000002,1.36,208.89000000000001,227.66,0.01,0.38,3
1682370837.39953279,173692469,-0.25,0.01,2.96,1.51,202.88,219.3,0.01,0.41000000000000003,3
1682370837.49950480,173792441,-0.39,-0.14,3.13,1.74,196.87,210.89000000000001,0.02,0.44,3
1682370837.59978080,173892717,-0.49,-0.35000000000000003,3.29,2.06,190.86,202.39000000000001,0.02,0.48,3
1682370837.69966698,173992603,-0.63,-0.27,3.46,2.19,184.85,193.86,0.02,0.52,3
1682370837.79973793,174092674,-0.75,-0.32,3.56,2.47,179.36,185.33,0.02,0.55,3
1682370837.89934683,174192283,-0.9,-0.33,3.72,2.57,174.75,176.97,0.03,0.5700000000000001,3
1682370837.99997783,174292914,-1.02,-0.51,3.9,2.68,171.03,169.0,0.03,0.6,3
1682370838.09965181,174392588,-1.03,-0.33,3.9,2.83,168.18,161.5,0.03,0.63,3
1682370838.19959188,174492528,-1.01,-0.75,3.89,2.79,166.22,154.79,0.03,0.65,3
1682370838.29965186,174592588,-0.9500000000000001,-0.61,3.7800000000000002,2.91,165.13,148.72,0.04,0.67,3
1682370838.39976001,174692696,-0.81,-0.86,3.72,2.93,164.6,143.5,0.04,0.68,3
1682370838.49962997,174792566,-0.86,-0.8300000000000001,3.6,2.99,164.32,138.96,0.04,0.6900000000000001,3
1682370838.59974003,174892676,-1.08,-1.08,3.35,2.7,161.83,135.03,0.04,0.7000000000000001,3
1682370838.69984984,174992786,-1.28,-1.09,3.0300000000000002,2.21,158.48,131.64000000000001,0.05,0.71,3
1682370838.79937983,175092316,-1.4000000000000001,-1.06,2.7800000000000002,1.8800000000000001,155.67000000000002,128.87,0.05,0.71,3
1682370838.89983797,175192774,-1.3800000000000001,-1.12,2.57,1.69,153.44,126.66,0.05,0.72,3
1682370838.99998093,175292917,-1.26,-0.99,2.37,1.92,151.87,125.07000000000001,0.05,0.73,3
1682370839.09976387,175392700,-1.12,-0.9500000000000001,2.22,1.96,150.98,124.18,0.05,0.72,3
1682370839.19974494,175492681,-0.78,-1.0,1.85,1.98,150.53,123.73,0.05,0.72,3
1682370839.29969287,175592629,-0.58,-0.55,1.6300000000000001,1.81,150.55,123.75,0.05,0.71,3
1682370839.39969587,175692632,-0.19,-0.38,1.42,1.67,150.83,124.06,0.05,0.7000000000000001,3
1682370839.49966598,175792602,-0.18,-0.02,1.17,1.77,151.62,124.85000000000001,0.04,0.7000000000000001,3
1682370839.59984803,175892784,0.07,0.14,1.11,1.22,152.67000000000002,125.92,0.04,0.68,3
1682370839.69934893,175992285,0.15,0.36,0.72,1.29,154.16,127.44,0.04,0.68,3
1682370839.79946089,176092397,0.1,0.64,0.76,0.75,156.12,129.42000000000002,0.04,0.67,3
1682370839.89939880,176192335,0.36,0.45,0.42,0.67,158.29,131.62,0.04,0.66,3
1682370839.99956989,176292506,0.17,0.64,0.33,0.73,160.59,134.04,0.04,0.65,3
1682370840.09957480,176392511,0.39,0.73,0.33,0.43,162.25,136.64000000000001,0.04,0.65,3
1682370840.19950891,176492445,0.27,0.65,0.21,0.76,163.14000000000001,138.87,0.04,0.65,3
1682370840.29949284,176592429,0.19,0.62,0.47000000000000003,0.32,163.59,141.09,0.05,0.64,3
1682370840.39947796,176692414,0.24,0.14,0.5,0.36,163.82,143.27,0.05,0.64,3
1682370840.49957800,176792514,0.0,-0.2,0.87,0.42,163.94,145.41,0.05,0.64,3
1682370840.59955287,176892489,-0.06,-0.5700000000000001,1.27,0.54,164.0,147.56,0.05,0.63,3
1682370840.69974303,176992679,-0.1,-0.93,1.3900000000000001,1.03,164.02,149.64000000000001,0.05,0.63,3
1682370840.79962301,177092559,-0.14,-0.68,1.55,1.09,164.04,151.75,0.05,0.62,3
1682370840.89946294,177192399,0.03,-0.8200000000000001,1.49,1.18,164.05,153.8,0.05,0.61,3
1682370840.99961901,177292555,0.11,-0.54,1.41,1.27,164.06,155.78,0.05,0.61,3
1682370841.09957480,177392511,0.18,-0.18,1.37,1.19,164.06,157.66,0.04,0.6,3
1682370841.19948983,177492426,0.23,-0.31,1.29,1.12,164.06,159.49,0.04,0.59,3
1682370841.29945803,177592394,0.24,-0.16,1.29,0.98,164.06,161.15,0.04,0.58,3
1682370841.39948201,177692418,0.27,-0.09,1.32,1.06,164.06,162.69,0.04,0.58,3
1682370841.49934602,177792282,0.22,0.03,1.32,1.17,164.06,164.03,0.04,0.5700000000000001,3
1682370841.59995985,177892896,0.15,-0.05,1.3,1.22,164.06,165.22,0.04,0.56,3
1682370841.69962502,177992561,0.09,-0.23,1.23,1.19,164.06,166.18,0.03,0.56,3
1682370841.79962087,178092557,0.04,-0.25,1.19,1.06,164.06,166.94,0.03,0.55,3
1682370841.89966083,178192597,0.04,-0.32,1.18,0.91,164.06,167.46,0.03,0.55,3
1682370841.99967384,178292610,0.0,-0.29,1.17,1.07,164.06,167.81,0.03,0.54,3
1682370842.09967780,178392614,-0.04,-0.38,1.23,1.1300000000000001,164.06,167.96,0.03,0.53,3
1682370842.19964290,178492579,-0.04,-0.34,1.29,1.21,164.06,167.99,0.03,0.53,3
1682370842.29966092,178592597,-0.12,-0.35000000000000003,1.32,1.31,164.06,167.89000000000001,0.02,0.53,3
1682370842.39960599,178692542,-0.2,-0.4,1.34,1.36,164.06,167.67000000000002,0.02,0.52,3
1682370842.49996090,178792897,-0.2,-0.51,1.32,1.3,164.06,167.37,0.03,0.51,3
1682370842.59962082,178892557,-0.19,-0.39,1.29,1.27,164.06,166.98,0.03,0.51,3
1682370842.69969487,178992631,-0.16,-0.41000000000000003,1.31,1.21,164.06,166.54,0.02,0.51,3
1682370842.79971695,179092653,-0.1,-0.36,1.32,1.31,164.06,166.07,0.02,0.51,3
1682370842.89969897,179192635,-0.13,-0.31,1.4000000000000001,1.28,164.06,165.58,0.02,0.5,3
1682370842.99970388,179292640,-0.14,-0.38,1.48,1.33,164.06,165.05,0.02,0.5,3
1682370843.09972501,179392661,-0.21,-0.37,1.54,1.52,164.06,164.58,0.02,0.49,3
1682370843.19972682,179492663,-0.26,-0.39,1.61,1.62,164.05,164.1,0.02,0.49,3
1682370843.29962587,179592562,-0.25,-0.41000000000000003,1.6,1.68,164.05,163.65,0.02,0.48,3
1682370843.40009284,179693029,-0.28,-0.26,1.6,1.61,164.05,163.26,0.02,0.49,3
1682370843.49959397,179792530,-0.33,-0.28,1.62,1.61,164.05,162.93,0.02,0.49,3
1682370843.59981489,179892751,-0.39,-0.2,1.67,1.6500000000000001,164.05,162.69,0.02,0.48,3
1682370843.69971180,179992648,-0.5,-0.45,1.7,1.78,164.05,162.44,0.02,0.48,3
1682370843.79952288,180092459,-0.53,-0.53,1.71,1.78,164.05,162.27,0.02,0.47000000000000003,3
1682370843.89949203,180192428,-0.63,-0.63,1.62,1.73,164.05,162.19,0.02,0.47000000000000003,3
1682370843.99949098,180292427,-0.62,-0.71,1.54,1.58,164.05,162.09,0.02,0.47000000000000003,3
1682370844.09961700,180392553,-0.61,-0.8300000000000001,1.44,1.45,164.05,162.1,0.02,0.47000000000000003,3
1682370844.19935083,180492287,-0.6,-0.68,1.35,1.33,164.05,162.1,0.02,0.46,3
1682370844.29973698,180592673,-0.52,-0.53,1.33,1.1500000000000001,164.05,162.17000000000002,0.02,0.46,3
1682370844.39966393,180692600,-0.56,-0.48,1.29,1.1400000000000001,164.05,162.22,0.02,0.46,3
1682370844.49946189,180792398,-0.54,-0.61,1.36,1.1300000000000001,164.05,162.35,0.02,0.45,3
1682370844.59963393,180892570,-0.51,-0.42,1.3900000000000001,1.34,164.05,162.48,0.02,0.45,3
1682370844.69956183,180992498,-0.5,-0.44,1.43,1.42,164.05,162.64000000000001,0.02,0.44,3
1682370844.79950380,181092440,-0.46,-0.5,1.44,1.47,164.05,162.81,0.02,0.44,3
1682370844.89936781,181192304,-0.46,-0.53,1.43,1.54,164.05,162.97,0.02,0.44,3
1682370844.99975586,181292692,-0.43,-0.53,1.44,1.48,164.05,163.17000000000002,0.02,0.44,3
1682370845.09943199,181392368,-0.39,-0.49,1.43,1.49,164.05,163.28,0.02,0.43,3
1682370845.19968200,181492618,-0.37,-0.35000000000000003,1.41,1.3900000000000001,164.05,163.39000000000001,0.02,0.42,3
1682370845.29949784,181592434,-0.31,-0.26,1.41,1.34,164.05,163.47,0.02,0.42,3
1682370845.39962482,181692561,-0.24,-0.39,1.3800000000000001,1.34,164.06,163.53,0.02,0.41000000000000003,3
1682370845.49966693,181792603,-0.27,-0.09,1.44,1.29,164.05,163.56,0.02,0.41000000000000003,3
1682370845.59975290,181892689,-0.25,-0.18,1.47,1.3900000000000001,164.05,163.6,0.02,0.41000000000000003,3
1682370845.69961500,181992551,-0.3,-0.18,1.46,1.45,164.05,163.61,0.02,0.41000000000000003,3
1682370845.79963088,182092567,-0.32,-0.01,1.5,1.44,164.05,163.6,0.02,0.4,3
1682370845.89989591,182192832,-0.41000000000000003,-0.12,1.42,1.47,164.05,163.55,0.02,0.4,3
1682370845.99935389,182292290,-0.5,-0.23,1.44,1.4000000000000001,164.05,163.5,0.02,0.39,3
1682370846.09984493,182392781,-0.64,-0.39,1.45,1.31,164.05,163.49,0.02,0.39,3
1682370846.19965696,182492593,-0.71,-0.63,1.49,1.3900000000000001,164.05,163.5,0.02,0.39,3
1682370846.29964089,182592577,-0.71,-0.66,1.49,1.53,164.05,163.53,0.03,0.39,3
1682370846.39973903,182692675,-0.68,-0.74,1.47,1.45,164.05,163.56,0.03,0.38,3
1682370846.49969983,182792636,-0.64,-0.58,1.47,1.48,164.05,163.59,0.04,0.39,3
1682370846.59978485,182892721,-0.61,-0.77,1.49,1.41,164.05,163.67000000000002,0.04,0.38,3
1682370846.69967389,182992610,-0.62,-0.64,1.54,1.47,164.05,163.72,0.03,0.38,3
1682370846.80008602,183093022,-0.5700000000000001,-0.5700000000000001,1.62,1.59,164.05,163.75,0.03,0.37,3
1682370846.89962983,183192566,-0.5700000000000001,-0.6,1.7,1.6600000000000001,164.05,163.76,0.03,0.36,3
1682370846.99980998,183292746,-0.54,-0.49,1.76,1.61,164.05,163.85,0.03,0.36,3
1682370847.09967995,183392616,-0.53,-0.27,1.79,1.67,164.05,163.93,0.03,0.36,3
1682370847.19949889,183492435,-0.54,-0.27,1.87,1.67,164.05,163.97,0.03,0.35000000000000003,3
1682370847.29951882,183592455,-0.49,-0.28,1.86,1.82,164.05,164.02,0.04,0.35000000000000003,3
1682370847.39954281,183692479,-0.5,-0.16,1.8800000000000001,1.87,164.05,164.09,0.04,0.34,3
1682370847.49949288,183792429,-0.53,-0.07,1.94,1.9000000000000001,164.05,164.15,0.04,0.35000000000000003,3
1682370847.59959888,183892535,-0.62,-0.39,1.98,2.0100000000000002,164.05,164.19,0.04,0.34,3
1682370847.69949603,183992432,-0.72,-0.59,2.0300000000000002,1.96,164.05,164.22,0.04,0.34,3
1682370847.79936790,184092304,-0.8,-0.74,2.0,1.9100000000000001,164.04,164.29,0.04,0.33,3
1682370847.89973092,184192667,-0.8200000000000001,-0.67,2.0300000000000002,1.93,164.04,164.3,0.04,0.33,3
1682370847.99963999,184292576,-0.81,-0.86,2.08,2.05,164.04,164.34,0.04,0.32,3
1682370848.09953594,184392472,-0.78,-0.76,2.08,2.21,164.04,164.33,0.04,0.33,3
1682370848.19953084,184492467,-0.75,-0.9400000000000001,2.1,2.13,164.04,164.36,0.04,0.32,3
1682370848.29950190,184592438,-0.74,-0.93,2.05,2.15,164.04,164.32,0.04,0.32,3
1682370848.39949393,184692430,-0.6900000000000001,-1.06,2.06,2.09,164.05,164.31,0.04,0.32,3
1682370848.49935985,184792296,-0.6,-1.21,1.99,2.07,164.05,164.32,0.05,0.31,3
1682370848.59964800,184892584,-0.41000000000000003,-1.07,1.93,1.93,164.05,164.3,0.05,0.31,3
1682370848.69934797,184992284,-0.24,-0.89,1.9000000000000001,1.87,164.05,164.28,0.04,0.31,3
1682370848.79975486,185092691,-0.11,-0.49,1.83,1.95,164.06,164.20000000000002,0.04,0.3,3
1682370848.89977980,185192716,-0.05,-0.33,1.79,2.0,164.06,164.01,0.03,0.29,3
1682370848.99963689,185292573,-0.04,0.01,1.72,1.94,164.06,163.79,0.03,0.29,3
1682370849.09972286,185392659,-0.1,-0.23,1.69,1.6300000000000001,164.06,163.6,0.04,0.29,3
1682370849.19965601,185492592,-0.23,-0.21,1.7,1.49,164.05,163.42000000000002,0.04,0.29,3
1682370849.29962802,185592564,-0.33,-0.53,1.69,1.57,164.05,163.31,0.04,0.29,3
1682370849.39970088,185692637,-0.38,-0.43,1.7,1.58,164.05,163.26,0.04,0.29,3
1682370849.49966288,185792599,-0.4,-0.59,1.67,1.62,164.05,163.24,0.03,0.29,3
1682370849.59975600,185892692,-0.35000000000000003,-0.39,1.6500000000000001,1.6400000000000001,164.05,163.26,0.03,0.29,3
1682370849.69997597,185992912,-0.31,-0.28,1.6500000000000001,1.54,164.05,163.3,0.03,0.28,3
1682370849.79961300,186092549,-0.24,0.01,1.6500000000000001,1.55,164.05,163.37,0.03,0.28,3
1682370849.89971185,186192648,-0.21,0.09,1.6300000000000001,1.49,164.06,163.45000000000002,0.03,0.28,3
1682370849.99974394,186292680,-0.24,0.1,1.59,1.58,164.05,163.52,0.03,0.27,3
1682370850.09977794,186392714,-0.26,-0.07,1.6,1.57,164.05,163.62,0.03,0.27,3
1682370850.19967699,186492613,-0.31,-0.05,1.6500000000000001,1.73,164.05,163.79,0.03,0.27,3
1682370850.29966497,186592601,-0.34,-0.56,1.76,1.6300000000000001,164.05,163.93,0.03,0.27,3
1682370850.39976382,186692700,-0.31,-0.64,1.8900000000000001,1.78,164.05,164.03,0.03,0.27,3
1682370850.49962592,186792562,-0.2,-0.6900000000000001,1.95,1.96,164.05,164.13,0.04,0.27,3
1682370850.59993291,186892869,-0.06,-0.64,2.05,1.96,164.06,164.26,0.04,0.26,3
1682370850.69960093,186992537,0.06,-0.31,2.07,1.94,164.06,164.34,0.03,0.26,3
1682370850.79971385,187092650,0.18,-0.18,2.11,1.9000000000000001,164.06,164.38,0.03,0.25,3
1682370850.89972496,187192661,0.25,-0.01,2.12,1.8900000000000001,164.06,164.43,0.03,0.25,3
1682370850.99959993,187292536,0.2,0.06,2.15,1.85,164.06,164.45000000000002,0.03,0.25,3
1682370851.09957099,187392507,0.23,0.01,2.13,1.8900000000000001,164.06,164.44,0.03,0.25,3
1682370851.19936299,187492299,0.18,0.08,2.14,1.9100000000000001,164.06,164.44,0.03,0.24,3
1682370851.29943991,187592376,0.12,-0.06,2.18,1.97,164.06,164.43,0.03,0.24,3
1682370851.39937592,187692312,0.03,0.09,2.24,2.06,164.06,164.37,0.03,0.24,3
1682370851.49945688,187792393,-0.1,-0.05,2.39,2.18,164.06,164.21,0.03,0.24,3
1682370851.59981990,187892756,-0.22,-0.13,2.5100000000000002,2.4,164.05,164.07,0.03,0.24,3
1682370851.69947386,187992410,-0.39,-0.3,2.57,2.62,164.05,163.89000000000001,0.03,0.24,3
1682370851.79955697,188092493,-0.64,-0.36,2.64,2.54,164.04,163.71,0.03,0.24,3
1682370851.89952397,188192460,-0.78,-0.45,2.63,2.5500000000000003,164.04,163.48,0.03,0.23,3
1682370851.99951386,188292450,-0.9400000000000001,-0.6,2.62,2.38,164.04,163.34,0.03,0.24,3
1682370852.09956789,188392504,-1.06,-0.73,2.64,2.4,164.03,163.20000000000002,0.03,0.23,3
1682370852.19972396,188492660,-1.2,-0.98,2.63,2.48,164.03,163.14000000000001,0.03,0.23,3
1682370852.29935098,188592287,-1.25,-1.36,2.66,2.38,164.03,163.1,0.03,0.23,3
1682370852.39969087,188692627,-1.31,-1.01,2.64,2.44,164.03,163.08,0.03,0.23,3
1682370852.49952483,188792461,-1.32,-1.25,2.73,2.32,164.03,163.04,0.03,0.22,3
1682370852.59981298,188892749,-1.25,-1.02,2.8000000000000003,2.59,164.03,163.06,0.03,0.23,3
1682370852.69967985,188992616,-1.18,-0.97,2.85,3.06,164.03,163.07,0.03,0.22,3
1682370852.79966402,189092600,-1.1,-0.93,2.85,3.0,164.03,163.12,0.03,0.22,3
1682370852.89963984,189192576,-1.07,-0.9500000000000001,2.7600000000000002,2.87,164.03,163.07,0.03,0.22,3
1682370852.99965191,189292588,-1.1400000000000001,-0.61,2.66,2.71,164.03,163.03,0.03,0.22,3
1682370853.09989786,189392834,-1.16,-1.09,2.48,2.56,164.03,163.0,0.03,0.21,3
1682370853.19934392,189492280,-1.1500000000000001,-1.03,2.27,2.56,164.04,162.97,0.03,0.21,3
1682370853.29971290,189592649,-1.01,-1.12,2.12,2.48,164.04,162.93,0.03,0.21,3
1682370853.39962292,189692559,-0.84,-0.89,1.95,2.11,164.04,162.97,0.03,0.21,3
1682370853.49969983,189792636,-0.68,-0.76,1.9000000000000001,1.9000000000000001,164.05,162.94,0.03,0.21,3
1682370853.59987497,189892811,-0.47000000000000003,-0.87,1.92,1.79,164.05,162.95000000000002,0.03,0.2,3
1682370853.69971299,189992649,-0.36,-0.52,1.98,1.79,164.05,162.91,0.03,0.2,3
1682370853.79968691,190092623,-0.3,-0.29,2.0300000000000002,1.6500000000000001,164.05,162.83,0.03,0.2,3
1682370853.89936900,190192305,-0.34,-0.08,2.06,1.6600000000000001,164.05,162.56,0.03,0.19,3
1682370853.99949694,190292433,-0.42,-0.13,2.14,1.74,164.05,162.36,0.03,0.2,3
1682370854.09940600,190392342,-0.58,-0.1,2.18,1.83,164.05,162.04,0.02,0.2,3
1682370854.19947386,190492410,-0.75,-0.35000000000000003,2.22,2.0,164.04,161.78,0.02,0.2,3
1682370854.29938197,190592318,-0.8200000000000001,-0.51,2.23,2.14,164.04,161.49,0.02,0.2,3
1682370854.39949703,190692433,-0.8300000000000001,-0.6,2.21,2.08,164.04,161.32,0.02,0.21,3
1682370854.49953699,190792473,-0.8300000000000001,-0.63,2.16,2.2,164.04,161.12,0.02,0.21,3
1682370854.59964180,190892578,-0.81,-0.98,2.13,2.25,164.04,161.0,0.02,0.2,3
1682370854.69970798,190992644,-0.76,-1.23,2.13,2.34,164.04,161.04,0.02,0.2,3
1682370854.79948282,191092419,-0.65,-0.8,2.19,2.5100000000000002,164.05,161.16,0.02,0.19,3
1682370854.89946294,191192399,-0.45,-0.81,2.18,2.5500000000000003,164.05,161.34,0.02,0.19,3
1682370854.99935985,191292296,-0.25,-0.78,2.14,2.4,164.05,161.64000000000001,0.02,0.18,3
1682370855.09951591,191392452,-0.11,-0.51,2.06,2.39,164.06,162.02,0.02,0.18,3
1682370855.19945192,191492388,0.11,-0.41000000000000003,2.0300000000000002,2.17,164.06,162.43,0.02,0.16,3
1682370855.29947281,191592409,0.14,-0.22,2.02,2.02,164.06,162.84,0.02,0.16,3
1682370855.39958191,191692518,0.25,-0.22,2.04,2.0300000000000002,164.06,163.32,0.02,0.16,3
1682370855.49970984,191792646,0.3,-0.2,2.14,1.98,164.06,163.71,0.02,0.16,3
1682370855.59979892,191892735,0.35000000000000003,-0.11,2.22,2.16,164.07,164.17000000000002,0.02,0.15,3
1682370855.69935679,191992293,0.38,-0.06,2.29,2.2600000000000002,164.07,164.49,0.02,0.15,3
1682370855.79967690,192092613,0.33,-0.05,2.35,2.17,164.07,164.8,0.02,0.15,3
1682370855.89957881,192192515,0.33,-0.04,2.4,2.24,164.07,165.0,0.02,0.15,3
1682370855.99969196,192292628,0.26,-0.26,2.41,2.3000000000000003,164.06,165.15,0.02,0.15,3
1682370856.09961987,192392556,0.21,-0.11,2.39,2.33,164.06,165.20000000000002,0.02,0.14,3
1682370856.19963288,192492569,0.27,-0.03,2.39,2.27,164.06,165.19,0.02,0.14,3
1682370856.29966187,192592598,0.33,0.09,2.32,2.29,164.07,165.14000000000001,0.02,0.14,3
1682370856.39967990,192692616,0.44,0.06,2.31,2.12,164.07,165.04,0.02,0.14,3
1682370856.49963689,192792573,0.41000000000000003,0.55,2.33,2.11,164.07,164.95000000000002,0.02,0.14,3
1682370856.59973097,192892667,0.48,0.34,2.39,2.18,164.07,164.86,0.02,0.13,3
1682370856.69989681,192992833,0.36,0.39,2.36,2.24,164.07,164.71,0.02,0.14,3
1682370856.79937291,193092309,0.37,0.15,2.2800000000000002,2.24,164.07,164.63,0.02,0.14,3
1682370856.89974499,193192681,0.27,0.27,2.27,2.2,164.06,164.52,0.03,0.14,3
1682370856.99965882,193292595,0.21,-0.02,2.27,2.32,164.06,164.45000000000002,0.03,0.14,3
1682370857.09975696,193392693,0.2,-0.22,2.33,2.29,164.06,164.36,0.03,0.14,3
1682370857.19973183,193492668,0.22,-0.15,2.34,2.38,164.06,164.29,0.03,0.14,3
1682370857.29978681,193592723,0.37,0.12,2.39,2.38,164.07,164.14000000000001,0.03,0.14,3
1682370857.39972782,193692664,0.33,0.42,2.43,2.25,164.07,164.04,0.03,0.14,3
1682370857.49966884,193792605,0.25,0.47000000000000003,2.4,2.2,164.06,163.89000000000001,0.02,0.14,3
1682370857.60009789,193893034,0.11,0.51,2.36,2.16,164.06,163.78,0.02,0.14,3
1682370857.69934487,193992281,-0.02,0.36,2.31,2.25,164.06,163.62,0.02,0.14,3
1682370857.79946399,194092400,-0.14,0.15,2.22,2.2600000000000002,164.06,163.5,0.02,0.14,3
1682370857.89938593,194192322,-0.27,0.0,2.18,2.2800000000000002,164.05,163.44,0.02,0.14,3
1682370857.99948001,194292416,-0.27,-0.12,2.16,2.13,164.05,163.29,0.02,0.13,3
1682370858.09958386,194392520,-0.3,-0.32,2.1,2.13,164.05,163.23,0.03,0.13,3
1682370858.19950795,194492444,-0.24,-0.63,2.0300000000000002,1.9000000000000001,164.05,163.12,0.03,0.13,3
1682370858.29947090,194592407,-0.25,-0.33,2.04,1.7,164.05,162.98,0.03,0.12,3
1682370858.39947891,194692415,-0.23,-0.29,2.07,1.71,164.05,162.87,0.03,0.12,3
1682370858.49972486,194792661,-0.31,-0.08,2.05,1.79,164.05,162.75,0.03,0.12,3
1682370858.59953284,194892469,-0.36,-0.18,2.04,1.94,164.05,162.79,0.03,0.12,3
1682370858.69942284,194992359,-0.39,-0.3,2.05,2.17,164.05,162.83,0.03,0.12,3
1682370858.79941487,195092351,-0.47000000000000003,-0.21,2.07,2.14,164.05,162.95000000000002,0.03,0.12,3
1682370858.89946580,195192402,-0.46,-0.54,2.1,2.11,164.05,163.03,0.02,0.12,3
1682370858.99954295,195292479,-0.47000000000000003,-0.71,2.05,2.12,164.05,163.14000000000001,0.02,0.12,3
1682370859.09956503,195392501,-0.47000000000000003,-0.73,2.06,2.0,164.05,163.34,0.02,0.12,3
1682370859.19949102,195492427,-0.44,-0.38,2.08,1.95,164.05,163.46,0.02,0.11,3
1682370859.29935789,195592294,-0.47000000000000003,-0.35000000000000003,2.09,2.1,164.05,163.63,0.02,0.11,3
1682370859.39983702,195692773,-0.42,-0.39,2.16,2.09,164.05,163.79,0.02,0.11,3
1682370859.49962592,195792562,-0.4,-0.51,2.15,2.43,164.05,163.99,0.02,0.11,3
1682370859.59995484,195892891,-0.27,-0.44,2.19,2.5100000000000002,164.05,164.15,0.02,0.11,3
1682370859.69964099,195992577,-0.13,-0.34,2.15,2.5500000000000003,164.06,164.36,0.01,0.11,3
1682370859.79962492,196092561,-0.02,-0.24,2.13,2.47,164.06,164.52,0.01,0.11,3
1682370859.89966583,196192602,-0.03,0.17,2.1,2.34,164.06,164.69,0.01,0.1,3
1682370859.99967980,196292616,-0.08,-0.26,2.04,2.31,164.06,164.81,0.01,0.09,3
1682370860.09968185,196392618,-0.09,-0.38,2.1,2.14,164.06,164.97,0.02,0.1,3
1682370860.19963884,196492575,-0.06,-0.33,2.18,2.23,164.06,165.15,0.02,0.09,3
1682370860.29965901,196592595,-0.01,-0.38,2.18,2.35,164.06,165.24,0.02,0.09,3
1682370860.39959097,196692527,0.09,-0.16,2.17,2.25,164.06,165.39000000000001,0.02,0.09,3
1682370860.49995303,196792889,0.11,-0.14,2.14,2.21,164.06,165.48,0.02,0.09,3
1682370860.59980202,196892738,0.1,0.0,2.16,2.14,164.06,165.59,0.02,0.08,3
1682370860.69970798,196992644,0.11,0.11,2.14,2.14,164.06,165.64000000000001,0.03,0.08,3
1682370860.79973197,197092668,0.11,0.0,2.13,2.13,164.06,165.70000000000002,0.03,0.08,3
1682370860.89967895,197192615,0.13,-0.08,2.06,2.15,164.06,165.69,0.03,0.08,3
1682370860.99966884,197292605,0.17,-0.06,1.99,2.06,164.06,165.75,0.03,0.08,3
1682370861.09972787,197392664,0.2,0.14,1.99,1.93,164.06,165.72,0.02,0.08,3
1682370861.19973993,197492676,0.25,0.24,2.0300000000000002,1.93,164.06,165.68,0.02,0.08,3
1682370861.29961681,197592553,0.26,0.07,2.12,1.98,164.06,165.66,0.02,0.08,3
1682370861.40003300,197692969,0.17,0.06,2.2,2.14,164.06,165.55,0.02,0.09,3
1682370861.49977589,197792712,0.17,-0.02,2.23,2.25,164.06,165.41,0.03,0.09,3
1682370861.59958792,197892524,0.13,0.18,2.19,2.15,164.06,165.24,0.03,0.09,3
1682370861.69952703,197992463,0.14,0.21,2.18,2.08,164.06,165.0,0.03,0.09,3
1682370861.79951191,198092448,0.11,0.13,2.16,2.21,164.06,164.79,0.03,0.09,3
1682370861.89948392,198192420,0.08,0.12,2.19,2.2600000000000002,164.06,164.51,0.03,0.08,3
1682370861.99948597,198292422,0.07,-0.1,2.2,2.22,164.06,164.29,0.03,0.08,3
1682370862.09957480,198392511,0.07,0.0,2.13,2.2,164.06,164.01,0.02,0.08,3
1682370862.19936085,198492297,0.12,0.14,2.08,2.05,164.06,163.84,0.02,0.08,3
1682370862.29972601,198592662,0.07,0.23,2.07,2.08,164.06,163.62,0.03,0.08,3
1682370862.39963698,198692573,0.07,-0.05,2.06,2.18,164.06,163.49,0.03,0.08,3
1682370862.49950099,198792437,0.09,0.16,2.08,2.17,164.06,163.28,0.03,0.08,3
1682370862.59965396,198892590,0.05,0.12,2.07,2.15,164.06,163.14000000000001,0.03,0.08,3
1682370862.69952989,198992466,0.09,0.35000000000000003,2.05,2.11,164.06,162.99,0.03,0.08,3
1682370862.79951787,199092454,0.02,0.31,2.0300000000000002,2.1,164.06,162.88,0.03,0.07,3
1682370862.89946389,199192400,0.04,0.14,2.0,2.07,164.06,162.82,0.02,0.06,3
1682370862.99947190,199292408,-0.04,0.08,1.98,2.11,164.06,162.76,0.02,0.07,3
1682370863.09941292,199392349,-0.05,0.1,1.98,2.08,164.06,162.62,0.02,0.07,3
1682370863.19945598,199492392,-0.07,-0.16,1.93,2.1,164.06,162.66,0.02,0.07,3
1682370863.29938293,199592319,-0.13,0.0,1.8900000000000001,2.02,164.06,162.72,0.02,0.07,3
1682370863.39945984,199692396,-0.13,-0.15,1.87,1.94,164.06,162.73,0.02,0.08,3
1682370863.49970889,199792645,-0.2,-0.29,1.84,1.86,164.05,162.83,0.02,0.07,3
1682370863.59971189,199892648,-0.21,-0.31,1.85,1.72,164.05,162.96,0.02,0.07,3
1682370863.69962788,199992564,-0.21,-0.2,1.8800000000000001,1.7,164.05,163.13,0.02,0.07,3
1682370863.79962802,200092564,-0.15,-0.33,1.93,1.6400000000000001,164.06,163.32,0.02,0.07,3
1682370863.89966297,200192599,-0.05,-0.2,2.0,1.84,164.06,163.54,0.02,0.07,3
1682370863.99958682,200292523,0.05,-0.39,2.07,1.94,164.06,163.78,0.02,0.06,3
1682370864.09974599,200392682,0.18,-0.08,2.13,2.0300000000000002,164.06,163.92000000000002,0.02,0.06,3
1682370864.19984889,200492785,0.25,0.12,2.18,2.0,164.06,164.11,0.02,0.05,3
1682370864.29964590,200592582,0.32,0.17,2.25,2.08,164.06,164.17000000000002,0.01,0.05,3
1682370864.39976001,200692696,0.41000000000000003,0.33,2.31,2.22,164.07,164.25,0.01,0.06,3
1682370864.49968481,200792621,0.43,0.26,2.31,2.35,164.07,164.27,0.02,0.05,3
1682370864.59977984,200892716,0.47000000000000003,0.33,2.2800000000000002,2.2,164.07,164.23,0.02,0.05,3
1682370864.69968295,200992619,0.45,0.31,2.24,2.02,164.07,164.22,0.02,0.05,3
1682370864.79973698,201092673,0.41000000000000003,0.77,2.24,1.93,164.07,164.04,0.02,0.05,3
1682370864.89937186,201192308,0.37,0.77,2.32,2.09,164.07,163.94,0.02,0.06,3
1682370864.99947596,201292412,0.22,0.68,2.39,2.39,164.06,163.73,0.02,0.06,3
1682370865.09945202,201392388,0.06,0.34,2.38,2.47,164.06,163.5,0.03,0.06,3
1682370865.19946885,201492405,-0.15,0.17,2.3000000000000003,2.3000000000000003,164.06,163.27,0.03,0.06,3
1682370865.29952598,201592462,-0.3,0.29,2.2,2.23,164.05,162.96,0.03,0.06,3
1682370865.39953780,201692474,-0.5,0.17,2.1,2.09,164.05,162.68,0.03,0.06,3
1682370865.49949789,201792434,-0.58,-0.13,2.08,1.98,164.05,162.37,0.03,0.06,3
1682370865.59960294,201892539,-0.68,-0.33,2.1,2.12,164.05,162.16,0.03,0.06,3
1682370865.69980788,201992744,-0.72,-0.38,2.14,2.2800000000000002,164.04,161.98,0.02,0.06,3
1682370865.79935503,202092291,-0.67,-0.39,2.19,2.21,164.05,161.82,0.02,0.07,3
1682370865.89944887,202192385,-0.64,-0.39,2.17,2.24,164.05,161.73,0.02,0.07,3
1682370865.99939585,202292332,-0.58,-0.19,2.17,2.09,164.05,161.72,0.02,0.07,3
1682370866.09953499,202392471,-0.5700000000000001,-0.32,2.17,2.08,164.05,161.76,0.03,0.07,3
1682370866.19953990,202492476,-0.56,-0.48,2.18,2.2600000000000002,164.05,161.88,0.03,0.07,3
1682370866.29968882,202592625,-0.45,-0.6900000000000001,2.15,2.25,164.05,162.08,0.02,0.07,3
1682370866.39968491,202692621,-0.39,-0.21,2.07,2.19,164.05,162.35,0.02,0.07,3
1682370866.49936199,202792298,-0.17,-0.24,1.98,2.08,164.06,162.55,0.02,0.06,3
1682370866.59978890,202892725,-0.06,-0.12,1.8900000000000001,2.05,164.06,162.79,0.02,0.05,3
1682370866.69958997,202992526,0.0,-0.12,1.8,1.95,164.06,163.01,0.02,0.05,3
1682370866.79969501,203092631,0.12,-0.18,1.79,1.79,164.06,163.17000000000002,0.02,0.05,3
1682370866.89954782,203192484,0.18,-0.18,1.76,1.73,164.06,163.25,0.02,0.05,3
1682370866.99963284,203292569,0.24,0.2,1.74,1.69,164.06,163.27,0.02,0.05,3
1682370867.09972191,203392658,0.22,0.46,1.72,1.7,164.06,163.20000000000002,0.01,0.05,3
1682370867.19964790,203492584,0.09,0.35000000000000003,1.7,1.61,164.06,163.14000000000001,0.01,0.05,3
1682370867.29968381,203592620,-0.04,0.29,1.6500000000000001,1.77,164.06,163.02,0.01,0.04,3
1682370867.39949894,203692435,-0.14,0.08,1.53,1.87,164.06,162.97,0.01,0.03,3
1682370867.49974084,203792677,-0.2,0.0,1.47,1.8,164.06,162.91,0.02,0.04,3
1682370867.59980989,203892746,-0.18,-0.2,1.35,1.69,164.06,162.94,0.02,0.04,3
1682370867.69974899,203992685,-0.1,-0.19,1.29,1.61,164.06,162.97,0.02,0.04,3
1682370867.79978490,204092721,0.0,-0.09,1.23,1.55,164.06,163.02,0.02,0.04,3
1682370867.89970779,204192644,-0.02,0.07,1.24,1.55,164.06,163.11,0.02,0.05,3
1682370867.99971080,204292647,-0.01,0.04,1.28,1.45,164.06,163.17000000000002,0.02,0.04,3
1682370868.09956884,204392505,-0.03,-0.17,1.29,1.48,164.06,163.22,0.02,0.04,3
1682370868.19950080,204492437,-0.02,-0.09,1.31,1.4000000000000001,164.06,163.29,0.02,0.04,3
1682370868.29935384,204592290,0.02,-0.06,1.31,1.37,164.06,163.37,0.02,0.04,3
1682370868.39945292,204692389,0.09,-0.03,1.34,1.26,164.06,163.46,0.02,0.04,3
1682370868.49934697,204792283,0.15,-0.01,1.46,1.2,164.06,163.59,0.02,0.04,3
1682370868.59996390,204892900,0.24,0.1,1.57,1.45,164.06,163.65,0.02,0.03,3
1682370868.69960284,204992539,0.28,0.29,1.74,1.59,164.06,163.76,0.02,0.03,3
1682370868.79970598,205092642,0.28,0.21,1.92,1.81,164.06,163.76,0.02,0.03,3
1682370868.89970183,205192638,0.24,0.29,1.97,2.17,164.06,163.85,0.02,0.03,3
1682370868.99953198,205292468,0.24,0.35000000000000003,2.0300000000000002,2.14,164.06,163.91,0.02,0.03,3
1682370869.09954381,205392480,0.25,0.06,1.99,2.0300000000000002,164.06,163.95000000000002,0.02,0.02,3
1682370869.19946480,205492401,0.27,0.23,1.98,2.0,164.06,164.03,0.02,0.02,3
1682370869.29945898,205592395,0.34,0.16,1.94,1.97,164.06,164.03,0.02,0.02,3
1682370869.39938593,205692322,0.47000000000000003,0.37,1.8800000000000001,2.02,164.07,164.09,0.02,0.02,3
1682370869.49975896,205792695,0.55,0.5,1.81,1.87,164.07,164.08,0.02,0.01,3
1682370869.59981799,205892754,0.73,0.5,1.76,1.7,164.07,164.17000000000002,0.02,0.02,3
1682370869.69964981,205992586,0.73,0.49,1.81,1.56,164.07,164.21,0.03,0.02,3
1682370869.79972696,206092663,0.77,0.47000000000000003,1.9000000000000001,1.62,164.07,164.3,0.03,0.03,3
1682370869.89972901,206192665,0.74,0.23,2.0100000000000002,1.86,164.07,164.4,0.02,0.02,3
1682370869.99963403,206292570,0.71,0.5700000000000001,2.1,1.94,164.07,164.51,0.02,0.02,3
1682370870.09968400,206392620,0.79,0.35000000000000003,2.12,2.0300000000000002,164.07,164.65,0.02,0.02,3
1682370870.19969702,206492633,0.79,0.55,2.17,2.08,164.07,164.78,0.02,0.02,3
1682370870.29985094,206592787,0.84,0.66,2.15,2.15,164.07,164.9,0.03,0.02,3
1682370870.39970589,206692642,0.81,0.77,2.11,2.1,164.07,165.0,0.03,0.03,3
1682370870.49952197,206792458,0.81,0.74,2.12,2.08,164.07,165.14000000000001,0.03,0.03,3
1682370870.59973884,206892675,0.75,0.67,2.12,2.17,164.07,165.17000000000002,0.03,0.03,3
1682370870.69970584,206992642,0.75,0.61,2.11,2.11,164.07,165.25,0.04,0.03,3
1682370870.79951787,207092454,0.78,0.77,1.99,1.93,164.07,165.3,0.04,0.03,3
1682370870.89967299,207192609,0.86,0.8,1.8800000000000001,1.76,164.07,165.35,0.04,0.03,3
1682370870.99969983,207292636,0.96,0.99,1.8,1.59,164.07,165.37,0.04,0.03,3
1682370871.09978080,207392717,0.92,0.97,1.8,1.5,164.07,165.4,0.03,0.03,3
1682370871.19964385,207492580,0.88,0.81,1.81,1.56,164.07,165.45000000000002,0.03,0.03,3
1682370871.30028892,207593225,0.81,0.79,1.8900000000000001,1.6400000000000001,164.07,165.43,0.04,0.03,3
1682370871.39960194,207692538,0.81,0.59,2.0,1.73,164.07,165.43,0.04,0.03,3
1682370871.49945188,207792388,0.74,0.59,2.02,1.98,164.07,165.4,0.04,0.03,3
1682370871.59962583,207892562,0.67,0.63,2.0100000000000002,2.08,164.07,165.36,0.04,0.03,3
1682370871.69949794,207992434,0.6,0.55,2.02,2.13,164.07,165.33,0.04,0.03,3
1682370871.79949689,208092433,0.5,0.76,2.0100000000000002,2.15,164.07,165.27,0.04,0.03,3
1682370871.89936781,208192304,0.43,0.74,1.97,2.12,164.07,165.20000000000002,0.04,0.03,3
1682370871.99983501,208292771,0.3,0.63,1.87,2.07,164.06,165.15,0.04,0.03,3
1682370872.09976792,208392704,0.25,0.61,1.78,1.85,164.06,165.15,0.03,0.03,3
1682370872.19980884,208492745,0.18,0.64,1.68,1.68,164.06,165.1,0.03,0.02,3
1682370872.29995394,208592890,0.12,0.58,1.57,1.56,164.06,165.12,0.03,0.02,3
1682370872.39948297,208692419,0.12,0.43,1.53,1.57,164.06,165.13,0.03,0.02,3
1682370872.49952698,208792463,0.08,0.46,1.53,1.6600000000000001,164.06,165.15,0.03,0.02,3
1682370872.59961700,208892553,0.05,0.5,1.52,1.76,164.06,165.18,0.03,0.02,3
1682370872.69947600,208992412,0.04,0.38,1.54,1.72,164.06,165.25,0.03,0.02,3
1682370872.79946589,209092402,0.04,0.49,1.52,1.69,164.06,165.39000000000001,0.03,0.02,3
1682370872.89974093,209192677,0.02,0.44,1.49,1.6300000000000001,164.06,165.5,0.03,0.02,3
1682370872.99970102,209292637,-0.02,0.58,1.47,1.57,164.06,165.65,0.03,0.02,3
1682370873.09984398,209392780,-0.03,0.37,1.41,1.58,164.06,165.81,0.03,0.02,3
1682370873.19962001,209492556,-0.1,0.1,1.34,1.6500000000000001,164.06,165.95000000000002,0.03,0.02,3
1682370873.29962492,209592561,-0.11,0.04,1.26,1.59,164.06,166.13,0.03,0.02,3
1682370873.39966798,209692604,-0.1,-0.06,1.1400000000000001,1.48,164.06,166.34,0.03,0.02,3
1682370873.49966788,209792604,0.0,-0.15,1.07,1.3900000000000001,164.06,166.49,0.02,0.02,3
1682370873.59971595,209892652,0.05,0.0,1.01,1.36,164.06,166.67000000000002,0.02,0.01,3
1682370873.69962788,209992564,0.16,0.24,1.01,1.31,164.06,166.85,0.03,0.01,3
1682370873.79967594,210092612,0.25,0.25,1.02,1.28,164.06,166.96,0.03,0.01,3
1682370873.89958096,210192517,0.36,0.29,1.05,1.3800000000000001,164.06,167.08,0.02,0.01,3
1682370873.99998283,210292919,0.49,0.31,1.11,1.28,164.06,167.18,0.02,0.01,3
1682370874.09984899,210392785,0.58,0.51,1.09,1.3900000000000001,164.06,167.24,0.02,0.01,3
1682370874.19970894,210492645,0.68,0.72,1.1300000000000001,1.33,164.07,167.27,0.02,0.01,3
1682370874.29971790,210592654,0.68,0.76,1.1500000000000001,1.33,164.07,167.24,0.03,0.01,3
1682370874.39971399,210692650,0.62,0.78,1.21,1.32,164.06,167.12,0.03,0.01,3
1682370874.49967885,210792615,0.51,0.55,1.29,1.29,164.06,166.98,0.03,0.01,3
1682370874.59979582,210892732,0.45,0.52,1.32,1.3900000000000001,164.06,166.82,0.03,0.01,3
1682370874.69972301,210992659,0.46,0.39,1.3800000000000001,1.33,164.06,166.62,0.02,0.01,3
1682370874.79969382,211092630,0.47000000000000003,0.36,1.41,1.3800000000000001,164.06,166.41,0.02,0.01,3
1682370874.90002894,211192965,0.56,0.5,1.48,1.3800000000000001,164.07,166.21,0.02,0.0,3
1682370874.99964094,211292577,0.63,0.41000000000000003,1.57,1.53,164.07,166.03,0.02,0.0,3
1682370875.09955883,211392495,0.62,0.79,1.6400000000000001,1.71,164.07,165.91,0.02,0.0,3
1682370875.19956994,211492506,0.65,0.63,1.73,1.62,164.07,165.81,0.02,0.0,3
1682370875.29952502,211592461,0.54,0.58,1.75,1.61,164.07,165.69,0.01,0.0,3
1682370875.39952302,211692459,0.54,0.54,1.77,1.6300000000000001,164.07,165.6,0.01,0.0,3
1682370875.49935889,211792295,0.47000000000000003,0.5,1.74,1.6600000000000001,164.07,165.51,0.01,0.0,3
1682370875.59965897,211892595,0.4,0.63,1.7,1.58,164.06,165.49,0.01,0.0,3
1682370875.69936299,211992299,0.35000000000000003,0.42,1.74,1.48,164.06,165.41,0.02,0.0,3
1682370875.79946494,212092401,0.27,0.38,1.78,1.54,164.06,165.38,0.02,0.0,3
1682370875.89937496,212192311,0.27,0.48,1.86,1.67,164.06,165.4,0.01,0.0,3
1682370875.99947596,212292412,0.23,0.36,1.97,1.68,164.06,165.37,0.01,0.01,3
1682370876.09977794,212392714,0.19,0.38,1.95,1.9100000000000001,164.06,165.37,0.02,0.01,3
1682370876.19958496,212492521,0.13,0.43,1.87,1.85,164.06,165.39000000000001,0.02,0.01,3
1682370876.29949403,212592430,0.09,0.36,1.71,1.72,164.06,165.39000000000001,0.02,0.01,3
1682370876.39947200,212692408,0.1,0.24,1.57,1.48,164.06,165.42000000000002,0.02,0.01,3
1682370876.49946880,212792405,0.1,0.2,1.48,1.29,164.06,165.49,0.01,0.01,3
1682370876.59954095,212892477,0.06,0.04,1.42,1.19,164.06,165.5,0.01,0.01,3
1682370876.69945097,212992387,0.06,-0.05,1.43,1.25,164.06,165.52,0.02,0.01,3
1682370876.79938102,213092317,0.08,0.09,1.45,1.32,164.06,165.5,0.02,0.01,3
1682370876.89946389,213192400,0.07,0.25,1.52,1.42,164.06,165.46,0.02,0.01,3
1682370876.99974799,213292684,0.05,0.17,1.58,1.5,164.06,165.38,0.02,0.01,3
1682370877.09972000,213392656,0.0,0.1,1.6500000000000001,1.59,164.06,165.31,0.02,0.01,3
1682370877.19964290,213492579,0.0,0.1,1.7,1.62,164.06,165.21,0.02,0.01,3
1682370877.29962802,213592564,-0.03,0.0,1.7,1.62,164.06,165.09,0.02,0.01,3
1682370877.39969683,213692633,-0.1,0.1,1.6600000000000001,1.61,164.06,164.94,0.02,0.01,3
1682370877.49957085,213792507,-0.12,0.04,1.62,1.6,164.06,164.78,0.02,0.01,3
1682370877.59990191,213892838,-0.18,0.14,1.57,1.58,164.06,164.61,0.02,0.01,3
1682370877.69957781,213992514,-0.21,0.08,1.51,1.53,164.06,164.45000000000002,0.02,0.01,3
1682370877.79959393,214092530,-0.28,0.02,1.45,1.42,164.05,164.31,0.02,0.01,3
1682370877.89972997,214192666,-0.25,-0.07,1.35,1.3800000000000001,164.06,164.20000000000002,0.01,0.02,3
1682370877.99973392,214292670,-0.24,-0.13,1.25,1.27,164.06,164.11,0.01,0.01,3
1682370878.09975982,214392696,-0.2,-0.19,1.25,1.18,164.06,164.02,0.02,0.01,3
1682370878.19936085,214492297,-0.18,-0.22,1.29,1.25,164.06,163.97,0.02,0.01,3
1682370878.29982996,214592766,-0.17,-0.14,1.33,1.42,164.06,163.94,0.02,0.01,3
1682370878.39968491,214692621,-0.14,-0.15,1.3900000000000001,1.46,164.06,163.93,0.02,0.01,3
1682370878.49973083,214792667,-0.07,-0.16,1.3900000000000001,1.58,164.06,163.9,0.03,0.01,3
1682370878.59979296,214892729,0.02,0.02,1.48,1.57,164.06,163.9,0.03,0.01,3
1682370878.69970894,214992645,0.06,0.05,1.82,1.67,164.06,163.87,0.03,0.0,3
1682370878.79971480,215092651,0.09,0.06,2.33,2.19,164.06,163.9,0.03,0.01,3
1682370878.89970398,215192640,0.1,0.01,2.93,2.89,164.06,163.87,0.03,0.01,3
1682370878.99971581,215292652,0.1,-0.04,3.5700000000000003,3.56,164.06,163.83,0.03,0.01,3
1682370879.09955502,215392491,0.1,-0.04,4.21,4.22,164.06,163.79,0.03,0.01,3
1682370879.19947886,215492415,0.08,-0.09,4.71,4.8500000000000005,164.06,163.74,0.03,0.01,3
1682370879.29934597,215592282,0.03,-0.21,4.92,5.08,164.06,163.66,0.04,0.01,3
1682370879.39946389,215692400,0.0,-0.25,4.9,5.0200000000000005,164.06,163.6,0.04,0.01,3
1682370879.49939585,215792332,-0.01,-0.15,4.64,4.71,164.06,163.5,0.04,0.02,3
1682370879.59957385,215892510,0.04,-0.21,4.16,4.17,164.06,163.38,0.04,0.02,3
1682370879.69953084,215992467,0.01,-0.22,3.58,3.5,164.06,163.31,0.03,0.02,3
1682370879.79953599,216092472,-0.03,-0.1,2.95,2.83,164.06,163.28,0.03,0.02,3
1682370879.89969087,216192627,-0.08,-0.07,2.35,2.14,164.06,163.22,0.03,0.02,3
1682370879.99937987,216292316,-0.11,-0.09,1.82,1.54,164.06,163.21,0.03,0.02,3
1682370880.09957099,216392507,-0.12,0.01,1.48,1.11,164.06,163.17000000000002,0.02,0.02,3
1682370880.19935799,216492294,-0.19,0.05,1.34,0.89,164.06,163.16,0.02,0.02,3
1682370880.29945397,216592390,-0.24,0.08,1.3900000000000001,1.05,164.05,163.20000000000002,0.02,0.01,3
1682370880.39948201,216692418,-0.27,0.06,1.54,1.3800000000000001,164.05,163.23,0.02,0.01,3
1682370880.49947286,216792409,-0.29,-0.03,1.6600000000000001,1.72,164.05,163.29,0.01,0.01,3
1682370880.59963298,216892569,-0.32,-0.17,1.73,1.8900000000000001,164.05,163.39000000000001,0.01,0.01,3
1682370880.69971800,216992654,-0.31,-0.24,1.73,1.85,164.05,163.51,0.01,0.01,3
1682370880.79969501,217092631,-0.26,-0.26,1.74,1.87,164.05,163.66,0.01,0.01,3
1682370880.89934587,217192282,-0.19,-0.16,1.75,1.83,164.05,163.8,0.01,0.01,3
1682370880.99966884,217292605,-0.13,-0.03,1.77,1.81,164.05,163.91,0.01,0.01,3
1682370881.09962797,217392564,-0.11,-0.06,1.78,1.85,164.05,164.01,0.01,0.01,3
1682370881.19968891,217492625,-0.13,-0.14,1.83,1.8,164.05,164.14000000000001,0.01,0.01,3
1682370881.29951692,217592453,-0.16,-0.11,1.83,1.78,164.05,164.25,0.01,0.01,3
1682370881.39960790,217692544,-0.19,-0.14,1.82,1.73,164.05,164.36,0.01,0.01,3
1682370881.49963689,217792573,-0.18,-0.24,1.79,1.74,164.05,164.44,0.0,0.01,3
1682370881.59997082,217892907,-0.18,-0.07,1.77,1.75,164.05,164.51,0.0,0.01,3
1682370881.69967699,217992613,-0.15,-0.1,1.74,1.76,164.05,164.54,0.01,0.01,3
1682370881.79934883,218092285,-0.18,0.04,1.74,1.7,164.05,164.56,0.01,0.01,3
1682370881.89968991,218192626,-0.15,-0.16,1.69,1.74,164.05,164.54,0.01,0.02,3
1682370881.99961185,218292548,-0.17,-0.02,1.68,1.6600000000000001,164.05,164.53,0.01,0.01,3
1682370882.09982491,218392761,-0.15,-0.22,1.67,1.6600000000000001,164.05,164.48,0.01,0.01,3
1682370882.19959998,218492536,-0.11,-0.2,1.6600000000000001,1.67,164.05,164.41,0.01,0.01,3
1682370882.29964781,218592584,-0.13,-0.15,1.6600000000000001,1.6600000000000001,164.05,164.29,0.01,0.01,3
1682370882.39970493,218692641,-0.12,-0.02,1.67,1.61,164.05,164.18,0.01,0.01,3
1682370882.49977183,218792708,-0.13,-0.07,1.6600000000000001,1.61,164.05,164.01,0.01,0.01,3
1682370882.59980202,218892738,-0.19,-0.18,1.6400000000000001,1.67,164.05,163.89000000000001,0.01,0.02,3
1682370882.69966388,218992600,-0.16,-0.34,1.6400000000000001,1.6500000000000001,164.05,163.74,0.01,0.02,3
1682370882.79993701,219092873,-0.21,-0.17,1.6600000000000001,1.6400000000000001,164.05,163.53,0.01,0.02,3
1682370882.89932394,219192260,-0.17,-0.23,1.6400000000000001,1.72,164.05,163.34,0.01,0.02,3
1682370882.99943590,219292372,-0.17,-0.34,1.6400000000000001,1.69,164.05,163.17000000000002,0.01,0.02,3
1682370883.09943199,219392368,-0.09,-0.18,1.61,1.6400000000000001,164.05,163.04,0.01,0.01,3
1682370883.19949794,219492434,0.04,0.02,1.53,1.83,164.05,162.94,0.01,0.02,3
1682370883.29952598,219592462,0.13,0.09,1.47,1.6600000000000001,164.05,162.91,0.01,0.02,3
1682370883.39951396,219692450,0.25,0.23,1.3800000000000001,1.59,164.05,162.9,0.01,0.02,3
1682370883.49947500,219792411,0.3,0.1,1.34,1.51,164.05,162.95000000000002,0.01,0.02,3
1682370883.59958601,219892522,0.32,0.12,1.33,1.48,164.05,163.02,0.01,0.02,3
1682370883.69970489,219992641,0.3,0.2,1.28,1.56,164.05,163.1,0.01,0.02,3
1682370883.79935193,220092288,0.28,0.25,1.32,1.36,164.05,163.24,0.01,0.02,3
1682370883.89940286,220192339,0.3,0.27,1.32,1.3,164.05,163.39000000000001,0.01,0.02,3
1682370883.99942183,220292358,0.26,0.4,1.32,1.3,164.05,163.49,0.01,0.02,3
1682370884.09951091,220392447,0.24,0.37,1.41,1.29,164.05,163.63,0.0,0.02,3
1682370884.19951582,220492452,0.23,0.29,1.45,1.4000000000000001,164.05,163.73,0.0,0.02,3
1682370884.29949093,220592427,0.19,0.35000000000000003,1.53,1.32,164.05,163.85,0.01,0.02,3
1682370884.39948893,220692425,0.13,0.38,1.59,1.48,164.05,163.9,0.01,0.02,3
1682370884.49934888,220792285,0.06,0.2,1.62,1.62,164.05,163.99,0.01,0.02,3
1682370884.59993100,220892867,0.04,0.13,1.6500000000000001,1.6300000000000001,164.05,164.06,0.01,0.02,3
1682370884.69962287,220992559,-0.01,0.0,1.59,1.68,164.05,164.14000000000001,0.01,0.01,3
1682370884.79972982,221092666,0.03,-0.14,1.61,1.6500000000000001,164.05,164.18,0.01,0.01,3
1682370884.89960384,221192540,0.12,-0.18,1.57,1.6400000000000001,164.05,164.20000000000002,0.01,0.01,3
1682370884.99961782,221292554,0.2,-0.02,1.56,1.52,164.05,164.20000000000002,0.01,0.01,3
1682370885.09970999,221392646,0.27,0.09,1.56,1.46,164.05,164.19,0.0,0.01,3
1682370885.19964695,221492583,0.27,0.32,1.57,1.42,164.05,164.16,0.0,0.01,3
1682370885.29959893,221592535,0.31,0.43,1.6300000000000001,1.44,164.05,164.07,0.0,0.01,3
1682370885.39963198,221692568,0.34,0.44,1.67,1.48,164.05,163.99,0.0,0.02,3
1682370885.49986601,221792802,0.31,0.48,1.71,1.57,164.05,163.94,0.0,0.02,3
1682370885.59979200,221892728,0.31,0.51,1.72,1.6300000000000001,164.05,163.9,0.0,0.02,3
1682370885.69972301,221992659,0.26,0.51,1.74,1.6300000000000001,164.05,163.94,0.0,0.02,3
1682370885.79963398,222092570,0.14,0.31,1.77,1.68,164.05,163.96,0.0,0.02,3
1682370885.89963388,222192570,0.08,0.13,1.78,1.77,164.05,164.02,0.0,0.01,3
1682370885.99971294,222292649,-0.02,0.02,1.76,1.74,164.05,164.09,0.0,0.01,3
1682370886.09973192,222392668,-0.01,-0.33,1.78,1.73,164.05,164.19,0.0,0.02,3
1682370886.19964981,222492586,0.0,-0.35000000000000003,1.76,1.76,164.05,164.29,0.0,0.02,3
1682370886.29965496,222592591,0.07,-0.25,1.74,1.8,164.05,164.3,0.0,0.02,3
1682370886.39971185,222692648,0.19,-0.11,1.72,1.76,164.05,164.36,0.0,0.02,3
1682370886.49960780,222792544,0.24,0.15,1.6400000000000001,1.79,164.05,164.34,0.0,0.02,3
1682370886.60013890,222893075,0.27,0.19,1.58,1.74,164.05,164.27,0.0,0.02,3
1682370886.69969702,222992633,0.18,0.12,1.49,1.71,164.05,164.19,0.01,0.02,3
1682370886.79947591,223092412,0.1,-0.02,1.4000000000000001,1.67,164.05,164.07,0.01,0.02,3
1682370886.89950180,223192438,0.02,-0.07,1.34,1.57,164.05,163.98,0.01,0.02,3
1682370886.99950480,223292441,-0.05,-0.23,1.28,1.6300000000000001,164.05,163.8,0.01,0.02,3
1682370887.09953499,223392471,-0.09,-0.5700000000000001,1.24,1.5,164.05,163.66,0.01,0.02,3
1682370887.19936085,223492297,-0.12,-0.48,1.24,1.3900000000000001,164.05,163.52,0.01,0.02,3
1682370887.29970098,223592637,-0.03,-0.39,1.26,1.28,164.05,163.35,0.01,0.01,3
1682370887.39934683,223692283,0.03,-0.2,1.25,1.32,164.05,163.24,0.01,0.01,3
1682370887.49942303,223792359,0.08,-0.02,1.31,1.27,164.05,163.09,0.0,0.01,3
1682370887.59952593,223892462,0.23,-0.22,1.37,1.21,164.05,162.98,0.0,0.02,3
1682370887.69946980,223992406,0.28,-0.02,1.43,1.22,164.05,162.91,0.0,0.01,3
1682370887.79953790,224092474,0.36,0.1,1.51,1.26,164.05,162.87,0.0,0.02,3
1682370887.89950299,224192439,0.44,0.25,1.54,1.42,164.05,162.83,0.01,0.02,3
1682370887.99967098,224292607,0.45,0.43,1.61,1.55,164.05,162.84,0.01,0.02,3
1682370888.09972382,224392660,0.43,0.61,1.69,1.5,164.06,162.89000000000001,0.01,0.01,3
1682370888.19972181,224492658,0.39,0.33,1.72,1.42,164.06,162.96,0.01,0.02,3
1682370888.29934287,224592279,0.32,0.42,1.8,1.34,164.06,163.06,0.01,0.01,3
1682370888.39966702,224692603,0.32,0.11,1.8800000000000001,1.41,164.06,163.22,0.01,0.01,3
1682370888.49950194,224792438,0.23,0.33,1.93,1.6,164.06,163.34,0.01,0.01,3
1682370888.59974098,224892677,0.18,0.18,1.97,1.6300000000000001,164.06,163.45000000000002,0.01,0.01,3
1682370888.69964480,224992581,0.23,0.55,2.0100000000000002,1.72,164.06,163.6,0.02,0.02,3
1682370888.79972696,225092663,0.25,0.7000000000000001,2.0100000000000002,2.06,164.06,163.72,0.02,0.02,3
1682370888.89964581,225192582,0.17,0.7000000000000001,1.98,2.3000000000000003,164.06,163.89000000000001,0.04,0.02,3
1682370888.99966598,225292602,0.06,0.2,1.96,2.31,164.06,163.97,0.04,0.02,3
1682370889.09976792,225392704,-0.1,-0.07,1.8900000000000001,2.2,164.06,164.19,0.04,0.02,3
1682370889.19933581,225492272,-0.17,-0.45,1.85,2.0300000000000002,164.06,164.28,0.04,0.01,3
1682370889.29971290,225592649,-0.09,-0.6,1.71,1.81,164.06,164.37,0.04,0.01,3
1682370889.39962888,225692565,0.0,-0.33,1.6,1.58,164.06,164.44,0.04,0.01,3
1682370889.49963689,225792573,0.09,-0.11,1.71,1.3,164.06,164.46,0.07,0.02,3
1682370889.59984899,225892785,0.07,0.38,1.87,1.44,164.06,164.47,0.07,0.01,3
1682370889.69970202,225992638,0.04,0.21,2.05,1.83,164.06,164.43,0.07,0.02,3
1682370889.79967785,226092614,0.0,0.2,2.15,2.15,164.06,164.43,0.07,0.02,3
1682370889.89964390,226192580,0.0,0.07,2.13,2.34,164.06,164.35,0.05,0.01,3
1682370889.99994802,226292884,0.05,-0.15,2.07,2.33,164.06,164.31,0.05,0.02,3
1682370890.09939694,226392333,0.05,0.02,2.04,2.24,164.06,164.23,0.05,0.03,3
1682370890.19947481,226492411,0.11,0.06,2.02,2.25,164.06,164.09,0.05,0.02,3
1682370890.29941487,226592351,0.17,0.14,1.97,2.12,164.06,163.98,0.05,0.02,3
1682370890.39954591,226692482,0.26,0.42,1.95,2.0,164.06,163.79,0.05,0.02,3
1682370890.49952483,226792461,0.25,0.49,1.9000000000000001,2.0,164.06,163.68,0.05,0.03,3
1682370890.59963584,226892572,0.25,0.28,1.9100000000000001,1.9000000000000001,164.06,163.48,0.05,0.02,3
1682370890.69948983,226992426,0.21,0.28,1.87,1.9000000000000001,164.06,163.38,0.04,0.02,3
1682370890.79935002,227092286,0.19,0.23,1.85,1.84,164.06,163.18,0.04,0.02,3
1682370890.89980698,227192743,0.15,0.0,1.77,1.81,164.06,163.08,0.03,0.02,3
1682370890.99937582,227292312,0.05,0.06,1.6500000000000001,1.8,164.06,162.97,0.03,0.02,3
1682370891.09950089,227392437,0.0,0.01,1.59,1.61,164.06,162.9,0.04,0.02,3
1682370891.19937682,227492313,0.05,0.07,1.51,1.54,164.06,162.88,0.04,0.01,3
1682370891.29946685,227592403,0.02,0.34,1.52,1.36,164.06,162.9,0.05,0.01,3
1682370891.39952493,227692461,0.02,0.13,1.62,1.53,164.06,162.91,0.05,0.01,3
1682370891.49948692,227792423,0.06,-0.07,1.55,1.76,164.06,162.97,0.06,0.01,3
1682370891.59962201,227892558,0.13,-0.06,1.46,1.71,164.06,163.08,0.06,0.02,3
1682370891.69934988,227992286,0.13,0.18,1.41,1.5,164.06,163.12,0.07,0.02,3
1682370891.79943085,228092367,0.01,0.06,1.3900000000000001,1.47,164.06,163.23,0.07,0.02,3
1682370891.89932680,228192263,0.03,-0.22,1.37,1.42,164.06,163.36,0.08,0.02,3
1682370891.99973297,228292669,0.1,-0.16,1.3900000000000001,1.47,164.06,163.41,0.08,0.02,3
1682370892.09964800,228392584,0.09,0.03,1.35,1.48,164.06,163.47,0.07,0.02,3
1682370892.19958782,228492524,0.15,0.01,1.3,1.4000000000000001,164.06,163.54,0.07,0.03,3
1682370892.29962182,228592558,0.17,0.07,1.27,1.44,164.06,163.59,0.06,0.03,3
1682370892.39964581,228692582,0.17,0.24,1.28,1.49,164.06,163.58,0.06,0.02,3
1682370892.49960279,228792539,0.16,0.21,1.25,1.6,164.06,163.58,0.06,0.02,3
1682370892.59971499,228892651,0.09,0.09,1.17,1.53,164.06,163.56,0.06,0.03,3
1682370892.69964790,228992584,0.02,0.0,1.07,1.48,164.06,163.56,0.05,0.03,3
1682370892.79958892,229092525,-0.03,-0.12,0.9500000000000001,1.26,164.06,163.54,0.05,0.03,3
1682370892.89996195,229192898,-0.03,-0.21,0.89,1.09,164.06,163.5,0.04,0.02,3
1682370892.99945998,229292396,-0.01,-0.21,0.86,0.93,164.06,163.47,0.04,0.02,3
1682370893.09975481,229392691,0.0,0.0,0.89,1.02,164.06,163.45000000000002,0.04,0.02,3
1682370893.19971991,229492656,0.07,-0.08,0.9400000000000001,1.11,164.06,163.44,0.04,0.02,3
1682370893.29973292,229592669,0.04,0.01,0.9,1.25,164.06,163.38,0.03,0.02,3
1682370893.39967585,229692612,0.05,0.0,0.87,1.17,164.06,163.36,0.03,0.02,3
1682370893.49964499,229792581,0.03,-0.03,0.71,0.98,164.06,163.35,0.03,0.02,3
1682370893.59984899,229892785,0.01,-0.1,0.36,0.64,164.06,163.33,0.03,0.02,3
1682370893.69962597,229992562,0.01,-0.29,0.18,0.12,164.06,163.34,0.03,0.01,3
1682370893.80001497,230092951,0.0,-0.17,0.09,0.08,164.06,163.36,0.03,0.01,3
1682370893.89936590,230192302,0.0,-0.04,0.04,0.14,164.06,163.36,0.03,0.01,3
1682370893.99943495,230292371,0.0,-0.07,0.02,0.06,164.06,163.39000000000001,0.03,0.02,3
1682370894.09954691,230392483,0.0,-0.16,0.01,0.14,164.06,163.43,0.03,0.02,3
1682370894.19948792,230492424,0.0,-0.15,0.0,0.22,164.06,163.42000000000002,0.03,0.02,3
1682370894.29943585,230592372,0.0,-0.27,0.0,0.2,164.06,163.38,0.02,0.02,3
1682370894.39934897,230692285,0.0,-0.15,0.0,0.27,164.06,163.33,0.02,0.01,3
1682370894.49968481,230792621,0.0,-0.05,0.0,0.21,164.06,163.31,0.02,0.01,3
1682370894.59952092,230892457,0.0,-0.05,0.0,0.22,164.06,163.28,0.02,0.01,3
1682370894.69935393,230992290,0.0,0.1,0.0,0.21,164.06,163.25,0.02,0.01,3
1682370894.79938388,231092320,0.0,0.23,0.0,0.21,164.06,163.18,0.02,0.01,3
1682370894.89943290,231192369,0.0,0.19,0.0,0.14,164.06,163.19,0.02,0.01,3
1682370894.99949980,231292436,0.0,0.1,0.0,0.14,164.06,163.16,0.02,0.01,3
1682370895.09959698,231392533,0.0,0.06,0.0,0.11,164.06,163.14000000000001,0.02,0.01,3
1682370895.19950986,231492446,0.0,0.12,0.0,-0.05,164.06,163.14000000000001,0.02,0.01,3
1682370895.29933596,231592272,0.0,0.06,0.0,-0.13,164.06,163.14000000000001,0.02,0.02,3
1682370895.39974785,231692684,0.0,0.13,0.0,-0.12,164.06,163.14000000000001,0.02,0.02,3
