timestamp,TimeUS,I,Status,GMS,GWk,NSats,HDop,Lat,Lng,Alt,Spd,GCrs,VZ,Yaw,U
1682370824.19899988,160491936,0,3,162842199,2259,16,0.7000000000000001,42.690019799999995,-84.4888003,258.25,0.003162277862429619,251.5650634765625,-0.0430000014603138,0.0,1
1682370824.39920592,160692142,0,3,162842399,2259,16,0.7000000000000001,42.690019799999995,-84.4888003,258.26,0.026248810812830925,310.3645324707031,0.052000001072883606,0.0,1
1682370824.59928298,160892219,0,3,162842599,2259,16,0.7000000000000001,42.690019799999995,-84.4888004,258.25,0.025806976482272148,215.53768920898438,0.04700000211596489,0.0,1
1682370824.79960680,161092543,0,3,162842799,2259,16,0.7000000000000001,42.690019799999995,-84.4888004,258.27,0.01664331741631031,32.73522186279297,0.12000000476837158,0.0,1
1682370824.99908495,161292021,0,3,162842999,2259,16,0.7000000000000001,42.690019899999996,-84.4888003,258.26,0.011313709430396557,135.0,-0.01900000125169754,0.0,1
1682370825.19906998,161492006,0,3,162843199,2259,16,0.7000000000000001,42.690019899999996,-84.4888003,258.27,0.014142136089503765,315.0,-0.026000000536441803,0.0,1
1682370825.39914584,161692082,0,3,162843399,2259,16,0.7000000000000001,42.690019899999996,-84.4888003,258.27,0.011401754803955555,322.1250305175781,-0.04200000315904617,0.0,1
1682370825.59918594,161892122,0,3,162843599,2259,16,0.7000000000000001,42.690019899999996,-84.4888003,258.27,0.009433981962502003,237.99462890625,-0.04100000113248825,0.0,1
1682370825.79911900,162092055,0,3,162843799,2259,16,0.7000000000000001,42.69002,-84.4888003,258.28000000000003,0.003162277862429619,341.5650634765625,0.0820000022649765,0.0,1
1682370825.99901986,162291956,0,3,162843999,2259,16,0.7000000000000001,42.69002,-84.4888003,258.28000000000003,0.006000000052154064,180.0,0.023000001907348633,0.0,1
1682370826.19902492,162491961,0,3,162844199,2259,16,0.7000000000000001,42.69002,-84.4888003,258.29,0.012165524996817112,99.46231842041016,0.0650000050663948,0.0,1
1682370826.39933991,162692276,0,3,162844399,2259,16,0.7000000000000001,42.69002,-84.4888003,258.31,0.007810249924659729,129.80557250976562,-0.08800000697374344,0.0,1
1682370826.59922385,162892160,0,3,162844599,2259,16,0.7000000000000001,42.69002,-84.4888003,258.31,0.012165524996817112,260.5376892089844,-0.0950000062584877,0.0,1
1682370826.79937196,163092308,0,3,162844799,2259,16,0.7000000000000001,42.69002,-84.4888003,258.34000000000003,0.019723083823919296,30.465545654296875,0.01900000125169754,0.0,1
1682370826.99961901,163292555,0,3,162844999,2259,16,0.7000000000000001,42.6900201,-84.4888002,258.34000000000003,0.005385165102779865,201.80142211914062,0.0,0.0,1
1682370827.19913292,163492069,0,3,162845199,2259,16,0.7000000000000001,42.6900201,-84.4888002,258.35,0.003162277862429619,198.43495178222656,-0.014000000432133675,0.0,1
1682370827.39944887,163692385,0,3,162845399,2259,16,0.7000000000000001,42.6900201,-84.4888002,258.36,0.009999999776482582,36.869895935058594,0.02800000086426735,0.0,1
1682370827.59946990,163892406,0,3,162845599,2259,16,0.7000000000000001,42.6900201,-84.4888002,258.37,0.00984885822981596,246.0375213623047,-0.03500000014901161,0.0,1
1682370827.79934883,164092285,0,3,162845799,2259,16,0.7000000000000001,42.6900201,-84.4888002,258.38,0.023600848391652107,143.6156463623047,-0.0690000057220459,0.0,1
1682370827.99933195,164292268,0,3,162845999,2259,16,0.7000000000000001,42.6900201,-84.48880009999999,258.57,0.13819190859794617,138.81407165527344,-2.430000066757202,0.0,1
1682370828.21950889,164512445,0,3,162846199,2259,16,0.7000000000000001,42.690019799999995,-84.48879989999999,259.02,0.2066034972667694,163.40699768066406,-1.970000147819519,0.0,1
1682370828.41914582,164712082,0,3,162846399,2259,16,0.7000000000000001,42.6900197,-84.4887997,259.39,0.05474486202001572,80.53767395019531,-1.6130000352859497,0.0,1
1682370828.59967494,164892611,0,3,162846599,2259,16,0.7000000000000001,42.690019799999995,-84.4887995,259.68,0.09437160938978195,25.750473022460938,-1.1420000791549683,0.0,1
1682370828.79911184,165092048,0,3,162846799,2259,16,0.7000000000000001,42.69002,-84.48879939999999,259.85,0.06296825408935547,69.55044555664062,-0.6180000305175781,0.0,1
1682370828.99916697,165292103,0,3,162846999,2259,16,0.7000000000000001,42.69002,-84.48879939999999,259.96,0.07902532070875168,231.6798858642578,-0.39500001072883606,0.0,1
1682370829.19924402,165492180,0,3,162847199,2259,16,0.7000000000000001,42.6900201,-84.48879939999999,260.06,0.13461798429489136,25.994014739990234,-0.4140000343322754,0.0,1
1682370829.39922190,165692158,0,3,162847399,2259,16,0.7000000000000001,42.6900203,-84.4887992,260.13,0.07083079218864441,30.547569274902344,-0.2600000202655792,0.0,1
1682370829.59911084,165892047,0,3,162847599,2259,16,0.7000000000000001,42.6900203,-84.4887992,260.22,0.08962701261043549,215.46336364746094,-0.43300002813339233,0.0,1
1682370829.79908800,166092024,0,3,162847799,2259,16,0.7000000000000001,42.6900203,-84.4887992,260.32,0.01969771645963192,23.962488174438477,-0.398000031709671,0.0,1
1682370830.01923800,166312174,0,3,162847999,2259,16,0.7000000000000001,42.690020399999995,-84.4887993,260.38,0.06694027781486511,346.1713562011719,-0.41600000858306885,0.0,1
1682370830.19948983,166492426,0,3,162848199,2259,16,0.7000000000000001,42.690020399999995,-84.4887993,260.49,0.10043904185295105,192.65255737304688,-0.492000013589859,0.0,1
1682370830.39913487,166692071,0,3,162848399,2259,16,0.7000000000000001,42.6900203,-84.4887995,260.59000000000003,0.1770000010728836,270.0,-0.5200000405311584,0.0,1
1682370830.59928584,166892222,0,3,162848599,2259,16,0.7000000000000001,42.6900203,-84.4887998,260.72,0.04805205762386322,192.01148986816406,-0.6450000405311584,0.0,1
1682370830.79964995,167092586,0,3,162848799,2259,16,0.7000000000000001,42.6900203,-84.4887998,260.88,0.04997999966144562,250.11483764648438,-0.6770000457763672,0.0,1
1682370830.99946594,167292402,0,3,162848999,2259,16,0.7000000000000001,42.690020399999995,-84.48879989999999,261.01,0.08561542630195618,345.80145263671875,-0.6950000524520874,0.0,1
1682370831.19948983,167492426,0,3,162849199,2259,16,0.7000000000000001,42.690020499999996,-84.48879989999999,261.15,0.04373785853385925,259.4608154296875,-0.5830000042915344,0.0,1
1682370831.39936590,167692302,0,3,162849399,2259,16,0.7000000000000001,42.6900206,-84.4888,261.26,0.06612866371870041,339.6467590332031,-0.6050000190734863,0.0,1
1682370831.59929895,167892235,0,3,162849599,2259,16,0.7000000000000001,42.6900208,-84.48880009999999,261.38,0.13250283896923065,341.97528076171875,-0.6010000109672546,0.0,1
1682370831.79938889,168092325,0,3,162849799,2259,16,0.7000000000000001,42.6900209,-84.48880009999999,261.52,0.10877959430217743,173.13629150390625,-0.6380000114440918,0.0,1
1682370831.99949098,168292427,0,3,162849999,2259,16,0.7000000000000001,42.6900208,-84.4888002,261.66,0.08949302136898041,251.76751708984375,-0.6350000500679016,0.0,1
1682370832.19911790,168492054,0,3,162850199,2259,16,0.7000000000000001,42.6900207,-84.4888003,261.8,0.05882176756858826,234.6887969970703,-0.5090000033378601,0.0,1
1682370832.39911199,168692048,0,3,162850399,2259,16,0.7000000000000001,42.6900207,-84.48880059999999,261.9,0.15976545214653015,249.86370849609375,-0.5540000200271606,0.0,1
1682370832.59916091,168892097,0,3,162850599,2259,16,0.7000000000000001,42.690020499999996,-84.48880079999999,262.04,0.1544344574213028,204.07550048828125,-0.6310000419616699,0.0,1
1682370832.79920197,169092138,0,3,162850799,2259,16,0.7000000000000001,42.6900203,-84.4888009,262.2,0.1523975133895874,175.86080932617188,-0.7670000195503235,0.0,1
1682370832.99912596,169292062,0,3,162850999,2259,16,0.7000000000000001,42.69002,-84.488801,262.33,0.1739080250263214,210.3987274169922,-0.6440000534057617,0.0,1
1682370833.19909191,169492028,0,3,162851199,2259,16,0.7000000000000001,42.690019799999995,-84.48880109999999,262.48,0.12355566024780273,191.6737060546875,-0.6840000152587891,0.0,1
1682370833.39911795,169692054,0,3,162851399,2259,16,0.7000000000000001,42.6900197,-84.48880109999999,262.63,0.03860051929950714,73.44292449951172,-0.6800000071525574,0.0,1
1682370833.59918594,169892122,0,3,162851599,2259,16,0.7000000000000001,42.6900196,-84.4888009,262.76,0.2036786675453186,155.95181274414062,-0.4540000259876251,0.0,1
1682370833.79951596,170092452,0,3,162851799,2259,16,0.7000000000000001,42.6900194,-84.48880079999999,262.85,0.08570297807455063,138.31094360351562,-0.3580000102519989,0.0,1
1682370834.01942086,170312357,0,3,162851999,2259,16,0.7000000000000001,42.690019299999996,-84.48880059999999,262.92,0.12531960010528564,132.0891571044922,-0.2160000056028366,0.0,1
1682370834.19941783,170492354,0,3,162852199,2259,16,0.7000000000000001,42.6900191,-84.4888004,262.96,0.10064790397882462,115.29199981689453,-0.1730000078678131,0.0,1
1682370834.39930201,170692238,0,3,162852399,2259,16,0.7000000000000001,42.6900191,-84.48880009999999,262.97,0.12700393795967102,90.45113372802734,0.09300000220537186,0.0,1
1682370834.59939480,170892331,0,3,162852599,2259,16,0.7000000000000001,42.6900191,-84.4887998,262.96,0.11720921844244003,86.57612609863281,0.13100001215934753,0.0,1
1682370834.79942083,171092357,0,3,162852799,2259,16,0.7000000000000001,42.6900191,-84.4887995,262.95,0.11584904044866562,83.05900573730469,0.18000000715255737,0.0,1
1682370834.99911690,171292053,0,3,162852999,2259,16,0.7000000000000001,42.6900191,-84.4887992,262.94,0.09119759500026703,93.77227783203125,0.12400000542402267,0.0,1
1682370835.19934893,171492285,0,3,162853199,2259,16,0.7000000000000001,42.690019,-84.488799,262.94,0.14735332131385803,150.3033447265625,-0.013000000268220901,0.0,1
1682370835.39936996,171692306,0,3,162853399,2259,16,0.7000000000000001,42.690018599999995,-84.48879889999999,262.96,0.19481529295444489,170.24755859375,-0.007000000216066837,0.0,1
1682370835.59948683,171892423,0,3,162853599,2259,16,0.7000000000000001,42.6900183,-84.4887988,262.97,0.23148219287395477,170.0493621826172,0.023000001907348633,0.0,1
1682370835.79945183,172092388,0,3,162853799,2259,16,0.7000000000000001,42.6900178,-84.4887988,262.95,0.27351418137550354,172.22540283203125,0.1380000114440918,0.0,1
1682370835.99912596,172292062,0,3,162853999,2259,16,0.7000000000000001,42.6900172,-84.48879869999999,262.98,0.3753412067890167,177.55685424804688,0.04800000041723251,0.0,1
1682370836.19919801,172492134,0,3,162854199,2259,16,0.7000000000000001,42.6900165,-84.48879869999999,262.96,0.3348611891269684,175.88999938964844,0.02800000086426735,0.0,1
1682370836.39930797,172692244,0,3,162854399,2259,16,0.7000000000000001,42.6900159,-84.4887985,262.97,0.3483130931854248,168.2384033203125,0.1550000011920929,0.0,1
1682370836.59914994,172892086,0,3,162854599,2259,16,0.7000000000000001,42.6900153,-84.4887984,262.95,0.3616144359111786,171.89230346679688,-0.01900000125169754,0.0,1
1682370836.79935098,173092287,0,3,162854799,2259,16,0.7000000000000001,42.6900146,-84.48879819999999,262.95,0.35003143548965454,166.956298828125,0.16100001335144043,0.0,1
1682370836.99910784,173292044,0,3,162854999,2259,16,0.7000000000000001,42.690014,-84.4887981,262.95,0.38060086965560913,171.08213806152344,0.11600000411272049,0.0,1
1682370837.19920397,173492140,0,3,162855199,2259,16,0.7000000000000001,42.690013199999996,-84.4887979,262.95,0.3827858865261078,167.0166015625,0.04100000113248825,0.0,1
1682370837.39924884,173692185,0,3,162855399,2259,16,0.7000000000000001,42.690012499999995,-84.48879769999999,262.94,0.439095675945282,175.95156860351562,0.0010000000474974513,0.0,1
1682370837.59946084,173892397,0,3,162855599,2259,16,0.7000000000000001,42.6900116,-84.4887976,262.97,0.4844842851161957,173.1243438720703,0.03700000047683716,0.0,1
1682370837.79946494,174092401,0,3,162855799,2259,16,0.7000000000000001,42.6900106,-84.48879749999999,262.98,0.6104703545570374,173.8878173828125,-0.15400001406669617,0.0,1
1682370837.99932694,174292263,0,3,162855999,2259,16,0.7000000000000001,42.690009499999995,-84.4887973,262.99,0.5201999545097351,167.56675720214844,0.0020000000949949026,0.0,1
1682370838.21923399,174512170,0,3,162856199,2259,16,0.7000000000000001,42.6900085,-84.4887969,262.98,0.6604393124580383,164.3644256591797,0.06800000369548798,0.0,1
1682370838.39950490,174692441,0,3,162856399,2259,16,0.7000000000000001,42.6900074,-84.48879649999999,262.97,0.5039781928062439,164.2263641357422,0.05100000277161598,0.0,1
1682370838.61910391,174912040,0,3,162856599,2259,16,0.7000000000000001,42.6900064,-84.4887961,262.97,0.5688339471817017,159.8447723388672,0.04500000178813934,0.0,1
1682370838.79913783,175092074,0,3,162856799,2259,16,0.7000000000000001,42.6900055,-84.4887956,262.98,0.5617294907569885,156.72103881835938,0.06000000238418579,0.0,1
1682370838.99937797,175292314,0,3,162856999,2259,16,0.7000000000000001,42.690004599999995,-84.48879509999999,262.97,0.43072617053985596,146.45750427246094,0.02800000086426735,0.0,1
1682370839.19953084,175492467,0,3,162857199,2259,16,0.7000000000000001,42.690003999999995,-84.4887945,263.0,0.46555987000465393,141.62847900390625,-0.09200000762939453,0.0,1
1682370839.39948702,175692423,0,3,162857399,2259,16,0.7000000000000001,42.6900033,-84.48879389999999,263.03000000000003,0.3755582571029663,145.63290405273438,-0.0650000050663948,0.0,1
1682370839.59944582,175892382,0,3,162857599,2259,16,0.7000000000000001,42.690002799999995,-84.48879339999999,263.06,0.29698655009269714,138.95925903320312,0.02200000174343586,0.0,1
1682370839.79918694,176092123,0,3,162857799,2259,16,0.7000000000000001,42.6900024,-84.48879289999999,263.06,0.28357186913490295,135.71437072753906,0.036000002175569534,0.0,1
1682370840.01914787,176312084,0,3,162857999,2259,16,0.7000000000000001,42.690002,-84.4887924,263.05,0.31908148527145386,140.7232208251953,0.26900002360343933,0.0,1
1682370840.19922090,176492157,0,3,162858199,2259,16,0.7000000000000001,42.690001599999995,-84.4887919,263.0,0.26401516795158386,139.9165496826172,0.5920000076293945,0.0,1
1682370840.39912486,176692061,0,3,162858399,2259,16,0.7000000000000001,42.690000999999995,-84.48879149999999,262.94,0.4560745656490326,160.53208923339844,0.406000018119812,0.0,1
1682370840.59910393,176892040,0,3,162858599,2259,16,0.7000000000000001,42.6900003,-84.4887912,262.85,0.37854063510894775,161.0385284423828,0.26500001549720764,0.0,1
1682370840.79935884,177092295,0,3,162858799,2259,16,0.7000000000000001,42.6899996,-84.48879079999999,262.8,0.3863949179649353,153.23599243164062,0.1980000138282776,0.0,1
1682370840.99924898,177292185,0,3,162858999,2259,16,0.7000000000000001,42.689999,-84.4887904,262.79,0.39063283801078796,155.33753967285156,0.0430000014603138,0.0,1
1682370841.19915080,177492087,0,3,162859199,2259,16,0.7000000000000001,42.6899983,-84.48879,262.78000000000003,0.4774453043937683,158.75570678710938,-0.04100000113248825,0.0,1
1682370841.39913297,177692069,0,3,162859399,2259,16,0.7000000000000001,42.6899975,-84.48878959999999,262.8,0.4035467803478241,160.75685119628906,0.0950000062584877,0.0,1
1682370841.59936500,177892301,0,3,162859599,2259,16,0.7000000000000001,42.689996799999996,-84.4887892,262.81,0.3921734392642975,160.64100646972656,-0.03500000014901161,0.0,1
1682370841.79940701,178092343,0,3,162859799,2259,16,0.7000000000000001,42.689996099999995,-84.488789,262.82,0.47028717398643494,166.34788513183594,-0.08500000089406967,0.0,1
1682370841.99946499,178292401,0,3,162859999,2259,16,0.7000000000000001,42.6899952,-84.4887887,262.84000000000003,0.49948975443840027,167.16012573242188,0.05100000277161598,0.0,1
1682370842.19931388,178492250,0,3,162860199,2259,16,0.7000000000000001,42.689994299999995,-84.4887885,262.85,0.48635172843933105,173.26950073242188,-0.023000001907348633,0.0,1
1682370842.39925003,178692186,0,3,162860399,2259,16,0.7000000000000001,42.6899935,-84.48878839999999,262.86,0.4261748790740967,165.18115234375,-0.04400000348687172,0.0,1
1682370842.59921384,178892150,0,3,162860599,2259,16,0.7000000000000001,42.6899927,-84.4887881,262.86,0.49678269028663635,169.21031188964844,-0.04200000315904617,0.0,1
1682370842.79951286,179092449,0,3,162860799,2259,16,0.7000000000000001,42.6899917,-84.488788,262.89,0.5443317294120789,171.97409057617188,-0.08400000631809235,0.0,1
1682370842.99949002,179292426,0,3,162860999,2259,16,0.7000000000000001,42.689990699999996,-84.4887878,262.91,0.516853928565979,172.99871826171875,0.017000000923871994,0.0,1
1682370843.19945884,179492395,0,3,162861199,2259,16,0.7000000000000001,42.6899898,-84.4887876,262.92,0.5056896209716797,166.15609741210938,-0.01900000125169754,0.0,1
1682370843.39973688,179692673,0,3,162861399,2259,16,0.7000000000000001,42.689988799999995,-84.48878739999999,262.92,0.5883885025978088,170.31353759765625,-0.06300000101327896,0.0,1
1682370843.59944987,179892386,0,3,162861599,2259,16,0.7000000000000001,42.6899878,-84.48878719999999,262.95,0.5243214964866638,167.5541534423828,-0.09200000762939453,0.0,1
1682370843.79922700,180092163,0,3,162861799,2259,16,0.7000000000000001,42.6899869,-84.4887869,262.95,0.46208226680755615,168.0091552734375,-0.015000000596046448,0.0,1
1682370843.99912381,180292060,0,3,162861999,2259,16,0.7000000000000001,42.6899861,-84.48878669999999,262.98,0.44019317626953125,161.3180694580078,-0.06700000166893005,0.0,1
1682370844.19911289,180492049,0,3,162862199,2259,16,0.7000000000000001,42.6899853,-84.4887864,262.98,0.4565402865409851,167.0900421142578,-0.07900000363588333,0.0,1
1682370844.39941883,180692355,0,3,162862399,2259,16,0.7000000000000001,42.6899844,-84.4887861,263.0,0.5122987627983093,161.91871643066406,0.10200000554323196,0.0,1
1682370844.59925294,180892189,0,3,162862599,2259,16,0.7000000000000001,42.6899835,-84.4887858,263.0,0.5019412636756897,164.63475036621094,-0.014000000432133675,0.0,1
1682370844.79915094,181092087,0,3,162862799,2259,16,0.7000000000000001,42.6899827,-84.4887854,262.99,0.510656476020813,159.71971130371094,-0.06800000369548798,0.0,1
1682370844.99948001,181292416,0,3,162862999,2259,16,0.7000000000000001,42.6899818,-84.488785,263.02,0.4648118317127228,158.6792755126953,0.017000000923871994,0.0,1
1682370845.19931602,181492252,0,3,162863199,2259,16,0.7000000000000001,42.689980999999996,-84.4887846,263.03000000000003,0.47593697905540466,154.6194610595703,-0.0690000057220459,0.0,1
1682370845.39940786,181692344,0,3,162863399,2259,16,0.7000000000000001,42.6899802,-84.48878409999999,263.04,0.5144103765487671,159.8741455078125,-0.02200000174343586,0.0,1
1682370845.59941983,181892356,0,3,162863599,2259,16,0.7000000000000001,42.6899793,-84.4887837,263.05,0.4617283046245575,159.3277587890625,0.006000000052154064,0.0,1
1682370845.79931903,182092255,0,3,162863799,2259,16,0.7000000000000001,42.689978499999995,-84.4887835,263.05,0.45231184363365173,169.68380737304688,0.04000000283122063,0.0,1
1682370846.01917100,182312107,0,3,162863999,2259,16,0.7000000000000001,42.6899776,-84.4887832,263.06,0.5214441418647766,163.51123046875,0.04400000348687172,0.0,1
1682370846.19941282,182492349,0,3,162864199,2259,16,0.7000000000000001,42.6899768,-84.48878289999999,263.05,0.4099268317222595,160.32736206054688,-0.00800000037997961,0.0,1
1682370846.39952302,182692459,0,3,162864399,2259,16,0.7000000000000001,42.689976,-84.4887825,263.06,0.5147086977958679,166.74671936035156,0.0820000022649765,0.0,1
1682370846.59945893,182892395,0,3,162864599,2259,16,0.7000000000000001,42.689975,-84.4887823,263.06,0.5403785705566406,167.7126922607422,-0.0010000000474974513,0.0,1
1682370846.79979396,183092730,0,3,162864799,2259,16,0.7000000000000001,42.6899741,-84.48878189999999,263.06,0.4842199981212616,162.57537841796875,-0.07300000637769699,0.0,1
1682370846.99945688,183292393,0,3,162864999,2259,16,0.7000000000000001,42.6899732,-84.4887816,263.06,0.5167794823646545,168.2769317626953,0.009000000543892384,0.0,1
1682370847.19929385,183492230,0,3,162865199,2259,16,0.7000000000000001,42.689972399999995,-84.4887813,263.08,0.418226033449173,156.31570434570312,0.01600000075995922,0.0,1
1682370847.39916587,183692102,0,3,162865399,2259,16,0.7000000000000001,42.6899716,-84.4887809,263.08,0.5656721591949463,166.92185974121094,0.029000001028180122,0.0,1
1682370847.59910798,183892044,0,3,162865599,2259,16,0.7000000000000001,42.689970699999996,-84.48878069999999,263.09000000000003,0.4596281349658966,166.53819274902344,-0.00800000037997961,0.0,1
1682370847.79912281,184092059,0,3,162865799,2259,16,0.7000000000000001,42.6899698,-84.4887804,263.09000000000003,0.5502763390541077,164.39784240722656,-0.032999999821186066,0.0,1
1682370847.99939990,184292336,0,3,162865999,2259,16,0.7000000000000001,42.6899689,-84.48877999999999,263.08,0.4672098457813263,164.86318969726562,0.07800000160932541,0.0,1
1682370848.21948099,184512417,0,3,162866199,2259,16,0.7000000000000001,42.689968,-84.4887798,263.08,0.547521710395813,173.49801635742188,0.04500000178813934,0.0,1
1682370848.39916086,184692097,0,3,162866399,2259,16,0.7000000000000001,42.6899671,-84.48877949999999,263.1,0.4308526813983917,160.05096435546875,0.11500000208616257,0.0,1
1682370848.59910893,184892045,0,3,162866599,2259,16,0.7000000000000001,42.689966299999995,-84.4887792,263.07,0.4511186182498932,166.14857482910156,0.032999999821186066,0.0,1
1682370848.79945898,185092395,0,3,162866799,2259,16,0.7000000000000001,42.6899655,-84.4887789,263.09000000000003,0.45412003993988037,159.37010192871094,0.09200000762939453,0.0,1
1682370848.99941683,185292353,0,3,162866999,2259,16,0.7000000000000001,42.6899647,-84.4887785,263.09000000000003,0.5301848649978638,165.8064727783203,-0.029000001028180122,0.0,1
1682370849.19943094,185492367,0,3,162867199,2259,16,0.7000000000000001,42.6899638,-84.48877829999999,263.09000000000003,0.4387824237346649,166.6921844482422,-0.004000000189989805,0.0,1
1682370849.39945984,185692396,0,3,162867399,2259,16,0.7000000000000001,42.689963,-84.488778,263.09000000000003,0.47758665680885315,167.91360473632812,0.11800000816583633,0.0,1
1682370849.59923291,185892169,0,3,162867599,2259,16,0.7000000000000001,42.6899622,-84.4887777,263.09000000000003,0.5211679339408875,162.1212921142578,0.03500000014901161,0.0,1
1682370849.79937387,186092310,0,3,162867799,2259,16,0.7000000000000001,42.6899613,-84.48877739999999,263.1,0.42086222767829895,166.954345703125,0.1380000114440918,0.0,1
1682370849.99953580,186292472,0,3,162867999,2259,16,0.7000000000000001,42.6899605,-84.4887771,263.1,0.5122499465942383,165.52969360351562,0.11800000816583633,0.0,1
1682370850.21943688,186512373,0,3,162868199,2259,16,0.7000000000000001,42.6899595,-84.4887768,263.07,0.5748190879821777,168.86599731445312,0.13199999928474426,0.0,1
1682370850.39947581,186692412,0,3,162868399,2259,16,0.7000000000000001,42.6899586,-84.4887765,263.07,0.4832163155078888,161.0400848388672,0.12700000405311584,0.0,1
1682370850.59936285,186892299,0,3,162868599,2259,16,0.7000000000000001,42.689957799999995,-84.4887761,263.06,0.48984184861183167,161.30612182617188,0.06100000441074371,0.0,1
1682370850.79946685,187092403,0,3,162868799,2259,16,0.7000000000000001,42.689957,-84.48877569999999,263.07,0.4545118510723114,162.72116088867188,0.0010000000474974513,0.0,1
1682370850.99926496,187292201,0,3,162868999,2259,16,0.7000000000000001,42.6899562,-84.4887753,263.07,0.4769444465637207,151.71551513671875,0.014000000432133675,0.0,1
1682370851.19909596,187492032,0,3,162869199,2259,16,0.7000000000000001,42.6899553,-84.4887749,263.07,0.5245845913887024,164.29464721679688,0.09700000286102295,0.0,1
1682370851.39912486,187692061,0,3,162869399,2259,16,0.7000000000000001,42.6899543,-84.48877449999999,263.07,0.5943475365638733,162.87600708007812,-0.05300000309944153,0.0,1
1682370851.59937382,187892310,0,3,162869599,2259,16,0.7000000000000001,42.6899534,-84.4887741,263.07,0.49970391392707825,168.6900634765625,0.04800000041723251,0.0,1
1682370851.79925895,188092195,0,3,162869799,2259,16,0.7000000000000001,42.6899525,-84.4887739,263.09000000000003,0.475857138633728,166.1389617919922,0.039000000804662704,0.0,1
1682370852.01947188,188312408,0,3,162869999,2259,16,0.7000000000000001,42.689951699999995,-84.4887737,263.11,0.5094035863876343,171.64718627929688,0.04200000315904617,0.0,1
1682370852.19942093,188492357,0,3,162870199,2259,16,0.7000000000000001,42.6899507,-84.4887734,263.13,0.5056679248809814,167.66781616210938,0.0010000000474974513,0.0,1
1682370852.39932990,188692266,0,3,162870399,2259,16,0.7000000000000001,42.6899498,-84.4887732,263.15,0.5907707214355469,169.5650177001953,0.06599999964237213,0.0,1
1682370852.59941292,188892349,0,3,162870599,2259,16,0.7000000000000001,42.689948799999996,-84.4887729,263.18,0.49539080262184143,163.10134887695312,-0.017000000923871994,0.0,1
1682370852.79945087,189092387,0,3,162870799,2259,16,0.7000000000000001,42.6899479,-84.48877259999999,263.2,0.5121728181838989,167.4833221435547,-0.005000000353902578,0.0,1
1682370852.99931383,189292250,0,3,162870999,2259,16,0.7000000000000001,42.6899471,-84.4887723,263.21,0.41394323110580444,161.6963653564453,-0.07100000232458115,0.0,1
1682370853.19910002,189492036,0,3,162871199,2259,16,0.7000000000000001,42.6899464,-84.4887719,263.21,0.455329567193985,157.94154357910156,0.05100000277161598,0.0,1
1682370853.39938688,189692323,0,3,162871399,2259,16,0.7000000000000001,42.6899455,-84.4887715,263.21,0.5401796698570251,162.43716430664062,0.06599999964237213,0.0,1
1682370853.59951282,189892449,0,3,162871599,2259,16,0.7000000000000001,42.6899447,-84.4887711,263.22,0.4547054171562195,159.53244018554688,0.09200000762939453,0.0,1
1682370853.79947591,190092412,0,3,162871799,2259,16,0.7000000000000001,42.689943899999996,-84.48877069999999,263.23,0.4608481526374817,160.34616088867188,0.10400000214576721,0.0,1
1682370853.99914503,190292081,0,3,162871999,2259,16,0.7000000000000001,42.6899431,-84.4887703,263.22,0.4644491672515869,158.79420471191406,0.021000001579523087,0.0,1
1682370854.19918895,190492125,0,3,162872199,2259,16,0.7000000000000001,42.6899423,-84.4887699,263.22,0.4623526930809021,160.9380340576172,0.06700000166893005,0.0,1
1682370854.39928889,190692225,0,3,162872399,2259,16,0.7000000000000001,42.689941499999996,-84.4887696,263.22,0.46565333008766174,164.1728973388672,0.05700000375509262,0.0,1
1682370854.59924388,190892180,0,3,162872599,2259,16,0.7000000000000001,42.6899407,-84.4887693,263.22,0.5324857234954834,168.0780792236328,0.10400000214576721,0.0,1
1682370854.79910493,191092041,0,3,162872799,2259,16,0.7000000000000001,42.6899398,-84.4887689,263.21,0.4648462235927582,157.35166931152344,0.15800000727176666,0.0,1
1682370854.99911499,191292051,0,3,162872999,2259,16,0.7000000000000001,42.6899391,-84.48876849999999,263.23,0.48870134353637695,155.58514404296875,0.10700000822544098,0.0,1
1682370855.19919991,191492136,0,3,162873199,2259,16,0.7000000000000001,42.6899383,-84.488768,263.23,0.47780856490135193,158.64393615722656,-0.010000000707805157,0.0,1
1682370855.39927197,191692208,0,3,162873399,2259,16,0.7000000000000001,42.6899374,-84.4887677,263.23,0.5293996930122375,164.44113159179688,0.02800000086426735,0.0,1
1682370855.59945083,191892387,0,3,162873599,2259,16,0.7000000000000001,42.689936499999995,-84.48876729999999,263.24,0.5040079355239868,158.83189392089844,0.06800000369548798,0.0,1
1682370855.79933286,192092269,0,3,162873799,2259,16,0.7000000000000001,42.6899356,-84.4887668,263.24,0.5203239321708679,158.46441650390625,0.015000000596046448,0.0,1
1682370855.99933290,192292269,0,3,162873999,2259,16,0.7000000000000001,42.689934799999996,-84.4887664,263.25,0.49118736386299133,160.49525451660156,0.01900000125169754,0.0,1
1682370856.19941401,192492350,0,3,162874199,2259,16,0.7000000000000001,42.689934,-84.48876589999999,263.26,0.46424993872642517,154.20767211914062,-0.07100000232458115,0.0,1
1682370856.39943886,192692375,0,3,162874399,2259,16,0.7000000000000001,42.6899332,-84.4887655,263.27,0.512923002243042,161.70632934570312,0.003000000026077032,0.0,1
1682370856.59929681,192892233,0,3,162874599,2259,16,0.7000000000000001,42.6899324,-84.4887652,263.29,0.41792944073677063,165.16571044921875,-0.01600000075995922,0.0,1
1682370856.79913187,193092068,0,3,162874799,2259,15,0.7000000000000001,42.6899315,-84.488765,263.29,0.5760295391082764,174.1211395263672,0.052000001072883606,0.0,1
1682370856.99940991,193292346,0,3,162874999,2259,16,0.7000000000000001,42.689930499999996,-84.4887648,263.28000000000003,0.5736009478569031,166.18177795410156,0.11100000888109207,0.0,1
1682370857.19952488,193492461,0,3,162875199,2259,16,0.7000000000000001,42.6899295,-84.4887644,263.29,0.5266213417053223,166.9401397705078,-0.02800000086426735,0.0,1
1682370857.39951992,193692456,0,3,162875399,2259,16,0.7000000000000001,42.689928599999995,-84.48876419999999,263.3,0.48787805438041687,167.3310546875,0.024000000208616257,0.0,1
1682370857.59969997,193892636,0,3,162875599,2259,16,0.7000000000000001,42.6899277,-84.4887639,263.29,0.47468411922454834,166.72491455078125,0.05100000277161598,0.0,1
1682370857.79918885,194092125,0,3,162875799,2259,16,0.7000000000000001,42.689926899999996,-84.48876369999999,263.29,0.5398852229118347,166.06671142578125,0.0430000014603138,0.0,1
1682370858.01951289,194312449,0,3,162875999,2259,16,0.7000000000000001,42.689926,-84.4887634,263.31,0.42546916007995605,170.8033447265625,-0.03400000184774399,0.0,1
1682370858.21910095,194512037,0,3,162876199,2259,16,0.7000000000000001,42.6899252,-84.4887633,263.34000000000003,0.4997299611568451,169.27468872070312,0.0,0.0,1
1682370858.39912486,194692061,0,3,162876399,2259,16,0.7000000000000001,42.689924399999995,-84.48876299999999,263.34000000000003,0.43753859400749207,165.7096710205078,-0.003000000026077032,0.0,1
1682370858.61931586,194912252,0,3,162876599,2259,16,0.7000000000000001,42.6899235,-84.48876279999999,263.33,0.5295149087905884,168.56272888183594,0.0020000000949949026,0.0,1
1682370858.79919100,195092127,0,3,162876799,2259,16,0.7000000000000001,42.689922599999996,-84.48876249999999,263.36,0.5176070332527161,167.8433837890625,0.06400000303983688,0.0,1
1682370858.99926281,195292199,0,3,162876999,2259,16,0.7000000000000001,42.6899217,-84.48876229999999,263.35,0.4979809522628784,167.94540405273438,0.07300000637769699,0.0,1
1682370859.19912291,195492059,0,3,162877199,2259,16,0.7000000000000001,42.689920799999996,-84.488762,263.35,0.5198317170143127,170.70074462890625,0.02500000037252903,0.0,1
1682370859.39957881,195692515,0,3,162877399,2259,16,0.7000000000000001,42.6899199,-84.48876179999999,263.37,0.48869726061820984,162.86277770996094,-0.003000000026077032,0.0,1
1682370859.59942198,195892358,0,3,162877599,2259,16,0.7000000000000001,42.689918999999996,-84.4887614,263.37,0.49556538462638855,162.2597198486328,0.03800000250339508,0.0,1
1682370859.79942393,196092360,0,3,162877799,2259,16,0.7000000000000001,42.6899182,-84.48876109999999,263.39,0.47197142243385315,164.13796997070312,-0.006000000052154064,0.0,1
1682370859.99946594,196292402,0,3,162877999,2259,16,0.7000000000000001,42.6899172,-84.4887607,263.37,0.5614000558853149,163.76019287109375,-0.009000000543892384,0.0,1
1682370860.19930696,196492243,0,3,162878199,2259,16,0.7000000000000001,42.6899164,-84.4887603,263.39,0.4373568296432495,162.02073669433594,0.10400000214576721,0.0,1
1682370860.41922092,196712157,0,3,162878399,2259,16,0.7000000000000001,42.6899155,-84.48876,263.39,0.5113834142684937,160.8209686279297,-0.13100001215934753,0.0,1
1682370860.59937000,196892306,0,3,162878599,2259,16,0.7000000000000001,42.689914699999996,-84.4887596,263.4,0.448626846075058,159.78775024414062,0.0650000050663948,0.0,1
1682370860.79952693,197092463,0,3,162878799,2259,16,0.7000000000000001,42.6899139,-84.48875919999999,263.41,0.46011412143707275,161.76193237304688,0.07900000363588333,0.0,1
1682370860.99945784,197292394,0,3,162878999,2259,16,0.7000000000000001,42.6899131,-84.4887588,263.41,0.509095311164856,165.55430603027344,0.007000000216066837,0.0,1
1682370861.19944096,197492377,0,3,162879199,2259,16,0.7000000000000001,42.6899121,-84.4887585,263.41,0.5600946545600891,164.99609375,0.024000000208616257,0.0,1
1682370861.39972401,197692660,0,3,162879399,2259,16,0.7000000000000001,42.6899112,-84.4887581,263.42,0.42508000135421753,157.59786987304688,-0.007000000216066837,0.0,1
1682370861.59927201,197892208,0,3,162879599,2259,16,0.7000000000000001,42.689910399999995,-84.4887577,263.42,0.523686945438385,161.980224609375,0.013000000268220901,0.0,1
1682370861.79914498,198092081,0,3,162879799,2259,16,0.7000000000000001,42.6899095,-84.4887574,263.43,0.5195267200469971,163.44862365722656,-0.00800000037997961,0.0,1
1682370861.99911189,198292048,0,3,162879999,2259,16,0.7000000000000001,42.689908599999995,-84.4887571,263.47,0.4479754567146301,163.2639923095703,-0.0010000000474974513,0.0,1
1682370862.19912100,198492057,0,3,162880199,2259,16,0.7000000000000001,42.6899077,-84.48875679999999,263.46,0.5476367473602295,171.0708770751953,0.04800000041723251,0.0,1
1682370862.39939380,198692330,0,3,162880399,2259,16,0.7000000000000001,42.689906799999996,-84.4887566,263.47,0.4916848838329315,165.0310516357422,0.07800000160932541,0.0,1
1682370862.59926295,198892199,0,3,162880599,2259,16,0.7000000000000001,42.6899059,-84.48875629999999,263.47,0.47394201159477234,166.57949829101562,0.02500000037252903,0.0,1
1682370862.79918599,199092122,0,3,162880799,2259,16,0.7000000000000001,42.689904999999996,-84.48875609999999,263.47,0.4848608374595642,165.30455017089844,-0.032999999821186066,0.0,1
1682370862.99911880,199292055,0,3,162880999,2259,16,0.7000000000000001,42.6899042,-84.48875579999999,263.48,0.46295788884162903,161.4867706298828,0.027000000700354576,0.0,1
1682370863.19918299,199492119,0,3,162881199,2259,16,0.7000000000000001,42.6899033,-84.4887555,263.5,0.4720858037471771,169.38034057617188,0.039000000804662704,0.0,1
1682370863.39924884,199692185,0,3,162881399,2259,16,0.7000000000000001,42.689902499999995,-84.4887553,263.49,0.4651118218898773,164.40994262695312,-0.0430000014603138,0.0,1
1682370863.59915400,199892090,0,3,162881599,2259,16,0.7000000000000001,42.6899016,-84.488755,263.51,0.4918617904186249,168.50729370117188,0.02500000037252903,0.0,1
1682370863.79930496,200092241,0,3,162881799,2259,16,0.7000000000000001,42.689900699999995,-84.4887547,263.49,0.49742642045021057,161.60145568847656,0.08000000566244125,0.0,1
1682370864.01919794,200312134,0,3,162881999,2259,16,0.7000000000000001,42.6898999,-84.4887543,263.5,0.5084604620933533,158.78448486328125,0.017000000923871994,0.0,1
1682370864.19950581,200492442,0,3,162882199,2259,16,0.7000000000000001,42.689898899999996,-84.48875389999999,263.5,0.5493278503417969,160.87237548828125,-0.0690000057220459,0.0,1
1682370864.39953184,200692468,0,3,162882399,2259,16,0.7000000000000001,42.6898981,-84.4887535,263.53000000000003,0.4609772562980652,155.6588897705078,-0.06000000238418579,0.0,1
1682370864.59946084,200892397,0,3,162882599,2259,16,0.7000000000000001,42.6898972,-84.4887531,263.54,0.5116190314292908,158.80166625976562,0.01900000125169754,0.0,1
1682370864.79944587,201092382,0,3,162882799,2259,16,0.7000000000000001,42.6898963,-84.48875269999999,263.55,0.5500191450119019,162.6521759033203,-0.12800000607967377,0.0,1
1682370864.99919200,201292128,0,3,162882999,2259,16,0.7000000000000001,42.6898955,-84.4887523,263.58,0.40480244159698486,165.5518035888672,0.0010000000474974513,0.0,1
1682370865.19926286,201492199,0,3,162883199,2259,16,0.7000000000000001,42.689894699999996,-84.48875199999999,263.57,0.4739251136779785,158.84963989257812,0.021000001579523087,0.0,1
1682370865.39923286,201692169,0,3,162883399,2259,16,0.7000000000000001,42.6898938,-84.4887516,263.57,0.5184293389320374,164.67703247070312,0.10600000619888306,0.0,1
1682370865.59911394,201892050,0,3,162883599,2259,16,0.7000000000000001,42.6898929,-84.48875129999999,263.56,0.529498815536499,165.22889709472656,0.12200000882148743,0.0,1
1682370865.79911089,202092047,0,3,162883799,2259,16,0.7000000000000001,42.689892,-84.488751,263.54,0.4602445363998413,162.94302368164062,0.08700000494718552,0.0,1
1682370865.99918699,202292123,0,3,162883999,2259,16,0.7000000000000001,42.6898912,-84.4887507,263.5,0.5101313591003418,170.40841674804688,0.0650000050663948,0.0,1
1682370866.19924092,202492177,0,3,162884199,2259,16,0.7000000000000001,42.689890299999995,-84.4887504,263.53000000000003,0.46554917097091675,162.49913024902344,0.14600001275539398,0.0,1
1682370866.39947486,202692411,0,3,162884399,2259,16,0.7000000000000001,42.6898895,-84.48875,263.51,0.4612678587436676,158.1063232421875,0.024000000208616257,0.0,1
1682370866.59931898,202892255,0,3,162884599,2259,16,0.7000000000000001,42.6898887,-84.4887495,263.5,0.4485989511013031,154.234619140625,0.06400000303983688,0.0,1
1682370866.79931092,203092247,0,3,162884799,2259,16,0.7000000000000001,42.689887999999996,-84.48874909999999,263.5,0.45295146107673645,155.75494384765625,-0.015000000596046448,0.0,1
1682370866.99940801,203292344,0,3,162884999,2259,16,0.7000000000000001,42.6898872,-84.4887486,263.47,0.4657435119152069,158.72401428222656,0.08800000697374344,0.0,1
1682370867.19941783,203492354,0,3,162885199,2259,16,0.7000000000000001,42.6898864,-84.4887483,263.47,0.421245813369751,160.8768310546875,0.06400000303983688,0.0,1
1682370867.39911699,203692053,0,3,162885399,2259,16,0.7000000000000001,42.6898857,-84.4887478,263.48,0.4651021361351013,153.43495178222656,-0.05000000074505806,0.0,1
1682370867.59932184,203892258,0,3,162885599,2259,16,0.7000000000000001,42.689884899999996,-84.4887474,263.48,0.47707441449165344,159.89376831054688,-0.05100000277161598,0.0,1
1682370867.79943395,204092370,0,3,162885799,2259,16,0.7000000000000001,42.6898841,-84.48874699999999,263.48,0.48725560307502747,166.10633850097656,0.12000000476837158,0.0,1
1682370867.99950385,204292440,0,3,162885999,2259,16,0.7000000000000001,42.6898833,-84.4887467,263.51,0.41648173332214355,161.95657348632812,-0.01900000125169754,0.0,1
1682370868.21955180,204512488,0,3,162886199,2259,16,0.7000000000000001,42.6898826,-84.4887464,263.5,0.4555436670780182,159.97390747070312,0.05400000140070915,0.0,1
1682370868.39913702,204692073,0,3,162886399,2259,16,0.7000000000000001,42.6898817,-84.48874599999999,263.5,0.5266735553741455,164.69715881347656,-0.01100000087171793,0.0,1
1682370868.61939192,204912328,0,3,162886599,2259,16,0.7000000000000001,42.6898808,-84.4887457,263.5,0.5910617709159851,165.79917907714844,0.02500000037252903,0.0,1
1682370868.79944801,205092384,0,3,162886799,2259,16,0.7000000000000001,42.6898798,-84.4887454,263.5,0.515864372253418,167.6880340576172,-0.06599999964237213,0.0,1
1682370868.99915385,205292090,0,3,162886999,2259,16,0.7000000000000001,42.6898789,-84.4887451,263.5,0.5104399919509888,163.73080444335938,0.03100000135600567,0.0,1
1682370869.19909596,205492032,0,3,162887199,2259,16,0.7000000000000001,42.6898781,-84.4887447,263.53000000000003,0.4525229334831238,161.44493103027344,-0.05400000140070915,0.0,1
1682370869.39913082,205692067,0,3,162887399,2259,16,0.7000000000000001,42.6898773,-84.4887444,263.56,0.4539218246936798,160.16786193847656,0.032999999821186066,0.0,1
1682370869.59936690,205892303,0,3,162887599,2259,16,0.7000000000000001,42.689876399999996,-84.488744,263.56,0.5626828670501709,166.0131378173828,0.0010000000474974513,0.0,1
1682370869.79951191,206092448,0,3,162887799,2259,16,0.7000000000000001,42.6898755,-84.4887437,263.54,0.5439605116844177,163.6639404296875,0.07100000232458115,0.0,1
1682370870.01945281,206312389,0,3,162887999,2259,16,0.7000000000000001,42.689874499999995,-84.48874339999999,263.53000000000003,0.588003396987915,169.41624450683594,0.0010000000474974513,0.0,1
1682370870.19932985,206492266,0,3,162888199,2259,16,0.7000000000000001,42.6898735,-84.4887431,263.55,0.4742204546928406,163.20816040039062,-0.010000000707805157,0.0,1
1682370870.39931893,206692255,0,3,162888399,2259,16,0.7000000000000001,42.6898726,-84.4887428,263.54,0.5813105702400208,168.18746948242188,-0.004000000189989805,0.0,1
1682370870.61921692,206912153,0,3,162888599,2259,16,0.7000000000000001,42.6898717,-84.4887426,263.55,0.4262511134147644,164.62696838378906,0.0820000022649765,0.0,1
1682370870.79914093,207092077,0,3,162888799,2259,16,0.7000000000000001,42.689870899999995,-84.48874219999999,263.58,0.48431396484375,157.67132568359375,-0.09200000762939453,0.0,1
1682370870.99937487,207292311,0,3,162888999,2259,16,0.7000000000000001,42.6898701,-84.4887419,263.59000000000003,0.46815919876098633,168.04200744628906,0.01900000125169754,0.0,1
1682370871.19932294,207492259,0,3,162889199,2259,16,0.7000000000000001,42.6898692,-84.4887416,263.57,0.5789758563041687,164.16334533691406,-0.055000003427267075,0.0,1
1682370871.39936399,207692300,0,3,162889399,2259,16,0.7000000000000001,42.6898682,-84.4887413,263.59000000000003,0.46806198358535767,170.03456115722656,0.08000000566244125,0.0,1
1682370871.59923983,207892176,0,3,162889599,2259,16,0.7000000000000001,42.689867299999996,-84.48874099999999,263.59000000000003,0.556870698928833,166.2881622314453,0.02800000086426735,0.0,1
1682370871.79915690,208092093,0,3,162889799,2259,16,0.7000000000000001,42.6898664,-84.4887407,263.59000000000003,0.5003008842468262,168.35316467285156,0.07400000095367432,0.0,1
1682370871.99958301,208292519,0,3,162889999,2259,16,0.7000000000000001,42.6898656,-84.4887404,263.6,0.4373854100704193,159.24462890625,-0.06800000369548798,0.0,1
1682370872.19946384,208492400,0,3,162890199,2259,16,0.7000000000000001,42.689864799999995,-84.4887401,263.63,0.4669046998023987,170.13418579101562,-0.02500000037252903,0.0,1
1682370872.39927602,208692212,0,3,162890399,2259,16,0.7000000000000001,42.6898639,-84.4887399,263.64,0.4821047782897949,174.6441650390625,0.06200000271201134,0.0,1
1682370872.59914398,208892080,0,3,162890599,2259,16,0.7000000000000001,42.689862999999995,-84.4887397,263.64,0.5160716772079468,164.37484741210938,-0.0010000000474974513,0.0,1
1682370872.79911280,209092049,0,3,162890799,2259,16,0.7000000000000001,42.6898621,-84.4887394,263.65,0.4842282831668854,168.20274353027344,-0.007000000216066837,0.0,1
1682370872.99934387,209292280,0,3,162890999,2259,16,0.7000000000000001,42.6898613,-84.48873909999999,263.64,0.454252153635025,164.15855407714844,0.046000003814697266,0.0,1
1682370873.19937396,209492310,0,3,162891199,2259,16,0.7000000000000001,42.689860499999995,-84.4887388,263.64,0.4336634874343872,165.57920837402344,0.08400000631809235,0.0,1
1682370873.39946103,209692397,0,3,162891399,2259,16,0.7000000000000001,42.6898597,-84.4887384,263.66,0.4892320930957794,159.41653442382812,0.07400000095367432,0.0,1
1682370873.59936690,209892303,0,3,162891599,2259,16,0.7000000000000001,42.6898589,-84.488738,263.66,0.48872286081314087,166.3902587890625,-0.05300000309944153,0.0,1
1682370873.79928899,210092225,0,3,162891799,2259,16,0.7000000000000001,42.689858,-84.4887377,263.68,0.5232991576194763,159.76431274414062,-0.05900000408291817,0.0,1
1682370873.99966288,210292599,0,3,162891999,2259,16,0.7000000000000001,42.6898572,-84.4887372,263.69,0.46201735734939575,157.8761749267578,0.03400000184774399,0.0,1
1682370874.19947195,210492408,0,3,162892199,2259,16,0.7000000000000001,42.689856299999995,-84.48873689999999,263.69,0.5232532620429993,164.8217010498047,0.01600000075995922,0.0,1
1682370874.39950395,210692440,0,3,162892399,2259,16,0.7000000000000001,42.6898555,-84.4887365,263.71,0.4690682590007782,162.76255798339844,-0.017000000923871994,0.0,1
1682370874.59936285,210892299,0,3,162892599,2259,16,0.7000000000000001,42.6898547,-84.4887361,263.68,0.47881627082824707,159.33189392089844,0.01900000125169754,0.0,1
1682370874.79933691,211092273,0,3,162892799,2259,16,0.7000000000000001,42.689853799999995,-84.48873569999999,263.71,0.5332335829734802,160.6136016845703,0.09100000560283661,0.0,1
1682370874.99939084,211292327,0,3,162892999,2259,16,0.7000000000000001,42.6898529,-84.4887353,263.68,0.5173954367637634,162.33547973632812,0.01900000125169754,0.0,1
1682370875.19926691,211492203,0,3,162893199,2259,16,0.7000000000000001,42.689851999999995,-84.4887349,263.67,0.5190616846084595,162.856689453125,0.012000000104308128,0.0,1
1682370875.39916182,211692098,0,3,162893399,2259,16,0.7000000000000001,42.6898512,-84.48873449999999,263.69,0.4813314974308014,164.57781982421875,0.11600000411272049,0.0,1
1682370875.59912086,211892057,0,3,162893599,2259,16,0.7000000000000001,42.689850299999996,-84.4887342,263.7,0.5585598349571228,166.0135040283203,-0.049000002443790436,0.0,1
1682370875.79918599,212092122,0,3,162893799,2259,16,0.7000000000000001,42.6898493,-84.48873379999999,263.7,0.5592924952507019,165.7152862548828,-0.125,0.0,1
1682370876.01945686,212312393,0,3,162893999,2259,16,0.7000000000000001,42.6898485,-84.4887335,263.73,0.45361658930778503,164.922119140625,-0.08700000494718552,0.0,1
1682370876.19923186,212492168,0,3,162894199,2259,16,0.7000000000000001,42.6898477,-84.4887332,263.73,0.4376528561115265,164.6300506591797,-0.07500000298023224,0.0,1
1682370876.39910603,212692042,0,3,162894399,2259,16,0.7000000000000001,42.6898469,-84.4887329,263.75,0.463289350271225,166.7736358642578,-0.05400000140070915,0.0,1
1682370876.59910583,212892042,0,3,162894599,2259,16,0.7000000000000001,42.689845999999996,-84.48873259999999,263.78000000000003,0.4801041781902313,162.54629516601562,0.01100000087171793,0.0,1
1682370876.79917502,213092111,0,3,162894799,2259,16,0.7000000000000001,42.6898451,-84.4887323,263.78000000000003,0.54350346326828,170.4683380126953,-0.0990000069141388,0.0,1
1682370876.99953985,213292476,0,3,162894999,2259,15,0.7000000000000001,42.689844099999995,-84.4887321,263.76,0.5218294858932495,167.2687225341797,0.012000000104308128,0.0,1
1682370877.19940901,213492345,0,3,162895199,2259,16,0.7000000000000001,42.6898432,-84.4887317,263.78000000000003,0.477604478597641,166.80755615234375,-0.012000000104308128,0.0,1
1682370877.39930391,213692240,0,3,162895399,2259,16,0.7000000000000001,42.689842399999996,-84.48873139999999,263.79,0.49701613187789917,166.8584747314453,-0.04700000211596489,0.0,1
1682370877.59932685,213892263,0,3,162895599,2259,16,0.7000000000000001,42.6898415,-84.4887311,263.83,0.44563326239585876,164.77870178222656,-0.01600000075995922,0.0,1
1682370877.79938483,214092321,0,3,162895799,2259,16,0.7000000000000001,42.6898407,-84.4887308,263.84000000000003,0.41116663813591003,164.9159698486328,-0.07100000232458115,0.0,1
1682370877.99952483,214292461,0,3,162895999,2259,16,0.7000000000000001,42.689839899999996,-84.4887306,263.83,0.5173664093017578,169.08099365234375,-0.030000001192092896,0.0,1
1682370878.21913195,214512068,0,3,162896199,2259,16,0.7000000000000001,42.689839,-84.4887303,263.85,0.5064356327056885,171.597900390625,-0.05300000309944153,0.0,1
1682370878.39933801,214692274,0,3,162896399,2259,16,0.7000000000000001,42.6898382,-84.48872999999999,263.85,0.446658730506897,160.10455322265625,-0.015000000596046448,0.0,1
1682370878.59936285,214892299,0,3,162896599,2259,16,0.7000000000000001,42.689837399999995,-84.4887297,263.86,0.4781600534915924,163.72540283203125,-0.029000001028180122,0.0,1
1682370878.79950285,215092439,0,3,162896799,2259,16,0.7000000000000001,42.6898366,-84.4887293,263.89,0.37232381105422974,157.91281127929688,0.012000000104308128,0.0,1
1682370878.99950290,215292439,0,3,162896999,2259,16,0.7000000000000001,42.6898359,-84.48872899999999,263.86,0.4585281014442444,164.56951904296875,-0.049000002443790436,0.0,1
1682370879.19912386,215492060,0,3,162897199,2259,15,0.7000000000000001,42.6898353,-84.48872879999999,263.87,0.3078327476978302,167.04722595214844,0.0,0.0,1
1682370879.39918685,215692123,0,3,162897399,2259,15,0.7000000000000001,42.6898348,-84.4887287,263.85,0.2513483464717865,174.0625762939453,-0.07800000160932541,0.0,1
1682370879.59925890,215892195,0,3,162897599,2259,15,0.7000000000000001,42.689834399999995,-84.4887286,263.84000000000003,0.1720465123653412,178.6677703857422,-0.007000000216066837,0.0,1
1682370879.79925179,216092188,0,3,162897799,2259,15,0.7000000000000001,42.6898342,-84.4887286,263.84000000000003,0.06100820004940033,180.93919372558594,-0.03200000151991844,0.0,1
1682370879.99909687,216292033,0,3,162897999,2259,15,0.7000000000000001,42.6898341,-84.4887286,263.85,0.009899495169520378,135.0,-0.0860000029206276,0.0,1
1682370880.19910789,216492044,0,3,162898199,2259,16,0.7000000000000001,42.6898341,-84.4887286,263.87,0.03301514685153961,91.73570251464844,-0.01600000075995922,0.0,1
1682370880.39921689,216692153,0,3,162898399,2259,16,0.7000000000000001,42.6898341,-84.4887285,263.87,0.02024845778942108,122.90522766113281,0.017000000923871994,0.0,1
1682370880.61945987,216912396,0,3,162898599,2259,16,0.7000000000000001,42.689834,-84.4887285,263.87,0.0434165894985199,151.07357788085938,-0.0010000000474974513,0.0,1
1682370880.79948997,217092426,0,3,162898799,2259,16,0.7000000000000001,42.689833899999996,-84.4887284,263.86,0.0353553406894207,151.26019287109375,0.03100000135600567,0.0,1
1682370880.99927998,217292216,0,3,162898999,2259,16,0.7000000000000001,42.689833899999996,-84.4887284,263.87,0.03401470556855202,178.3153076171875,0.0690000057220459,0.0,1
1682370881.19932389,217492260,0,3,162899199,2259,16,0.7000000000000001,42.689833799999995,-84.4887284,263.88,0.015556350350379944,135.0,-0.03400000184774399,0.0,1
1682370881.39939880,217692335,0,3,162899399,2259,16,0.7000000000000001,42.689833799999995,-84.4887284,263.87,0.029681645333766937,147.38075256347656,-0.09100000560283661,0.0,1
1682370881.59962296,217892559,0,3,162899599,2259,16,0.7000000000000001,42.689833799999995,-84.4887284,263.88,0.01612451672554016,82.8749771118164,-0.0650000050663948,0.0,1
1682370881.79908395,218092020,0,3,162899799,2259,16,0.7000000000000001,42.689833799999995,-84.4887284,263.88,0.013892443850636482,329.7435607910156,0.01600000075995922,0.0,1
1682370882.01917481,218312111,0,3,162899999,2259,16,0.7000000000000001,42.689833799999995,-84.4887285,263.87,0.016763055697083473,252.64598083496094,0.014000000432133675,0.0,1
1682370882.19935799,218492294,0,3,162900199,2259,16,0.7000000000000001,42.689833799999995,-84.4887285,263.86,0.025019992142915726,2.2906100749969482,0.032999999821186066,0.0,1
1682370882.39948988,218692426,0,3,162900399,2259,16,0.7000000000000001,42.689833799999995,-84.4887286,263.85,0.02927456423640251,262.1466979980469,0.04500000178813934,0.0,1
1682370882.59947586,218892412,0,3,162900599,2259,16,0.7000000000000001,42.689833799999995,-84.4887287,263.84000000000003,0.023345235735177994,226.73570251464844,0.0560000017285347,0.0,1
1682370882.79969597,219092632,0,3,162900799,2259,16,0.7000000000000001,42.689833799999995,-84.4887287,263.84000000000003,0.020591260865330696,29.054601669311523,0.015000000596046448,0.0,1
1682370882.99916983,219292106,0,3,162900999,2259,16,0.7000000000000001,42.689833799999995,-84.4887287,263.82,0.032557643949985504,349.3803405761719,0.01600000075995922,0.0,1
1682370883.19928885,219492225,0,3,162901199,2259,16,0.7000000000000001,42.689833899999996,-84.48872879999999,263.82,0.050159744918346405,355.42608642578125,0.05100000277161598,0.0,1
1682370883.39914203,219692078,0,3,162901399,2259,16,0.7000000000000001,42.689834,-84.48872879999999,263.82,0.027730850502848625,25.641002655029297,0.036000002175569534,0.0,1
1682370883.59909296,219892029,0,3,162901599,2259,16,0.7000000000000001,42.6898341,-84.4887287,263.81,0.058008622378110886,35.882137298583984,0.02500000037252903,0.0,1
1682370883.79909182,220092028,0,3,162901799,2259,16,0.7000000000000001,42.6898341,-84.4887287,263.81,0.04661545157432556,35.39479446411133,-0.05400000140070915,0.0,1
1682370883.99917603,220292112,0,3,162901999,2259,16,0.7000000000000001,42.6898342,-84.4887286,263.81,0.03753664717078209,48.23969650268555,0.06200000271201134,0.0,1
1682370884.19923997,220492176,0,3,162902199,2259,16,0.7000000000000001,42.6898342,-84.4887286,263.79,0.025961510837078094,74.35774993896484,0.0010000000474974513,0.0,1
1682370884.39912486,220692061,0,3,162902399,2259,16,0.7000000000000001,42.6898343,-84.4887285,263.79,0.026248810812830925,49.635459899902344,-0.01100000087171793,0.0,1
1682370884.59948301,220892419,0,3,162902599,2259,16,0.7000000000000001,42.6898343,-84.4887285,263.79,0.033600594848394394,53.47114181518555,-0.039000000804662704,0.0,1
1682370884.79936385,221092300,0,3,162902799,2259,16,0.7000000000000001,42.6898343,-84.4887284,263.81,0.03420526161789894,15.255119323730469,0.05700000375509262,0.0,1
1682370884.99940896,221292345,0,3,162902999,2259,16,0.7000000000000001,42.689834399999995,-84.4887284,263.8,0.03996248543262482,58.29856491088867,-0.039000000804662704,0.0,1
1682370885.19936180,221492298,0,3,162903199,2259,16,0.7000000000000001,42.689834399999995,-84.4887284,263.79,0.02475883811712265,46.63657760620117,-0.07300000637769699,0.0,1
1682370885.39930296,221692239,0,3,162903399,2259,16,0.7000000000000001,42.689834399999995,-84.48872829999999,263.79,0.020396079868078232,101.30992126464844,0.004000000189989805,0.0,1
1682370885.59928799,221892224,0,3,162903599,2259,16,0.7000000000000001,42.689834399999995,-84.48872829999999,263.77,0.030000001192092896,180.0,0.05300000309944153,0.0,1
1682370885.79939198,222092328,0,3,162903799,2259,16,0.7000000000000001,42.689834399999995,-84.48872829999999,263.76,0.0020000000949949026,0.0,0.04400000348687172,0.0,1
1682370885.99950695,222292443,0,3,162903999,2259,16,0.7000000000000001,42.689834399999995,-84.48872829999999,263.76,0.007615773472934961,203.1986083984375,0.06400000303983688,0.0,1
1682370886.19944882,222492385,0,3,162904199,2259,16,0.7000000000000001,42.689834399999995,-84.48872829999999,263.74,0.013601471669971943,36.02737045288086,0.055000003427267075,0.0,1
1682370886.39941883,222692355,0,3,162904399,2259,16,0.7000000000000001,42.689834399999995,-84.48872829999999,263.73,0.024331049993634224,260.5376892089844,0.029000001028180122,0.0,1
1682370886.59966898,222892605,0,3,162904599,2259,16,0.7000000000000001,42.689834499999996,-84.4887284,263.72,0.02121320366859436,315.0,0.13100001215934753,0.0,1
1682370886.79926682,223092203,0,3,162904799,2259,16,0.7000000000000001,42.689834499999996,-84.4887284,263.68,0.027294687926769257,278.4269714355469,0.049000002443790436,0.0,1
1682370886.99913692,223292073,0,3,162904999,2259,16,0.7000000000000001,42.689834499999996,-84.4887285,263.68,0.04204759746789932,272.726318359375,0.10900000482797623,0.0,1
1682370887.19909692,223492033,0,3,162905199,2259,16,0.7000000000000001,42.689834499999996,-84.4887286,263.67,0.014142136089503765,315.0,0.003000000026077032,0.0,1
1682370887.39908981,223692026,0,3,162905399,2259,16,0.7000000000000001,42.6898346,-84.4887286,263.66,0.016278821974992752,349.3803405761719,-0.046000003814697266,0.0,1
1682370887.59920502,223892141,0,3,162905599,2259,16,0.7000000000000001,42.6898346,-84.4887286,263.64,0.017000000923871994,118.07247924804688,-0.08300000429153442,0.0,1
1682370887.79925585,224092192,0,3,162905799,2259,16,0.7000000000000001,42.6898346,-84.4887285,263.63,0.028635643422603607,167.9052276611328,0.12300000339746475,0.0,1
1682370888.01938581,224312322,0,3,162905999,2259,16,0.7000000000000001,42.6898346,-84.4887285,263.59000000000003,0.033837851136922836,55.840301513671875,0.367000013589859,0.0,1
1682370888.21940684,224512343,0,3,162906199,2259,16,0.7000000000000001,42.6898346,-84.4887284,263.48,0.054129477590322495,115.14476776123047,0.39500001072883606,0.0,1
1682370888.39930487,224692241,0,3,162906399,2259,16,0.7000000000000001,42.6898346,-84.4887284,263.38,0.004999999888241291,306.8699035644531,0.531000018119812,0.0,1
1682370888.59938383,224892320,0,3,162906599,2259,16,0.7000000000000001,42.6898346,-84.4887282,263.28000000000003,0.1337348222732544,96.00900268554688,0.42600002884864807,0.0,1
1682370888.81910396,225112040,0,3,162906799,2259,16,0.7000000000000001,42.689834499999996,-84.4887282,263.18,0.11992081254720688,245.35833740234375,0.46000000834465027,0.0,1
1682370888.99935293,225292289,0,3,162906999,2259,16,0.7000000000000001,42.689834399999995,-84.48872829999999,263.15,0.03807886689901352,156.8013916015625,0.3720000088214874,0.0,1
1682370889.19909286,225492029,0,3,162907199,2259,16,0.7000000000000001,42.689834499999996,-84.4887282,263.09000000000003,0.14403125643730164,1.1934893131256104,0.1900000125169754,0.0,1
1682370889.39938498,225692321,0,3,162907399,2259,16,0.7000000000000001,42.689834499999996,-84.4887282,262.99,0.14990665018558502,166.8907928466797,0.33900001645088196,0.0,1
1682370889.59948087,225892417,0,3,162907599,2259,16,0.7000000000000001,42.6898343,-84.4887281,262.87,0.039051249623298645,140.1944122314453,0.49000000953674316,0.0,1
1682370889.79946685,226092403,0,3,162907799,2259,16,0.7000000000000001,42.6898343,-84.4887281,262.75,0.02418677508831024,60.25511932373047,0.5270000100135803,0.0,1
1682370889.99969792,226292634,0,3,162907999,2259,16,0.7000000000000001,42.6898343,-84.4887281,262.68,0.07844743877649307,168.97653198242188,0.43300002813339233,0.0,1
1682370890.19919395,226492130,0,3,162908199,2259,15,0.7000000000000001,42.6898342,-84.488728,262.56,0.04386342689394951,46.84761047363281,0.4440000355243683,0.0,1
1682370890.41913486,226712071,0,3,162908399,2259,15,0.72,42.6898342,-84.488728,262.44,0.04743416607379913,124.69515228271484,0.5980000495910645,0.0,1
1682370890.61908484,226912021,0,3,162908599,2259,15,0.72,42.6898342,-84.4887279,262.38,0.025612497702240944,51.34019088745117,0.4140000343322754,0.0,1
1682370890.81925297,227112189,0,3,162908799,2259,15,0.72,42.6898343,-84.4887279,262.34000000000003,0.07902532070875168,321.6799011230469,0.2750000059604645,0.0,1
1682370891.01932502,227312261,0,3,162908999,2259,15,0.72,42.6898343,-84.488728,262.26,0.050328921526670456,49.028263092041016,0.3160000145435333,0.0,1
1682370891.21942091,227512357,0,3,162909199,2259,15,0.72,42.6898342,-84.488728,262.14,0.11360017955303192,196.361083984375,0.5850000381469727,0.0,1
1682370891.39923596,227692172,0,3,162909399,2259,16,0.72,42.6898343,-84.4887279,262.04,0.1689082682132721,19.72227668762207,0.20400001108646393,0.0,1
1682370891.61942387,227912360,0,3,162909599,2259,15,0.72,42.6898343,-84.488728,262.01,0.13951702415943146,228.19595336914062,0.3100000023841858,0.0,1
1682370891.79911685,228092053,0,3,162909799,2259,15,0.72,42.6898343,-84.4887281,261.89,0.07733692973852158,49.72013473510742,0.42100003361701965,0.0,1
1682370891.99936485,228292301,0,3,162909999,2259,15,0.72,42.689834399999995,-84.4887281,261.81,0.0679558739066124,327.011474609375,0.4400000274181366,0.0,1
1682370892.19936085,228492297,0,3,162910199,2259,15,0.72,42.689834399999995,-84.4887282,261.71,0.053366657346487045,192.99462890625,0.527999997138977,0.0,1
1682370892.39936686,228692303,0,3,162910399,2259,15,0.75,42.689834399999995,-84.4887282,261.63,0.06809552758932114,330.04638671875,0.38600000739097595,0.0,1
1682370892.59928799,228892224,0,3,162910599,2259,15,0.75,42.6898346,-84.48872829999999,261.61,0.06551336497068405,347.6609191894531,0.367000013589859,0.0,1
1682370892.79924393,229092180,0,3,162910799,2259,15,0.75,42.6898347,-84.48872829999999,261.53000000000003,0.02416609413921833,24.443952560424805,0.5270000100135803,0.0,1
1682370892.99919391,229292130,0,3,162910999,2259,16,0.75,42.6898347,-84.48872829999999,261.47,0.021840332075953484,285.9454040527344,0.40300002694129944,0.0,1
1682370893.19951391,229492450,0,3,162911199,2259,16,0.75,42.6898348,-84.4887284,261.37,0.08872993290424347,320.0290832519531,0.43400001525878906,0.0,1
1682370893.39947081,229692407,0,3,162911399,2259,16,0.7000000000000001,42.6898348,-84.4887285,261.28000000000003,0.015132746659219265,82.40535736083984,0.3890000283718109,0.0,1
1682370893.59935093,229892287,0,3,162911599,2259,16,0.7000000000000001,42.6898348,-84.4887285,261.22,0.029681645333766937,212.61924743652344,0.26600000262260437,0.0,1
1682370893.79971194,230092648,0,3,162911799,2259,16,0.7000000000000001,42.6898348,-84.4887285,261.16,0.006403124891221523,218.65982055664062,0.2980000078678131,0.0,1
1682370894.01912999,230312066,0,3,162911999,2259,16,0.7000000000000001,42.6898347,-84.4887285,261.1,0.09158603101968765,148.39248657226562,0.2970000207424164,0.0,1
1682370894.19911194,230492048,0,3,162912199,2259,16,0.7000000000000001,42.689834499999996,-84.4887284,261.07,0.09192388504743576,157.61985778808594,0.0990000069141388,0.0,1
1682370894.39908099,230692017,0,3,162912399,2259,16,0.7000000000000001,42.6898343,-84.4887282,261.06,0.1205528974533081,159.61082458496094,0.012000000104308128,0.0,1
