timestamp,TimeUS,Lat,Lng,Alt,RelHomeAlt,RelOriginAlt
1682370824.19962883,160492565,42.6900203,-84.488801,259.1499938964844,0.007048321887850761,-0.26295167207717896
1682370824.29976201,160592698,42.6900203,-84.488801,259.1499938964844,0.007315708324313164,-0.26268428564071655
1682370824.39974189,160692678,42.6900203,-84.488801,259.1499938964844,0.007383598014712334,-0.2626163959503174
1682370824.49982595,160792762,42.6900203,-84.488801,259.1499938964844,0.0048597585409879684,-0.26514023542404175
1682370824.59986901,160892805,42.690020399999995,-84.488801,259.1499938964844,0.0024429690092802048,-0.2675570249557495
1682370824.69975996,160992696,42.690020399999995,-84.488801,259.1399841308594,-0.0009939540177583694,-0.2709939479827881
1682370824.80008602,161093022,42.690020399999995,-84.488801,259.1399841308594,-0.003566192463040352,-0.27356618642807007
1682370824.89961982,161192556,42.690020399999995,-84.488801,259.1300048828125,-0.010399030521512032,-0.28039902448654175
1682370824.99958682,161292523,42.690020399999995,-84.488801,259.1300048828125,-0.015678511932492256,-0.285678505897522
1682370825.09964490,161392581,42.690020399999995,-84.488801,259.1300048828125,-0.0188626516610384,-0.2888626456260681
1682370825.19962597,161492562,42.690020399999995,-84.488801,259.1199951171875,-0.021532999351620674,-0.2915329933166504
1682370825.29951882,161592455,42.690020499999996,-84.488801,259.1199951171875,-0.02221839316189289,-0.2922183871269226
1682370825.39965200,161692588,42.690020499999996,-84.488801,259.1199951171875,-0.02320830710232258,-0.2932083010673523
1682370825.49949098,161792427,42.690020499999996,-84.488801,259.1199951171875,-0.022351430729031563,-0.2923514246940613
1682370825.59973884,161892675,42.690020499999996,-84.488801,259.1199951171875,-0.021558212116360664,-0.2915582060813904
1682370825.69988203,161992818,42.690020499999996,-84.488801,259.1300048828125,-0.01922778971493244,-0.28922778367996216
1682370825.79972482,162092661,42.6900206,-84.488801,259.1300048828125,-0.018130945041775703,-0.2881309390068054
1682370825.89961100,162192547,42.6900206,-84.488801,259.1199951171875,-0.02161918766796589,-0.2916191816329956
1682370825.99960589,162292542,42.6900206,-84.488801,259.1199951171875,-0.024581776931881905,-0.2945817708969116
1682370826.09970403,162392640,42.6900206,-84.488801,259.1199951171875,-0.028069840744137764,-0.2980698347091675
1682370826.19956899,162492505,42.6900206,-84.488801,259.1099853515625,-0.030669676139950752,-0.30066967010498047
1682370826.29963899,162592575,42.6900206,-84.488801,259.1099853515625,-0.03502665460109711,-0.305026650428772
1682370826.39983702,162692773,42.6900206,-84.4888009,259.1099853515625,-0.03799794614315033,-0.3079979419708252
1682370826.49959588,162792532,42.6900206,-84.4888009,259.1099853515625,-0.03567992150783539,-0.30567991733551025
1682370826.59977293,162892709,42.6900207,-84.4888009,259.1099853515625,-0.034304484724998474,-0.30430448055267334
1682370826.69977593,162992712,42.6900207,-84.4888009,259.1199951171875,-0.02889321930706501,-0.2988932132720947
1682370826.79976296,163092699,42.6900207,-84.4888009,259.1199951171875,-0.026073383167386055,-0.29607337713241577
1682370826.89973688,163192673,42.6900207,-84.4888009,259.1199951171875,-0.025576816871762276,-0.295576810836792
1682370827.00000191,163292938,42.6900207,-84.4888009,259.1199951171875,-0.026928531005978584,-0.2969285249710083
1682370827.09962893,163392565,42.6900207,-84.4888009,259.1199951171875,-0.02874981053173542,-0.29874980449676514
1682370827.19966197,163492598,42.6900207,-84.48880079999999,259.1099853515625,-0.03014587052166462,-0.30014586448669434
1682370827.29978681,163592723,42.6900208,-84.48880079999999,259.1099853515625,-0.030487166717648506,-0.3004871606826782
1682370827.39992094,163692857,42.6900208,-84.48880079999999,259.1099853515625,-0.03134922683238983,-0.3013492226600647
1682370827.49986291,163792799,42.6900208,-84.48880079999999,259.1099853515625,-0.03312234580516815,-0.303122341632843
1682370827.59996986,163892906,42.6900208,-84.48880079999999,259.1099853515625,-0.034886762499809265,-0.30488675832748413
1682370827.69984102,163992777,42.6900208,-84.48880079999999,259.1099853515625,-0.032901689410209656,-0.3029016852378845
1682370827.79982591,164092762,42.6900208,-84.4888007,259.1499938964844,0.005664004012942314,-0.2643359899520874
1682370827.90020084,164193137,42.6900208,-84.48880059999999,259.30999755859375,0.16070248186588287,-0.10929751396179199
1682370827.99984384,164292780,42.6900207,-84.4888005,259.5299987792969,0.38799768686294556,0.11799770593643188
1682370828.10008287,164393019,42.6900207,-84.4888004,259.8299865722656,0.6894307732582092,0.41943076252937317
1682370828.19986200,164492798,42.6900207,-84.4888002,260.0899963378906,0.9407010078430176,0.6707010269165039
1682370828.29994297,164592879,42.6900206,-84.4888002,260.2799987792969,1.1348178386688232,0.8648178577423096
1682370828.40003896,164692975,42.6900206,-84.48880009999999,260.4499816894531,1.3019235134124756,1.031923532485962
1682370828.49989796,164792834,42.6900206,-84.48880009999999,260.5799865722656,1.4358652830123901,1.1658653020858765
1682370828.60028195,164893218,42.6900206,-84.48880009999999,260.69000244140625,1.5481011867523193,1.2781012058258057
1682370828.69965386,164992590,42.6900206,-84.48880009999999,260.7799987792969,1.6328336000442505,1.3628336191177368
1682370828.79968786,165092624,42.6900206,-84.48880009999999,260.8500061035156,1.7028406858444214,1.4328407049179077
1682370828.89957190,165192508,42.6900207,-84.4888,260.8899841308594,1.7451424598693848,1.475142478942871
1682370828.99981785,165292754,42.6900207,-84.4888,260.92999267578125,1.785236120223999,1.5152361392974854
1682370829.09964180,165392578,42.6900207,-84.4888,260.9599914550781,1.810441255569458,1.5404412746429443
1682370829.19962788,165492564,42.6900207,-84.4888,260.97998046875,1.83784818649292,1.5678482055664062
1682370829.29965281,165592589,42.6900207,-84.4888,261.0099792480469,1.8657076358795166,1.595707654953003
1682370829.39965391,165692590,42.6900208,-84.4888,261.04998779296875,1.900374412536621,1.6303744316101074
1682370829.49983096,165792767,42.6900208,-84.4888,261.0799865722656,1.9389606714248657,1.668960690498352
1682370829.59973288,165892669,42.6900209,-84.4888,261.1300048828125,1.9858959913253784,1.7158960103988647
1682370829.69967389,165992610,42.6900209,-84.4888,261.19000244140625,2.0437331199645996,1.7737330198287964
1682370829.79957080,166092507,42.6900208,-84.4888,261.25,2.1083314418792725,1.8383313417434692
1682370829.89965796,166192594,42.6900209,-84.4888,261.32000732421875,2.1737868785858154,1.9037868976593018
1682370829.99959898,166292535,42.6900209,-84.4888,261.3899841308594,2.2425484657287598,1.972548484802246
1682370830.09965801,166392594,42.6900209,-84.4888,261.4599914550781,2.3146188259124756,2.044618844985962
1682370830.19989586,166492832,42.6900209,-84.4888,261.5299987792969,2.389629364013672,2.119629383087158
1682370830.29963303,166592569,42.6900209,-84.4888,261.6099853515625,2.465519666671753,2.1955196857452393
1682370830.39965200,166692588,42.6900209,-84.48880009999999,261.69000244140625,2.5409789085388184,2.2709789276123047
1682370830.49976802,166792704,42.6900209,-84.4888002,261.7599792480469,2.6130576133728027,2.343057632446289
1682370830.59994483,166892881,42.6900209,-84.4888003,261.8299865722656,2.6834867000579834,2.4134867191314697
1682370830.69980001,166992736,42.6900209,-84.4888004,261.8999938964844,2.756840705871582,2.4868407249450684
1682370830.80015993,167093096,42.6900209,-84.4888004,261.9700012207031,2.82928204536438,2.559282064437866
1682370830.89985394,167192790,42.6900209,-84.4888005,262.04998779296875,2.9048871994018555,2.634887218475342
1682370830.99995089,167292887,42.6900209,-84.4888005,262.1300048828125,2.9809885025024414,2.7109885215759277
1682370831.10003996,167392976,42.6900209,-84.4888005,262.2099914550781,3.0610246658325195,2.791024684906006
1682370831.19989586,167492832,42.6900209,-84.4888005,262.2900085449219,3.140296459197998,2.8702964782714844
1682370831.29982901,167592765,42.690021,-84.4888005,262.3699951171875,3.2200193405151367,2.950019359588623
1682370831.39986587,167692802,42.690021,-84.4888005,262.44000244140625,3.2989578247070312,3.0289578437805176
1682370831.49986482,167792801,42.690021,-84.4888005,262.5199890136719,3.3749353885650635,3.10493540763855
1682370831.59997702,167892913,42.690021099999996,-84.48880059999999,262.5899963378906,3.4489362239837646,3.178936243057251
1682370831.70020700,167993143,42.6900212,-84.48880059999999,262.66998291015625,3.521397113800049,3.251397132873535
1682370831.79987788,168092814,42.6900212,-84.4888007,262.739990234375,3.5916526317596436,3.32165265083313
1682370831.89990997,168192846,42.6900213,-84.4888007,262.80999755859375,3.6610398292541504,3.3910398483276367
1682370831.99988294,168292819,42.6900213,-84.4888007,262.8800048828125,3.7304394245147705,3.460439443588257
1682370832.09979296,168392729,42.6900213,-84.4888007,262.9499816894531,3.800147533416748,3.5301475524902344
1682370832.19965792,168492594,42.6900212,-84.48880079999999,263.0199890136719,3.8718771934509277,3.601877212524414
1682370832.29960489,168592541,42.6900212,-84.48880079999999,263.0899963378906,3.940854549407959,3.6708545684814453
1682370832.39968395,168692620,42.6900212,-84.4888009,263.1600036621094,4.012418270111084,3.7424182891845703
1682370832.49957800,168792514,42.6900212,-84.488801,263.22998046875,4.080543041229248,3.8105428218841553
1682370832.59982395,168892760,42.690021099999996,-84.48880109999999,263.29998779296875,4.152098655700684,3.882098436355591
1682370832.69951892,168992455,42.690021099999996,-84.4888012,263.3699951171875,4.222751617431641,3.952751398086548
1682370832.79962087,169092557,42.690021,-84.4888012,263.44000244140625,4.29736852645874,4.027368545532227
1682370832.89988184,169192818,42.6900209,-84.4888012,263.5199890136719,4.378084182739258,4.108084201812744
1682370832.99964285,169292579,42.6900208,-84.4888012,263.6099853515625,4.460054397583008,4.190054416656494
1682370833.09967589,169392612,42.6900207,-84.48880129999999,263.67999267578125,4.5379252433776855,4.267925262451172
1682370833.19963598,169492572,42.6900206,-84.48880129999999,263.7599792480469,4.614511489868164,4.34451150894165
1682370833.29964900,169592585,42.690020499999996,-84.48880129999999,263.8299865722656,4.686614513397217,4.416614532470703
1682370833.39959693,169692533,42.690020399999995,-84.48880129999999,263.8999938964844,4.755283832550049,4.485283851623535
1682370833.49966788,169792604,42.690020399999995,-84.48880129999999,263.9599914550781,4.817947864532471,4.547947883605957
1682370833.59975696,169892693,42.690020399999995,-84.4888012,264.0199890136719,4.8750081062316895,4.605008125305176
1682370833.69990182,169992838,42.6900203,-84.4888012,264.07000732421875,4.922544479370117,4.6525444984436035
1682370833.79990888,170092845,42.6900203,-84.48880109999999,264.1099853515625,4.9667887687683105,4.696788787841797
1682370833.89979291,170192729,42.6900202,-84.48880109999999,264.1399841308594,4.999981880187988,4.729981899261475
1682370833.99973798,170292674,42.6900202,-84.488801,264.16998291015625,5.027106761932373,4.757106781005859
1682370834.09982681,170392763,42.6900202,-84.4888009,264.19000244140625,5.045459747314453,4.7754597663879395
1682370834.19993901,170492875,42.6900201,-84.48880079999999,264.1999816894531,5.056612491607666,4.786612510681152
1682370834.29977393,170592710,42.6900201,-84.48880079999999,264.1999816894531,5.058917999267578,4.7889180183410645
1682370834.39994502,170692881,42.6900201,-84.4888007,264.1999816894531,5.055690288543701,4.7856903076171875
1682370834.49978089,170792717,42.6900202,-84.48880059999999,264.19000244140625,5.044910430908203,4.7749104499816895
1682370834.60000682,170892943,42.6900202,-84.4888005,264.17999267578125,5.034222602844238,4.764222621917725
1682370834.69986486,170992801,42.6900202,-84.4888004,264.1600036621094,5.019722938537598,4.749722957611084
1682370834.79980183,171092738,42.6900202,-84.4888003,264.1499938964844,5.007637023925781,4.737637042999268
1682370834.89982200,171192758,42.6900201,-84.4888,264.1399841308594,4.997684955596924,4.72768497467041
1682370834.99965382,171292590,42.6900201,-84.4888,264.1399841308594,4.993777275085449,4.7237772941589355
1682370835.09996295,171392899,42.6900201,-84.48879989999999,264.1399841308594,4.99200439453125,4.722004413604736
1682370835.19989896,171492835,42.69002,-84.4887997,264.1399841308594,4.992022514343262,4.722022533416748
1682370835.29996085,171592897,42.6900197,-84.4887996,264.1399841308594,4.996452331542969,4.726452350616455
1682370835.39987397,171692810,42.6900194,-84.4887995,264.1399841308594,4.998907089233398,4.728907108306885
1682370835.49995399,171792890,42.6900191,-84.48879939999999,264.1399841308594,4.997469902038574,4.7274699211120605
1682370835.60009885,171893035,42.6900188,-84.4887993,264.1399841308594,4.9968037605285645,4.726803779602051
1682370835.69989181,171992828,42.6900184,-84.4887993,264.1399841308594,4.996200084686279,4.726200103759766
1682370835.79981303,172092749,42.690018099999996,-84.4887993,264.1399841308594,4.995094299316406,4.725094318389893
1682370835.89963102,172192567,42.6900177,-84.4887993,264.1399841308594,4.990954399108887,4.720954418182373
1682370835.99968886,172292625,42.6900173,-84.4887993,264.1300048828125,4.98725700378418,4.717257022857666
1682370836.09970784,172392644,42.690016899999996,-84.4887993,264.1300048828125,4.983903884887695,4.713903903961182
1682370836.19973493,172492671,42.6900165,-84.48879939999999,264.1300048828125,4.983817100524902,4.713817119598389
1682370836.29966092,172592597,42.6900161,-84.4887995,264.1300048828125,4.9847493171691895,4.714749336242676
1682370836.39969993,172692636,42.6900158,-84.4887995,264.1300048828125,4.985206604003906,4.715206623077393
1682370836.49969983,172792636,42.6900153,-84.4887995,264.1300048828125,4.982152462005615,4.712152481079102
1682370836.59980702,172892743,42.6900149,-84.4887995,264.1300048828125,4.980152130126953,4.7101521492004395
1682370836.69982791,172992764,42.6900145,-84.4887995,264.1199951171875,4.9794111251831055,4.709411144256592
1682370836.79984593,173092782,42.6900141,-84.4887995,264.1199951171875,4.978066444396973,4.708066463470459
1682370836.89992785,173192864,42.6900136,-84.48879939999999,264.1199951171875,4.974381446838379,4.704381465911865
1682370836.99989796,173292834,42.690013199999996,-84.48879939999999,264.1199951171875,4.974321365356445,4.704321384429932
1682370837.09975696,173392693,42.6900127,-84.4887993,264.1199951171875,4.9723591804504395,4.702359199523926
1682370837.19960093,173492537,42.6900122,-84.4887992,264.1199951171875,4.973344326019287,4.703344345092773
1682370837.29965401,173592590,42.6900117,-84.488799,264.1199951171875,4.976534366607666,4.706534385681152
1682370837.39968085,173692617,42.6900112,-84.48879889999999,264.1300048828125,4.980968952178955,4.710968971252441
1682370837.49964786,173792584,42.690010699999995,-84.48879869999999,264.1300048828125,4.988217830657959,4.718217849731445
1682370837.59996700,173892903,42.690010199999996,-84.4887985,264.1399841308594,4.996485233306885,4.726485252380371
1682370837.69982290,173992759,42.690009599999996,-84.48879819999999,264.1499938964844,5.003237724304199,4.7332377433776855
1682370837.79991889,174092855,42.6900091,-84.4887979,264.1600036621094,5.010561943054199,4.7405619621276855
1682370837.89960098,174192537,42.6900085,-84.48879769999999,264.16998291015625,5.021529197692871,4.751529216766357
1682370838.00017285,174293109,42.690008,-84.4887974,264.17999267578125,5.031379699707031,4.761379718780518
1682370838.09997392,174392910,42.6900075,-84.48879699999999,264.19000244140625,5.041749954223633,4.771749973297119
1682370838.19977689,174492713,42.690007,-84.4887967,264.1999816894531,5.052501678466797,4.782501697540283
1682370838.29983401,174592770,42.690006499999996,-84.48879629999999,264.2099914550781,5.060733795166016,4.790733814239502
1682370838.39993787,174692874,42.6900061,-84.4887959,264.2200012207031,5.072327613830566,4.802327632904053
1682370838.49977994,174792716,42.6900057,-84.4887956,264.22998046875,5.081024169921875,4.811024188995361
1682370838.59993386,174892870,42.690005299999996,-84.48879529999999,264.22998046875,5.087770938873291,4.817770957946777
1682370838.70008302,174993019,42.6900049,-84.488795,264.239990234375,5.093201160430908,4.8232011795043945
1682370838.79963899,175092575,42.6900045,-84.4887947,264.25,5.101903915405273,4.83190393447876
1682370838.90006781,175193004,42.690004099999996,-84.48879439999999,264.2599792480469,5.112923622131348,4.842923641204834
1682370839.00019383,175293130,42.6900038,-84.48879409999999,264.2699890136719,5.127288818359375,4.857288837432861
1682370839.10001588,175392952,42.690003499999996,-84.4887938,264.2799987792969,5.138953685760498,4.868953704833984
1682370839.20001292,175492949,42.6900032,-84.4887936,264.29998779296875,5.153479099273682,4.883479118347168
1682370839.29984689,175592783,42.690002899999996,-84.48879319999999,264.30999755859375,5.164722919464111,4.894722938537598
1682370839.39984894,175692785,42.6900026,-84.48879289999999,264.32000732421875,5.1735687255859375,4.903568744659424
1682370839.49982095,175792757,42.6900024,-84.48879269999999,264.32000732421875,5.179769039154053,4.909769058227539
1682370839.60002303,175892959,42.6900021,-84.4887924,264.3299865722656,5.182312488555908,4.9123125076293945
1682370839.69960999,175992546,42.6900018,-84.48879219999999,264.32000732421875,5.175804615020752,4.905804634094238
1682370839.79970980,176092646,42.690001599999995,-84.48879199999999,264.30999755859375,5.167090892791748,4.897090911865234
1682370839.89958692,176192523,42.6900013,-84.4887917,264.29998779296875,5.150541305541992,4.8805413246154785
1682370839.99976301,176292699,42.690001099999996,-84.4887916,264.2699890136719,5.121302604675293,4.851302623748779
1682370840.09973192,176392668,42.6900008,-84.4887914,264.2099914550781,5.068782806396484,4.798782825469971
1682370840.19965887,176492595,42.6900005,-84.4887912,264.1499938964844,5.009167194366455,4.739167213439941
1682370840.29964185,176592578,42.6900002,-84.48879099999999,264.0899963378906,4.9446516036987305,4.674651622772217
1682370840.39964890,176692585,42.689999799999995,-84.4887909,264.0400085449219,4.891330242156982,4.621330261230469
1682370840.49976897,176792705,42.6899994,-84.48879079999999,264.0,4.855762481689453,4.5857625007629395
1682370840.59979081,176892727,42.689999,-84.4887907,263.97998046875,4.836180686950684,4.56618070602417
1682370840.69998693,176992923,42.6899985,-84.4887905,263.9700012207031,4.829983234405518,4.559983253479004
1682370840.79987097,177092807,42.6899981,-84.4887904,263.97998046875,4.831345558166504,4.56134557723999
1682370840.89962101,177192557,42.6899977,-84.4887902,263.97998046875,4.837834358215332,4.567834377288818
1682370840.99976802,177292704,42.689997299999995,-84.4887901,263.989990234375,4.8479533195495605,4.577953338623047
1682370841.09971881,177392655,42.6899969,-84.4887899,264.0,4.859105587005615,4.589105606079102
1682370841.19964600,177492582,42.6899965,-84.4887897,264.0199890136719,4.870401382446289,4.600401401519775
1682370841.29962683,177592563,42.689996099999995,-84.48878959999999,264.0299987792969,4.880660057067871,4.610660076141357
1682370841.39968801,177692624,42.6899957,-84.4887894,264.0299987792969,4.889210224151611,4.619210243225098
1682370841.49959683,177792533,42.6899953,-84.4887892,264.0299987792969,4.8889594078063965,4.618959426879883
1682370841.60015702,177893093,42.689994899999995,-84.48878909999999,264.0299987792969,4.889283657073975,4.619283676147461
1682370841.69988203,177992818,42.6899945,-84.488789,264.0299987792969,4.888409614562988,4.618409633636475
1682370841.79983783,178092774,42.6899942,-84.4887889,264.0299987792969,4.8888773918151855,4.618877410888672
1682370841.89986587,178192802,42.689993799999996,-84.4887887,264.0400085449219,4.891391277313232,4.621391296386719
1682370841.99982190,178292758,42.6899934,-84.48878859999999,264.0400085449219,4.893465042114258,4.623465061187744
1682370842.09982586,178392762,42.6899929,-84.4887885,264.0299987792969,4.889729976654053,4.619729995727539
1682370842.19980001,178492736,42.689992499999995,-84.48878839999999,264.0299987792969,4.887996196746826,4.6179962158203125
1682370842.29980803,178592744,42.6899921,-84.4887883,264.0299987792969,4.886698246002197,4.616698265075684
1682370842.39982295,178692759,42.6899916,-84.4887882,264.0299987792969,4.886114597320557,4.616114616394043
1682370842.50016403,178793100,42.6899912,-84.4887881,264.0299987792969,4.8868327140808105,4.616832733154297
1682370842.59997487,178892911,42.6899908,-84.488788,264.0299987792969,4.8899030685424805,4.619903087615967
1682370842.69993997,178992876,42.6899904,-84.4887878,264.0400085449219,4.892343044281006,4.622343063354492
1682370842.79990292,179092839,42.689989999999995,-84.4887877,264.0400085449219,4.896245002746582,4.626245021820068
1682370842.89988780,179192824,42.689989499999996,-84.4887876,264.04998779296875,4.90143346786499,4.631433486938477
1682370842.99989390,179292830,42.689989,-84.4887875,264.04998779296875,4.905385971069336,4.635385990142822
1682370843.09991693,179392853,42.6899886,-84.4887873,264.04998779296875,4.906566143035889,4.636566162109375
1682370843.19992280,179492859,42.6899881,-84.48878719999999,264.04998779296875,4.908920764923096,4.638920783996582
1682370843.29982686,179592763,42.689987699999996,-84.4887871,264.05999755859375,4.910133361816406,4.640133380889893
1682370843.40023589,179693172,42.6899872,-84.488787,264.05999755859375,4.912771224975586,4.642771244049072
1682370843.49983883,179792775,42.6899867,-84.4887868,264.05999755859375,4.914736270904541,4.644736289978027
1682370843.60012698,179893063,42.6899863,-84.48878669999999,264.05999755859375,4.916186332702637,4.646186351776123
1682370843.69990492,179992841,42.689985799999995,-84.4887866,264.05999755859375,4.919626235961914,4.6496262550354
1682370843.79967380,180092610,42.6899853,-84.48878649999999,264.07000732421875,4.924975872039795,4.654975891113281
1682370843.89963794,180192574,42.6899849,-84.4887864,264.0799865722656,4.93090295791626,4.660902976989746
1682370843.99965787,180292594,42.6899844,-84.48878619999999,264.0799865722656,4.938486099243164,4.66848611831665
1682370844.09978795,180392724,42.689983999999995,-84.4887861,264.0899963378906,4.94646692276001,4.676466941833496
1682370844.19962001,180492556,42.6899836,-84.48878599999999,264.1000061035156,4.954939365386963,4.684939384460449
1682370844.29998589,180592922,42.6899832,-84.4887858,264.1099853515625,4.962736129760742,4.6927361488342285
1682370844.39998198,180692918,42.689982799999996,-84.4887857,264.1099853515625,4.968080043792725,4.698080062866211
1682370844.49960399,180792540,42.6899824,-84.4887856,264.1099853515625,4.966796875,4.696796894073486
1682370844.59978294,180892719,42.689982,-84.4887854,264.1099853515625,4.967087268829346,4.697087287902832
1682370844.69976687,180992703,42.689981499999995,-84.4887852,264.1099853515625,4.96709680557251,4.697096824645996
1682370844.79965186,181092588,42.6899811,-84.4887851,264.1099853515625,4.966452598571777,4.696452617645264
1682370844.89962602,181192562,42.6899806,-84.4887849,264.1099853515625,4.965695381164551,4.695695400238037
1682370844.99993896,181292875,42.6899802,-84.4887847,264.1099853515625,4.967689514160156,4.697689533233643
1682370845.09970689,181392643,42.689979799999996,-84.4887845,264.1099853515625,4.969715595245361,4.699715614318848
1682370845.19995689,181492893,42.6899794,-84.48878429999999,264.1199951171875,4.9719977378845215,4.701997756958008
1682370845.29975986,181592696,42.689979,-84.48878409999999,264.1199951171875,4.976227760314941,4.706227779388428
1682370845.39988589,181692822,42.689978599999996,-84.4887839,264.1300048828125,4.9816436767578125,4.711643695831299
1682370845.49986196,181792798,42.6899781,-84.4887837,264.1300048828125,4.9883646965026855,4.718364715576172
1682370845.59995389,181892890,42.6899777,-84.4887835,264.1399841308594,4.994081497192383,4.724081516265869
1682370845.69977188,181992708,42.689977299999995,-84.4887833,264.1399841308594,4.99619722366333,4.726197242736816
1682370845.79978800,182092724,42.6899769,-84.48878309999999,264.1399841308594,4.997596263885498,4.727596282958984
1682370845.90009093,182193027,42.6899764,-84.48878289999999,264.1399841308594,4.999087333679199,4.7290873527526855
1682370845.99961281,182292549,42.689976,-84.4887828,264.1499938964844,5.001655101776123,4.731655120849609
1682370846.10003281,182392969,42.6899756,-84.4887827,264.1499938964844,5.0017547607421875,4.731754779815674
1682370846.19998097,182492917,42.6899751,-84.4887825,264.1499938964844,5.0021867752075195,4.732186794281006
1682370846.29989886,182592835,42.6899747,-84.48878239999999,264.1499938964844,5.001399517059326,4.7313995361328125
1682370846.39993286,182692869,42.689974299999996,-84.4887823,264.1499938964844,5.00123405456543,4.731234073638916
1682370846.49989080,182792827,42.6899739,-84.4887821,264.1399841308594,4.99920129776001,4.729201316833496
1682370846.59996986,182892906,42.6899735,-84.488782,264.1399841308594,4.9964704513549805,4.726470470428467
1682370846.69982982,182992766,42.689972999999995,-84.4887818,264.1399841308594,4.995375633239746,4.725375652313232
1682370846.80023789,183093174,42.6899726,-84.48878169999999,264.1399841308594,4.995090484619141,4.725090503692627
1682370846.89984703,183192783,42.6899721,-84.4887815,264.1399841308594,4.999147415161133,4.729147434234619
1682370847.00002789,183292964,42.6899717,-84.4887813,264.1499938964844,5.005704879760742,4.7357048988342285
1682370847.09998989,183392926,42.689971199999995,-84.48878119999999,264.1600036621094,5.011919975280762,4.741919994354248
1682370847.19964886,183492585,42.6899708,-84.488781,264.1600036621094,5.016746997833252,4.746747016906738
1682370847.29966688,183592603,42.6899704,-84.4887808,264.1600036621094,5.019266605377197,4.749266624450684
1682370847.39968991,183692626,42.6899699,-84.4887806,264.16998291015625,5.021464824676514,4.75146484375
1682370847.49963593,183792572,42.6899695,-84.48878049999999,264.16998291015625,5.024559020996094,4.75455904006958
1682370847.59974003,183892676,42.689969,-84.4887803,264.16998291015625,5.028541564941406,4.758541584014893
1682370847.69971299,183992649,42.6899686,-84.4887801,264.17999267578125,5.032229423522949,4.7622294425964355
1682370847.79960299,184092539,42.689968199999996,-84.48877999999999,264.17999267578125,5.033910751342773,4.76391077041626
1682370847.89997196,184192908,42.6899677,-84.4887798,264.17999267578125,5.03559684753418,4.765596866607666
1682370847.99996495,184292901,42.6899672,-84.4887797,264.17999267578125,5.035513401031494,4.7655134201049805
1682370848.09971595,184392652,42.6899668,-84.48877949999999,264.17999267578125,5.032741069793701,4.7627410888671875
1682370848.19968081,184492617,42.689966399999996,-84.48877929999999,264.16998291015625,5.0289201736450195,4.758920192718506
1682370848.29964685,184592583,42.6899659,-84.4887792,264.16998291015625,5.025365829467773,4.75536584854126
1682370848.39964199,184692578,42.6899655,-84.488779,264.16998291015625,5.020493030548096,4.750493049621582
1682370848.49962902,184792565,42.689965099999995,-84.4887789,264.1600036621094,5.012920379638672,4.742920398712158
1682370848.59979701,184892733,42.6899647,-84.4887787,264.1499938964844,5.006231784820557,4.736231803894043
1682370848.69959092,184992527,42.6899643,-84.4887785,264.1499938964844,5.002767086029053,4.732767105102539
1682370848.79999995,185092936,42.689963899999995,-84.48877829999999,264.1499938964844,5.002124309539795,4.732124328613281
1682370848.90003395,185192970,42.6899635,-84.48877809999999,264.1499938964844,5.003186225891113,4.7331862449646
1682370848.99990082,185292837,42.6899631,-84.4887779,264.1499938964844,5.008335590362549,4.738335609436035
1682370849.09990287,185392839,42.689962699999995,-84.4887778,264.1600036621094,5.0168962478637695,4.746896266937256
1682370849.19982481,185492761,42.6899623,-84.48877759999999,264.16998291015625,5.0232133865356445,4.753213405609131
1682370849.29977798,185592714,42.6899618,-84.4887775,264.16998291015625,5.029195785522461,4.759195804595947
1682370849.39984989,185692786,42.6899614,-84.48877739999999,264.17999267578125,5.035528659820557,4.765528678894043
1682370849.49981785,185792754,42.689961,-84.4887772,264.17999267578125,5.038036346435547,4.768036365509033
1682370849.59993386,185892870,42.6899606,-84.4887771,264.17999267578125,5.039219379425049,4.769219398498535
1682370849.70017791,185993114,42.6899601,-84.48877689999999,264.19000244140625,5.042023181915283,4.7720232009887695
1682370849.79986691,186092803,42.689959699999996,-84.4887768,264.19000244140625,5.044323921203613,4.7743239402771
1682370849.89995003,186192886,42.6899593,-84.4887766,264.19000244140625,5.041567325592041,4.771567344665527
1682370850.00001097,186292947,42.6899589,-84.4887765,264.17999267578125,5.038144588470459,4.768144607543945
1682370850.09995389,186392890,42.689958499999996,-84.4887763,264.17999267578125,5.032957553863525,4.762957572937012
1682370850.19983482,186492771,42.6899581,-84.48877619999999,264.16998291015625,5.02895975112915,4.758959770202637
1682370850.29981780,186592754,42.6899576,-84.488776,264.16998291015625,5.0222649574279785,4.752264976501465
1682370850.39994097,186692877,42.6899571,-84.4887759,264.1600036621094,5.01797342300415,4.747973442077637
1682370850.49984598,186792782,42.689956599999995,-84.48877569999999,264.1600036621094,5.010319709777832,4.740319728851318
1682370850.60012484,186893061,42.6899562,-84.4887755,264.1499938964844,5.002111434936523,4.73211145401001
1682370850.69984603,186992782,42.6899557,-84.4887753,264.1399841308594,4.99382209777832,4.723822116851807
1682370850.79994798,187092884,42.6899553,-84.4887751,264.1300048828125,4.9886064529418945,4.718606472015381
1682370850.89993095,187192867,42.6899549,-84.4887749,264.1300048828125,4.9858012199401855,4.715801239013672
1682370850.99977493,187292711,42.6899545,-84.4887747,264.1300048828125,4.983552932739258,4.713552951812744
1682370851.09971499,187392651,42.6899541,-84.48877449999999,264.1300048828125,4.984194278717041,4.714194297790527
1682370851.19964886,187492585,42.689953599999996,-84.4887743,264.1300048828125,4.986963748931885,4.716963768005371
1682370851.29967690,187592613,42.6899532,-84.4887741,264.1300048828125,4.986137390136719,4.716137409210205
1682370851.39961195,187692548,42.6899528,-84.4887739,264.1300048828125,4.9855146408081055,4.715514659881592
1682370851.49969387,187792630,42.689952299999995,-84.4887737,264.1300048828125,4.986244201660156,4.716244220733643
1682370851.60004997,187892986,42.689951799999996,-84.4887736,264.1300048828125,4.984814167022705,4.714814186096191
1682370851.69963503,187992571,42.6899513,-84.4887734,264.1300048828125,4.981323719024658,4.7113237380981445
1682370851.79970384,188092640,42.6899509,-84.48877329999999,264.1199951171875,4.979593753814697,4.709593772888184
1682370851.89966702,188192603,42.6899504,-84.4887732,264.1199951171875,4.977622032165527,4.707622051239014
1682370851.99966002,188292596,42.689949899999995,-84.4887731,264.1199951171875,4.978058338165283,4.7080583572387695
1682370852.09972692,188392663,42.6899495,-84.488773,264.1199951171875,4.979709148406982,4.709709167480469
1682370852.19991589,188492852,42.689949,-84.4887729,264.1300048828125,4.982569217681885,4.712569236755371
1682370852.29959083,188592527,42.6899486,-84.48877279999999,264.1300048828125,4.985356330871582,4.715356349945068
1682370852.39995193,188692888,42.689948099999995,-84.4887727,264.1399841308594,4.991368770599365,4.721368789672852
1682370852.49978590,188792722,42.689947599999996,-84.48877259999999,264.1399841308594,4.99829626083374,4.728296279907227
1682370852.60010600,188893042,42.6899472,-84.4887724,264.1499938964844,5.00495719909668,4.734957218170166
1682370852.69986892,188992805,42.6899467,-84.4887723,264.1499938964844,5.00993013381958,4.739930152893066
1682370852.79982281,189092759,42.689946299999995,-84.48877209999999,264.1600036621094,5.0132575035095215,4.743257522583008
1682370852.89979482,189192731,42.6899458,-84.488772,264.1600036621094,5.014533042907715,4.744533061981201
1682370852.99980092,189292737,42.6899454,-84.4887718,264.1600036621094,5.017332553863525,4.747332572937012
1682370853.10009098,189393027,42.689945,-84.4887717,264.16998291015625,5.023313999176025,4.753314018249512
1682370853.19960284,189492539,42.6899446,-84.4887715,264.16998291015625,5.027868747711182,4.757868766784668
1682370853.29995203,189592888,42.6899443,-84.4887713,264.16998291015625,5.029831409454346,4.759831428527832
1682370853.39986897,189692805,42.689943899999996,-84.4887711,264.17999267578125,5.035613536834717,4.765613555908203
1682370853.49993682,189792873,42.6899435,-84.48877089999999,264.17999267578125,5.03913688659668,4.769136905670166
1682370853.60010982,189893046,42.6899431,-84.48877069999999,264.19000244140625,5.042646884918213,4.772646903991699
1682370853.69991088,189992847,42.689942699999996,-84.48877039999999,264.19000244140625,5.044674873352051,4.774674892425537
1682370853.79983902,190092775,42.6899423,-84.48877019999999,264.19000244140625,5.045652866363525,4.775652885437012
1682370853.89963794,190192574,42.6899419,-84.48877,264.19000244140625,5.0463385581970215,4.776338577270508
1682370853.99970388,190292640,42.689941499999996,-84.4887698,264.19000244140625,5.047318935394287,4.777318954467773
1682370854.09968901,190392625,42.6899411,-84.4887696,264.19000244140625,5.049274444580078,4.7792744636535645
1682370854.19971299,190492649,42.6899407,-84.4887694,264.19000244140625,5.0488996505737305,4.778899669647217
1682370854.29953003,190592466,42.689940299999996,-84.4887693,264.19000244140625,5.044951438903809,4.774951457977295
1682370854.39967203,190692608,42.6899399,-84.4887691,264.19000244140625,5.04003381729126,4.770033836364746
1682370854.49967885,190792615,42.6899394,-84.4887689,264.17999267578125,5.035773754119873,4.765773773193359
1682370854.59979081,190892727,42.689938999999995,-84.4887688,264.17999267578125,5.032925128936768,4.762925148010254
1682370854.69989800,190992834,42.6899386,-84.4887686,264.16998291015625,5.027335166931152,4.757335186004639
1682370854.79966688,191092603,42.6899382,-84.4887684,264.16998291015625,5.021500587463379,4.751500606536865
1682370854.89967990,191192616,42.689937799999996,-84.4887682,264.1600036621094,5.0135979652404785,4.743597984313965
1682370854.99960589,191292542,42.6899373,-84.488768,264.1499938964844,5.007594108581543,4.737594127655029
1682370855.09975290,191392689,42.6899369,-84.4887677,264.1499938964844,5.001054286956787,4.731054306030273
1682370855.19963980,191492576,42.689936499999995,-84.4887675,264.1399841308594,4.995940208435059,4.725940227508545
1682370855.29962897,191592565,42.6899361,-84.48876729999999,264.1399841308594,4.993423938751221,4.723423957824707
1682370855.39973402,191692670,42.6899357,-84.48876709999999,264.1399841308594,4.991410732269287,4.721410751342773
1682370855.49989796,191792834,42.689935299999995,-84.4887669,264.1399841308594,4.990316390991211,4.720316410064697
1682370855.59997797,191892914,42.6899349,-84.48876659999999,264.1399841308594,4.990251064300537,4.720251083374023
1682370855.69964385,191992580,42.6899344,-84.4887664,264.1399841308594,4.991610527038574,4.7216105461120605
1682370855.79982686,192092763,42.689934,-84.4887663,264.1399841308594,4.994080066680908,4.7240800857543945
1682370855.89979291,192192729,42.689933499999995,-84.48876609999999,264.1399841308594,4.996890544891357,4.726890563964844
1682370855.99994302,192292879,42.6899331,-84.48876589999999,264.1399841308594,4.998044013977051,4.728044033050537
1682370856.09986091,192392797,42.6899326,-84.4887657,264.1399841308594,4.996208190917969,4.726208209991455
1682370856.19989991,192492836,42.6899322,-84.4887656,264.1399841308594,4.995121955871582,4.725121974945068
1682370856.29985189,192592788,42.6899318,-84.4887653,264.1399841308594,4.996305465698242,4.7263054847717285
1682370856.39983201,192692768,42.6899314,-84.4887651,264.1399841308594,4.995973110198975,4.725973129272461
1682370856.49978685,192792723,42.689931,-84.48876489999999,264.1399841308594,4.995506763458252,4.725506782531738
1682370856.59992194,192892858,42.689930499999996,-84.48876469999999,264.1399841308594,4.995069980621338,4.725069999694824
1682370856.70009494,192993031,42.6899301,-84.4887646,264.1399841308594,4.995182037353516,4.725182056427002
1682370856.79961801,193092554,42.6899297,-84.4887644,264.1399841308594,4.996091365814209,4.726091384887695
1682370856.89997697,193192913,42.689929299999996,-84.4887643,264.1399841308594,4.997324466705322,4.727324485778809
1682370856.99996996,193292906,42.6899288,-84.48876419999999,264.1399841308594,4.999722003936768,4.729722023010254
1682370857.10000300,193392939,42.6899283,-84.4887641,264.1399841308594,4.998376846313477,4.728376865386963
1682370857.20001602,193492952,42.6899279,-84.48876399999999,264.1399841308594,4.996204853057861,4.726204872131348
1682370857.29997087,193592907,42.689927399999995,-84.4887638,264.1399841308594,4.995944499969482,4.725944519042969
1682370857.39991784,193692854,42.689927,-84.48876369999999,264.1399841308594,4.994685173034668,4.724685192108154
1682370857.49982381,193792760,42.6899265,-84.48876349999999,264.1399841308594,4.99346923828125,4.723469257354736
1682370857.60025096,193893187,42.6899261,-84.4887634,264.1399841308594,4.991731643676758,4.721731662750244
1682370857.69959402,193992530,42.689925699999996,-84.4887633,264.1300048828125,4.989454746246338,4.719454765319824
1682370857.79969692,194092633,42.6899252,-84.4887632,264.1300048828125,4.987823009490967,4.717823028564453
1682370857.89957190,194192508,42.6899248,-84.48876299999999,264.1300048828125,4.985761642456055,4.715761661529541
1682370857.99962687,194292563,42.6899243,-84.4887629,264.1300048828125,4.9848952293396,4.714895248413086
1682370858.09973097,194392667,42.6899239,-84.48876279999999,264.1300048828125,4.982438564300537,4.712438583374023
1682370858.19965887,194492595,42.6899235,-84.4887627,264.1300048828125,4.9813127517700195,4.711312770843506
1682370858.29961586,194592552,42.6899231,-84.48876249999999,264.1300048828125,4.980767726898193,4.71076774597168
1682370858.39965487,194692591,42.6899227,-84.4887624,264.1199951171875,4.979219913482666,4.709219932556152
1682370858.49990797,194792844,42.6899222,-84.48876229999999,264.1199951171875,4.977379322052002,4.707379341125488
1682370858.59973383,194892670,42.6899218,-84.4887621,264.1199951171875,4.977630615234375,4.707630634307861
1682370858.69969893,194992635,42.689921399999996,-84.488762,264.1199951171875,4.976665019989014,4.7066650390625
1682370858.79959202,195092528,42.6899209,-84.4887619,264.1199951171875,4.973928928375244,4.7039289474487305
1682370858.89961696,195192553,42.6899205,-84.4887617,264.1199951171875,4.970353126525879,4.700353145599365
1682370858.99968696,195292623,42.68992,-84.48876159999999,264.1099853515625,4.968921661376953,4.6989216804504395
1682370859.09970784,195392644,42.689919599999996,-84.4887615,264.1099853515625,4.966873645782471,4.696873664855957
1682370859.19964194,195492578,42.6899192,-84.4887613,264.1099853515625,4.966040134429932,4.696040153503418
1682370859.29961681,195592553,42.6899187,-84.4887612,264.1099853515625,4.965248107910156,4.695248126983643
1682370859.40002084,195692957,42.689918299999995,-84.488761,264.1099853515625,4.966711044311523,4.69671106338501
1682370859.49984503,195792781,42.689917799999996,-84.4887609,264.1099853515625,4.969394207000732,4.699394226074219
1682370859.60015488,195893091,42.6899174,-84.4887607,264.1199951171875,4.970556735992432,4.700556755065918
1682370859.69996500,195992901,42.689917,-84.4887605,264.1099853515625,4.96722412109375,4.697224140167236
1682370859.79988480,196092821,42.689916499999995,-84.4887603,264.1099853515625,4.962353229522705,4.692353248596191
1682370859.89984894,196192785,42.6899161,-84.4887601,264.1000061035156,4.958667278289795,4.688667297363281
1682370859.99984384,196292780,42.6899157,-84.48875989999999,264.1000061035156,4.956955432891846,4.686955451965332
1682370860.09983492,196392771,42.689915299999996,-84.4887598,264.1000061035156,4.95582389831543,4.685823917388916
1682370860.19979787,196492734,42.6899148,-84.4887596,264.1000061035156,4.955817699432373,4.685817718505859
1682370860.29981399,196592750,42.6899144,-84.48875939999999,264.1000061035156,4.95459508895874,4.684595108032227
1682370860.39981389,196692750,42.689913999999995,-84.48875919999999,264.1000061035156,4.957402229309082,4.687402248382568
1682370860.50015497,196793091,42.689913499999996,-84.488759,264.1099853515625,4.965233325958252,4.695233345031738
1682370860.60007191,196893008,42.6899131,-84.4887589,264.1199951171875,4.975332260131836,4.705332279205322
1682370860.69995999,196992896,42.6899127,-84.48875869999999,264.1300048828125,4.983157634735107,4.713157653808594
1682370860.79993081,197092867,42.689912299999996,-84.4887585,264.1399841308594,4.990539073944092,4.720539093017578
1682370860.89984584,197192782,42.6899119,-84.4887584,264.1399841308594,4.994750499725342,4.724750518798828
1682370860.99981785,197292754,42.6899115,-84.48875819999999,264.1399841308594,4.999110221862793,4.729110240936279
1682370861.09990597,197392842,42.689911099999996,-84.48875799999999,264.1499938964844,5.003215789794922,4.733215808868408
1682370861.19992995,197492866,42.6899106,-84.4887578,264.1499938964844,5.006660461425781,4.736660480499268
1682370861.29981899,197592755,42.6899102,-84.4887577,264.1499938964844,5.009917259216309,4.739917278289795
1682370861.40022182,197693158,42.6899097,-84.48875749999999,264.1600036621094,5.014586925506592,4.744586944580078
1682370861.50002694,197792963,42.6899093,-84.4887573,264.1600036621094,5.019598007202148,4.749598026275635
1682370861.59976387,197892700,42.6899088,-84.4887572,264.16998291015625,5.02496862411499,4.754968643188477
1682370861.69967794,197992614,42.6899084,-84.48875699999999,264.16998291015625,5.026644229888916,4.756644248962402
1682370861.79966187,198092598,42.689907999999996,-84.48875679999999,264.16998291015625,5.027596950531006,4.757596969604492
1682370861.89963102,198192567,42.6899075,-84.4887566,264.16998291015625,5.027225494384766,4.757225513458252
1682370861.99965692,198292593,42.6899071,-84.4887564,264.16998291015625,5.027676582336426,4.757676601409912
1682370862.09974289,198392679,42.689906699999995,-84.48875629999999,264.17999267578125,5.030344009399414,4.7603440284729
1682370862.19960690,198492543,42.689906199999996,-84.48875609999999,264.17999267578125,5.0326948165893555,4.762694835662842
1682370862.29997683,198592913,42.6899058,-84.488756,264.17999267578125,5.031807899475098,4.761807918548584
1682370862.39988494,198692821,42.6899053,-84.48875579999999,264.16998291015625,5.029442310333252,4.759442329406738
1682370862.49964285,198792579,42.689904899999995,-84.4887557,264.16998291015625,5.0237956047058105,4.753795623779297
1682370862.59983683,198892773,42.6899045,-84.4887555,264.1600036621094,5.017106056213379,4.747106075286865
1682370862.69968581,198992622,42.689904,-84.4887553,264.1600036621094,5.011284828186035,4.7412848472595215
1682370862.79965782,199092594,42.6899036,-84.4887552,264.1499938964844,5.007385730743408,4.7373857498168945
1682370862.89964700,199192583,42.689903199999996,-84.488755,264.1499938964844,5.005753993988037,4.735754013061523
1682370862.99971199,199292648,42.6899027,-84.48875489999999,264.1499938964844,5.003904819488525,4.733904838562012
1682370863.09969187,199392628,42.6899023,-84.4887547,264.1499938964844,5.000781536102295,4.730781555175781
1682370863.19970584,199492642,42.689901899999995,-84.4887546,264.1399841308594,4.996951103210449,4.7269511222839355
1682370863.29952693,199592463,42.6899015,-84.4887545,264.1399841308594,4.993331432342529,4.723331451416016
1682370863.39960790,199692544,42.6899011,-84.4887543,264.1300048828125,4.98978328704834,4.719783306121826
1682370863.49989700,199792833,42.6899006,-84.4887542,264.1300048828125,4.988962173461914,4.7189621925354
1682370863.59988689,199892823,42.6899002,-84.4887541,264.1300048828125,4.987811088562012,4.717811107635498
1682370863.69978094,199992717,42.6898998,-84.488754,264.1300048828125,4.986105918884277,4.716105937957764
1682370863.79978395,200092720,42.6898993,-84.4887538,264.1300048828125,4.984801292419434,4.71480131149292
1682370863.89981389,200192750,42.689898899999996,-84.48875369999999,264.1300048828125,4.980424880981445,4.710424900054932
1682370863.99979901,200292735,42.6898984,-84.4887535,264.1199951171875,4.976378440856934,4.70637845993042
1682370864.09998584,200392922,42.689898,-84.4887533,264.1199951171875,4.974070072174072,4.704070091247559
1682370864.20014787,200493084,42.6898975,-84.488753,264.1199951171875,4.975671768188477,4.705671787261963
1682370864.29990482,200592841,42.689897099999996,-84.4887528,264.1300048828125,4.9820404052734375,4.712040424346924
1682370864.40001702,200692953,42.6898966,-84.4887526,264.1300048828125,4.989580154418945,4.719580173492432
1682370864.49983597,200792772,42.6898962,-84.4887524,264.1399841308594,4.998926639556885,4.728926658630371
1682370864.59996700,200892903,42.689895799999995,-84.4887522,264.1499938964844,5.008326530456543,4.738326549530029
1682370864.69983792,200992774,42.6898954,-84.48875199999999,264.1600036621094,5.0167036056518555,4.746703624725342
1682370864.79991794,201092854,42.6898949,-84.4887517,264.16998291015625,5.026165008544922,4.756165027618408
1682370864.89961696,201192553,42.6898945,-84.4887516,264.17999267578125,5.038942337036133,4.768942356109619
1682370864.99972582,201292662,42.689893999999995,-84.4887514,264.19000244140625,5.0485944747924805,4.778594493865967
1682370865.09963584,201392572,42.6898936,-84.48875129999999,264.1999816894531,5.0554656982421875,4.785465717315674
1682370865.19961691,201492553,42.6898931,-84.4887512,264.2099914550781,5.060685157775879,4.790685176849365
1682370865.29966903,201592605,42.6898927,-84.4887511,264.2099914550781,5.062679767608643,4.792679786682129
1682370865.39968491,201692621,42.6898923,-84.488751,264.2099914550781,5.062195777893066,4.792195796966553
1682370865.49964094,201792577,42.6898918,-84.4887509,264.1999816894531,5.059070587158203,4.7890706062316895
1682370865.59974480,201892681,42.6898914,-84.48875079999999,264.1999816894531,5.055907249450684,4.78590726852417
1682370865.70000601,201992942,42.689890899999995,-84.4887506,264.1999816894531,5.050276756286621,4.780276775360107
1682370865.79959583,202092532,42.6898905,-84.4887505,264.19000244140625,5.044516563415527,4.774516582489014
1682370865.89967394,202192610,42.6898901,-84.48875029999999,264.17999267578125,5.03502893447876,4.765028953552246
1682370865.99957180,202292508,42.6898896,-84.48875009999999,264.16998291015625,5.026392459869385,4.756392478942871
1682370866.09971690,202392653,42.689889199999996,-84.48875,264.16998291015625,5.020345211029053,4.750345230102539
1682370866.19968987,202492626,42.6898888,-84.4887499,264.1600036621094,5.015755653381348,4.745755672454834
1682370866.29983902,202592775,42.6898883,-84.4887497,264.1499938964844,5.007668495178223,4.737668514251709
1682370866.39983392,202692770,42.689887899999995,-84.4887495,264.1499938964844,5.002042293548584,4.73204231262207
1682370866.49963284,202792569,42.6898875,-84.4887493,264.1399841308594,4.998960018157959,4.728960037231445
1682370866.59996700,202892903,42.6898871,-84.48874909999999,264.1399841308594,4.997046947479248,4.727046966552734
1682370866.69980597,202992742,42.689886699999995,-84.48874889999999,264.1399841308594,4.997169017791748,4.727169036865234
1682370866.79992700,203092863,42.6898863,-84.4887487,264.1399841308594,4.997660160064697,4.727660179138184
1682370866.89982200,203192758,42.689886,-84.48874839999999,264.1499938964844,5.00113582611084,4.731135845184326
1682370866.99989796,203292834,42.6898856,-84.48874819999999,264.1499938964844,5.00563907623291,4.7356390953063965
1682370867.09990597,203392842,42.6898852,-84.488748,264.1499938964844,5.008233547210693,4.73823356628418
1682370867.19981098,203492747,42.6898848,-84.4887478,264.1600036621094,5.010946750640869,4.7409467697143555
1682370867.29982996,203592766,42.6898844,-84.48874769999999,264.1600036621094,5.010509490966797,4.740509510040283
1682370867.39967799,203692614,42.689884,-84.4887475,264.1600036621094,5.012735843658447,4.742735862731934
1682370867.49992085,203792857,42.689883599999995,-84.4887473,264.1600036621094,5.014110565185547,4.744110584259033
1682370867.59998798,203892924,42.6898832,-84.4887471,264.1600036621094,5.016208648681641,4.746208667755127
1682370867.70000696,203992943,42.6898828,-84.4887469,264.1600036621094,5.019237041473389,4.749237060546875
1682370867.80005598,204092992,42.689882399999995,-84.4887467,264.1600036621094,5.019157886505127,4.749157905578613
1682370867.89995384,204192890,42.689882,-84.48874649999999,264.1600036621094,5.014323711395264,4.74432373046875
1682370867.99990392,204292840,42.6898816,-84.4887463,264.1499938964844,5.008690357208252,4.738690376281738
1682370868.09971690,204392653,42.689881199999995,-84.4887462,264.1499938964844,5.004189491271973,4.734189510345459
1682370868.19965196,204492588,42.6898808,-84.48874599999999,264.1499938964844,5.00054931640625,4.730549335479736
1682370868.29961491,204592551,42.6898804,-84.48874579999999,264.1399841308594,4.998239994049072,4.728240013122559
1682370868.39968681,204692623,42.689879999999995,-84.4887456,264.1399841308594,4.9967145919799805,4.726714611053467
1682370868.49959683,204792533,42.689879499999996,-84.4887454,264.1399841308594,4.9947991371154785,4.724799156188965
1682370868.60017300,204893109,42.6898791,-84.4887452,264.1399841308594,4.991643905639648,4.721643924713135
1682370868.69985700,204992793,42.6898786,-84.488745,264.1300048828125,4.987340927124023,4.71734094619751
1682370868.79994392,205092880,42.6898781,-84.48874479999999,264.1300048828125,4.983581066131592,4.713581085205078
1682370868.89990091,205192837,42.689877599999996,-84.4887447,264.1300048828125,4.98298454284668,4.712984561920166
1682370868.99967790,205292614,42.6898772,-84.4887445,264.1300048828125,4.982946395874023,4.71294641494751
1682370869.09968686,205392623,42.6898767,-84.4887443,264.1300048828125,4.983092308044434,4.71309232711792
1682370869.19964480,205492581,42.6898762,-84.4887442,264.1300048828125,4.984217166900635,4.714217185974121
1682370869.29967284,205592609,42.689875799999996,-84.488744,264.1300048828125,4.9865875244140625,4.716587543487549
1682370869.39967990,205692616,42.6898754,-84.4887438,264.1300048828125,4.98993444442749,4.719934463500977
1682370869.50000286,205792939,42.689875,-84.48874359999999,264.1399841308594,4.99284029006958,4.722840309143066
1682370869.60005784,205892994,42.689874599999996,-84.4887433,264.1399841308594,4.997191905975342,4.727191925048828
1682370869.69991994,205992856,42.6898742,-84.4887432,264.1499938964844,5.00091028213501,4.730910301208496
1682370869.79990792,206092844,42.6898737,-84.488743,264.1499938964844,5.003383159637451,4.7333831787109375
1682370869.89991093,206192847,42.689873299999995,-84.4887428,264.1499938964844,5.003421783447266,4.733421802520752
1682370869.99978185,206292718,42.689872799999996,-84.4887426,264.1499938964844,5.00371789932251,4.733717918395996
1682370870.09982991,206392766,42.6898723,-84.4887425,264.1499938964844,5.004673957824707,4.734673976898193
1682370870.19989085,206492827,42.6898718,-84.4887423,264.1499938964844,5.003899574279785,4.7338995933532715
1682370870.30002379,206592960,42.6898714,-84.4887421,264.1499938964844,5.004053115844727,4.734053134918213
1682370870.39996099,206692897,42.689871,-84.488742,264.1499938964844,5.004699230194092,4.734699249267578
1682370870.49978185,206792718,42.6898705,-84.4887418,264.1499938964844,5.005395412445068,4.735395431518555
1682370870.59997797,206892914,42.68987,-84.48874169999999,264.1499938964844,5.005532741546631,4.735532760620117
1682370870.69989491,206992831,42.6898696,-84.4887416,264.1499938964844,5.0053911209106445,4.735391139984131
1682370870.79966784,207092604,42.6898692,-84.4887414,264.1499938964844,5.006385326385498,4.736385345458984
1682370870.89982581,207192762,42.6898688,-84.48874119999999,264.1600036621094,5.011958122253418,4.741958141326904
1682370870.99984884,207292785,42.689868399999995,-84.48874099999999,264.1600036621094,5.0169758796691895,4.746975898742676
1682370871.09996295,207392899,42.689868,-84.4887409,264.1600036621094,5.019142150878906,4.749142169952393
1682370871.19990301,207492839,42.6898676,-84.4887408,264.16998291015625,5.021978378295898,4.751978397369385
1682370871.30043101,207593367,42.6898671,-84.4887406,264.16998291015625,5.025379180908203,4.7553791999816895
1682370871.39983988,207692776,42.689866699999996,-84.4887404,264.16998291015625,5.027819633483887,4.757819652557373
1682370871.49959493,207792531,42.6898662,-84.48874029999999,264.16998291015625,5.0275373458862305,4.757537364959717
1682370871.59977102,207892707,42.6898658,-84.4887402,264.16998291015625,5.025675296783447,4.755675315856934
1682370871.69965196,207992588,42.6898653,-84.4887401,264.16998291015625,5.020895004272461,4.750895023345947
1682370871.79964399,208092580,42.689864899999996,-84.4887399,264.1600036621094,5.016143321990967,4.746143341064453
1682370871.89963198,208192568,42.6898644,-84.48873979999999,264.1600036621094,5.011650085449219,4.741650104522705
1682370872.00001502,208292951,42.689864,-84.4887397,264.1600036621094,5.0108723640441895,4.740872383117676
1682370872.09994292,208392879,42.689863599999995,-84.4887396,264.1600036621094,5.014595985412598,4.744596004486084
1682370872.20001698,208492953,42.6898631,-84.4887395,264.1600036621094,5.017977237701416,4.747977256774902
1682370872.30015397,208593090,42.6898627,-84.4887394,264.16998291015625,5.022515773773193,4.75251579284668
1682370872.39964485,208692581,42.6898623,-84.48873929999999,264.16998291015625,5.025214672088623,4.755214691162109
1682370872.49967980,208792616,42.6898619,-84.48873909999999,264.16998291015625,5.024696350097656,4.754696369171143
1682370872.59976482,208892701,42.6898615,-84.488739,264.16998291015625,5.023879528045654,4.753879547119141
1682370872.69963884,208992575,42.689861099999995,-84.4887389,264.16998291015625,5.021510124206543,4.751510143280029
1682370872.79964399,209092580,42.689860599999996,-84.4887387,264.1600036621094,5.01882266998291,4.7488226890563965
1682370872.89992499,209192861,42.6898602,-84.48873859999999,264.1600036621094,5.017407417297363,4.74740743637085
1682370872.99990988,209292846,42.6898598,-84.4887385,264.1600036621094,5.016390323638916,4.746390342712402
1682370873.10010290,209393039,42.689859299999995,-84.4887383,264.1600036621094,5.016416072845459,4.746416091918945
1682370873.19986892,209492805,42.6898589,-84.4887382,264.1600036621094,5.016439914703369,4.7464399337768555
1682370873.29987788,209592814,42.6898585,-84.48873809999999,264.1600036621094,5.01442813873291,4.7444281578063965
1682370873.39985991,209692796,42.689858099999995,-84.48873789999999,264.1600036621094,5.0133185386657715,4.743318557739258
1682370873.49981785,209792754,42.6898577,-84.4887378,264.1600036621094,5.011876106262207,4.741876125335693
1682370873.59989691,209892833,42.6898573,-84.4887376,264.1600036621094,5.011524200439453,4.7415242195129395
1682370873.69978595,209992722,42.689856899999995,-84.4887375,264.1600036621094,5.01495361328125,4.744953632354736
1682370873.79982781,210092764,42.6898565,-84.4887373,264.1600036621094,5.017967700958252,4.747967720031738
1682370873.89979601,210192732,42.6898561,-84.4887371,264.1600036621094,5.019958019256592,4.749958038330078
1682370874.00018001,210293116,42.6898556,-84.4887368,264.16998291015625,5.022980213165283,4.7529802322387695
1682370874.10008883,210393025,42.6898552,-84.4887366,264.16998291015625,5.024994850158691,4.754994869232178
1682370874.19995284,210492889,42.6898548,-84.4887364,264.16998291015625,5.026089191436768,4.756089210510254
1682370874.29990482,210592841,42.6898543,-84.48873619999999,264.16998291015625,5.027524471282959,4.757524490356445
1682370874.39990091,210692837,42.689853899999996,-84.488736,264.16998291015625,5.028051376342773,4.75805139541626
1682370874.49983096,210792767,42.6898535,-84.4887358,264.16998291015625,5.028412342071533,4.7584123611450195
1682370874.59997392,210892910,42.689853,-84.4887356,264.16998291015625,5.029645919799805,4.759645938873291
1682370874.69991589,210992852,42.689852599999995,-84.4887354,264.16998291015625,5.0285539627075195,4.758553981781006
1682370874.79986501,211092801,42.6898522,-84.4887352,264.16998291015625,5.026031970977783,4.7560319900512695
1682370874.90022087,211193157,42.6898517,-84.48873499999999,264.16998291015625,5.021810054779053,4.751810073852539
1682370874.99994683,211292883,42.6898513,-84.4887348,264.1600036621094,5.018832206726074,4.7488322257995605
1682370875.09973788,211392674,42.689850799999995,-84.4887346,264.1600036621094,5.014113426208496,4.744113445281982
1682370875.19972491,211492661,42.689850299999996,-84.4887344,264.1499938964844,5.009089946746826,4.7390899658203125
1682370875.29967093,211592607,42.6898499,-84.4887342,264.1499938964844,5.004279613494873,4.734279632568359
1682370875.39966989,211692606,42.6898494,-84.488734,264.1399841308594,4.9989094734191895,4.728909492492676
1682370875.49963784,211792574,42.689848999999995,-84.48873379999999,264.1399841308594,4.992280006408691,4.722280025482178
1682370875.59981203,211892748,42.6898485,-84.4887337,264.1300048828125,4.986889839172363,4.71688985824585
1682370875.69960594,211992542,42.6898481,-84.4887335,264.1300048828125,4.984158039093018,4.714158058166504
1682370875.79970193,212092638,42.6898476,-84.4887334,264.1300048828125,4.982966899871826,4.7129669189453125
1682370875.89953184,212192468,42.689847199999996,-84.4887332,264.1300048828125,4.987438201904297,4.717438220977783
1682370875.99963188,212292568,42.6898467,-84.488733,264.1399841308594,4.991440773010254,4.72144079208374
1682370876.10003686,212392973,42.6898463,-84.4887329,264.1399841308594,4.993684768676758,4.723684787750244
1682370876.19977689,212492713,42.6898458,-84.4887328,264.1399841308594,4.993474006652832,4.723474025726318
1682370876.29964781,212592584,42.689845399999996,-84.48873259999999,264.1399841308594,4.993752956390381,4.723752975463867
1682370876.39965081,212692587,42.689845,-84.4887325,264.1399841308594,4.992769241333008,4.722769260406494
1682370876.49967480,212792611,42.6898446,-84.48873239999999,264.1399841308594,4.992523670196533,4.7225236892700195
1682370876.59974289,212892679,42.6898443,-84.4887322,264.1399841308594,4.992290019989014,4.7222900390625
1682370876.69969583,212992632,42.6898439,-84.4887321,264.1399841308594,4.990950107574463,4.720950126647949
1682370876.79957080,213092507,42.6898434,-84.48873189999999,264.1300048828125,4.989574432373047,4.719574451446533
1682370876.89960980,213192546,42.689842999999996,-84.4887317,264.1300048828125,4.9898223876953125,4.719822406768799
1682370877.00000787,213292944,42.6898426,-84.4887316,264.1300048828125,4.987682819366455,4.717682838439941
1682370877.09989882,213392835,42.6898421,-84.48873139999999,264.1300048828125,4.985195159912109,4.715195178985596
1682370877.19981003,213492746,42.689841699999995,-84.4887313,264.1300048828125,4.986258029937744,4.7162580490112305
1682370877.29977584,213592712,42.6898412,-84.4887311,264.1399841308594,4.990005016326904,4.720005035400391
1682370877.39984393,213692780,42.6898408,-84.4887309,264.1399841308594,4.9933977127075195,4.723397731781006
1682370877.49979401,213792730,42.6898403,-84.4887308,264.1399841308594,4.997761249542236,4.727761268615723
1682370877.60011983,213893056,42.689839899999996,-84.4887306,264.1499938964844,5.003117561340332,4.733117580413818
1682370877.69982481,213992761,42.6898395,-84.4887305,264.1499938964844,5.007467269897461,4.737467288970947
1682370877.79978490,214092721,42.6898391,-84.4887303,264.1499938964844,5.009968280792236,4.739968299865723
1682370877.89993000,214192866,42.689838699999996,-84.48873019999999,264.1600036621094,5.011861801147461,4.741861820220947
