timestamp,TimeUS,C,Roll,Pitch,Yaw,VN,VE,VD,dPD,PN,PE,PD,GX,GY,GZ,OH
1682370824.19874501,160491681,2,0.63,2.08,342.92,-0.011206193827092648,-0.0031794526148587465,-0.01437938492745161,0.012439882382750511,2.0170979499816895,-0.937106192111969,0.2602795362472534,-0.04,0.06,0.06,259.86
1682370824.29874992,160591686,2,0.63,2.07,342.92,-0.010877041146159172,-0.0027634641155600548,-0.013932297006249428,-0.004206147976219654,2.018972396850586,-0.9357741475105286,0.2593901753425598,-0.04,0.06,0.06,259.86
1682370824.39875102,160691687,2,0.63,2.08,342.92,-0.01094224862754345,-0.003403391456231475,-0.014290104620158672,-0.011499243788421154,2.0199077129364014,-0.9349339604377747,0.2585960030555725,-0.04,0.06,0.06,259.86
1682370824.49879694,160791733,2,0.62,2.08,342.92,-0.010262886993587017,-0.0036175460554659367,-0.01327356044203043,0.013100502081215382,2.023111343383789,-0.9345801472663879,0.2609170079231262,-0.04,0.06,0.06,259.86
1682370824.59881997,160891756,2,0.63,2.07,342.92,-0.009104710072278976,-0.004620992112904787,-0.013342649675905704,0.024376606568694115,2.0251753330230713,-0.9346426725387573,0.2627854347229004,-0.04,0.06,0.06,259.86
1682370824.69882083,160991757,2,0.62,2.07,342.91,-0.009136206470429897,-0.006534157320857048,-0.011599241755902767,0.033933404833078384,2.0271921157836914,-0.9349995851516724,0.2659076452255249,-0.04,0.06,0.06,259.86
1682370824.79877281,161091709,2,0.62,2.08,342.91,-0.009680877439677715,-0.00789730530232191,-0.011248941533267498,0.02765628881752491,2.0282535552978516,-0.93571537733078,0.2679835557937622,-0.04,0.06,0.06,259.86
1682370824.89874697,161191683,2,0.62,2.08,342.91,-0.008502489887177944,-0.007078614551573992,-0.008986088447272778,0.05727988854050636,2.03082275390625,-0.9353303909301758,0.2738351821899414,-0.04,0.06,0.06,259.86
1682370824.99875498,161291691,2,0.62,2.08,342.92,-0.006736090872436762,-0.006521865259855986,-0.005871072877198458,0.063652403652668,2.032944679260254,-0.9350371956825256,0.27896708250045776,-0.04,0.06,0.06,259.86
1682370825.09875488,161391691,2,0.63,2.08,342.92,-0.005731955636292696,-0.004864254035055637,-0.005269274115562439,0.040545325726270676,2.0358569622039795,-0.9335539937019348,0.2822405695915222,-0.04,0.06,0.06,259.86
1682370825.19874382,161491680,2,0.63,2.08,342.93,-0.005069264210760593,-0.0028179169166833162,-0.004886552691459656,0.02310333400964737,2.037808895111084,-0.9323382377624512,0.2846488356590271,-0.04,0.06,0.06,259.86
1682370825.29875588,161591692,2,0.63,2.08,342.93,-0.0034962648060172796,-0.0018500579753890634,-0.004530764184892178,0.004087233915925026,2.041346311569214,-0.9311774969100952,0.28524452447891235,-0.04,0.06,0.06,259.86
1682370825.39880180,161691738,2,0.63,2.08,342.94,-0.002210017992183566,-0.001284883008338511,-0.004619351588189602,-0.0017547830939292908,2.04392147064209,-0.9303706288337708,0.28590333461761475,-0.04,0.06,0.06,259.86
1682370825.49882102,161791757,2,0.63,2.08,342.93,-3.1653089536121115e-05,-0.0008850974263623357,-0.005463054403662682,-0.01309098582714796,2.047654390335083,-0.9294493198394775,0.284853458404541,-0.04,0.06,0.06,259.86
1682370825.59883094,161891767,2,0.63,2.08,342.93,0.001859608688391745,-0.0012761295074597,-0.006524066440761089,-0.019479678943753242,2.0505080223083496,-0.928943395614624,0.2835187315940857,-0.04,0.06,0.06,259.86
1682370825.69878697,161991723,2,0.62,2.08,342.93,0.0021266033872962,-0.000682518701069057,-0.007317075505852699,-0.030082063749432564,2.0534379482269287,-0.9283764362335205,0.2808956503868103,-0.04,0.06,0.06,259.86
1682370825.79874396,162091680,2,0.62,2.07,342.93,0.0017582521541044116,-0.00035061826929450035,-0.008172181434929371,-0.024211660027503967,2.0554909706115723,-0.9280948638916016,0.2792302370071411,-0.04,0.06,0.06,259.86
1682370825.89874792,162191684,2,0.63,2.07,342.93,0.002958268392831087,8.43778470880352e-05,-0.007007231004536152,0.023931222036480904,2.058434009552002,-0.9272444248199463,0.2826218008995056,-0.04,0.06,0.06,259.86
1682370825.99876285,162291699,2,0.63,2.07,342.92,0.003946049138903618,-0.0002457232913002372,-0.006450125481933355,0.038078006356954575,2.0605435371398926,-0.9266951680183411,0.2851763367652893,-0.04,0.06,0.06,259.86
1682370826.09874701,162391683,2,0.63,2.07,342.92,0.00456234160810709,-0.00016486368258483708,-0.006109979469329119,0.03965076431632042,2.0629639625549316,-0.9257767796516418,0.288612961769104,-0.04,0.06,0.06,259.86
1682370826.19874787,162491684,2,0.63,2.08,342.92,0.004344732500612736,-0.0004191104380879551,-0.005354044958949089,0.03132079541683197,2.0646700859069824,-0.9251747131347656,0.290763795375824,-0.04,0.06,0.06,259.86
1682370826.29879498,162591731,2,0.63,2.08,342.91,0.004722805228084326,0.0014933637576177716,-0.003863980295136571,0.039665963500738144,2.0668294429779053,-0.923516035079956,0.29503530263900757,-0.04,0.06,0.06,259.86
1682370826.39881802,162691754,2,0.63,2.09,342.91,0.004192099906504154,0.003085564821958542,-0.003431379096582532,0.031541865319013596,2.06827449798584,-0.9220840930938721,0.2974996566772461,-0.04,0.06,0.06,259.86
1682370826.49882889,162791765,2,0.63,2.09,342.91,0.004051684867590666,0.004845043644309044,-0.0049874624237418175,-0.01549069955945015,2.0699410438537598,-0.920253574848175,0.295116662979126,-0.04,0.06,0.06,259.86
1682370826.59877801,162891714,2,0.63,2.1,342.91,0.004314949735999107,0.005773527547717094,-0.00461977906525135,-0.03062215819954872,2.071077823638916,-0.9186590313911438,0.2932995557785034,-0.04,0.06,0.06,259.86
1682370826.69875193,162991688,2,0.63,2.1,342.91,0.002535009291023016,0.005403770599514246,-0.006286332383751869,-0.05586954951286316,2.0726399421691895,-0.9179359078407288,0.28788334131240845,-0.04,0.06,0.06,259.86
1682370826.79875588,163091692,2,0.63,2.09,342.92,0.0015325640561059117,0.005203590262681246,-0.006415783427655697,-0.0474083349108696,2.0735414028167725,-0.9173973798751831,0.28493499755859375,-0.04,0.06,0.06,259.86
1682370826.89875484,163191691,2,0.62,2.09,342.92,0.002571434248238802,0.005735738668590784,-0.005183648783713579,-0.011681681498885155,2.0758707523345947,-0.9162187576293945,0.2846407890319824,-0.04,0.06,0.06,259.86
1682370826.99875283,163291689,2,0.63,2.09,342.91,0.004003592301160097,0.006482414901256561,-0.004933572839945555,0.015273033641278744,2.0776524543762207,-0.915250301361084,0.28600579500198364,-0.04,0.06,0.06,259.86
1682370827.09876394,163391700,2,0.63,2.09,342.92,0.0021560140885412693,0.005600685253739357,-0.005499918479472399,0.02946503646671772,2.079505205154419,-0.914351224899292,0.287911593914032,-0.04,0.06,0.06,259.86
1682370827.19880080,163491737,2,0.62,2.09,342.93,0.00340217724442482,0.005712800193578005,-0.005935705732554197,0.024394212290644646,2.080980062484741,-0.913609504699707,0.2893226146697998,-0.04,0.06,0.06,259.86
1682370827.29881096,163591747,2,0.63,2.09,342.96,0.007074791472405195,0.0032113848719745874,-0.007575398311018944,0.007805638946592808,2.082916021347046,-0.9131438732147217,0.28962987661361694,-0.04,0.06,0.06,259.86
1682370827.39883280,163691769,2,0.63,2.1,342.92,0.010151105932891369,0.00785713829100132,-0.007698802277445793,0.0030534695833921432,2.083855152130127,-0.9127836227416992,0.2900214195251465,-0.04,0.06,0.06,259.86
1682370827.49878097,163791717,2,0.64,2.11,342.97,0.02254720777273178,0.018665384501218796,-0.008908223360776901,0.013368891552090645,2.085878372192383,-0.9118751883506775,0.29169440269470215,-0.04,0.06,0.06,259.86
1682370827.59877300,163891709,2,0.62,2.13,342.94,0.006754748523235321,0.010609283111989498,-0.01486702635884285,0.008238854818046093,2.087235689163208,-0.9112346768379211,0.292794406414032,-0.04,0.06,0.06,259.86
1682370827.69877195,163991708,2,0.67,2.2600000000000002,342.91,-0.02034306712448597,0.023217681795358658,-0.08932243287563324,-0.07914018630981445,2.0874738693237305,-0.9102146625518799,0.29027259349823,-0.04,0.06,0.06,259.86
1682370827.79875898,164091695,2,0.75,2.65,342.92,-0.06496910005807877,0.06184478849172592,-0.9154822826385498,-0.9057821035385132,2.0835020542144775,-0.9067823886871338,0.24977576732635498,-0.04,0.06,0.06,259.86
1682370827.89875484,164191691,2,0.92,0.8200000000000001,342.83,-0.0507286936044693,0.10390213876962662,-1.9634203910827637,-1.9817923307418823,2.0768110752105713,-0.8978058099746704,0.09393412619829178,-0.04,0.06,0.06,259.86
1682370827.99877191,164291708,2,1.04,-2.14,342.55,-0.03483740612864494,0.10251998901367188,-2.2798969745635986,-2.3600080013275146,2.0721845626831055,-0.8870344758033752,-0.13153111934661865,-0.04,0.06,0.06,259.86
1682370828.09879994,164391736,2,0.15,-2.63,342.26,-0.03362974151968956,0.09889038652181625,-2.201974868774414,-2.9127070903778076,2.0665993690490723,-0.8760886192321777,-0.43834003806114197,-0.04,0.06,0.06,259.86
1682370828.19882202,164491758,2,-0.97,-1.41,342.03000000000003,-0.012425906024873257,0.09519347548484802,-2.0046775341033936,-2.7291743755340576,2.0625088214874268,-0.8660508990287781,-0.6991978883743286,-0.04,0.06,0.06,259.86
1682370828.29883599,164591772,2,-1.36,-0.61,341.82,0.0012275774497538805,0.07520657032728195,-1.7712208032608032,-2.035201072692871,2.055919647216797,-0.8600059747695923,-0.9006446599960327,-0.04,0.06,0.06,259.86
1682370828.39880800,164691744,2,-1.18,-0.32,341.65000000000003,0.005648427177220583,0.05376614257693291,-1.5182913541793823,-1.4918367862701416,2.0498573780059814,-0.8559457063674927,-1.06840181350708,-0.04,0.06,0.06,259.86
1682370828.49876094,164791697,2,-1.02,-0.45,341.56,0.01234800647944212,0.04159671813249588,-1.302064061164856,-1.167862057685852,2.0465776920318604,-0.8547695279121399,-1.2035210132598877,-0.04,0.06,0.06,259.86
1682370828.59876299,164891699,2,-0.79,-0.58,341.55,0.007986918091773987,0.020131221041083336,-1.1003867387771606,-0.9386898875236511,2.044182777404785,-0.8547111749649048,-1.3154540061950684,-0.04,0.06,0.06,259.86
1682370828.69875789,164991694,2,-0.68,-0.51,341.64,0.009108140133321285,0.017831243574619293,-0.9237186312675476,-0.6871106624603271,2.0481808185577393,-0.8546513319015503,-1.3959826231002808,-0.04,0.06,0.06,259.86
1682370828.79874992,165091686,2,-0.84,-0.32,341.76,0.014379040338099003,0.010213151574134827,-0.7461457252502441,-0.5454419851303101,2.0517470836639404,-0.8551946878433228,-1.4649181365966797,-0.04,0.06,0.06,259.86
1682370828.89876080,165191697,2,-0.91,-0.1,341.92,0.016995184123516083,0.00890444777905941,-0.6148707866668701,-0.3514130711555481,2.057274580001831,-0.8529373407363892,-1.5062346458435059,-0.04,0.06,0.06,259.86
1682370828.99880981,165291746,2,-1.03,-0.04,342.05,0.015562164597213268,-0.007325887214392424,-0.5192325711250305,-0.30852392315864563,2.062391757965088,-0.8517049551010132,-1.5452240705490112,-0.04,0.06,0.06,259.86
1682370829.09882689,165391763,2,-1.06,0.12,342.15000000000003,0.015341278165578842,-0.020708607509732246,-0.43346652388572693,-0.23093482851982117,2.06392502784729,-0.854962944984436,-1.5706220865249634,-0.04,0.06,0.06,259.86
1682370829.19882393,165491760,2,-0.81,0.13,342.21,0.009451685473322868,-0.009556705132126808,-0.39907723665237427,-0.25000983476638794,2.064992666244507,-0.8582286238670349,-1.5982155799865723,-0.04,0.06,0.06,259.86
1682370829.29878998,165591726,2,-0.78,0.17,342.23,0.003181867068633437,-0.023798827081918716,-0.36922040581703186,-0.2813809812068939,2.0719897747039795,-0.8582831621170044,-1.626373529434204,-0.04,0.06,0.06,259.86
1682370829.39876986,165691706,2,-0.89,0.17,342.19,-0.0029686852358281612,-0.021312201395630836,-0.3766632676124573,-0.3622194528579712,2.076671838760376,-0.8591548204421997,-1.6615256071090698,-0.04,0.06,0.06,259.86
1682370829.49876094,165791697,2,-1.04,0.07,342.14,-0.004595894832164049,-0.026040516793727875,-0.39814090728759766,-0.4286137819290161,2.083059787750244,-0.8571141362190247,-1.6999289989471436,-0.04,0.06,0.06,259.86
1682370829.59875894,165891695,2,-1.1500000000000001,0.0,342.04,-0.025525256991386414,-0.037346161901950836,-0.40979722142219543,-0.4888482391834259,2.086989402770996,-0.8565391302108765,-1.7467628717422485,-0.04,0.06,0.06,259.86
1682370829.69875598,165991692,2,-1.06,0.02,341.92,-0.025661442428827286,-0.03431175649166107,-0.4714210629463196,-0.6155712008476257,2.0863215923309326,-0.85849529504776,-1.8043241500854492,-0.04,0.06,0.06,259.86
1682370829.79875088,166091687,2,-0.79,-0.15,341.78000000000003,-0.03918289393186569,-0.0556330569088459,-0.49610793590545654,-0.6884896755218506,2.084310531616211,-0.8615368008613586,-1.8687224388122559,-0.04,0.06,0.06,259.86
1682370829.89879680,166191733,2,-0.51,-0.27,341.67,-0.035167258232831955,-0.040420643985271454,-0.5028461217880249,-0.6840700507164001,2.084200859069824,-0.8625878691673279,-1.9337893724441528,-0.04,0.06,0.06,259.86
1682370829.99882293,166291759,2,-0.43,-0.42,341.49,-0.04631426930427551,-0.052821867167949677,-0.5597549676895142,-0.7243643403053284,2.0826501846313477,-0.8650853037834167,-2.0033953189849854,-0.04,0.06,0.06,259.86
1682370830.09884882,166391785,2,-0.4,-0.48,341.36,-0.03306714817881584,-0.04503338783979416,-0.5652948617935181,-0.7439598441123962,2.0861945152282715,-0.8669459223747253,-2.076807737350464,-0.04,0.06,0.06,259.86
1682370830.19878888,166491725,2,-0.4,-0.49,341.22,-0.035539764910936356,-0.056085679680109024,-0.6192662715911865,-0.7992053031921387,2.088829517364502,-0.8694306015968323,-2.1525375843048096,-0.04,0.06,0.06,259.86
1682370830.29875898,166591695,2,-0.58,-0.36,341.12,-0.03608442097902298,-0.04590311273932457,-0.6248664855957031,-0.7880750298500061,2.0876305103302,-0.8714576363563538,-2.2291016578674316,-0.04,0.06,0.06,259.86
1682370830.39875102,166691687,2,-0.64,-0.42,341.04,-0.03247726708650589,-0.03932379186153412,-0.6266674995422363,-0.7692614793777466,2.0858371257781982,-0.8740478157997131,-2.3049733638763428,-0.04,0.06,0.06,259.86
1682370830.49875689,166791693,2,-0.58,-0.56,340.99,-0.03166213259100914,-0.051303304731845856,-0.6376768350601196,-0.7297706007957458,2.0871284008026123,-0.8837045431137085,-2.3762567043304443,-0.04,0.06,0.06,259.86
1682370830.59876490,166891701,2,-0.44,-0.48,339.89,-0.029721641913056374,-0.04327356815338135,-0.6364781856536865,-0.6950010061264038,2.0872504711151123,-0.8925623893737793,-2.4460501670837402,-0.04,0.06,0.06,259.86
1682370830.69877791,166991714,2,-0.21,-0.41000000000000003,339.81,-0.0294429250061512,-0.05141446739435196,-0.6548489928245544,-0.7140060663223267,2.0871448516845703,-0.8979241251945496,-2.5166733264923096,-0.04,0.06,0.06,259.86
1682370830.79879785,167091734,2,-0.25,-0.41000000000000003,339.71,-0.027082381770014763,-0.046536244451999664,-0.6270779371261597,-0.6932046413421631,2.086505174636841,-0.9034380912780762,-2.587388277053833,-0.04,0.06,0.06,259.86
1682370830.89875603,167191692,2,-0.26,-0.32,339.68,-0.024259088560938835,-0.05618138983845711,-0.659068763256073,-0.7475321888923645,2.0869100093841553,-0.9073812961578369,-2.6609411239624023,-0.04,0.06,0.06,259.86
1682370830.99882603,167291762,2,-0.25,-0.28,339.83,-0.022736646234989166,-0.03508260101079941,-0.6386622190475464,-0.7498645186424255,2.0870790481567383,-0.9111445546150208,-2.736945390701294,-0.04,0.06,0.06,259.86
1682370831.09878397,167391720,2,-0.36,-0.27,339.93,-0.01036146841943264,-0.04502321034669876,-0.6913869976997375,-0.8173430562019348,2.093397855758667,-0.9132848978042603,-2.8156068325042725,-0.04,0.06,0.06,259.86
1682370831.19875193,167491688,2,-0.4,-0.13,340.0,-0.011892655864357948,-0.028316862881183624,-0.6946108937263489,-0.8153183460235596,2.0981547832489014,-0.9152771234512329,-2.8942277431488037,-0.04,0.06,0.06,259.86
1682370831.29875803,167591694,2,-0.59,0.1,340.05,-0.011885670013725758,-0.04520675912499428,-0.6849750876426697,-0.7775275111198425,2.1024887561798096,-0.9169616103172302,-2.9709346294403076,-0.04,0.06,0.06,259.86
1682370831.39876199,167691698,2,-0.68,0.19,340.14,-0.01577695831656456,-0.017115794122219086,-0.6667829155921936,-0.7612208127975464,2.1053802967071533,-0.9186835885047913,-3.04784893989563,-0.04,0.06,0.06,259.86
1682370831.49875188,167791688,2,-0.6900000000000001,0.2,340.13,-0.01768580637872219,-0.039030928164720535,-0.6711007356643677,-0.7467279434204102,2.111344575881958,-0.919381320476532,-3.1218132972717285,-0.04,0.06,0.06,259.86
1682370831.59876180,167891698,2,-0.75,0.25,340.11,-0.0259386096149683,-0.029614023864269257,-0.669812798500061,-0.7254422307014465,2.1149232387542725,-0.9205411672592163,-3.194355010986328,-0.04,0.06,0.06,259.86
1682370831.69880199,167991738,2,-0.63,0.27,339.99,-0.01879381388425827,-0.026851188391447067,-0.643496036529541,-0.6794236302375793,2.1248137950897217,-0.9220975041389465,-3.264071226119995,-0.04,0.06,0.06,259.86
1682370831.79875588,168091692,2,-0.5700000000000001,0.3,339.84000000000003,-0.03630936145782471,-0.035995688289403915,-0.6583682894706726,-0.6986669301986694,2.1317224502563477,-0.9239549040794373,-3.3345141410827637,-0.04,0.06,0.06,259.86
1682370831.89885783,168191794,2,-0.6,0.45,339.82,-0.032737329602241516,-0.01642863266170025,-0.675349235534668,-0.7018499374389648,2.13205885887146,-0.9233182668685913,-3.4036693572998047,-0.04,0.06,0.06,259.86
1682370831.99878693,168291723,2,-0.55,0.22,339.87,-0.04181995242834091,-0.02404993772506714,-0.6908988952636719,-0.6952519416809082,2.130419969558716,-0.9233341217041016,-3.472227096557617,-0.04,0.06,0.06,259.86
1682370832.09875202,168391688,2,-0.45,-0.02,340.0,-0.05466550588607788,-0.039449770003557205,-0.6993152499198914,-0.6934431195259094,2.1283318996429443,-0.9269441366195679,-3.541170597076416,-0.04,0.06,0.06,259.86
1682370832.19875789,168491694,2,-0.26,-0.18,340.18,-0.06463070213794708,-0.022004712373018265,-0.6920284032821655,-0.6983709335327148,2.124237060546875,-0.9311339855194092,-3.6121132373809814,-0.04,0.06,0.06,259.86
1682370832.29876995,168591706,2,-0.07,-0.3,340.37,-0.059497952461242676,-0.03970453143119812,-0.7097415924072266,-0.6936770677566528,2.1217267513275146,-0.9362192749977112,-3.680600166320801,-0.04,0.06,0.06,259.86
1682370832.39874983,168691686,2,0.13,-0.29,340.6,-0.0608588345348835,-0.030083727091550827,-0.7128342390060425,-0.7045220136642456,2.1179816722869873,-0.9407885670661926,-3.7518579959869385,-0.04,0.06,0.06,259.86
1682370832.49875593,168791692,2,0.33,-0.27,340.87,-0.0524320974946022,-0.0347728431224823,-0.7497177124023438,-0.709476113319397,2.1155524253845215,-0.9504505395889282,-3.8196847438812256,-0.04,0.06,0.06,259.86
1682370832.59880090,168891737,2,0.49,-0.13,341.18,-0.05879154056310654,-0.019617551937699318,-0.7251078486442566,-0.6861875653266907,2.112151622772217,-0.9583544135093689,-3.890123128890991,-0.04,0.06,0.06,259.86
1682370832.69881797,168991754,2,0.5,-0.05,341.5,-0.06292630732059479,-0.011273426935076714,-0.7402418851852417,-0.7100309133529663,2.1047263145446777,-0.9638863205909729,-3.9616568088531494,-0.04,0.06,0.06,259.86
1682370832.79883385,169091770,2,0.32,-0.21,341.82,-0.0651530772447586,-0.014961324632167816,-0.7399869561195374,-0.7385377287864685,2.0968804359436035,-0.9678716659545898,-4.036912441253662,-0.04,0.06,0.06,259.86
1682370832.89879084,169191727,2,0.23,-0.32,342.13,-0.07281265407800674,0.015415620058774948,-0.7573535442352295,-0.8032639622688293,2.0856993198394775,-0.9667449593544006,-4.116975784301758,-0.04,0.06,0.06,259.86
1682370832.99875188,169291688,2,0.14,-0.6,342.36,-0.07751111686229706,0.0234758909791708,-0.7650309801101685,-0.8327743411064148,2.0745341777801514,-0.9646420478820801,-4.198390007019043,-0.04,0.06,0.06,259.86
1682370833.09875298,169391689,2,0.11,-0.84,342.67,-0.07624649256467819,0.019701002165675163,-0.7488119602203369,-0.7840701341629028,2.0613274574279785,-0.9668893814086914,-4.2750115394592285,-0.04,0.06,0.06,259.86
1682370833.19875884,169491695,2,0.25,-0.96,342.98,-0.07694461196660995,0.013214553706347942,-0.7257673144340515,-0.7487233281135559,2.048781633377075,-0.9679481387138367,-4.350436210632324,-0.04,0.06,0.06,259.86
1682370833.29875183,169591688,2,0.38,-1.12,343.33,-0.07365567237138748,0.02677915059030056,-0.681608259677887,-0.699152410030365,2.0374062061309814,-0.9685268402099609,-4.421909809112549,-0.04,0.06,0.06,259.86
1682370833.39877081,169691707,2,0.45,-1.19,343.6,-0.062033917754888535,0.03879931569099426,-0.6376243829727173,-0.6619581580162048,2.027254819869995,-0.9677624702453613,-4.4893798828125,-0.04,0.06,0.06,259.86
1682370833.49879599,169791732,2,0.36,-1.26,343.73,-0.047145918011665344,0.0486278161406517,-0.5682536959648132,-0.5914585590362549,2.026090621948242,-0.9642890095710754,-4.550998687744141,-0.04,0.06,0.06,259.86
1682370833.59881997,169891756,2,0.07,-1.23,343.76,-0.037852656096220016,0.04185326397418976,-0.5110032558441162,-0.5364745855331421,2.0252797603607178,-0.9597816467285156,-4.608057022094727,-0.04,0.06,0.06,259.86
1682370833.69882989,169991766,2,-0.32,-1.03,343.88,-0.03137943893671036,0.059988606721162796,-0.43647825717926025,-0.45221462845802307,2.018207550048828,-0.9512614011764526,-4.657252311706543,-0.04,0.06,0.06,259.86
1682370833.79884291,170091779,2,-0.61,-1.16,344.01,-0.029342547059059143,0.060147613286972046,-0.3756420314311981,-0.40165334939956665,2.0123350620269775,-0.9430306553840637,-4.701568603515625,-0.04,0.06,0.06,259.86
1682370833.89876294,170191699,2,-0.74,-1.42,344.12,-0.01709398254752159,0.05635138601064682,-0.31715068221092224,-0.3067514896392822,2.0076801776885986,-0.9363822340965271,-4.732944965362549,-0.04,0.06,0.06,259.86
1682370833.99875593,170291692,2,-0.7000000000000001,-1.51,344.15000000000003,-0.017040010541677475,0.04465622082352638,-0.21552126109600067,-0.2014399766921997,2.0035855770111084,-0.9302952289581299,-4.759106159210205,-0.04,0.06,0.06,259.86
1682370834.09875083,170391687,2,-0.49,-1.61,344.14,-0.008988521993160248,0.04650350660085678,-0.14536993205547333,-0.12916268408298492,1.9992713928222656,-0.923812747001648,-4.775494575500488,-0.04,0.06,0.06,259.86
1682370834.19875383,170491690,2,-0.33,-1.7,344.05,0.0019758595153689384,0.03814001381397247,-0.05232127010822296,-0.03137349337339401,1.996234655380249,-0.9183661341667175,-4.784426689147949,-0.04,0.06,0.06,259.86
1682370834.29875493,170591691,2,-0.15,-1.62,343.88,0.013338162563741207,0.018969306722283363,-0.014686482027173042,0.016883747652173042,1.9945861101150513,-0.911791980266571,-4.7848711013793945,-0.04,0.06,0.06,259.86
1682370834.39879894,170691735,2,-0.16,-1.82,343.64,0.030719464644789696,0.023839084431529045,0.02148575522005558,0.06302572786808014,1.9948854446411133,-0.9065929055213928,-4.7797136306762695,-0.04,0.06,0.06,259.86
1682370834.49881887,170791755,2,-0.26,-1.97,343.38,0.042302463203668594,0.026783695444464684,0.07229289412498474,0.14364857971668243,1.9978103637695312,-0.8973450660705566,-4.767306804656982,-0.04,0.06,0.06,259.86
1682370834.59882498,170891761,2,-0.61,-1.26,343.09000000000003,0.052750006318092346,0.01504821889102459,0.08809314668178558,0.155190110206604,2.00146746635437,-0.8900277018547058,-4.755057334899902,-0.04,0.06,0.06,259.86
1682370834.69878387,170991720,2,-0.9,-0.54,342.81,0.0448010079562664,0.01895052380859852,0.08669529110193253,0.16506119072437286,2.005737781524658,-0.8806971907615662,-4.738607883453369,-0.04,0.06,0.06,259.86
1682370834.79874897,171091685,2,-1.02,0.38,342.45,0.03071548603475094,0.01975114643573761,0.09751196205615997,0.16295038163661957,2.0091702938079834,-0.8732680678367615,-4.724695205688477,-0.04,0.06,0.06,259.86
1682370834.89875793,171191694,2,-1.1400000000000001,1.34,341.91,-0.001796832075342536,0.020887479186058044,0.0880601778626442,0.12633749842643738,2.0084245204925537,-0.8633458614349365,-4.71318244934082,-0.04,0.06,0.06,259.86
1682370834.99875903,171291695,2,-1.21,2.15,340.99,-0.04286186769604683,0.01738465577363968,0.032269131392240524,0.03211931511759758,2.0040838718414307,-0.8538855910301208,-4.707263946533203,-0.04,0.06,0.06,259.86
1682370835.09875298,171391689,2,-1.3,2.66,339.64,-0.10341379791498184,0.029164770618081093,0.00035049719735980034,-0.0181101206690073,1.9925886392593384,-0.8426898121833801,-4.70427942276001,-0.04,0.06,0.06,259.86
1682370835.19876480,171491701,2,-1.53,2.63,337.77,-0.1600930392742157,0.0429682694375515,0.035632628947496414,0.02441572956740856,1.9766509532928467,-0.8329594731330872,-4.702754497528076,-0.04,0.06,0.06,259.86
1682370835.29879594,171591732,2,-1.72,2.4,335.34000000000003,-0.212886780500412,0.04741043969988823,0.032565921545028687,0.004539486486464739,1.9506711959838867,-0.8227972984313965,-4.705323696136475,-0.04,0.06,0.06,259.86
1682370835.39881301,171691749,2,-1.68,2.0300000000000002,332.32,-0.2650109827518463,0.05152788758277893,0.007328593172132969,-0.02192898467183113,1.9204524755477905,-0.8134071826934814,-4.707499980926514,-0.04,0.06,0.06,259.86
1682370835.49882889,171791765,2,-1.6400000000000001,1.79,328.8,-0.3124774694442749,0.05857644975185394,0.029660003259778023,0.02900955080986023,1.884516954421997,-0.8072503209114075,-4.706279754638672,-0.04,0.06,0.06,259.86
1682370835.59878898,171891725,2,-1.36,1.62,324.88,-0.35446348786354065,0.06058095395565033,0.02022704668343067,0.03289433941245079,1.8454824686050415,-0.8012208342552185,-4.703850746154785,-0.04,0.06,0.06,259.86
1682370835.69877100,171991707,2,-1.05,1.27,320.75,-0.3913297951221466,0.06626314669847488,0.02130546234548092,0.003943857736885548,1.8056144714355469,-0.7980436086654663,-4.702816963195801,-0.04,0.06,0.06,259.86
1682370835.79875088,172091687,2,-0.68,0.8200000000000001,316.37,-0.44121789932250977,0.07175341993570328,0.019473284482955933,-0.02045830339193344,1.7629767656326294,-0.7943612933158875,-4.702698230743408,-0.04,0.06,0.06,259.86
1682370835.89875293,172191689,2,-0.36,0.54,311.99,-0.4511793851852417,0.07296524196863174,0.058781206607818604,0.06467374414205551,1.7206621170043945,-0.7932003140449524,-4.697591781616211,-0.04,0.06,0.06,259.86
1682370835.99875784,172291694,2,0.07,0.35000000000000003,307.51,-0.46866920590400696,0.07864202558994293,0.03878742456436157,0.06723032146692276,1.6760936975479126,-0.7911219596862793,-4.693359375,-0.04,0.06,0.06,259.86
1682370836.09875989,172391696,2,0.51,0.38,303.1,-0.48291611671447754,0.07343161851167679,0.05035179853439331,0.06798897683620453,1.6295596361160278,-0.7926055788993835,-4.690797328948975,-0.04,0.06,0.06,259.86
1682370836.19880390,172491740,2,0.71,0.62,298.66,-0.49307528138160706,0.09917192161083221,0.018829045817255974,-0.004910744726657867,1.5813466310501099,-0.7926853895187378,-4.6910929679870605,-0.04,0.06,0.06,259.86
1682370836.29880881,172591745,2,0.87,1.02,294.04,-0.5129082798957825,0.1007184162735939,0.043635327368974686,-0.002640055026859045,1.5333696603775024,-0.7956376075744629,-4.692624092102051,-0.04,0.06,0.06,259.86
1682370836.39884496,172691781,2,0.71,1.34,289.08,-0.5101717710494995,0.11620523035526276,0.026082821190357208,-0.019621899351477623,1.4834223985671997,-0.7959713935852051,-4.6933979988098145,-0.04,0.06,0.06,259.86
1682370836.49879098,172791727,2,0.44,1.56,283.83,-0.5353952646255493,0.137626513838768,-0.007623729296028614,-0.021590327844023705,1.4335105419158936,-0.7947744131088257,-4.69136905670166,-0.04,0.06,0.06,259.86
1682370836.59876895,172891705,2,0.3,1.68,278.2,-0.5568678379058838,0.15940463542938232,0.0007091732695698738,-0.012810680083930492,1.3809070587158203,-0.7901657223701477,-4.690204620361328,-0.04,0.06,0.06,259.86
1682370836.69876981,172991706,2,0.17,1.67,272.26,-0.5714196562767029,0.18370583653450012,0.004686418920755386,-0.007595416158437729,1.3279058933258057,-0.7863315939903259,-4.689979553222656,-0.04,0.06,0.06,259.86
1682370836.79876280,173091699,2,0.08,1.76,265.92,-0.5978950262069702,0.2020082175731659,0.05112125352025032,0.04140767827630043,1.2715576887130737,-0.7782918214797974,-4.688687324523926,-0.04,0.06,0.06,259.86
1682370836.89875793,173191694,2,0.02,1.94,259.16,-0.6131517887115479,0.21992655098438263,0.027573322877287865,0.05383501201868057,1.2158830165863037,-0.7689846158027649,-4.683856010437012,-0.04,0.06,0.06,259.86
1682370836.99875498,173291691,2,-0.1,2.0300000000000002,251.96,-0.6246777772903442,0.24742825329303741,-0.005762401036918163,-0.0009001204743981361,1.1565583944320679,-0.7552337050437927,-4.682836055755615,-0.04,0.06,0.06,259.86
1682370837.09879684,173391733,2,-0.32,2.13,244.43,-0.6425557136535645,0.2674885392189026,-0.0014263591729104519,0.0021331983152776957,1.0992050170898438,-0.7427594661712646,-4.681239604949951,-0.04,0.07,0.06,259.86
1682370837.19881296,173491749,2,-0.49,2.23,236.48000000000002,-0.6527740955352783,0.29134950041770935,-0.012965772300958633,-0.019228877499699593,1.0382553339004517,-0.7251768112182617,-4.682321548461914,-0.04,0.06,0.06,259.86
1682370837.29882789,173591764,2,-0.86,2.33,228.21,-0.6605416536331177,0.31705668568611145,-0.0342281311750412,-0.05979114770889282,0.9798128604888916,-0.7061502933502197,-4.685196876525879,-0.03,0.07,0.06,259.86
1682370837.39878893,173691725,2,-1.11,2.42,219.76,-0.6604218482971191,0.3411766588687897,0.0031113019213080406,-0.03508109226822853,0.9187946915626526,-0.6818510890007019,-4.689868927001953,-0.03,0.07,0.06,259.86
1682370837.49875093,173791687,2,-1.35,2.5500000000000003,211.22,-0.6593834757804871,0.37350502610206604,-0.025053149089217186,-0.08714647591114044,0.8601090312004089,-0.6590155959129333,-4.697933673858643,-0.03,0.07,0.06,259.86
1682370837.59875894,173891695,2,-1.55,2.7800000000000002,202.61,-0.651892900466919,0.3979935050010681,-0.0026464457623660564,-0.07869771122932434,0.7998576164245605,-0.6299234628677368,-4.706233978271484,-0.03,0.07,0.06,259.86
1682370837.69875789,173991694,2,-1.53,2.88,193.98000000000002,-0.6401671767234802,0.4300522208213806,-0.00016728417540434748,-0.06869769096374512,0.7430326342582703,-0.6017499566078186,-4.712692737579346,-0.03,0.07,0.06,259.86
1682370837.79875493,174091691,2,-1.58,3.02,185.37,-0.6226531863212585,0.460498183965683,0.026369987055659294,-0.04749126732349396,0.6858572363853455,-0.5676298141479492,-4.719801425933838,-0.03,0.07,0.06,259.86
1682370837.89875197,174191688,2,-1.6300000000000001,3.04,176.95000000000002,-0.608698308467865,0.4680292010307312,0.02203117124736309,-0.0852208137512207,0.6285851001739502,-0.5372263193130493,-4.730384826660156,-0.03,0.07,0.06,259.86
1682370837.99880099,174291737,2,-1.73,3.02,168.96,-0.577642560005188,0.4898206293582916,0.0034222162794321775,-0.10200388729572296,0.5728837251663208,-0.502086341381073,-4.739988327026367,-0.03,0.07,0.06,259.86
1682370838.09882903,174391765,2,-1.79,3.12,161.4,-0.540187656879425,0.4855041205883026,-0.03294265642762184,-0.13082274794578552,0.5248145461082458,-0.46976929903030396,-4.751091003417969,-0.03,0.07,0.06,259.86
1682370838.19884682,174491783,2,-1.72,3.04,154.54,-0.49908775091171265,0.46650221943855286,-0.04909888654947281,-0.13640274107456207,0.47834107279777527,-0.43393293023109436,-4.76165771484375,-0.03,0.07,0.06,259.86
1682370838.29878402,174591720,2,-1.82,3.09,148.48,-0.4763486981391907,0.464478999376297,-0.004367147572338581,-0.06246437504887581,0.43326637148857117,-0.40181609988212585,-4.770251274108887,-0.03,0.07,0.06,259.86
1682370838.39875698,174691693,2,-1.85,3.0500000000000003,143.21,-0.4452611804008484,0.43018436431884766,0.018529778346419334,-0.04216356202960014,0.3903326690196991,-0.3686670958995819,-4.781182289123535,-0.03,0.07,0.06,259.86
1682370838.49875402,174791690,2,-1.81,3.06,138.6,-0.40754434466362,0.38933444023132324,-0.016511589288711548,-0.08022631704807281,0.3544037640094757,-0.3468708395957947,-4.789610385894775,-0.02,0.07,0.06,259.86
1682370838.59875298,174891689,2,-2.0100000000000002,2.84,134.63,-0.35736632347106934,0.3902750611305237,-0.0016325464239344,-0.056654490530490875,0.3205154240131378,-0.322881281375885,-4.796526908874512,-0.02,0.07,0.06,259.86
1682370838.69876385,174991700,2,-2.04,2.38,131.19,-0.3261083662509918,0.3578692376613617,-0.01793556660413742,-0.0492236353456974,0.28662627935409546,-0.30441218614578247,-4.8011040687561035,-0.02,0.07,0.06,259.86
1682370838.79878592,175091722,2,-1.97,2.0100000000000002,128.35,-0.30854833126068115,0.3405221104621887,-0.10708378255367279,-0.12373201549053192,0.2548259496688843,-0.2835703492164612,-4.808852195739746,-0.02,0.07,0.06,259.86
1682370838.89880395,175191740,2,-2.02,1.87,126.06,-0.2849293351173401,0.3036608397960663,-0.14091089367866516,-0.1287660449743271,0.21995218098163605,-0.2681075632572174,-4.820173740386963,-0.02,0.07,0.06,259.86
1682370838.99881482,175291751,2,-2.09,2.09,124.44,-0.24881313741207123,0.2967810034751892,-0.19224803149700165,-0.16227194666862488,0.18750156462192535,-0.250159353017807,-4.834811687469482,-0.02,0.07,0.06,259.86
1682370839.09884381,175391780,2,-2.02,2.13,123.47,-0.23708292841911316,0.27758854627609253,-0.19709455966949463,-0.14192011952400208,0.15775254368782043,-0.2341936230659485,-4.847862243652344,-0.02,0.07,0.06,259.86
1682370839.19877982,175491716,2,-1.8800000000000001,2.15,122.98,-0.23284222185611725,0.24939192831516266,-0.15787987411022186,-0.11201542615890503,0.13112463057041168,-0.216355100274086,-4.862893104553223,-0.02,0.07,0.06,259.86
1682370839.29876399,175591700,2,-1.28,2.0100000000000002,122.91,-0.21872368454933167,0.23021702468395233,-0.15724143385887146,-0.12030770629644394,0.10176581889390945,-0.19871895015239716,-4.875977039337158,-0.02,0.07,0.06,259.86
1682370839.39875698,175691693,2,-1.19,1.8900000000000001,123.15,-0.1891411542892456,0.20502027869224548,-0.11816251277923584,-0.07830779999494553,0.07559089362621307,-0.17973506450653076,-4.88680362701416,-0.02,0.07,0.06,259.86
1682370839.49875689,175791693,2,-0.85,1.98,123.87,-0.20749926567077637,0.19339345395565033,-0.1115286573767662,-0.052522629499435425,0.04638617858290672,-0.16542133688926697,-4.892514705657959,-0.02,0.07,0.06,259.86
1682370839.59875798,175891694,2,-0.55,1.42,124.89,-0.1982811540365219,0.1757546216249466,-0.07928884774446487,-0.015579885803163052,0.01919393427670002,-0.1500096470117569,-4.895107746124268,-0.02,0.07,0.06,259.86
1682370839.69875789,175991694,2,-0.51,1.52,126.34,-0.18836577236652374,0.16332308948040009,-0.05430223420262337,0.06648072600364685,-0.007859264500439167,-0.13785524666309357,-4.887974739074707,-0.02,0.07,0.06,259.86
1682370839.79880190,176091738,2,-0.23,0.98,128.27,-0.18649938702583313,0.1683797836303711,0.02796403132379055,0.1545799821615219,-0.03411927446722984,-0.12488411366939545,-4.878656387329102,-0.02,0.07,0.06,259.86
1682370839.89880991,176191746,2,-0.35000000000000003,0.85,130.41,-0.22581036388874054,0.10792986303567886,0.09703990817070007,0.22112077474594116,-0.06051430478692055,-0.11265227943658829,-4.861638069152832,-0.02,0.07,0.06,259.86
1682370839.99885893,176291795,2,-0.17,0.9500000000000001,132.84,-0.2039627730846405,0.13947665691375732,0.2614925801753998,0.38547343015670776,-0.08656487613916397,-0.1004430279135704,-4.8316473960876465,-0.02,0.07,0.06,259.86
1682370840.09878087,176391717,2,-0.14,0.66,135.39000000000001,-0.23881745338439941,0.14188070595264435,0.39898788928985596,0.5724269151687622,-0.1153569370508194,-0.08696338534355164,-4.7786455154418945,-0.02,0.07,0.06,259.86
1682370840.19875789,176491694,2,-0.01,1.03,137.64000000000001,-0.25758159160614014,0.10865622758865356,0.46217817068099976,0.6454108357429504,-0.14426232874393463,-0.07413099706172943,-4.718664169311523,-0.02,0.07,0.06,259.86
1682370840.29877687,176591713,2,0.0,0.61,139.82,-0.2666671872138977,0.11708442866802216,0.4434182345867157,0.6539837121963501,-0.17814801633358002,-0.06332313269376755,-4.653491020202637,-0.02,0.07,0.06,259.86
1682370840.39875293,176691689,2,-0.65,0.62,141.99,-0.30392470955848694,0.08794903010129929,0.4029945731163025,0.5722219347953796,-0.2120816558599472,-0.051617130637168884,-4.599617004394531,-0.02,0.07,0.06,259.86
1682370840.49875188,176791688,2,-1.02,0.63,144.12,-0.3426176905632019,0.10411485284566879,0.2815394401550293,0.3116588592529297,-0.25961679220199585,-0.04217873513698578,-4.564667224884033,-0.02,0.07,0.06,259.86
1682370840.59875989,176891696,2,-1.45,0.8,146.25,-0.3644077181816101,0.09956365078687668,0.20662377774715424,0.10427103191614151,-0.3062078058719635,-0.031323954463005066,-4.5445876121521,-0.02,0.07,0.06,259.86
1682370840.69880390,176991740,2,-1.76,1.29,148.34,-0.37358376383781433,0.10761741548776627,0.1577622890472412,-0.014302249997854233,-0.35340172052383423,-0.021941998973488808,-4.538694858551025,-0.02,0.07,0.06,259.86
1682370840.79880881,177091745,2,-1.62,1.36,150.45000000000002,-0.37596508860588074,0.11818167567253113,0.10443027317523956,-0.062079645693302155,-0.39956364035606384,-0.011498363688588142,-4.539873123168945,-0.02,0.07,0.06,259.86
1682370840.89882588,177191762,2,-1.57,1.45,152.54,-0.3773191273212433,0.1052238792181015,-0.0020949088502675295,-0.140396848320961,-0.44394323229789734,0.0016290509374812245,-4.54657506942749,-0.02,0.07,0.06,259.86
1682370840.99878597,177291722,2,-1.33,1.54,154.54,-0.3851971924304962,0.12300454825162888,-0.030793217942118645,-0.13044480979442596,-0.48660820722579956,0.015000814571976662,-4.556268215179443,-0.02,0.07,0.06,259.86
1682370841.09875393,177391690,2,-1.17,1.43,156.43,-0.37510916590690613,0.121929831802845,-0.08205253630876541,-0.14648234844207764,-0.5284194946289062,0.028444265946745872,-4.567884922027588,-0.02,0.07,0.06,259.86
1682370841.19875789,177491694,2,-1.1400000000000001,1.37,158.28,-0.3840697109699249,0.1139032393693924,-0.08735442161560059,-0.12145500630140305,-0.568622350692749,0.0427822470664978,-4.5798258781433105,-0.02,0.07,0.06,259.86
1682370841.29875398,177591690,2,-1.02,1.28,159.98,-0.38140925765037537,0.1315620243549347,-0.08884137868881226,-0.09059963375329971,-0.6139870882034302,0.056648675352334976,-4.591176509857178,-0.02,0.07,0.06,259.86
1682370841.39875484,177691691,2,-0.9400000000000001,1.3,161.57,-0.38969072699546814,0.12950856983661652,-0.13533982634544373,-0.09697969257831573,-0.6579398512840271,0.07080155611038208,-4.599356174468994,-0.02,0.07,0.06,259.86
1682370841.49875784,177791694,2,-0.91,1.44,162.97,-0.396944522857666,0.1333160251379013,-0.11448618769645691,0.0007514182361774147,-0.7021269202232361,0.08237644284963608,-4.59978723526001,-0.02,0.07,0.06,259.86
1682370841.59879994,177891736,2,-0.93,1.46,164.16,-0.4001961052417755,0.13211163878440857,-0.11674942821264267,0.016563700512051582,-0.7454556226730347,0.0942416563630104,-4.601073741912842,-0.02,0.07,0.06,259.86
1682370841.69881892,177991755,2,-1.0,1.46,165.16,-0.4042731523513794,0.11156201362609863,-0.12621143460273743,0.005336314905434847,-0.7885333895683289,0.10468114167451859,-4.600890159606934,-0.02,0.07,0.06,259.86
1682370841.79882383,178091760,2,-1.01,1.31,165.94,-0.41000789403915405,0.11944910138845444,-0.09721898287534714,0.012486717663705349,-0.8311808705329895,0.1157122477889061,-4.602666854858398,-0.02,0.07,0.06,259.86
1682370841.89878988,178191726,2,-1.09,1.19,166.5,-0.41974887251853943,0.12081476300954819,-0.11792486160993576,-0.029453685507178307,-0.8777793645858765,0.12551578879356384,-4.605471611022949,-0.02,0.07,0.06,259.86
1682370841.99876285,178291699,2,-1.1400000000000001,1.29,166.86,-0.4287322461605072,0.11286584287881851,-0.11723091453313828,-0.03149273991584778,-0.9234775304794312,0.13611774146556854,-4.607526779174805,-0.02,0.07,0.06,259.86
1682370842.09874988,178391686,2,-1.12,1.3800000000000001,167.05,-0.4346758723258972,0.12908287346363068,-0.11734410375356674,0.011696717701852322,-0.9738492369651794,0.14559149742126465,-4.604039192199707,-0.02,0.07,0.06,259.86
1682370842.19874883,178491685,2,-1.21,1.47,167.09,-0.4406070113182068,0.12553147971630096,-0.08864431828260422,0.04075733572244644,-1.0229828357696533,0.1564253568649292,-4.602997303009033,-0.02,0.07,0.06,259.86
1682370842.29875398,178591690,2,-1.2,1.55,167.01,-0.4483810067176819,0.11758483946323395,-0.09836747497320175,0.01387216430157423,-1.0745604038238525,0.16408155858516693,-4.60261344909668,-0.02,0.07,0.06,259.86
1682370842.39875698,178691693,2,-1.22,1.55,166.82,-0.4550899565219879,0.1353110373020172,-0.09293786436319351,0.010974145494401455,-1.1247237920761108,0.17350643873214722,-4.602715015411377,-0.02,0.07,0.06,259.86
1682370842.49880481,178791741,2,-1.35,1.52,166.56,-0.4454059302806854,0.1372464895248413,-0.10954165458679199,-0.0070273736491799355,-1.1723172664642334,0.18294794857501984,-4.602874755859375,-0.02,0.07,0.06,259.86
1682370842.59881902,178891755,2,-1.26,1.48,166.20000000000002,-0.45523813366889954,0.14369961619377136,-0.11521638929843903,-0.03486365079879761,-1.219449520111084,0.19397155940532684,-4.606472969055176,-0.02,0.07,0.06,259.86
1682370842.69882703,178991763,2,-1.23,1.42,165.78,-0.4558509290218353,0.1444081962108612,-0.11885574460029602,-0.04948960244655609,-1.268954873085022,0.203828364610672,-4.609354019165039,-0.02,0.07,0.06,259.86
1682370842.79878592,179091722,2,-1.27,1.49,165.34,-0.46060821413993835,0.1527036726474762,-0.10922292619943619,-0.05225620046257973,-1.3173274993896484,0.21530310809612274,-4.613669395446777,-0.02,0.07,0.06,259.86
1682370842.89875603,179191692,2,-1.19,1.52,164.89000000000001,-0.4670061469078064,0.14854425191879272,-0.09662454575300217,-0.05004529282450676,-1.3703553676605225,0.22458647191524506,-4.618824005126953,-0.02,0.07,0.06,259.86
1682370842.99877000,179291706,2,-1.21,1.58,164.41,-0.4627438485622406,0.16145552694797516,-0.10047878324985504,-0.05204767733812332,-1.4216748476028442,0.23561640083789825,-4.623452663421631,-0.02,0.07,0.06,259.86
1682370843.09876084,179391697,2,-1.23,1.75,163.95000000000002,-0.47118934988975525,0.15377846360206604,-0.0870940238237381,0.0029231631197035313,-1.4751828908920288,0.24338053166866302,-4.624086380004883,-0.02,0.07,0.06,259.86
1682370843.19875598,179491692,2,-1.2,1.79,163.51,-0.47278738021850586,0.14650994539260864,-0.10258876532316208,-0.016425276175141335,-1.5269248485565186,0.25307849049568176,-4.626474857330322,-0.02,0.07,0.06,259.86
1682370843.29875183,179591688,2,-1.19,1.87,163.09,-0.46077263355255127,0.15268833935260773,-0.10032128542661667,-0.012258661910891533,-1.578665852546692,0.2629256248474121,-4.627166271209717,-0.02,0.07,0.06,259.86
1682370843.39880991,179691746,2,-1.1,1.79,162.73,-0.4623408913612366,0.15504544973373413,-0.10359369963407516,-0.023286139592528343,-1.6282662153244019,0.2740427851676941,-4.629175662994385,-0.02,0.07,0.06,259.86
1682370843.49880791,179791744,2,-1.08,1.78,162.43,-0.4646778106689453,0.13071534037590027,-0.09458156675100327,-0.023282742127776146,-1.6836118698120117,0.28364914655685425,-4.631053447723389,-0.02,0.07,0.06,259.86
1682370843.59882689,179891763,2,-1.18,1.8900000000000001,162.18,-0.4565070867538452,0.15184783935546875,-0.0779440626502037,-0.01261984184384346,-1.7362525463104248,0.2946871221065521,-4.633481979370117,-0.02,0.07,0.06,259.86
1682370843.69879484,179991731,2,-1.25,2.0,161.97,-0.45599615573883057,0.15617236495018005,-0.09037411957979202,-0.042721912264823914,-1.789603590965271,0.3048379421234131,-4.637631416320801,-0.02,0.07,0.06,259.86
1682370843.79876280,180091699,2,-1.3900000000000001,2.0,161.82,-0.4513738453388214,0.14682550728321075,-0.06399334222078323,-0.044931549578905106,-1.8408066034317017,0.31658604741096497,-4.643920421600342,-0.02,0.07,0.06,259.86
1682370843.89875102,180191687,2,-1.4000000000000001,1.95,161.73,-0.4451589286327362,0.1471967250108719,-0.07200226187705994,-0.06344284862279892,-1.8904669284820557,0.32607272267341614,-4.650270938873291,-0.02,0.07,0.06,259.86
1682370843.99876189,180291698,2,-1.51,1.81,161.67000000000002,-0.43033015727996826,0.15908902883529663,-0.060138314962387085,-0.07040967047214508,-1.9380613565444946,0.3372131288051605,-4.658285617828369,-0.02,0.07,0.06,259.86
1682370844.09875202,180391688,2,-1.55,1.69,161.69,-0.4408896565437317,0.1396903097629547,-0.08600830286741257,-0.10636377334594727,-1.9835495948791504,0.34844234585762024,-4.666850566864014,-0.02,0.07,0.06,259.86
1682370844.19875789,180491694,2,-1.46,1.51,161.73,-0.4268874526023865,0.1558062881231308,-0.08257404714822769,-0.1108572781085968,-2.027836799621582,0.36110982298851013,-4.6756486892700195,-0.02,0.07,0.06,259.86
1682370844.29881001,180591746,2,-1.36,1.34,161.8,-0.4343668818473816,0.15768074989318848,-0.06643246114253998,-0.08999226242303848,-2.0727498531341553,0.37307819724082947,-4.683535575866699,-0.02,0.07,0.06,259.86
1682370844.39881992,180691756,2,-1.35,1.33,161.88,-0.42835190892219543,0.18051959574222565,-0.04713458567857742,-0.05255057290196419,-2.1168835163116455,0.3870145380496979,-4.689407825469971,-0.02,0.07,0.06,259.86
1682370844.49883199,180791768,2,-1.3900000000000001,1.33,162.02,-0.4309372007846832,0.17558038234710693,-0.0643390566110611,-0.006968139670789242,-2.165044069290161,0.4020243287086487,-4.688343524932861,-0.02,0.07,0.06,259.86
1682370844.59878302,180891719,2,-1.32,1.5,162.16,-0.4321061074733734,0.19022421538829803,-0.032868392765522,0.02926827408373356,-2.211639404296875,0.4185267388820648,-4.689030647277832,-0.02,0.07,0.06,259.86
1682370844.69876194,180991698,2,-1.29,1.6300000000000001,162.32,-0.43239912390708923,0.19245150685310364,-0.03173212707042694,0.006041164975613356,-2.2609472274780273,0.43301302194595337,-4.690404891967773,-0.02,0.07,0.06,259.86
1682370844.79875088,181091687,2,-1.3,1.7,162.51,-0.43226078152656555,0.16602972149848938,-0.054169975221157074,-0.022810548543930054,-2.308458089828491,0.44910183548927307,-4.691474914550781,-0.02,0.07,0.06,259.86
1682370844.89875197,181191688,2,-1.26,1.74,162.68,-0.4306170642375946,0.1928340494632721,-0.0694769099354744,-0.0375433973968029,-2.357651948928833,0.46529102325439453,-4.692730903625488,-0.02,0.07,0.06,259.86
1682370844.99876094,181291697,2,-1.29,1.69,162.88,-0.4365568161010742,0.17744790017604828,-0.042218923568725586,-0.040368568152189255,-2.405047655105591,0.4827430546283722,-4.697420597076416,-0.02,0.07,0.06,259.86
1682370845.09876299,181391699,2,-1.27,1.67,163.02,-0.42209169268608093,0.189522847533226,-0.049223367124795914,-0.057599302381277084,-2.451840877532959,0.49867045879364014,-4.7012248039245605,-0.02,0.07,0.06,259.86
1682370845.19879580,181491732,2,-1.1400000000000001,1.58,163.15,-0.4284188449382782,0.19557340443134308,-0.047559015452861786,-0.05178209766745567,-2.4970293045043945,0.5153720378875732,-4.705356597900391,-0.02,0.07,0.06,259.86
1682370845.29881287,181591749,2,-1.08,1.51,163.24,-0.4348534941673279,0.17629091441631317,-0.05655490607023239,-0.06665071099996567,-2.5430750846862793,0.5322030186653137,-4.710862159729004,-0.02,0.07,0.06,259.86
1682370845.39883184,181691768,2,-1.03,1.55,163.31,-0.4338015019893646,0.17056229710578918,-0.058727677911520004,-0.08217350393533707,-2.588073968887329,0.5496293902397156,-4.717525005340576,-0.02,0.07,0.06,259.86
1682370845.49880695,181791743,2,-0.97,1.51,163.35,-0.43163639307022095,0.19095376133918762,-0.058376677334308624,-0.08847783505916595,-2.636676788330078,0.5655543208122253,-4.724488735198975,-0.02,0.07,0.06,259.86
1682370845.59875798,181891694,2,-0.97,1.56,163.39000000000001,-0.43967124819755554,0.16714327037334442,-0.06315679848194122,-0.08152753859758377,-2.683929920196533,0.5821383595466614,-4.730208396911621,-0.02,0.07,0.06,259.86
1682370845.69875884,181991695,2,-0.86,1.6500000000000001,163.41,-0.4442901909351349,0.17035429179668427,-0.03909911587834358,-0.02895357273519039,-2.731259822845459,0.5974987745285034,-4.733388900756836,-0.02,0.07,0.06,259.86
1682370845.79875183,182091688,2,-0.87,1.62,163.39000000000001,-0.4425358772277832,0.16373425722122192,-0.031119823455810547,-0.009981379844248295,-2.777698040008545,0.613351583480835,-4.735726356506348,-0.02,0.07,0.06,259.86
1682370845.89875889,182191695,2,-0.86,1.7,163.37,-0.4427393078804016,0.14909471571445465,-0.04007108137011528,-0.024194955825805664,-2.824735641479492,0.6225314736366272,-4.738650321960449,-0.02,0.07,0.06,259.86
1682370845.99876595,182291702,2,-1.03,1.6,163.33,-0.44090914726257324,0.161241814494133,-0.03273610770702362,-0.03452025353908539,-2.8708930015563965,0.6337557435035706,-4.742424488067627,-0.02,0.07,0.06,259.86
1682370846.09879994,182391736,2,-1.22,1.52,163.32,-0.44136738777160645,0.15462827682495117,-0.027409473434090614,-0.016926685348153114,-2.919326066970825,0.6435106992721558,-4.744019985198975,-0.02,0.07,0.06,259.86
1682370846.19881296,182491749,2,-1.42,1.62,163.34,-0.4499766528606415,0.15586723387241364,-0.02352750115096569,-0.005026742350310087,-2.968339204788208,0.6545016765594482,-4.7452287673950195,-0.02,0.07,0.06,259.86
1682370846.29883099,182591767,2,-1.52,1.75,163.37,-0.45683524012565613,0.14985333383083344,0.012534738518297672,0.028052063658833504,-3.014716625213623,0.6654107570648193,-4.745054244995117,-0.02,0.07,0.06,259.86
1682370846.39878702,182691723,2,-1.43,1.7,163.4,-0.45222434401512146,0.15024583041667938,-0.028928717598319054,-0.01968756876885891,-3.0605525970458984,0.677827000617981,-4.745791435241699,-0.02,0.07,0.06,259.86
1682370846.49875998,182791696,2,-1.35,1.6600000000000001,163.44,-0.4514399766921997,0.16566036641597748,-0.02518363483250141,-0.0027854645159095526,-3.109708309173584,0.689593493938446,-4.744383811950684,-0.02,0.07,0.06,259.86
1682370846.59875298,182891689,2,-1.42,1.61,163.53,-0.451900839805603,0.158967986702919,-0.036585792899131775,-0.005093416199088097,-3.157620906829834,0.7030196189880371,-4.743092060089111,-0.02,0.07,0.06,259.86
1682370846.69875884,182991695,2,-1.37,1.67,163.58,-0.4571736752986908,0.16305659711360931,-0.01267953496426344,0.026644879952073097,-3.2099545001983643,0.714057981967926,-4.74180269241333,-0.03,0.07,0.06,259.86
1682370846.79875183,183091688,2,-1.37,1.76,163.63,-0.45962923765182495,0.16871091723442078,-0.022081952542066574,0.008296296931803226,-3.260622024536133,0.7272113561630249,-4.741782188415527,-0.03,0.07,0.06,259.86
1682370846.89874983,183191686,2,-1.31,1.82,163.67000000000002,-0.4547099471092224,0.17745782434940338,-0.04283613711595535,-0.04509776830673218,-3.3117120265960693,0.7402642965316772,-4.745522499084473,-0.03,0.07,0.06,259.86
1682370846.99879789,183291734,2,-1.24,1.82,163.73,-0.4574221968650818,0.17430424690246582,-0.04690786078572273,-0.08109183609485626,-3.3610634803771973,0.7547235488891602,-4.751722812652588,-0.03,0.07,0.06,259.86
1682370847.09881496,183391751,2,-1.1,1.86,163.81,-0.4652627110481262,0.17600108683109283,-0.033803123980760574,-0.07129964232444763,-3.413165330886841,0.7659315466880798,-4.7573018074035645,-0.03,0.07,0.06,259.86
1682370847.19883180,183491768,2,-1.01,1.8800000000000001,163.87,-0.46858125925064087,0.16650374233722687,-0.02401750162243843,-0.047275543212890625,-3.4638776779174805,0.7788615226745605,-4.761789321899414,-0.03,0.07,0.06,259.86
1682370847.29879189,183591728,2,-0.96,2.0,163.94,-0.46343865990638733,0.17474421858787537,-0.022511642426252365,-0.0248637143522501,-3.510976791381836,0.7922943234443665,-4.764254570007324,-0.03,0.07,0.06,259.86
1682370847.39876199,183691698,2,-0.84,2.06,164.03,-0.4672505855560303,0.1757989078760147,-0.006473973859101534,-0.008349576964974403,-3.5578255653381348,0.8066797852516174,-4.7667460441589355,-0.03,0.07,0.06,259.86
1682370847.49877191,183791708,2,-0.86,2.09,164.08,-0.47376757860183716,0.17025484144687653,-0.011151181533932686,-0.025504479184746742,-3.6098439693450928,0.8195230960845947,-4.769729137420654,-0.03,0.07,0.06,259.86
1682370847.59875202,183891688,2,-1.04,2.18,164.14000000000001,-0.4738810956478119,0.15664364397525787,-0.012071785517036915,-0.049588579684495926,-3.660463809967041,0.8329511284828186,-4.7742156982421875,-0.03,0.07,0.06,259.86
1682370847.69876289,183991699,2,-1.28,2.17,164.18,-0.46975135803222656,0.164757639169693,0.023935886099934578,-0.023269014433026314,-3.7099759578704834,0.8427670001983643,-4.7777419090271,-0.03,0.07,0.06,259.86
1682370847.79876590,184091702,2,-1.41,2.12,164.25,-0.4707042872905731,0.13736505806446075,0.003544750390574336,-0.03422793745994568,-3.7585785388946533,0.8535526990890503,-4.779626369476318,-0.03,0.07,0.06,259.86
1682370847.89880085,184191737,2,-1.45,2.12,164.27,-0.47178080677986145,0.14369672536849976,0.011023866012692451,-0.012094076722860336,-3.8099052906036377,0.8644643425941467,-4.780889987945557,-0.03,0.07,0.06,259.86
1682370847.99882793,184291764,2,-1.52,2.22,164.32,-0.47337454557418823,0.13363337516784668,0.03363028168678284,0.01390518806874752,-3.8602471351623535,0.8765381574630737,-4.780742168426514,-0.03,0.07,0.06,259.86
1682370848.09882593,184391762,2,-1.5,2.35,164.35,-0.4652421474456787,0.139524906873703,0.03404726833105087,0.04514678940176964,-3.9097952842712402,0.8873543739318848,-4.776751518249512,-0.03,0.07,0.06,259.86
1682370848.19878793,184491724,2,-1.52,2.3000000000000003,164.36,-0.4651325047016144,0.12976285815238953,0.016950000077486038,0.04276680201292038,-3.9583630561828613,0.8991044759750366,-4.772192478179932,-0.03,0.07,0.06,259.86
1682370848.29876184,184591698,2,-1.61,2.34,164.32,-0.46020591259002686,0.14764124155044556,0.044466711580753326,0.07112472504377365,-4.009629726409912,0.9070192575454712,-4.767393112182617,-0.03,0.07,0.06,259.86
1682370848.39875293,184691689,2,-1.83,2.25,164.33,-0.46331530809402466,0.16013142466545105,0.041473258286714554,0.06973447650671005,-4.059674263000488,0.9162240028381348,-4.76137638092041,-0.03,0.07,0.06,259.86
1682370848.49875188,184791688,2,-1.87,2.19,164.35,-0.45625069737434387,0.14236395061016083,0.036505334079265594,0.08482886850833893,-4.105554103851318,0.9268428683280945,-4.752347946166992,-0.03,0.07,0.06,259.86
1682370848.59875298,184891689,2,-1.8,2.1,164.33,-0.44346609711647034,0.16559454798698425,0.046708207577466965,0.0844944417476654,-4.150527477264404,0.9393550157546997,-4.745156764984131,-0.03,0.07,0.06,259.86
1682370848.69875288,184991689,2,-1.52,2.0100000000000002,164.31,-0.447725385427475,0.16472850739955902,0.04230528697371483,0.04407704249024391,-4.195637226104736,0.9515886902809143,-4.740787982940674,-0.03,0.07,0.06,259.86
1682370848.79879880,185091735,2,-1.18,2.12,164.22,-0.44543972611427307,0.15350273251533508,0.05460624769330025,0.023718371987342834,-4.239176273345947,0.9652250409126282,-4.739394664764404,-0.03,0.07,0.06,259.86
1682370848.89875484,185191691,2,-0.91,2.14,164.05,-0.43989986181259155,0.1590152233839035,-0.003192317206412554,-0.049910370260477066,-4.2833170890808105,0.979875922203064,-4.740062713623047,-0.03,0.07,0.06,259.86
1682370848.99883294,185291769,2,-0.67,2.0300000000000002,163.86,-0.44641971588134766,0.17396920919418335,0.015452666208148003,-0.05491359904408455,-4.327230453491211,0.9951130747795105,-4.745724678039551,-0.03,0.07,0.06,259.86
1682370849.09878302,185391719,2,-0.71,1.77,163.67000000000002,-0.45282065868377686,0.14043954014778137,-0.001538651529699564,-0.09510163217782974,-4.375359058380127,1.008327841758728,-4.753716468811035,-0.03,0.07,0.06,259.86
1682370849.19875789,185491694,2,-0.86,1.6,163.51,-0.4489421546459198,0.1564323902130127,-0.019171085208654404,-0.09510581940412521,-4.422804832458496,1.0219266414642334,-4.759881496429443,-0.03,0.07,0.06,259.86
1682370849.29875684,185591693,2,-1.1,1.6600000000000001,163.4,-0.4592752456665039,0.13776414096355438,-0.011532889679074287,-0.07317079603672028,-4.469823837280273,1.0316165685653687,-4.766393184661865,-0.03,0.07,0.06,259.86
1682370849.39881396,185691750,2,-1.17,1.71,163.35,-0.4454021155834198,0.16225215792655945,0.030561883002519608,-0.039711859077215195,-4.516601085662842,1.0423965454101562,-4.773590087890625,-0.03,0.07,0.06,259.86
1682370849.49875093,185791687,2,-1.18,1.76,163.34,-0.4522308111190796,0.1563721001148224,0.016583936288952827,-0.013900749385356903,-4.564913749694824,1.0518203973770142,-4.774074077606201,-0.03,0.07,0.06,259.86
1682370849.59875202,185891688,2,-1.07,1.75,163.36,-0.45958733558654785,0.14432881772518158,0.008237771689891815,0.009651919826865196,-4.612509727478027,1.062986969947815,-4.774059295654297,-0.03,0.07,0.06,259.86
1682370849.69880199,185991738,2,-0.85,1.6600000000000001,163.42000000000002,-0.45824986696243286,0.15209093689918518,-0.008695072494447231,-0.017233949154615402,-4.662136554718018,1.0750893354415894,-4.775166034698486,-0.03,0.07,0.06,259.86
1682370849.79881191,186091748,2,-0.66,1.6400000000000001,163.5,-0.4654190242290497,0.16049449145793915,0.03538380563259125,0.009653533808887005,-4.710835933685303,1.088624119758606,-4.7760186195373535,-0.03,0.07,0.06,259.86
1682370849.89882994,186191766,2,-0.51,1.6500000000000001,163.58,-0.4658235013484955,0.1473180204629898,0.02949974499642849,0.03566800430417061,-4.758047580718994,1.0992708206176758,-4.772304534912109,-0.03,0.07,0.06,259.86
1682370849.99878693,186291723,2,-0.44,1.6500000000000001,163.67000000000002,-0.46613001823425293,0.14636574685573578,0.007977751083672047,0.031040608882904053,-4.805071830749512,1.1110095977783203,-4.76862096786499,-0.03,0.07,0.06,259.86
1682370850.09874988,186391686,2,-0.56,1.68,163.8,-0.4618140757083893,0.14649617671966553,0.01551121100783348,0.05408124253153801,-4.854801654815674,1.1218596696853638,-4.762942790985107,-0.03,0.07,0.06,259.86
1682370850.19875002,186491686,2,-0.78,1.77,163.94,-0.4743679463863373,0.14834941923618317,-0.0008615030674263835,0.028500646352767944,-4.903988361358643,1.1340006589889526,-4.7591118812561035,-0.03,0.07,0.06,259.86
1682370850.29875898,186591695,2,-1.04,1.77,164.09,-0.4826784133911133,0.14721150696277618,0.023895954713225365,0.06275729089975357,-4.957373142242432,1.1453365087509155,-4.753737449645996,-0.03,0.07,0.06,259.86
1682370850.39875484,186691691,2,-1.17,1.87,164.21,-0.47385233640670776,0.16502155363559723,-0.0004473846638575196,0.04344432055950165,-5.0108160972595215,1.157573938369751,-4.749545097351074,-0.03,0.07,0.06,259.86
1682370850.49875903,186791695,2,-1.23,2.08,164.33,-0.4758944511413574,0.1844072937965393,-0.003768286667764187,0.04811288043856621,-5.0623064041137695,1.1715964078903198,-4.743873119354248,-0.03,0.07,0.06,259.86
1682370850.59879994,186891736,2,-1.24,2.09,164.44,-0.4844045042991638,0.18376325070858002,0.012876271270215511,0.06931927800178528,-5.112585544586182,1.1870555877685547,-4.737728595733643,-0.03,0.07,0.06,259.86
1682370850.69881296,186991749,2,-0.99,2.0300000000000002,164.52,-0.48339205980300903,0.17846019566059113,0.008685631677508354,0.08361253887414932,-5.162087440490723,1.2027413845062256,-4.730257987976074,-0.03,0.07,0.06,259.86
1682370850.79883599,187091772,2,-0.75,1.97,164.58,-0.4847376346588135,0.18171119689941406,-0.025762904435396194,0.035179466009140015,-5.21113395690918,1.2199136018753052,-4.725185394287109,-0.03,0.07,0.06,259.86
1682370850.89882088,187191757,2,-0.59,1.98,164.63,-0.4863807260990143,0.1928076446056366,-0.004186620935797691,0.026087632402777672,-5.25857400894165,1.2361418008804321,-4.722177028656006,-0.03,0.07,0.06,259.86
1682370850.99875689,187291693,2,-0.49,1.97,164.66,-0.4942076802253723,0.17672905325889587,0.002260251436382532,0.017736319452524185,-5.306342124938965,1.2529661655426025,-4.720425128936768,-0.03,0.07,0.06,259.86
1682370851.09875894,187391695,2,-0.54,2.0,164.65,-0.48352643847465515,0.1831611543893814,-0.01427503302693367,-0.0154638160020113,-5.352424621582031,1.2710813283920288,-4.720893859863281,-0.03,0.07,0.06,259.86
1682370851.19875193,187491688,2,-0.62,2.04,164.67000000000002,-0.4924336075782776,0.1756446659564972,-0.01926184445619583,-0.04758363217115402,-5.399289131164551,1.288705587387085,-4.724194526672363,-0.03,0.07,0.06,259.86
1682370851.29875183,187591688,2,-0.65,2.08,164.65,-0.5014206171035767,0.15617097914218903,-0.019400466233491898,-0.016651473939418793,-5.449228286743164,1.3026518821716309,-4.7241435050964355,-0.03,0.07,0.06,259.86
1682370851.39876390,187691700,2,-0.65,2.17,164.57,-0.5087853074073792,0.1428794264793396,-0.016045765951275826,0.009150907397270203,-5.4993720054626465,1.31673002243042,-4.724254608154297,-0.03,0.07,0.06,259.86
1682370851.49879980,187791736,2,-0.74,2.29,164.45000000000002,-0.5067278742790222,0.15314121544361115,-0.013542807660996914,0.002695566974580288,-5.553343772888184,1.3305555582046509,-4.7255659103393555,-0.03,0.07,0.06,259.86
1682370851.59881592,187891752,2,-0.8200000000000001,2.48,164.31,-0.5179064273834229,0.15230457484722137,-0.014242369681596756,0.009615764953196049,-5.607653617858887,1.3442341089248657,-4.725033760070801,-0.03,0.07,0.06,259.86
1682370851.69882989,187991766,2,-0.9400000000000001,2.67,164.15,-0.5183589458465576,0.11637857556343079,-0.02566125988960266,0.01711168885231018,-5.661142349243164,1.353463888168335,-4.723227500915527,-0.03,0.07,0.06,259.86
