timestamp,TimeUS,C,Q1,Q2,Q3,Q4
1682370824.19874501,160491681,2,0.9887315034866333,0.008151726797223091,0.017166249454021454,-0.14848867058753967
1682370824.29874992,160591686,2,0.9887318015098572,0.008151614107191563,0.017109306529164314,-0.14849324524402618
1682370824.39875102,160691687,2,0.9887283444404602,0.00818473007529974,0.017152205109596252,-0.148509681224823
1682370824.49879694,160791733,2,0.9887199401855469,0.008108477108180523,0.017149358987808228,-0.14856982231140137
1682370824.59881997,160891756,2,0.9887223243713379,0.008131420239806175,0.01712898351252079,-0.14855524897575378
1682370824.69882083,160991757,2,0.9887202382087708,0.008085770532488823,0.01712741330265999,-0.14857159554958344
1682370824.79877281,161091709,2,0.9887164235115051,0.008117947727441788,0.01719534955918789,-0.1485874503850937
1682370824.89874697,161191683,2,0.9887184500694275,0.008134575560688972,0.01717039942741394,-0.14857599139213562
1682370824.99875498,161291691,2,0.9887269139289856,0.008137717843055725,0.01721520721912384,-0.14851446449756622
1682370825.09875488,161391691,2,0.9887312054634094,0.00817794632166624,0.01716507039964199,-0.14848916232585907
1682370825.19874382,161491680,2,0.9887348413467407,0.008173097856342793,0.01715920865535736,-0.14846594631671906
1682370825.29875588,161591692,2,0.9887430667877197,0.008194702677428722,0.017187003046274185,-0.1484067142009735
1682370825.39880180,161691738,2,0.988745391368866,0.00818544253706932,0.017166348174214363,-0.1483941376209259
1682370825.49882102,161791757,2,0.988743007183075,0.008162549696862698,0.017177613452076912,-0.14841002225875854
1682370825.59883094,161891767,2,0.9887392520904541,0.008147884160280228,0.017170216888189316,-0.14843696355819702
1682370825.69878697,161991723,2,0.988743007183075,0.008109777234494686,0.017142238095402718,-0.1484171599149704
1682370825.79874396,162091680,2,0.9887394905090332,0.008122666738927364,0.01709265261888504,-0.14844568073749542
1682370825.89874792,162191684,2,0.988735020160675,0.00814119540154934,0.017088046297430992,-0.1484750360250473
1682370825.99876285,162291699,2,0.9887209534645081,0.00814615935087204,0.01711377501487732,-0.14856509864330292
1682370826.09874701,162391683,2,0.9887216091156006,0.008208215236663818,0.017108619213104248,-0.14855806529521942
1682370826.19874787,162491684,2,0.9887189865112305,0.008188001811504364,0.017145244404673576,-0.1485724300146103
1682370826.29879498,162591731,2,0.9887121915817261,0.00821490678936243,0.01719658635556698,-0.14861027896404266
1682370826.39881802,162691754,2,0.9887059926986694,0.008188212290406227,0.017224250361323357,-0.1486499011516571
1682370826.49882889,162791765,2,0.9887123703956604,0.008217024616897106,0.017292408272624016,-0.1485976129770279
1682370826.59877801,162891714,2,0.9887063503265381,0.00822109542787075,0.01730310171842575,-0.14863629639148712
1682370826.69875193,162991688,2,0.9887101650238037,0.008196634240448475,0.017304247245192528,-0.14861205220222473
1682370826.79875588,163091692,2,0.9887248873710632,0.008152334950864315,0.01724747195839882,-0.14852342009544373
1682370826.89875484,163191691,2,0.9887227416038513,0.008140775375068188,0.01723869889974594,-0.14853915572166443
1682370826.99875283,163291689,2,0.9887076616287231,0.00815532635897398,0.017243672162294388,-0.1486382931470871
1682370827.09876394,163391700,2,0.9887226223945618,0.008173123002052307,0.017270205542445183,-0.1485346257686615
1682370827.19880080,163491737,2,0.9887377023696899,0.00815280806273222,0.017299875617027283,-0.1484319567680359
1682370827.29881096,163591747,2,0.9887797236442566,0.008166860789060593,0.017262708395719528,-0.14815501868724823
1682370827.39883280,163691769,2,0.9887199997901917,0.008228716440498829,0.01737148128449917,-0.14853733777999878
1682370827.49878097,163791717,2,0.9887850880622864,0.008317160420119762,0.017411278560757637,-0.14809368550777435
1682370827.59877300,163891709,2,0.988743782043457,0.008148077875375748,0.017603149637579918,-0.14835600554943085
1682370827.69877195,163991708,2,0.988682210445404,0.008774145506322384,0.018651176244020462,-0.14860239624977112
1682370827.79875898,164091695,2,0.9886078834533691,0.00993809662759304,0.021892864257097244,-0.1485813558101654
1682370827.89875484,164191691,2,0.9887319207191467,0.009077643975615501,0.005897498689591885,-0.14930498600006104
1682370827.99877191,164291708,2,0.9882499575614929,0.0062027620151638985,-0.019868819043040276,-0.15142250061035156
1682370828.09879994,164391736,2,0.9877926111221313,-0.0021933771204203367,-0.022887062281370163,-0.154068723320961
1682370828.19882202,164491758,2,0.987602174282074,-0.010334126651287079,-0.010849572718143463,-0.1562609225511551
1682370828.29883599,164591772,2,0.9873483777046204,-0.012654419988393784,-0.0034302850253880024,-0.15802298486232758
1682370828.39880800,164691744,2,0.9871466755867004,-0.010672381147742271,-0.0011162236332893372,-0.15945622324943542
1682370828.49876094,164791697,2,0.9870315194129944,-0.00944170355796814,-0.002510668942704797,-0.1602289080619812
1682370828.59876299,164891699,2,0.9870261549949646,-0.007637857459485531,-0.003969152458012104,-0.16032855212688446
1682370828.69875789,164991694,2,0.9871695637702942,-0.00660679442808032,-0.0035079021472483873,-0.15950018167495728
1682370828.79874992,165091686,2,0.9873313307762146,-0.007701251655817032,-0.0016594119369983673,-0.15847660601139069
1682370828.89876080,165191697,2,0.9875456094741821,-0.00805886834859848,0.0003655750479083508,-0.15712590515613556
1682370828.99880981,165291746,2,0.9877155423164368,-0.00899763684719801,0.000999706913717091,-0.15600021183490753
1682370829.09882689,165391763,2,0.9878600835800171,-0.009001879952847958,0.0024841255508363247,-0.15506511926651
1682370829.19882393,165491760,2,0.9879502058029175,-0.006866730749607086,0.0023000426590442657,-0.15460246801376343
1682370829.29878998,165591726,2,0.9879791140556335,-0.006563171278685331,0.002599424682557583,-0.15442612767219543
1682370829.39876986,165691706,2,0.9879234433174133,-0.007507584523409605,0.002708305139094591,-0.15473712980747223
1682370829.49876094,165791697,2,0.9878481030464172,-0.008932839147746563,0.0021002828143537045,-0.15515130758285522
1682370829.59875894,165891695,2,0.9877011775970459,-0.009921455755829811,0.0016335661057382822,-0.1560295969247818
1682370829.69875598,165991692,2,0.9875434637069702,-0.009107967838644981,0.0016667133895680308,-0.15707390010356903
1682370829.79875088,166091687,2,0.9873713254928589,-0.0070918286219239235,-0.0002110818459186703,-0.15826399624347687
1682370829.89879680,166191733,2,0.9872268438339233,-0.004846039228141308,-0.0016410022508352995,-0.1592387706041336
1682370829.99882293,166291759,2,0.9869753122329712,-0.0043262760154902935,-0.003095450811088085,-0.16078397631645203
1682370830.09884882,166391785,2,0.9867957234382629,-0.004194511566311121,-0.0036111229564994574,-0.16187499463558197
1682370830.19878888,166491725,2,0.9865920543670654,-0.004219441674649715,-0.0037119670305401087,-0.16310888528823853
1682370830.29875898,166591695,2,0.9864409565925598,-0.005573718808591366,-0.0022956773173063993,-0.16400563716888428
1682370830.39875102,166691687,2,0.986324667930603,-0.0061423261649906635,-0.0027069065254181623,-0.16467727720737457
1682370830.49875689,166791693,2,0.9862523674964905,-0.005847511813044548,-0.004009242635220289,-0.16509388387203217
1682370830.59876490,166891701,2,0.9846349358558655,-0.004587546922266483,-0.0035038827918469906,-0.17453016340732574
1682370830.69877791,166991714,2,0.9845225811004639,-0.002505641896277666,-0.0032521123066544533,-0.17520968616008759
1682370830.79879785,167091734,2,0.9843618273735046,-0.002816000021994114,-0.0032002637162804604,-0.17610695958137512
1682370830.89875603,167191692,2,0.9843258261680603,-0.002750805811956525,-0.0024208633694797754,-0.1763213872909546
1682370830.99882603,167291762,2,0.98454350233078,-0.0026175780221819878,-0.002098129829391837,-0.17510803043842316
1682370831.09878397,167391720,2,0.9846976399421692,-0.0035375566221773624,-0.00176979077514261,-0.17422659695148468
1682370831.19875193,167491688,2,0.9848107099533081,-0.003671635640785098,-0.0005223365733399987,-0.17359167337417603
1682370831.29875803,167591694,2,0.984879195690155,-0.0049861883744597435,0.0017991665517911315,-0.1731613576412201
1682370831.39876199,167691698,2,0.9850137829780579,-0.0055884490720927715,0.0027003877330571413,-0.1723640412092209
1682370831.49875188,167791688,2,0.9849950671195984,-0.005630208179354668,0.002796049462631345,-0.172467902302742
1682370831.59876180,167891698,2,0.984961748123169,-0.006136733572930098,0.0032944087870419025,-0.17263197898864746
1682370831.69880199,167991738,2,0.9847773313522339,-0.005039930809289217,0.003300640732049942,-0.17371627688407898
1682370831.79875588,168091692,2,0.9845510721206665,-0.004489513114094734,0.0035101354587823153,-0.17500494420528412
1682370831.89885783,168191794,2,0.9845215678215027,-0.004457279108464718,0.004839089699089527,-0.17513997852802277
1682370831.99878693,168291723,2,0.9846113920211792,-0.004409629385918379,0.0027878540568053722,-0.1746801733970642
1682370832.09875202,168391688,2,0.9848029017448425,-0.003989275544881821,0.00047829674440436065,-0.17362910509109497
1682370832.19875789,168491694,2,0.98508620262146,-0.002529282821342349,-0.0011947572929784656,-0.17203867435455322
1682370832.29876995,168591706,2,0.9853668212890625,-0.0011303187347948551,-0.002520668087527156,-0.17042472958564758
1682370832.39874983,168691686,2,0.9857131838798523,0.0007439828477799892,-0.002733404515311122,-0.1684085577726364
1682370832.49875593,168791692,2,0.9861054420471191,0.0024785406421869993,-0.002846422139555216,-0.1660778820514679
1682370832.59880090,168891737,2,0.986538827419281,0.0040966421365737915,-0.0018906084587797523,-0.16346509754657745
1682370832.69881797,168991754,2,0.9870003461837769,0.004295532591640949,-0.0011513176141306758,-0.1606564074754715
1682370832.79883385,169091770,2,0.9874424338340759,0.002493620151653886,-0.0023043090477585793,-0.15794262290000916
1682370832.89879084,169191727,2,0.9878607392311096,0.0015876722754910588,-0.0031499559991061687,-0.1553020179271698
1682370832.99875188,169291688,2,0.9881699681282043,0.00047116921632550657,-0.005425269715487957,-0.15326592326164246
1682370833.09875298,169391689,2,0.9885692596435547,-0.00015807927411515266,-0.007430555298924446,-0.15058422088623047
1682370833.19875884,169491695,2,0.9889618754386902,0.0010009804973378778,-0.008632934652268887,-0.14791522920131683
1682370833.29875183,169591688,2,0.989395022392273,0.0019245045259594917,-0.010234768502414227,-0.14487583935260773
1682370833.39877081,169691707,2,0.9897320866584778,0.0024126500356942415,-0.010897835716605186,-0.1424986571073532
1682370833.49879599,169791732,2,0.9898891448974609,0.0016108696581795812,-0.011360928416252136,-0.14137814939022064
1682370833.59881997,169891756,2,0.9899213910102844,-0.0009010241483338177,-0.010769492946565151,-0.14120496809482574
1682370833.69882989,169991766,2,0.990085780620575,-0.004098745062947273,-0.008558625355362892,-0.1401432901620865
1682370833.79884291,170091779,2,0.9902082681655884,-0.006705908104777336,-0.009329427033662796,-0.13912427425384521
1682370833.89876294,170191699,2,0.9903123378753662,-0.008134045638144016,-0.011449296958744526,-0.1381458044052124
1682370833.99875593,170291692,2,0.9903424382209778,-0.007918933406472206,-0.012204929254949093,-0.13787725567817688
1682370834.09875083,170391687,2,0.9903322458267212,-0.006207864265888929,-0.013335946947336197,-0.1379336267709732
1682370834.19875383,170491690,2,0.9902127981185913,-0.00497514707967639,-0.014305847696959972,-0.13874153792858124
1682370834.29875493,170591691,2,0.990021288394928,-0.0033105702605098486,-0.0138207096606493,-0.14019925892353058
1682370834.39879894,170691735,2,0.9897012710571289,-0.0036991345696151257,-0.015532382763922215,-0.14225472509860992
1682370834.49881887,170791755,2,0.9893467426300049,-0.004779851529747248,-0.016697941347956657,-0.14453846216201782
1682370834.59882498,170891761,2,0.9890497326850891,-0.0069335754960775375,-0.010160992853343487,-0.14706912636756897
1682370834.69878387,170991720,2,0.9887338876724243,-0.008491208776831627,-0.0035615682136267424,-0.14940042793750763
1682370834.79874897,171091685,2,0.988261878490448,-0.008305669762194157,0.004650046583265066,-0.15247228741645813
1682370834.89875793,171191694,2,0.9874769449234009,-0.007989131845533848,0.013111777603626251,-0.15701434016227722
1682370834.99875903,171291695,2,0.9860866665840149,-0.007389218080788851,0.02025786228477955,-0.16482742130756378
1682370835.09875298,171391689,2,0.9839867353439331,-0.00711620319634676,0.02493695355951786,-0.1763450652360916
1682370835.19876480,171491701,2,0.9809605479240417,-0.008752226829528809,0.02514621987938881,-0.19237326085567474
1682370835.29879594,171591732,2,0.9766870737075806,-0.01017842534929514,0.023736976087093353,-0.2131085991859436
1682370835.39881301,171691749,2,0.9707809090614319,-0.010061089880764484,0.020795103162527084,-0.23885305225849152
1682370835.49882889,171791765,2,0.9630134105682373,-0.00963612087070942,0.018942372873425484,-0.2686140239238739
1682370835.59878898,171891725,2,0.9532890915870667,-0.007128515280783176,0.017089853063225746,-0.301491379737854
1682370835.69877100,171991707,2,0.9418516755104065,-0.0049817850813269615,0.013561652041971684,-0.33571815490722656
1682370835.79875088,172091687,2,0.9283949136734009,-0.002828750293701887,0.008907773531973362,-0.3714774549007416
1682370835.89875293,172191689,2,0.9135118126869202,-0.0009422131115570664,0.0056090932339429855,-0.4067723751068115
1682370835.99875784,172291694,2,0.8969124555587769,0.0019562263041734695,0.002479206072166562,-0.4421968162059784
1682370836.09875989,172391696,2,0.8792356252670288,0.005560924299061298,0.0008550340426154435,-0.4763539731502533
1682370836.19880390,172491740,2,0.8600962162017822,0.008163068443536758,0.0014889240264892578,-0.5100643634796143
1682370836.29880881,172591745,2,0.838771402835846,0.011258590035140514,0.0033429255709052086,-0.5443570017814636
1682370836.39884496,172691781,2,0.8144451379776001,0.011902520433068275,0.005968262441456318,-0.5800877809524536
1682370836.49879098,172791727,2,0.787022590637207,0.011484102346003056,0.008335203863680363,-0.6167609095573425
1682370836.59876895,172891705,2,0.755746603012085,0.011663665063679218,0.009342771023511887,-0.654693603515625
1682370836.69876981,172991706,2,0.7208541035652161,0.011218893341720104,0.009466093964874744,-0.6929313540458679
1682370836.79876280,173091699,2,0.6814336180686951,0.0117906853556633,0.009937106631696224,-0.7317174673080444
1682370836.89875793,173191694,2,0.6370877027511597,0.013210746459662914,0.01065743900835514,-0.7706043720245361
1682370836.99875498,173291691,2,0.5874376893043518,0.013823972083628178,0.011206697672605515,-0.8090736865997314
1682370837.09879684,173391733,2,0.533113956451416,0.01421361044049263,0.012309620156884193,-0.845834493637085
1682370837.19881296,173491749,2,0.4731931984424591,0.015091946348547935,0.01303686760365963,-0.8807329535484314
1682370837.29882789,173591764,2,0.40849778056144714,0.015515905804932117,0.01520243939012289,-0.91250079870224
1682370837.39878893,173691725,2,0.34022292494773865,0.016594411805272102,0.01634051837027073,-0.9400563836097717
1682370837.49875093,173791687,2,0.26927271485328674,0.01832629181444645,0.01740582473576069,-0.9627322554588318
1682370837.59875894,173891695,2,0.19634152948856354,0.021177662536501884,0.018038984388113022,-0.9801408648490906
1682370837.69875789,173991694,2,0.12206627428531647,0.023395758122205734,0.016335325315594673,-0.9921116828918457
1682370837.79875493,174091691,2,0.04723326489329338,0.025684423744678497,0.015041401609778404,-0.9984403252601624
1682370837.89875197,174191688,2,-0.02615635097026825,0.026962419971823692,0.013515458442270756,-0.9992027878761292
1682370837.99880099,174291737,2,-0.09566555172204971,0.027708591893315315,0.012525446712970734,-0.9949489831924438
1682370838.09882903,174391765,2,-0.16108350455760956,0.02944810315966606,0.011086057871580124,-0.986439049243927
1682370838.19884682,174491783,2,-0.21982353925704956,0.02920214645564556,0.008807518519461155,-0.9750627279281616
1682370838.29878402,174591720,2,-0.2710304856300354,0.030339550226926804,0.007960166782140732,-0.9620595574378967
1682370838.39875698,174691693,2,-0.3149377107620239,0.03038710542023182,0.006938795559108257,-0.9486004114151001
1682370838.49875402,174791690,2,-0.3528714179992676,0.03063749335706234,0.005335405934602022,-0.9351548552513123
1682370838.59875298,174891689,2,-0.38506969809532166,0.02965562976896763,0.006620206404477358,-0.9223871231079102
1682370838.69876385,174991700,2,-0.41268619894981384,0.026353253051638603,0.007656477391719818,-0.9104597568511963
1682370838.79878592,175091722,2,-0.43516260385513306,0.023279523476958275,0.007841834798455238,-0.900016725063324
1682370838.89880395,175191740,2,-0.4531029462814331,0.022586049512028694,0.008367149159312248,-0.8911327719688416
1682370838.99881482,175291751,2,-0.4655703902244568,0.02468564361333847,0.007642567623406649,-0.884633481502533
1682370839.09884381,175391780,2,-0.47303110361099243,0.024772489443421364,0.006703319493681192,-0.8806718587875366
1682370839.19877982,175491716,2,-0.47684532403945923,0.024392446503043175,0.00543071236461401,-0.8786318898200989
1682370839.29876399,175591700,2,-0.47750017046928406,0.020781151950359344,0.001448584022000432,-0.8783846497535706
1682370839.39875698,175691693,2,-0.4756946563720703,0.019520968198776245,0.001266229315660894,-0.8793929219245911
1682370839.49875689,175791693,2,-0.4702429473400116,0.018761418759822845,-0.0015706034610047936,-0.8823361396789551
1682370839.59875798,175891694,2,-0.46244075894355774,0.013267439790070057,-0.0014988426119089127,-0.8865496516227722
1682370839.69875789,175991694,2,-0.45117875933647156,0.013868738897144794,-0.0019941311329603195,-0.8923236131668091
1682370839.79880190,176091738,2,-0.4361496865749359,0.008605677634477615,-0.0019334943499416113,-0.8998308777809143
1682370839.89880991,176191746,2,-0.41928598284721375,0.008045115508139133,-0.000291281146928668,-0.9078184962272644
1682370839.99885893,176291795,2,-0.3999413549900055,0.008202713914215565,-0.0019564207177609205,-0.9165019392967224
1682370840.09878087,176391717,2,-0.37945035099983215,0.005878790281713009,-0.0010172734037041664,-0.9251928925514221
1682370840.19875789,176491694,2,-0.3612762987613678,0.008460848592221737,-0.003148794174194336,-0.9324151277542114
1682370840.29877687,176591713,2,-0.34344103932380676,0.005052435211837292,-0.0018415796803310513,-0.9391588568687439
1682370840.39875293,176691689,2,-0.32554033398628235,0.006990560796111822,0.0036395257338881493,-0.9454953074455261
1682370840.49875188,176791688,2,-0.30787500739097595,0.008042608387768269,0.0067675053142011166,-0.9513687491416931
1682370840.59875989,176891696,2,-0.29009556770324707,0.01041997130960226,0.010138330981135368,-0.9568872451782227
1682370840.69880390,176991740,2,-0.27252933382987976,0.015061849728226662,0.011725491844117641,-0.961958110332489
1682370840.79880881,177091745,2,-0.25474613904953003,0.015149835497140884,0.010694428347051144,-0.9668301343917847
1682370840.89882588,177191762,2,-0.23712660372257233,0.015606623142957687,0.010312692262232304,-0.9712986350059509
1682370840.99878597,177291722,2,-0.22016695141792297,0.015759561210870743,0.00842617079615593,-0.9752984642982483
1682370841.09875393,177391690,2,-0.20401068031787872,0.014314938336610794,0.007455134764313698,-0.9788355827331543
1682370841.19875789,177491694,2,-0.18822233378887177,0.013666044920682907,0.007535599637776613,-0.9820024371147156
1682370841.29875398,177591690,2,-0.17366665601730347,0.01261899620294571,0.006874472834169865,-0.9846996665000916
1682370841.39875484,177691691,2,-0.1600293219089508,0.01256686169654131,0.006346529815346003,-0.9870118498802185
1682370841.49875784,177791694,2,-0.147951140999794,0.013617843389511108,0.006069770082831383,-0.988882303237915
1682370841.59879994,177891736,2,-0.13763083517551422,0.013801106251776218,0.0062896390445530415,-0.9903674721717834
1682370841.69881892,177991755,2,-0.1289905160665512,0.013776383362710476,0.0070342631079256535,-0.9915251731872559
1682370841.79882383,178091760,2,-0.12225544452667236,0.012504469603300095,0.007417711894959211,-0.9923921823501587
1682370841.89878988,178191726,2,-0.11741181463003159,0.011508653871715069,0.008283259347081184,-0.9929820895195007
1682370841.99876285,178291699,2,-0.11429114639759064,0.012378143146634102,0.008650561794638634,-0.9933325052261353
1682370842.09874988,178391686,2,-0.11263483762741089,0.013092884793877602,0.008365876972675323,-0.9935149550437927
1682370842.19874883,178491685,2,-0.1122373715043068,0.013966824859380722,0.009061991237103939,-0.993541955947876
1682370842.29875398,178591690,2,-0.11291367560625076,0.014674008823931217,0.008929120376706123,-0.9934563040733337
1682370842.39875698,178691693,2,-0.11452022939920425,0.014674284495413303,0.009106320329010487,-0.9932708144187927
1682370842.49880481,178791741,2,-0.1168295294046402,0.014595650136470795,0.010189858265221119,-0.9929924607276917
1682370842.59881902,178891755,2,-0.11995001882314682,0.014178088866174221,0.0093850027769804,-0.9926342964172363
1682370842.69882703,178991763,2,-0.12358268350362778,0.013647462241351604,0.009189886040985584,-0.9921978712081909
1682370842.79878592,179091722,2,-0.1273469775915146,0.014396026730537415,0.009367439895868301,-0.9917095303535461
1682370842.89875603,179191692,2,-0.13126157224178314,0.014554042369127274,0.008607452735304832,-0.9912035465240479
1682370842.99877000,179291706,2,-0.13539627194404602,0.015112772583961487,0.008616418577730656,-0.990638792514801
1682370843.09876084,179391697,2,-0.13935990631580353,0.016691703349351883,0.008523578755557537,-0.9900644421577454
1682370843.19875598,179491692,2,-0.14314213395118713,0.017034141346812248,0.00813588872551918,-0.9895220994949341
1682370843.29875183,179591688,2,-0.14680545032024384,0.017715521156787872,0.007915293797850609,-0.9889750480651855
1682370843.39880991,179691746,2,-0.14990195631980896,0.01696736551821232,0.007174801547080278,-0.9885292053222656
1682370843.49880791,179791744,2,-0.15251347422599792,0.01680009253323078,0.007008420769125223,-0.9881337285041809
1682370843.59882689,179891763,2,-0.154658704996109,0.0179352555423975,0.007676565553992987,-0.9877753257751465
1682370843.69879484,179991731,2,-0.1564296931028366,0.019032234326004982,0.008068454451858997,-0.9874727725982666
1682370843.79876280,180091699,2,-0.15771964192390442,0.01917007751762867,0.009237716905772686,-0.9872546195983887
1682370843.89875102,180191687,2,-0.1584603190422058,0.018815556541085243,0.009389800950884819,-0.9871413707733154
1682370843.99876189,180291698,2,-0.15897119045257568,0.017729071900248528,0.010524863377213478,-0.9870679378509521
1682370844.09875202,180391688,2,-0.15886986255645752,0.016748223453760147,0.011025999672710896,-0.9870958924293518
1682370844.19875789,180491694,2,-0.15853983163833618,0.01507043931633234,0.010518332943320274,-0.987181544303894
1682370844.29881001,180591746,2,-0.15794360637664795,0.013510053977370262,0.00992217194288969,-0.9873058795928955
1682370844.39881992,180691756,2,-0.15730920433998108,0.013408671133220196,0.009866999462246895,-0.9874090552330017
1682370844.49883199,180791768,2,-0.1560487449169159,0.013438740745186806,0.010240463539958,-0.9876048564910889
1682370844.59878302,180891719,2,-0.1548447459936142,0.01480037160217762,0.009351388551294804,-0.987783670425415
1682370844.69876194,180991698,2,-0.15341666340827942,0.015848059207201004,0.008992131799459457,-0.987993597984314
1682370844.79875088,181091687,2,-0.1517839878797531,0.016474181786179543,0.009012885391712189,-0.9882352948188782
1682370844.89875197,181191688,2,-0.1503075361251831,0.016705285757780075,0.008629563264548779,-0.9884604811668396
1682370844.99876094,181291697,2,-0.14861232042312622,0.016300620511174202,0.00896126963198185,-0.9887205958366394
1682370845.09876299,181391699,2,-0.14737416803836823,0.016055673360824585,0.00884175207465887,-0.988910973072052
1682370845.19879580,181491732,2,-0.14630581438541412,0.015172242186963558,0.00788075476884842,-0.9890916347503662
1682370845.29881287,181591749,2,-0.14556102454662323,0.014464625157415867,0.0074068764224648476,-0.9892157912254333
1682370845.39883184,181691768,2,-0.14498895406723022,0.014731326140463352,0.006987010128796101,-0.989298939704895
1682370845.49880695,181791743,2,-0.14464746415615082,0.0142762316390872,0.006530310492962599,-0.9893587231636047
1682370845.59875798,181891694,2,-0.14427216351032257,0.014700609259307384,0.00646137073636055,-0.9894077181816101
1682370845.69875884,181991695,2,-0.14412502944469452,0.015388937667012215,0.005423062480986118,-0.9894249439239502
1682370845.79875183,182091688,2,-0.1442326158285141,0.015136362053453922,0.005504656583070755,-0.9894127249717712
1682370845.89875889,182191695,2,-0.1444128155708313,0.015771057456731796,0.005305788014084101,-0.9893776178359985
1682370845.99876595,182291702,2,-0.14475016295909882,0.015172380954027176,0.006945750210434198,-0.9893275499343872
1682370846.09879994,182391736,2,-0.1448061317205429,0.014692939817905426,0.008652442134916782,-0.9893131256103516
1682370846.19881296,182491749,2,-0.1446499228477478,0.01582161709666252,0.010225174948573112,-0.9893035292625427
1682370846.29883099,182591767,2,-0.14437590539455414,0.01703896000981331,0.01096500176936388,-0.9893154501914978
1682370846.39878702,182691723,2,-0.1440814733505249,0.016519935801625252,0.010213238187134266,-0.9893752336502075
1682370846.49875998,182791696,2,-0.14373131096363068,0.016047164797782898,0.009581824764609337,-0.9894402623176575
1682370846.59875298,182891689,2,-0.14301703870296478,0.01569046638906002,0.010258253663778305,-0.9895426630973816
1682370846.69875884,182991695,2,-0.14251790940761566,0.01615344174206257,0.009752516634762287,-0.989612340927124
1682370846.79875183,183091688,2,-0.14211054146289825,0.016955099999904633,0.009654219262301922,-0.9896584749221802
1682370846.89874983,183191686,2,-0.14180374145507812,0.01743047870695591,0.00911832507699728,-0.9896993041038513
1682370846.99879789,183291734,2,-0.14125166833400726,0.0173288956284523,0.008478743955492973,-0.9897857308387756
1682370847.09881496,183391751,2,-0.1405651718378067,0.01747209019958973,0.007258085999637842,-0.9898906350135803
1682370847.19883180,183491768,2,-0.14005453884601593,0.017531223595142365,0.006497323513031006,-0.9899672269821167
1682370847.29879189,183591728,2,-0.13947904109954834,0.018499134108424187,0.005906821694225073,-0.9900345802307129
1682370847.39876199,183691698,2,-0.13870331645011902,0.01887686364352703,0.004795486573129892,-0.9901424646377563
1682370847.49877191,183791708,2,-0.1382495015859604,0.019112832844257355,0.004989301320165396,-0.990200400352478
1682370847.59875202,183891688,2,-0.13773909211158752,0.02018313854932785,0.006386058870702982,-0.9902423024177551
1682370847.69876289,183991699,2,-0.1373179405927658,0.020356539636850357,0.008456149138510227,-0.9902817010879517
1682370847.79876590,184091702,2,-0.13671435415744781,0.020042549818754196,0.009699168615043163,-0.9903602600097656
1682370847.89880085,184191737,2,-0.1365268975496292,0.020118746906518936,0.01000894047319889,-0.9903814792633057
1682370847.99882793,184291764,2,-0.1360456794500351,0.021027641370892525,0.010575879365205765,-0.9904229044914246
1682370848.09882593,184391762,2,-0.13582684099674225,0.022151773795485497,0.010213914327323437,-0.9904322624206543
1682370848.19878793,184491724,2,-0.13567326962947845,0.02172194793820381,0.010451656766235828,-0.9904603362083435
1682370848.29876184,184591698,2,-0.13600406050682068,0.022165734320878983,0.01114062312990427,-0.9903976321220398
1682370848.39875293,184691689,2,-0.13592198491096497,0.021676713600754738,0.013134852051734924,-0.9903953075408936
1682370848.49875188,184791688,2,-0.13579215109348297,0.021196097135543823,0.013597740791738033,-0.9904172420501709
1682370848.59875298,184891689,2,-0.13595743477344513,0.020374886691570282,0.013128682039678097,-0.9904181361198425
1682370848.69875288,184991689,2,-0.1361522078514099,0.019271189346909523,0.010767685249447823,-0.9904419779777527
1682370848.79879880,185091735,2,-0.13698959350585938,0.019786715507507324,0.007693544030189514,-0.9903449416160583
1682370848.89875484,185191691,2,-0.13853374123573303,0.019643841311335564,0.005288159940391779,-0.9901487827301025
1682370848.99883294,185291769,2,-0.1402205228805542,0.018370719626545906,0.0033760142978280783,-0.9899441003799438
1682370849.09878302,185391719,2,-0.1418425440788269,0.016202546656131744,0.004005220718681812,-0.9897485375404358
1682370849.19875789,185491694,2,-0.14326772093772888,0.014931950718164444,0.005421482026576996,-0.9895564913749695
1682370849.29875684,185591693,2,-0.1441173255443573,0.015799399465322495,0.0074156057089567184,-0.9894067049026489
1682370849.39881396,185691750,2,-0.14456361532211304,0.01633470319211483,0.008014297112822533,-0.9893282055854797
1682370849.49875093,185791687,2,-0.14465607702732086,0.016770662739872932,0.00799537543207407,-0.9893075823783875
1682370849.59875202,185891688,2,-0.14445407688617706,0.016508392989635468,0.007041695062071085,-0.9893487095832825
1682370849.69880199,185991738,2,-0.14400675892829895,0.015481478534638882,0.005296978168189526,-0.9894413948059082
1682370849.79881191,186091748,2,-0.1433800458908081,0.015053349547088146,0.003657118184491992,-0.9895464777946472
1682370849.89882994,186191766,2,-0.14265382289886475,0.014933444559574127,0.0023602484725415707,-0.9896571636199951
1682370849.99878693,186291723,2,-0.14193719625473022,0.014876062050461769,0.0018281909869983792,-0.9897621870040894
1682370850.09874988,186391686,2,-0.1408001184463501,0.015222614631056786,0.002795079257339239,-0.9899170398712158
1682370850.19875002,186491686,2,-0.1394905298948288,0.016325293108820915,0.004653052892535925,-0.9900779128074646
1682370850.29875898,186591695,2,-0.13819730281829834,0.016594568267464638,0.006853832863271236,-0.9902419447898865
1682370850.39875484,186691691,2,-0.1371462494134903,0.017580486834049225,0.007934767752885818,-0.9903630018234253
1682370850.49875903,186791695,2,-0.13602274656295776,0.019495993852615356,0.008227796293795109,-0.9904797077178955
1682370850.59879994,186891736,2,-0.13511161506175995,0.019537203013896942,0.008257663808763027,-0.9906033277511597
1682370850.69881296,186991749,2,-0.13445258140563965,0.018781140446662903,0.006192600820213556,-0.99072265625
1682370850.79883599,187091772,2,-0.13400490581989288,0.017976965755224228,0.004248826764523983,-0.9908084869384766
1682370850.89882088,187191757,2,-0.13359567523002625,0.01785719394683838,0.0028467841912060976,-0.9908709526062012
1682370850.99875689,187291693,2,-0.13334794342517853,0.01764615997672081,0.0020248049404472113,-0.9909101128578186
1682370851.09875894,187391695,2,-0.1334119290113449,0.017941392958164215,0.0024085966870188713,-0.9908953309059143
1682370851.19875193,187491688,2,-0.1332378387451172,0.018448757007718086,0.003054410219192505,-0.9909076690673828
1682370851.29875183,187591688,2,-0.1334250569343567,0.018768277019262314,0.0032108700834214687,-0.9908759593963623
1682370851.39876390,187691700,2,-0.13410669565200806,0.019608426839113235,0.003134597558528185,-0.9907678961753845
1682370851.49879980,187791736,2,-0.13512377440929413,0.0207254346460104,0.0037533328868448734,-0.990604817867279
1682370851.59881592,187891752,2,-0.13621816039085388,0.022466016933321953,0.004192653112113476,-0.9904152154922485
1682370851.69882989,187991766,2,-0.13759779930114746,0.024274665862321854,0.004969329107552767,-0.9901782274246216
1682370851.79878783,188091724,2,-0.13932955265045166,0.02450082078576088,0.004947119392454624,-0.9899305701255798
1682370851.89875484,188191691,2,-0.14103783667087555,0.024116115644574165,0.006451252847909927,-0.9896894097328186
1682370851.99875998,188291696,2,-0.14240320026874542,0.023300107568502426,0.0068669007159769535,-0.9895106554031372
1682370852.09875083,188391687,2,-0.1435595154762268,0.0232258178293705,0.0087533388286829,-0.9893304109573364
1682370852.19875193,188491688,2,-0.14400702714920044,0.0243268683552742,0.010274078696966171,-0.9892242550849915
1682370852.29876995,188591706,2,-0.1443198025226593,0.024238362908363342,0.012048982083797455,-0.9891608357429504
1682370852.39879894,188691735,2,-0.14447353780269623,0.02442767657339573,0.01253798883408308,-0.9891276359558105
1682370852.49881601,188791752,2,-0.14447765052318573,0.0235860925167799,0.012728623114526272,-0.989145040512085
1682370852.59882498,188891761,2,-0.14431646466255188,0.025895336642861366,0.01170667726546526,-0.9891234040260315
1682370852.69878292,188991719,2,-0.14393122494220734,0.028766728937625885,0.010166965425014496,-0.9891172647476196
1682370852.79876685,189091703,2,-0.1436297744512558,0.029339687898755074,0.009665659628808498,-0.989149272441864
1682370852.89875197,189191688,2,-0.14392302930355072,0.027680499479174614,0.009286396205425262,-0.9891580939292908
1682370852.99875689,189291693,2,-0.144239604473114,0.026110170409083366,0.009062901139259338,-0.9891567230224609
1682370853.09875989,189391696,2,-0.1444571167230606,0.025175753980875015,0.010097760707139969,-0.989139199256897
1682370853.19876099,189491697,2,-0.14473995566368103,0.025393515825271606,0.009960127994418144,-0.9890936613082886
1682370853.29880285,189591739,2,-0.1448596566915512,0.02461761049926281,0.01130766049027443,-0.9890812635421753
1682370853.39881897,189691755,2,-0.14467674493789673,0.021428627893328667,0.010692660696804523,-0.9891891479492188
1682370853.49882889,189791765,2,-0.14480534195899963,0.018646499142050743,0.009955894201993942,-0.9892343282699585
1682370853.59878492,189891721,2,-0.14489617943763733,0.018553830683231354,0.009831319563090801,-0.9892240166664124
1682370853.69877100,189991707,2,-0.1450827419757843,0.01783027872443199,0.0077727739699184895,-0.9892283082008362
1682370853.79875588,190091692,2,-0.14603060483932495,0.016940036788582802,0.005467085633426905,-0.9891198873519897
1682370853.89875698,190191693,2,-0.14771190285682678,0.01677590422332287,0.0041160075925290585,-0.9888795614242554
1682370853.99875689,190291693,2,-0.14968861639499664,0.017007365822792053,0.00482137082144618,-0.9885751605033875
1682370854.09875083,190391687,2,-0.15237434208393097,0.018305089324712753,0.005446994677186012,-0.9881383180618286
1682370854.19879985,190491736,2,-0.15469837188720703,0.02017058990895748,0.007014279719442129,-0.9877309203147888
1682370854.29881692,190591753,2,-0.15700864791870117,0.02137785032391548,0.008259194903075695,-0.9873312711715698
1682370854.39883399,190691770,2,-0.1587907075881958,0.021772099658846855,0.008924719877541065,-0.9870318174362183
1682370854.49884295,190791779,2,-0.16022978723049164,0.021980518475174904,0.008538815192878246,-0.9867980480194092
1682370854.59875989,190891696,2,-0.16097687184810638,0.022583123296499252,0.009550315327942371,-0.9866535663604736
1682370854.69876289,190991699,2,-0.16070660948753357,0.023687686771154404,0.009631342254579067,-0.9866709113121033
1682370854.79876184,191091698,2,-0.15950550138950348,0.023968562483787537,0.00862647220492363,-0.9868683218955994
1682370854.89875793,191191694,2,-0.15756480395793915,0.024577226489782333,0.007968032732605934,-0.9871705770492554
1682370854.99875498,191291691,2,-0.15515470504760742,0.02385573834180832,0.006567913107573986,-0.9875802397727966
1682370855.09880280,191391739,2,-0.151839941740036,0.022995492443442345,0.005555866751819849,-0.9881219267845154
1682370855.19881701,191491753,2,-0.14834116399288177,0.021271957084536552,0.005960721522569656,-0.9886894822120667
1682370855.29882598,191591762,2,-0.14444945752620697,0.019693514332175255,0.004658621270209551,-0.9893051981925964
1682370855.39881897,191691755,2,-0.14035457372665405,0.01933676190674305,0.0048505025915801525,-0.9899005889892578
1682370855.49875689,191791693,2,-0.13667987287044525,0.019334249198436737,0.0043852608650922775,-0.9904168844223022
1682370855.59875393,191891690,2,-0.13301606476306915,0.020399127155542374,0.0033624116331338882,-0.9908982515335083
1682370855.69875693,191991693,2,-0.12990757822990417,0.021264508366584778,0.00341619411483407,-0.9912921786308289
1682370855.79875684,192091693,2,-0.12738430500030518,0.021436570212244987,0.0026247287169098854,-0.991618275642395
1682370855.89875603,192191692,2,-0.1254289597272873,0.02148071676492691,0.0033410934265702963,-0.9918643832206726
1682370855.99880886,192291745,2,-0.12413763254880905,0.022077489644289017,0.0035347111988812685,-0.9920130968093872
1682370856.09881902,192391755,2,-0.12358386814594269,0.022087333723902702,0.003115812549367547,-0.9920833706855774
1682370856.19882703,192491763,2,-0.12363775074481964,0.021479567512869835,0.0022773193195462227,-0.9920923113822937
1682370856.29878902,192591725,2,-0.1238686814904213,0.021214688196778297,0.0013789187651127577,-0.9920708537101746
1682370856.39875484,192691691,2,-0.12479382753372192,0.020012278109788895,0.0003439471765886992,-0.991980791091919
1682370856.49874997,192791686,2,-0.12547479569911957,0.019842909649014473,-0.0013955110916867852,-0.9918973445892334
1682370856.59875202,192891688,2,-0.12628254294395447,0.020679093897342682,-0.001110397162847221,-0.9917781352996826
1682370856.69876289,192991699,2,-0.12722931802272797,0.02086501754820347,-0.000739825249183923,-0.991653561592102
1682370856.79878402,193091720,2,-0.1280078887939453,0.02086280845105648,0.000500796886626631,-0.991553544998169
1682370856.89879298,193191729,2,-0.1288531869649887,0.02097981795668602,0.0008933054632507265,-0.9914413094520569
1682370856.99882483,193291761,2,-0.12932954728603363,0.021885214373469353,0.0024497804697602987,-0.9913570880889893
1682370857.09882784,193391764,2,-0.1299891620874405,0.02200188860297203,0.004658032208681107,-0.9912603497505188
1682370857.19878793,193491724,2,-0.13063837587833405,0.022609831765294075,0.003008939791470766,-0.9911676645278931
1682370857.29875994,193591696,2,-0.1317499428987503,0.02260591648519039,0.0009717846987769008,-0.9910247325897217
1682370857.39876795,193691704,2,-0.13278399407863617,0.02098807319998741,-0.00157024001237005,-0.9909214973449707
1682370857.49875784,193791694,2,-0.13396327197551727,0.020455995574593544,-0.002579302527010441,-0.9907717704772949
1682370857.59875202,193891688,2,-0.13497799634933472,0.020681578665971756,-0.0023408459965139627,-0.9906299710273743
1682370857.69875789,193991694,2,-0.1362188160419464,0.020951444283127785,-0.0014895738568156958,-0.9904561042785645
1682370857.79880691,194091743,2,-0.13718464970588684,0.02179630659520626,0.0008345337118953466,-0.9903053045272827
1682370857.89875388,194191690,2,-0.13780927658081055,0.021755022928118706,0.0023741640616208315,-0.9902169704437256
1682370857.99883485,194291771,2,-0.1387273073196411,0.021319085732102394,0.003603844903409481,-0.9900945425033569
1682370858.09878898,194391725,2,-0.1394912302494049,0.020793087780475616,0.005143816117197275,-0.9899916052818298
1682370858.19876480,194491701,2,-0.140364870429039,0.019323129206895828,0.005809328053146601,-0.9898942112922668
1682370858.29875898,194591695,2,-0.1414593607187271,0.017804238945245743,0.006151816342025995,-0.9897648096084595
1682370858.39875293,194691689,2,-0.14230024814605713,0.017326880246400833,0.005470777861773968,-0.9896567463874817
1682370858.49875784,194791694,2,-0.1428680568933487,0.018718242645263672,0.004374053794890642,-0.9895550608634949
1682370858.59875298,194891689,2,-0.14302833378314972,0.019961105659604073,0.004464533645659685,-0.9895071983337402
1682370858.69879699,194991733,2,-0.14257943630218506,0.021175235509872437,0.004298394545912743,-0.9895474910736084
1682370858.79882789,195091764,2,-0.1417512148618698,0.02151079662144184,0.0043868981301784515,-0.9896588325500488
1682370858.89882398,195191760,2,-0.14072489738464355,0.021481098607182503,0.0068276552483439445,-0.9897921085357666
1682370858.99878383,195291720,2,-0.13943231105804443,0.021531781181693077,0.007821831852197647,-0.9899665713310242
1682370859.09875298,195391689,2,-0.13789057731628418,0.020495548844337463,0.007896268740296364,-0.9902039170265198
1682370859.19874787,195491684,2,-0.1366017460823059,0.02002432569861412,0.006534342188388109,-0.990402102470398
1682370859.29875398,195591690,2,-0.13518449664115906,0.020576681941747665,0.005538669880479574,-0.990591287612915
1682370859.39877391,195691710,2,-0.13353881239891052,0.021205443888902664,0.006272118538618088,-0.9907968640327454
1682370859.49874902,195791685,2,-0.13183149695396423,0.0236503966152668,0.0066074528731405735,-0.9909679293632507
1682370859.59879899,195891735,2,-0.13017822802066803,0.02417190931737423,0.006622657645493746,-0.9911738038063049
1682370859.69883394,195991770,2,-0.12853944301605225,0.02428842894732952,0.004786621313542128,-0.9913953542709351
1682370859.79882789,196091764,2,-0.12707078456878662,0.023830927908420563,0.0028815651312470436,-0.9916031360626221
1682370859.89878201,196191718,2,-0.12580953538417816,0.022705042734742165,0.0027960813604295254,-0.9917905926704407
1682370859.99877000,196291706,2,-0.12446189671754837,0.02208031341433525,0.003560977056622505,-0.9919722676277161
1682370860.09874988,196391686,2,-0.12300772964954376,0.021129991859197617,0.005324066616594791,-0.9921664595603943
1682370860.19875193,196491688,2,-0.12168735265731812,0.02208355814218521,0.005974121857434511,-0.992304801940918
1682370860.29875183,196591688,2,-0.12061195820569992,0.0229940265417099,0.00623960979282856,-0.9924137592315674
1682370860.39875388,196691690,2,-0.11947896331548691,0.022120080888271332,0.004978356417268515,-0.9925777912139893
1682370860.49879885,196791735,2,-0.11851822584867477,0.021411186084151268,0.003978569060564041,-0.9927130341529846
1682370860.59881783,196891754,2,-0.11765444278717041,0.020689966157078743,0.0030362720135599375,-0.9928343892097473
1682370860.69882798,196991764,2,-0.11706624925136566,0.020701095461845398,0.0025289158802479506,-0.9929051399230957
1682370860.79882097,197091757,2,-0.11645432561635971,0.02058856561779976,0.003243957180529833,-0.9929773211479187
1682370860.89875984,197191696,2,-0.11636074632406235,0.020460747182369232,0.003672241698950529,-0.9929894208908081
1682370860.99875689,197291693,2,-0.11605066061019897,0.019907167181372643,0.0033231573179364204,-0.9930382370948792
1682370861.09876084,197391697,2,-0.1162889152765274,0.018698979169130325,0.0020426930859684944,-0.9930372834205627
1682370861.19875503,197491691,2,-0.11636100709438324,0.018619028851389885,0.0012223735684528947,-0.9930316805839539
1682370861.29875302,197591689,2,-0.1166209727525711,0.01917744241654873,0.0016964302631095052,-0.9929898977279663
1682370861.39880300,197691739,2,-0.11730214208364487,0.020631853491067886,0.0016176833305507898,-0.992880642414093
1682370861.49881601,197791752,2,-0.11851996928453445,0.021203134208917618,0.0025801914744079113,-0.9927219152450562
1682370861.59882498,197891761,2,-0.1199941337108612,0.020384609699249268,0.002247449941933155,-0.9925627708435059
1682370861.69878697,197991723,2,-0.12194941937923431,0.020015107467770576,0.002101649297401309,-0.9923322796821594
1682370861.79875898,198091695,2,-0.1238459125161171,0.020980339497327805,0.0017159617273136973,-0.9920781850814819
1682370861.89875793,198191694,2,-0.12608394026756287,0.02125990018248558,0.0017661135643720627,-0.9917901754379272
1682370861.99876189,198291698,2,-0.12793946266174316,0.02115378901362419,0.0026295369025319815,-0.9915528893470764
1682370862.09875488,198391691,2,-0.1301928013563156,0.021169500425457954,0.0016578126233071089,-0.9912613034248352
1682370862.19875693,198491693,2,-0.13187624514102936,0.020067354664206505,0.0010654991492629051,-0.9910624623298645
1682370862.29879689,198591733,2,-0.13354499638080597,0.019776273518800735,0.0006843035807833076,-0.9908452033996582
1682370862.39882183,198691758,2,-0.13491405546665192,0.020784171298146248,0.0015070734079927206,-0.9906381368637085
1682370862.49883485,198791771,2,-0.136384978890419,0.02100946754217148,0.0013149343430995941,-0.9904322624206543
1682370862.59878802,198891724,2,-0.13775360584259033,0.02075231447815895,0.0011229588417336345,-0.990248441696167
1682370862.69876289,198991699,2,-0.13888274133205414,0.02014787681400776,0.00037021475145593286,-0.9901037812232971
1682370862.79876494,199091701,2,-0.1397884637117386,0.02000325545668602,-0.0003412085643503815,-0.9899792671203613
1682370862.89875793,199191694,2,-0.14051806926727295,0.020198877900838852,0.0003738676605280489,-0.9898719787597656
1682370862.99875498,199291691,2,-0.1409815549850464,0.019940128549933434,0.0002160856529371813,-0.989811360836029
1682370863.09875798,199391694,2,-0.14153987169265747,0.01966150477528572,0.0011564301094040275,-0.9897366166114807
1682370863.19879389,199491730,2,-0.14144310355186462,0.020068777725100517,0.0026622165460139513,-0.9897393584251404
1682370863.29881883,199591755,2,-0.14102688431739807,0.019666558131575584,0.0029720966704189777,-0.9898059368133545
1682370863.39883184,199691768,2,-0.14060452580451965,0.019098414108157158,0.00432332418859005,-0.9898721575737
1682370863.49878001,199791716,2,-0.13975928723812103,0.018701765686273575,0.0045553529635071754,-0.9899984002113342
1682370863.59875393,199891690,2,-0.13872721791267395,0.017516877502202988,0.005196802783757448,-0.9901620745658875
1682370863.69875789,199991694,2,-0.13727158308029175,0.016774000599980354,0.004998201038688421,-0.9903787970542908
1682370863.79875183,200091688,2,-0.13547992706298828,0.017106715589761734,0.0051487344317138195,-0.9906190037727356
1682370863.89875102,200191687,2,-0.13368597626686096,0.01838335581123829,0.00474114203825593,-0.9908418655395508
1682370863.99876690,200291703,2,-0.13170449435710907,0.019201112911105156,0.0040436722338199615,-0.9910947680473328
1682370864.09879994,200391736,2,-0.13027535378932953,0.019917625933885574,0.0032968739978969097,-0.9912722706794739
1682370864.19875598,200491692,2,-0.12873004376888275,0.019541438668966293,0.0016346917254850268,-0.9914857745170593
1682370864.29882598,200591762,2,-0.1279301792383194,0.01926194131374359,0.00030840717954561114,-0.9915960431098938
1682370864.39882088,200691757,2,-0.12735792994499207,0.020601822063326836,-0.00028725669835694134,-0.9916427731513977
1682370864.49876094,200791697,2,-0.12686170637607574,0.021769940853118896,-0.00036720981006510556,-0.9916813969612122
1682370864.59875083,200891687,2,-0.12706182897090912,0.021019529551267624,-0.0007026817766018212,-0.9916718006134033
1682370864.69877195,200991708,2,-0.12737388908863068,0.019169120118021965,-0.0013506704708561301,-0.9916685819625854
1682370864.79875994,201091696,2,-0.12854760885238647,0.01796049065887928,-0.0035967614967375994,-0.9915341734886169
1682370864.89877701,201191713,2,-0.12968429923057556,0.019249029457569122,-0.003485244931653142,-0.9913623332977295
1682370864.99879980,201291736,2,-0.13113325834274292,0.02157466486096382,-0.0037599944043904543,-0.991122841835022
1682370865.09880996,201391746,2,-0.132985919713974,0.02256895788013935,-0.002517377259209752,-0.990857720375061
1682370865.19884181,201491778,2,-0.13529984652996063,0.022058969363570213,-0.0009785587899386883,-0.9905586242675781
1682370865.29878092,201591717,2,-0.1377195119857788,0.020548982545733452,-0.00044610779150389135,-0.990257978439331
1682370865.39876580,201691702,2,-0.14004407823085785,0.019670963287353516,-6.167327228467911e-05,-0.9899498224258423
1682370865.49876785,201791704,2,-0.14257553219795227,0.01948350854218006,0.0022939061746001244,-0.989589512348175
1682370865.59875703,201891693,2,-0.1444886028766632,0.020825158804655075,0.004523651208728552,-0.9892769455909729
1682370865.69876695,201991703,2,-0.14610916376113892,0.022070173174142838,0.004956420511007309,-0.9890098571777344
1682370865.79875898,202091695,2,-0.14745007455348969,0.021466009318828583,0.005148807540535927,-0.9888231158256531
1682370865.89879489,202191731,2,-0.14810408651828766,0.02141624502837658,0.005303951445966959,-0.9887256622314453
1682370865.99881887,202291755,2,-0.14825840294361115,0.020619045943021774,0.005484032444655895,-0.9887184500694275
1682370866.09882593,202391762,2,-0.14789198338985443,0.020893629640340805,0.0059625073336064816,-0.9887648224830627
1682370866.19878197,202491718,2,-0.14669373631477356,0.022082442417740822,0.006590091157704592,-0.9889134764671326
1682370866.29875183,202591688,2,-0.14490143954753876,0.021967384964227676,0.007579099852591753,-0.989173173904419
1682370866.39875388,202691690,2,-0.14268094301223755,0.021015025675296783,0.004752172157168388,-0.9895341992378235
1682370866.49875188,202791688,2,-0.1406460702419281,0.020154433324933052,0.004776249639689922,-0.9898432493209839
1682370866.59875202,202891688,2,-0.13841985166072845,0.019608324393630028,0.004060471896082163,-0.9901711940765381
1682370866.69875979,202991696,2,-0.13654829561710358,0.01866401731967926,0.00309042283333838,-0.990452766418457
1682370866.79879785,203091734,2,-0.13517571985721588,0.017649313434958458,0.0038933756295591593,-0.9906567931175232
1682370866.89881396,203191750,2,-0.13444964587688446,0.017143895849585533,0.0028354956302791834,-0.9907680749893188
1682370866.99883199,203291768,2,-0.1343020349740982,0.016057291999459267,0.0003320306714158505,-0.9908102750778198
1682370867.09879088,203391727,2,-0.13470003008842468,0.016022033989429474,-0.0016716434620320797,-0.9907554984092712
1682370867.19875097,203491687,2,-0.13525883853435516,0.015858862549066544,-0.0018785626161843538,-0.9906815886497498
1682370867.29876399,203591700,2,-0.1360105723142624,0.01628938503563404,-0.0009029636858031154,-0.9905730485916138
1682370867.39876199,203691698,2,-0.1364431232213974,0.017595496028661728,0.0011929207248613238,-0.9904909133911133
1682370867.49875283,203791689,2,-0.13673166930675507,0.017056791111826897,0.0033502639271318913,-0.9904556274414062
1682370867.59874988,203891686,2,-0.13665667176246643,0.01652679219841957,0.004361303523182869,-0.9904710054397583
1682370867.69880199,203991738,2,-0.1362321823835373,0.015773339197039604,0.00382964382879436,-0.9905439615249634
1682370867.79880691,204091743,2,-0.1357351690530777,0.015291932038962841,0.002952832030132413,-0.9906227588653564
1682370867.89882898,204191765,2,-0.13483400642871857,0.014621906913816929,0.0022680957335978746,-0.9907577037811279
1682370867.99878502,204291721,2,-0.13432657718658447,0.014091337099671364,0.002832132624462247,-0.9908328652381897
1682370868.09875798,204391694,2,-0.13373734056949615,0.014583795331418514,0.0031575520988553762,-0.9909044504165649
1682370868.19875693,204491693,2,-0.13310202956199646,0.013735306449234486,0.0033939413260668516,-0.9910013675689697
1682370868.29876089,204591697,2,-0.13231313228607178,0.013226589187979698,0.0036615950521081686,-0.9911129474639893
1682370868.39875388,204691690,2,-0.13158679008483887,0.012589500285685062,0.0029095925856381655,-0.9912204146385193
1682370868.49875784,204791694,2,-0.13061007857322693,0.012098966166377068,0.00234933290630579,-0.9913572072982788
1682370868.59879780,204891734,2,-0.1297740340232849,0.013775958679616451,0.0015245751710608602,-0.9914467334747314
1682370868.69881296,204991749,2,-0.12882882356643677,0.014926103875041008,0.0005121281719766557,-0.9915543794631958
1682370868.79883194,205091768,2,-0.12848028540611267,0.016774259507656097,0.00027503768797032535,-0.9915701746940613
1682370868.89883280,205191769,2,-0.12781119346618652,0.01941283792257309,0.00033852626802399755,-0.9916084408760071
1682370868.99875784,205291694,2,-0.1271880567073822,0.019419947639107704,0.0007304311729967594,-0.9916882514953613
1682370869.09875393,205391690,2,-0.1268835961818695,0.01899087056517601,0.001474109711125493,-0.9917346835136414
1682370869.19875503,205491691,2,-0.12632744014263153,0.018356624990701675,0.0015869283815845847,-0.9918174743652344
1682370869.29875302,205591689,2,-0.12607958912849426,0.018340354785323143,0.0011782776564359665,-0.9918498992919922
1682370869.39878488,205691721,2,-0.12560820579528809,0.018245402723550797,6.484075856860727e-05,-0.9919121265411377
1682370869.49880099,205791737,2,-0.1254952847957611,0.01721329428255558,-0.0008196304552257061,-0.9919445514678955
1682370869.59880495,205891741,2,-0.12495002895593643,0.015369758009910583,-0.0009926874190568924,-0.9920434951782227
1682370869.69883180,205991768,2,-0.12440666556358337,0.014078574255108833,-0.0017104666912928224,-0.9921299815177917
1682370869.79878187,206091718,2,-0.1236298680305481,0.01518208533525467,-0.0011014376068487763,-0.992211639881134
1682370869.89875197,206191688,2,-0.12267975509166718,0.01690313033759594,-0.0008569545461796224,-0.9923020005226135
1682370869.99875498,206291691,2,-0.12150504440069199,0.01737028732895851,-0.0008426654385402799,-0.9924384355545044
1682370870.09874988,206391686,2,-0.12040027976036072,0.01835874654352665,-0.0010312121594324708,-0.9925551414489746
1682370870.19875288,206491689,2,-0.11922164261341095,0.018503930419683456,-0.0028510699048638344,-0.9926910996437073
1682370870.29876590,206591702,2,-0.11818467825651169,0.01935751549899578,-0.003674093633890152,-0.9927961230278015
1682370870.39879990,206691736,2,-0.11719875037670135,0.018826954066753387,-0.003927827812731266,-0.9929222464561462
1682370870.49881291,206791749,2,-0.11618147790431976,0.01859886199235916,-0.003307121805846691,-0.993048369884491
1682370870.59882402,206891760,2,-0.11555413901805878,0.019367007538676262,-0.002571192104369402,-0.9931090474128723
1682370870.69878483,206991721,2,-0.11493799835443497,0.018915003165602684,-0.002757966984063387,-0.993188738822937
1682370870.79875994,207091696,2,-0.11451996117830276,0.017529496923089027,-0.003336078254505992,-0.9932606816291809
1682370870.89875698,207191693,2,-0.11413510888814926,0.015748249366879463,-0.0041312421672046185,-0.993331789970398
1682370870.99875689,207291693,2,-0.1137988269329071,0.014247359707951546,-0.004902925807982683,-0.9933895468711853
1682370871.09875202,207391688,2,-0.11352582275867462,0.013200286775827408,-0.005033486057072878,-0.9934346079826355
1682370871.19875002,207491686,2,-0.11323925107717514,0.013652561232447624,-0.00395136047154665,-0.9934660792350769
1682370871.29879594,207591732,2,-0.11318177729845047,0.014307120814919472,-0.0034526120871305466,-0.9934653043746948
1682370871.39881086,207691747,2,-0.11327549070119858,0.015564856119453907,-0.0031516398303210735,-0.9934366941452026
1682370871.49882603,207791762,2,-0.11347483843564987,0.017318440601229668,-0.0031969351693987846,-0.9933847784996033
1682370871.59878087,207891717,2,-0.1137298122048378,0.018255071714520454,-0.002819659421220422,-0.993340015411377
1682370871.69876790,207991704,2,-0.11393216252326965,0.018890423700213432,-0.0022232895717024803,-0.9933064579963684
1682370871.79875994,208091696,2,-0.11438034474849701,0.019142918288707733,-0.0032298944424837828,-0.9932473301887512
1682370871.89876080,208191697,2,-0.1147572472691536,0.01862541399896145,-0.0033860458061099052,-0.9932131767272949
1682370871.99875498,208291691,2,-0.11523327231407166,0.018171729519963264,-0.003097754903137684,-0.9931674003601074
1682370872.09875488,208391691,2,-0.11553911864757538,0.0164139736443758,-0.002132879802957177,-0.9931650161743164
1682370872.19880295,208491739,2,-0.11575354635715485,0.014827910810709,-0.0012458260171115398,-0.9931665062904358
1682370872.29881191,208591748,2,-0.11547517031431198,0.013961576856672764,-0.0009270882583223283,-0.9932118058204651
1682370872.39883590,208691772,2,-0.11528074741363525,0.014161903411149979,-0.0006379588157869875,-0.9932317733764648
1682370872.49879003,208791726,2,-0.11504529416561127,0.01497878972440958,-0.0014881427632644773,-0.9932461977005005
1682370872.59875083,208891687,2,-0.11464608460664749,0.015667404979467392,-0.001066220342181623,-0.9932822585105896
1682370872.69875383,208991690,2,-0.11400706321001053,0.015361877158284187,-0.0006461826269514859,-0.9933609366416931
1682370872.79875493,209091691,2,-0.1128692626953125,0.015072951093316078,-0.0008331706048920751,-0.9934951663017273
1682370872.89875484,209191691,2,-0.11174759268760681,0.014542282558977604,-0.0009111327235586941,-0.9936298131942749
1682370872.99876690,209291703,2,-0.11031907051801682,0.01369729544967413,-0.0009668782586231828,-0.9938013553619385
1682370873.09879899,209391735,2,-0.10898056626319885,0.014397642575204372,0.00020771322306245565,-0.9939395785331726
1682370873.19881082,209491747,2,-0.10746858268976212,0.014864953234791756,0.0020936797372996807,-0.9940951466560364
1682370873.29883385,209591770,2,-0.1058659553527832,0.01487022079527378,0.003479358274489641,-0.9942631125450134
1682370873.39883494,209691771,2,-0.1040862575173378,0.014303194358944893,0.0038018845953047276,-0.9944581389427185
1682370873.49877596,209791712,2,-0.1024336963891983,0.013369353488087654,0.004054877907037735,-0.9946417212486267
1682370873.59874892,209891685,2,-0.10079137980937958,0.012758506461977959,0.0030644184444099665,-0.9948210716247559
1682370873.69876289,209991699,2,-0.09935487806797028,0.011975373141467571,0.0024889647029340267,-0.9949768781661987
1682370873.79875088,210091687,2,-0.09811349958181381,0.012236147187650204,0.0019203893607482314,-0.9950981736183167
1682370873.89875102,210191687,2,-0.09706586599349976,0.012737524695694447,0.00131888035684824,-0.9951955676078796
1682370873.99880290,210291739,2,-0.09619046002626419,0.012281120754778385,0.0008281983900815248,-0.9952868223190308
1682370874.09875488,210391691,2,-0.09555476903915405,0.01274858508259058,-0.0009152058628387749,-0.9953421354293823
1682370874.19882894,210491765,2,-0.09534552693367004,0.012383452616631985,-0.002896710066124797,-0.9953629970550537
1682370874.29880500,210591741,2,-0.09553027153015137,0.01206380408257246,-0.0035955223720520735,-0.9953469038009644
1682370874.39875603,210691692,2,-0.09641283750534058,0.012023297138512135,-0.002801002934575081,-0.9952648878097534
1682370874.49875283,210791689,2,-0.09752178937196732,0.011917934753000736,-0.0012685509864240885,-0.995161235332489
1682370874.59877086,210891707,2,-0.0988931953907013,0.01265619695186615,-2.2397858629119582e-05,-0.9950175881385803
1682370874.69875503,210991691,2,-0.10054069012403488,0.012661576271057129,0.000791118131019175,-0.9948520660400391
1682370874.79875493,211091691,2,-0.10223371535539627,0.013001788407564163,-4.934418757329695e-05,-0.9946754574775696
1682370874.89880180,211191738,2,-0.10396191477775574,0.013173715211451054,-0.0003159613406751305,-0.9944939613342285
1682370874.99880886,211291745,2,-0.10549512505531311,0.01411676686257124,-0.0006160691846162081,-0.9943194389343262
1682370875.09882998,211391766,2,-0.10659478604793549,0.015419208444654942,-0.0016569849103689194,-0.9941815733909607
1682370875.19878197,211491718,2,-0.10740537196397781,0.015013577416539192,-0.001744234235957265,-0.9941003918647766
1682370875.29875302,211591689,2,-0.1082400530576706,0.014919592998921871,-0.0020152570214122534,-0.9940108060836792
1682370875.39875793,211691694,2,-0.10888352245092392,0.014854698441922665,-0.001258580363355577,-0.9939427375793457
1682370875.49874997,211791686,2,-0.10955975204706192,0.01495425682514906,-0.0014678260777145624,-0.9938666224479675
1682370875.59874988,211891686,2,-0.10995621234178543,0.014772722497582436,-0.0014513657661154866,-0.9938255548477173
1682370875.69876385,211991700,2,-0.11034060269594193,0.014143997803330421,-8.894281199900433e-05,-0.9937931895256042
1682370875.79880285,212091739,2,-0.11037403345108032,0.014582338742911816,-0.00021322401880752295,-0.9937831163406372
1682370875.89881396,212191750,2,-0.11025086045265198,0.015335530042648315,-0.00013501923240255564,-0.9937854409217834
1682370875.99883294,212291769,2,-0.11028363555669785,0.016049105674028397,-0.00011381713557057083,-0.9937705397605896
1682370876.09878993,212391726,2,-0.11025512218475342,0.01735350862145424,0.00021006331371609122,-0.9937517642974854
1682370876.19875193,212491688,2,-0.11012736707925797,0.017340613529086113,0.00025515479501336813,-0.993766188621521
1682370876.29875302,212591689,2,-0.10990183800458908,0.016339536756277084,0.0005284039070829749,-0.9938079714775085
