timestamp,TimeUS,I,Status,GMS,GWk,NSats,HDop,Lat,Lng,Alt,Spd,GCrs,VZ,Yaw,U
1667257267.59999990,81184630,0,3,169285600,2234,15,0.7000000000000001,42.6891429,-84.4915443,267.34000000000003,0.032388269901275635,81.11933898925781,0.0950000062584877,0.0,1
1667257267.80001998,81384650,0,3,169285800,2234,15,0.7000000000000001,42.689143,-84.49154419999999,267.3,0.026305893436074257,351.25384521484375,0.007000000216066837,0.0,1
1667257268.00002003,81584650,0,3,169286000,2234,15,0.7000000000000001,42.689143,-84.49154419999999,267.27,0.0259422454982996,62.44718551635742,0.06200000271201134,0.0,1
1667257268.21993494,81804565,0,3,169286200,2234,15,0.7000000000000001,42.689143099999995,-84.4915441,267.24,0.04215447977185249,67.69378662109375,0.01600000075995922,0.0,1
1667257268.40001297,81984643,0,3,169286400,2234,15,0.7000000000000001,42.689143099999995,-84.4915441,267.22,0.022203603759407997,54.16234588623047,0.027000000700354576,0.0,1
1667257268.59995198,82184582,0,3,169286600,2234,15,0.7000000000000001,42.6891432,-84.49154399999999,267.19,0.02121320553123951,278.1300964355469,-0.021000001579523087,0.0,1
1667257268.79994106,82384571,0,3,169286800,2234,15,0.7000000000000001,42.6891432,-84.4915441,267.17,0.02121320553123951,278.1300964355469,0.021000001579523087,0.0,1
1667257269.00000405,82584634,0,3,169287000,2234,15,0.7000000000000001,42.6891432,-84.49154419999999,267.14,0.017088009044528008,290.5560607910156,0.01100000087171793,0.0,1
1667257269.20000291,82784633,0,3,169287200,2234,15,0.7000000000000001,42.6891432,-84.49154419999999,267.12,0.005099019967019558,258.6900634765625,0.06599999964237213,0.0,1
1667257269.40001106,82984641,0,3,169287400,2234,15,0.7000000000000001,42.6891433,-84.49154419999999,267.08,0.023086795583367348,355.0302734375,-0.01900000125169754,0.0,1
1667257269.60002899,83184659,0,3,169287600,2234,15,0.7000000000000001,42.6891434,-84.49154419999999,267.06,0.046141091734170914,29.89889907836914,0.08500000089406967,0.0,1
1667257269.80003190,83384662,0,3,169287800,2234,15,0.7000000000000001,42.6891434,-84.4915441,267.03000000000003,0.036400552839040756,52.81528854370117,0.07700000703334808,0.0,1
1667257270.01996303,83604593,0,3,169288000,2234,15,0.7000000000000001,42.6891435,-84.4915441,267.0,0.04939635843038559,31.759475708007812,0.0860000029206276,0.0,1
1667257270.19999504,83784625,0,3,169288200,2234,15,0.7000000000000001,42.6891435,-84.4915441,266.97,0.03313608467578888,95.19442749023438,0.0650000050663948,0.0,1
1667257270.39996290,83984593,0,3,169288400,2234,15,0.7000000000000001,42.6891435,-84.49154399999999,266.95,0.019416488707065582,55.49147415161133,0.08900000154972076,0.0,1
1667257270.59995794,84184588,0,3,169288600,2234,15,0.7000000000000001,42.6891435,-84.49154399999999,266.93,0.03220248594880104,25.769325256347656,0.07400000095367432,0.0,1
1667257270.79999900,84384629,0,3,169288800,2234,15,0.7000000000000001,42.6891435,-84.49154399999999,266.91,0.019798990339040756,45.0,0.11300000548362732,0.0,1
1667257271.00000191,84584632,0,3,169289000,2234,15,0.7000000000000001,42.6891436,-84.49154399999999,266.87,0.034885529428720474,332.700439453125,0.06300000101327896,0.0,1
1667257271.22000599,84804636,0,3,169289200,2234,15,0.7000000000000001,42.689143699999995,-84.49154399999999,266.83,0.021931713446974754,43.15238952636719,0.04200000315904617,0.0,1
1667257271.40001988,84984650,0,3,169289400,2234,15,0.7000000000000001,42.689143699999995,-84.49154399999999,266.81,0.01044030673801899,73.30075073242188,0.03700000047683716,0.0,1
1667257271.59996009,85184590,0,3,169289600,2234,15,0.7000000000000001,42.689143699999995,-84.49154399999999,266.79,0.017088009044528008,290.5560607910156,0.06599999964237213,0.0,1
1667257271.79999804,85384628,0,3,169289800,2234,15,0.7000000000000001,42.689143699999995,-84.49154399999999,266.75,0.021023796871304512,25.346174240112305,0.013000000268220901,0.0,1
1667257272.00001001,85584640,0,3,169290000,2234,15,0.7000000000000001,42.6891438,-84.49154399999999,266.72,0.03668787330389023,72.55280303955078,0.0,0.0,1
1667257272.20005202,85784682,0,3,169290200,2234,15,0.7000000000000001,42.6891438,-84.4915439,266.7,0.03337663784623146,81.38434600830078,0.07900000363588333,0.0,1
1667257272.40000796,85984638,0,3,169290400,2234,15,0.7000000000000001,42.6891438,-84.4915438,266.67,0.0477074459195137,56.976131439208984,0.05400000140070915,0.0,1
1667257272.60003209,86184662,0,3,169290600,2234,15,0.7000000000000001,42.6891438,-84.4915438,266.65,0.0213775597512722,79.2156982421875,0.02500000037252903,0.0,1
1667257272.80006790,86384698,0,3,169290800,2234,15,0.7000000000000001,42.6891438,-84.4915438,266.63,0.020615529268980026,320.9061279296875,0.04200000315904617,0.0,1
1667257273.02000499,86604635,0,3,169291000,2234,15,0.7000000000000001,42.6891439,-84.4915439,266.61,0.02745906263589859,236.888671875,-0.009000000543892384,0.0,1
1667257273.20010805,86784738,0,3,169291200,2234,15,0.7000000000000001,42.6891438,-84.4915439,266.61,0.01414213702082634,315.0,-0.052000001072883606,0.0,1
1667257273.40001106,86984641,0,3,169291400,2234,15,0.7000000000000001,42.6891439,-84.49154399999999,266.62,0.031144823879003525,264.47247314453125,-0.3240000009536743,0.0,1
1667257273.59999895,87184629,0,3,169291600,2234,15,0.7000000000000001,42.6891439,-84.4915441,266.67,0.054781388491392136,291.4129638671875,-0.4750000238418579,0.0,1
1667257273.79998207,87384612,0,3,169291800,2234,15,0.7000000000000001,42.6891439,-84.4915441,266.76,0.06859300285577774,82.4605484008789,-0.6290000081062317,0.0,1
1667257273.99997997,87584610,0,3,169292000,2234,15,0.7000000000000001,42.689144,-84.4915441,266.87,0.12121056020259857,322.373779296875,-0.6080000400543213,0.0,1
1667257274.22000194,87804632,0,3,169292200,2234,15,0.7000000000000001,42.6891442,-84.49154419999999,266.95,0.0847230851650238,348.4248046875,-0.4190000295639038,0.0,1
1667257274.39998293,87984613,0,3,169292400,2234,15,0.7000000000000001,42.6891442,-84.4915443,267.0,0.03661966696381569,214.99203491210938,-0.32100000977516174,0.0,1
1667257274.60006094,88184691,0,3,169292600,2234,15,0.7000000000000001,42.689144299999995,-84.4915443,267.04,0.08700575679540634,37.528438568115234,-0.1300000101327896,0.0,1
1667257274.80001092,88384641,0,3,169292800,2234,15,0.7000000000000001,42.689144299999995,-84.4915443,267.04,0.02828427217900753,278.1300964355469,-0.08400000631809235,0.0,1
1667257275.00001597,88584646,0,3,169293000,2234,15,0.7000000000000001,42.689144299999995,-84.4915443,267.03000000000003,0.03201562166213989,194.47030639648438,-0.04200000315904617,0.0,1
1667257275.20001888,88784649,0,3,169293200,2234,15,0.7000000000000001,42.6891442,-84.4915444,267.04,0.046324942260980606,193.7362823486328,-0.29200002551078796,0.0,1
1667257275.39999509,88984625,0,3,169293400,2234,15,0.7000000000000001,42.6891442,-84.4915444,267.09000000000003,0.024698179215192795,31.759475708007812,-0.3850000202655792,0.0,1
1667257275.60000110,89184631,0,3,169293600,2234,15,0.7000000000000001,42.6891442,-84.4915443,267.16,0.06612866371870041,159.64675903320312,-0.6430000066757202,0.0,1
1667257275.79999804,89384628,0,3,169293800,2234,15,0.7000000000000001,42.6891439,-84.4915444,267.28000000000003,0.2190205603837967,179.2151641845703,-0.5250000357627869,0.0,1
1667257276.00000596,89584636,0,3,169294000,2234,15,0.7000000000000001,42.6891434,-84.49154449999999,267.37,0.33429327607154846,192.78907775878906,-0.5410000085830688,0.0,1
1667257276.20003510,89784665,0,3,169294200,2234,15,0.7000000000000001,42.6891428,-84.49154469999999,267.44,0.3643638491630554,201.07139587402344,-0.4780000150203705,0.0,1
1667257276.40000296,89984633,0,3,169294400,2234,15,0.7000000000000001,42.6891421,-84.491545,267.52,0.4641573131084442,188.54908752441406,-0.42600002884864807,0.0,1
1667257276.60006690,90184697,0,3,169294600,2234,15,0.7000000000000001,42.689141299999996,-84.4915453,267.57,0.4699212908744812,198.743408203125,-0.3700000047683716,0.0,1
1667257276.80000997,90384640,0,3,169294800,2234,15,0.7000000000000001,42.6891405,-84.4915458,267.6,0.56062912940979,210.9111785888672,-0.22200001776218414,0.0,1
1667257277.00001407,90584644,0,3,169295000,2234,15,0.7000000000000001,42.6891396,-84.49154659999999,267.62,0.5783373117446899,218.1182861328125,-0.0690000057220459,0.0,1
1667257277.20003009,90784660,0,3,169295200,2234,15,0.7000000000000001,42.689138899999996,-84.4915477,267.6,0.6471167206764221,229.76365661621094,-0.08500000089406967,0.0,1
1667257277.41999388,91004624,0,3,169295400,2234,15,0.7000000000000001,42.6891381,-84.4915489,267.6,0.681719183921814,230.8939208984375,-0.11400000751018524,0.0,1
1667257277.59996104,91184591,0,3,169295600,2234,15,0.7000000000000001,42.6891374,-84.4915504,267.61,0.7376212477684021,238.80978393554688,-0.06800000369548798,0.0,1
1667257277.80003905,91384669,0,3,169295800,2234,15,0.7000000000000001,42.6891368,-84.491552,267.6,0.8015366792678833,245.6092987060547,-0.19600000977516174,0.0,1
1667257278.02001595,91604646,0,3,169296000,2234,15,0.7000000000000001,42.6891362,-84.4915539,267.61,0.8494216203689575,246.845703125,-0.15600000321865082,0.0,1
1667257278.20004797,91784678,0,3,169296200,2234,15,0.7000000000000001,42.6891356,-84.49155569999999,267.62,0.7734604477882385,244.82647705078125,-0.11500000208616257,0.0,1
1667257278.40002203,91984652,0,3,169296400,2234,15,0.7000000000000001,42.6891351,-84.49155739999999,267.61,0.720850944519043,245.31924438476562,-0.16600000858306885,0.0,1
1667257278.60002208,92184652,0,3,169296600,2234,15,0.7000000000000001,42.6891347,-84.4915587,267.62,0.4956985414028168,246.33091735839844,-0.24500000476837158,0.0,1
1667257278.80003309,92384663,0,3,169296800,2234,15,0.7000000000000001,42.6891343,-84.49155979999999,267.67,0.42459040880203247,241.7449493408203,-0.289000004529953,0.0,1
1667257279.01996803,92604598,0,3,169297000,2234,15,0.7000000000000001,42.689133899999995,-84.4915608,267.74,0.418819785118103,238.47317504882812,-0.4090000092983246,0.0,1
1667257279.20003104,92784661,0,3,169297200,2234,15,0.7000000000000001,42.6891336,-84.49156169999999,267.81,0.4042598605155945,248.0670166015625,-0.32500001788139343,0.0,1
1667257279.39997387,92984604,0,3,169297400,2234,15,0.7000000000000001,42.6891332,-84.4915626,267.87,0.38001713156700134,230.4453887939453,-0.33400002121925354,0.0,1
1667257279.59993291,93184563,0,3,169297600,2234,15,0.7000000000000001,42.6891329,-84.4915632,267.89,0.2408319115638733,237.8937530517578,-0.14800000190734863,0.0,1
1667257279.79998994,93384620,0,3,169297800,2234,15,0.7000000000000001,42.6891326,-84.4915635,267.92,0.18420098721981049,173.4536895751953,-0.11900000274181366,0.0,1
1667257280.01999497,93604625,0,3,169298000,2234,15,0.7000000000000001,42.6891323,-84.4915635,267.93,0.19386593997478485,158.19857788085938,-0.0860000029206276,0.0,1
1667257280.22006297,93804693,0,3,169298200,2234,15,0.7000000000000001,42.6891319,-84.4915633,267.94,0.22143623232841492,166.1520233154297,-0.08100000023841858,0.0,1
1667257280.40004206,93984672,0,3,169298400,2234,15,0.7000000000000001,42.689131599999996,-84.4915633,267.92,0.183983713388443,174.07247924804688,0.021000001579523087,0.0,1
1667257280.60005307,94184683,0,3,169298600,2234,15,0.7000000000000001,42.6891313,-84.4915633,267.91,0.15179592370986938,168.98614501953125,0.06800000369548798,0.0,1
1667257280.81998205,94404612,0,3,169298800,2234,15,0.7000000000000001,42.689130999999996,-84.4915633,267.89,0.12714165449142456,172.31600952148438,0.007000000216066837,0.0,1
1667257281.01996899,94604599,0,3,169299000,2234,15,0.7000000000000001,42.689130899999995,-84.4915633,267.86,0.10816653817892075,183.17984008789062,0.027000000700354576,0.0,1
1667257281.22004700,94804677,0,3,169299200,2234,15,0.7000000000000001,42.6891307,-84.4915633,267.83,0.08709190785884857,158.44290161132812,0.024000000208616257,0.0,1
1667257281.40000105,94984631,0,3,169299400,2234,15,0.7000000000000001,42.6891306,-84.4915632,267.8,0.127769336104393,157.44911193847656,0.046000003814697266,0.0,1
1667257281.60001993,95184650,0,3,169299600,2234,15,0.7000000000000001,42.6891305,-84.4915631,267.76,0.07201389223337173,154.50244140625,0.10300000756978989,0.0,1
1667257281.80002093,95384651,0,3,169299800,2234,15,0.7000000000000001,42.689130399999996,-84.491563,267.72,0.0806225836277008,133.9949188232422,0.10700000822544098,0.0,1
1667257282.00003195,95584662,0,3,169300000,2234,15,0.7000000000000001,42.689130399999996,-84.49156289999999,267.68,0.049000002443790436,90.0,0.024000000208616257,0.0,1
1667257282.20002794,95784658,0,3,169300200,2234,15,0.7000000000000001,42.689130399999996,-84.4915628,267.67,0.03894868493080139,60.802513122558594,-0.10000000149011612,0.0,1
1667257282.40005207,95984682,0,3,169300400,2234,15,0.7000000000000001,42.6891305,-84.4915627,267.68,0.022561030462384224,77.19573211669922,-0.17900000512599945,0.0,1
1667257282.60001588,96184646,0,3,169300600,2234,15,0.7000000000000001,42.6891305,-84.4915627,267.71,0.05456189438700676,116.09542083740234,-0.32100000977516174,0.0,1
1667257282.79995799,96384588,0,3,169300800,2234,15,0.7000000000000001,42.689130399999996,-84.4915627,267.76,0.04981967806816101,128.48019409179688,-0.2760000228881836,0.0,1
1667257282.99997997,96584610,0,3,169301000,2234,15,0.7000000000000001,42.689130399999996,-84.4915627,267.8,0.05288667231798172,164.6498565673828,-0.31300002336502075,0.0,1
1667257283.20000100,96784631,0,3,169301200,2234,15,0.7000000000000001,42.6891302,-84.4915627,267.86,0.11624973267316818,171.59107971191406,-0.31700000166893005,0.0,1
1667257283.39999890,96984629,0,3,169301400,2234,15,0.7000000000000001,42.6891301,-84.4915628,267.89,0.051478154957294464,204.07550048828125,-0.30300000309944153,0.0,1
1667257283.62004304,97204673,0,3,169301600,2234,15,0.7000000000000001,42.68913,-84.49156289999999,267.96,0.024839486926794052,130.1009063720703,-0.24700000882148743,0.0,1
1667257283.80004692,97384677,0,3,169301800,2234,15,0.7000000000000001,42.68913,-84.49156289999999,267.98,0.07294519245624542,56.745628356933594,-0.1990000158548355,0.0,1
1667257284.00005507,97584685,0,3,169302000,2234,15,0.7000000000000001,42.6891301,-84.4915628,268.0,0.10955365002155304,33.835121154785156,-0.13300000131130219,0.0,1
1667257284.21999002,97804620,0,3,169302200,2234,15,0.7000000000000001,42.689130299999995,-84.4915627,268.0,0.13395895063877106,30.010135650634766,0.007000000216066837,0.0,1
1667257284.42000604,98004636,0,3,169302400,2234,15,0.7000000000000001,42.6891305,-84.4915627,267.99,0.07400000095367432,18.92464256286621,0.024000000208616257,0.0,1
1667257284.59998798,98184618,0,3,169302600,2234,15,0.7000000000000001,42.6891306,-84.4915627,267.97,0.07310951501131058,3.1363582611083984,0.04000000283122063,0.0,1
1667257284.81991005,98404540,0,3,169302800,2234,15,0.7000000000000001,42.6891307,-84.4915627,267.93,0.04743416607379913,18.434947967529297,0.08300000429153442,0.0,1
1667257285.01993394,98604564,0,3,169303000,2234,15,0.7000000000000001,42.6891308,-84.4915628,267.9,0.02906888537108898,3.945186138153076,0.1380000114440918,0.0,1
1667257285.22000909,98804639,0,3,169303200,2234,15,0.7000000000000001,42.6891308,-84.49156289999999,267.87,0.04883646219968796,259.3803405761719,0.05300000309944153,0.0,1
1667257285.42000389,99004634,0,3,169303400,2234,15,0.7000000000000001,42.6891308,-84.4915631,267.83,0.061326995491981506,245.94265747070312,0.06400000303983688,0.0,1
1667257285.61999989,99204630,0,3,169303600,2234,15,0.7000000000000001,42.6891307,-84.4915633,267.81,0.10062306374311447,206.56504821777344,0.10300000756978989,0.0,1
1667257285.82001305,99404643,0,3,169303800,2234,15,0.7000000000000001,42.6891305,-84.4915635,267.77,0.15917600691318512,223.21803283691406,0.10200000554323196,0.0,1
1667257285.99999690,99584627,0,3,169304000,2234,15,0.7000000000000001,42.6891302,-84.4915639,267.74,0.22961054742336273,216.32090759277344,0.15700000524520874,0.0,1
1667257286.21999598,99804626,0,3,169304200,2234,15,0.7000000000000001,42.6891299,-84.4915643,267.7,0.26385605335235596,206.56504821777344,0.05700000375509262,0.0,1
1667257286.41997290,100004603,0,3,169304400,2234,15,0.7000000000000001,42.6891294,-84.4915647,267.67,0.30828720331192017,204.7362060546875,0.11500000208616257,0.0,1
1667257286.62005806,100204688,0,3,169304600,2234,15,0.7000000000000001,42.6891289,-84.4915651,267.65,0.23468276858329773,197.35403442382812,0.17800000309944153,0.0,1
1667257286.81991696,100404547,0,3,169304800,2234,15,0.7000000000000001,42.6891286,-84.4915654,267.62,0.16476954519748688,197.66519165039062,0.07100000232458115,0.0,1
1667257287.02000093,100604631,0,3,169305000,2234,15,0.7000000000000001,42.6891283,-84.4915656,267.61,0.06280127912759781,189.16236877441406,0.08300000429153442,0.0,1
1667257287.21999693,100804627,0,3,169305200,2234,15,0.7000000000000001,42.6891283,-84.4915656,267.6,0.06576473265886307,61.87626647949219,0.004000000189989805,0.0,1
1667257287.40000606,100984636,0,3,169305400,2234,15,0.7000000000000001,42.6891283,-84.4915655,267.59000000000003,0.07720103859901428,73.44292449951172,0.00800000037997961,0.0,1
1667257287.62002110,101204651,0,3,169305600,2234,15,0.7000000000000001,42.6891284,-84.4915654,267.57,0.067601777613163,82.3493423461914,-0.06300000101327896,0.0,1
1667257287.80000710,101384637,0,3,169305800,2234,15,0.7000000000000001,42.6891284,-84.49156529999999,267.55,0.049244288355112076,102.90740203857422,-0.003000000026077032,0.0,1
1667257288.02001810,101604648,0,3,169306000,2234,15,0.7000000000000001,42.6891284,-84.49156529999999,267.52,0.04491102695465088,78.43986511230469,0.17400000989437103,0.0,1
1667257288.21996999,101804600,0,3,169306200,2234,15,0.7000000000000001,42.6891283,-84.49156529999999,267.46,0.04601087048649788,132.35745239257812,0.24900001287460327,0.0,1
1667257288.39999509,101984625,0,3,169306400,2234,15,0.7000000000000001,42.6891283,-84.4915652,267.4,0.03635932132601738,121.5042495727539,0.328000009059906,0.0,1
1667257288.62001204,102204642,0,3,169306600,2234,15,0.7000000000000001,42.6891282,-84.4915652,267.32,0.0522015355527401,126.43085479736328,0.2760000228881836,0.0,1
1667257288.79996109,102384591,0,3,169306800,2234,15,0.7000000000000001,42.6891282,-84.4915652,267.27,0.0746324360370636,72.05059814453125,0.26100000739097595,0.0,1
1667257289.02002096,102604651,0,3,169307000,2234,15,0.7000000000000001,42.6891282,-84.4915652,267.24,0.07872103154659271,64.41148376464844,0.27400001883506775,0.0,1
1667257289.22001004,102804640,0,3,169307200,2234,15,0.7000000000000001,42.6891282,-84.4915652,267.19,0.10272780060768127,41.44826126098633,0.18700000643730164,0.0,1
1667257289.42002988,103004660,0,3,169307400,2234,15,0.7000000000000001,42.6891284,-84.491565,267.16,0.14650939404964447,42.51044464111328,0.11500000208616257,0.0,1
1667257289.62001395,103204644,0,3,169307600,2234,15,0.7000000000000001,42.689128499999995,-84.4915649,267.14,0.15008331835269928,34.96074295043945,0.1680000126361847,0.0,1
1667257289.81997395,103404604,0,3,169307800,2234,15,0.7000000000000001,42.6891287,-84.49156479999999,267.11,0.07359348237514496,42.79739761352539,-0.006000000052154064,0.0,1
1667257290.01992798,103604558,0,3,169308000,2234,15,0.7000000000000001,42.6891287,-84.49156479999999,267.1,0.07378347218036652,57.171451568603516,0.08000000566244125,0.0,1
1667257290.21998787,103804618,0,3,169308200,2234,15,0.7000000000000001,42.6891286,-84.49156479999999,267.08,0.07653104513883591,173.2464141845703,0.0690000057220459,0.0,1
1667257290.41999006,104004620,0,3,169308400,2234,15,0.7000000000000001,42.6891284,-84.4915649,267.06,0.14431217312812805,200.69546508789062,0.07200000435113907,0.0,1
1667257290.62001991,104204650,0,3,169308600,2234,15,0.7000000000000001,42.689128,-84.4915651,267.02,0.2515253722667694,196.6337890625,0.07700000703334808,0.0,1
1667257290.82001996,104404650,0,3,169308800,2234,15,0.7000000000000001,42.6891275,-84.4915654,267.01,0.38053253293037415,199.81588745117188,0.10700000822544098,0.0,1
1667257291.02000999,104604640,0,3,169309000,2234,15,0.7000000000000001,42.689126699999996,-84.49156579999999,267.0,0.4175799489021301,195.7003936767578,0.11500000208616257,0.0,1
1667257291.21997499,104804605,0,3,169309200,2234,15,0.7000000000000001,42.6891259,-84.4915662,266.95,0.5896439552307129,196.95985412597656,0.04200000315904617,0.0,1
1667257291.40004206,104984672,0,3,169309400,2234,15,0.7000000000000001,42.689124799999995,-84.49156669999999,266.92,0.6513286828994751,196.96044921875,0.14800000190734863,0.0,1
1667257291.61994410,105204574,0,3,169309600,2234,15,0.7000000000000001,42.6891235,-84.4915673,266.92,0.7261191606521606,195.414306640625,0.036000002175569534,0.0,1
1667257291.81998706,105404617,0,3,169309800,2234,15,0.7000000000000001,42.6891222,-84.4915678,266.91,0.7885239720344543,194.61782836914062,0.036000002175569534,0.0,1
1667257292.01996088,105604591,0,3,169310000,2234,15,0.7000000000000001,42.6891207,-84.49156839999999,266.9,0.8200158476829529,194.1887664794922,0.03800000250339508,0.0,1
1667257292.21994805,105804578,0,3,169310200,2234,15,0.7000000000000001,42.6891192,-84.49156889999999,266.87,0.8714959025382996,193.3346405029297,0.01100000087171793,0.0,1
1667257292.42000294,106004633,0,3,169310400,2234,15,0.7000000000000001,42.689117599999996,-84.4915694,266.87,0.8551052808761597,186.85076904296875,0.03400000184774399,0.0,1
1667257292.61997008,106204600,0,3,169310600,2234,15,0.7000000000000001,42.6891161,-84.4915697,266.85,0.8187533617019653,188.8525848388672,0.06300000101327896,0.0,1
1667257292.80001593,106384646,0,3,169310800,2234,15,0.7000000000000001,42.689114599999996,-84.49157009999999,266.83,0.826900839805603,188.41429138183594,0.0950000062584877,0.0,1
1667257293.02000189,106604632,0,3,169311000,2234,15,0.7000000000000001,42.6891132,-84.49157029999999,266.8,0.7100063562393188,180.2421112060547,0.039000000804662704,0.0,1
1667257293.20002794,106784658,0,3,169311200,2234,15,0.7000000000000001,42.689112099999996,-84.4915702,266.78000000000003,0.5290605425834656,169.98573303222656,0.10300000756978989,0.0,1
1667257293.41999507,107004625,0,3,169311400,2234,15,0.7000000000000001,42.6891113,-84.4915699,266.76,0.3725050389766693,148.61416625976562,0.06100000441074371,0.0,1
1667257293.61995602,107204586,0,3,169311600,2234,15,0.7000000000000001,42.6891107,-84.4915694,266.74,0.35457301139831543,139.34613037109375,0.06700000166893005,0.0,1
1667257293.81997490,107404605,0,3,169311800,2234,15,0.7000000000000001,42.689110199999995,-84.49156889999999,266.71,0.34064939618110657,142.15452575683594,0.039000000804662704,0.0,1
1667257294.01998210,107604612,0,3,169312000,2234,15,0.7000000000000001,42.6891098,-84.49156839999999,266.69,0.3161012530326843,141.67987060546875,0.08100000023841858,0.0,1
1667257294.19999194,107784622,0,3,169312200,2234,15,0.7000000000000001,42.6891092,-84.4915681,266.66,0.3766497075557709,160.93966674804688,0.13199999928474426,0.0,1
1667257294.41996598,108004596,0,3,169312400,2234,15,0.7000000000000001,42.689108499999996,-84.49156789999999,266.63,0.3667506277561188,168.1998291015625,0.1469999998807907,0.0,1
1667257294.62000299,108204633,0,3,169312600,2234,15,0.7000000000000001,42.689107799999995,-84.4915678,266.6,0.43313974142074585,178.5447540283203,0.04000000283122063,0.0,1
1667257294.82000804,108404638,0,3,169312800,2234,15,0.7000000000000001,42.689107,-84.4915678,266.58,0.3990614116191864,178.99490356445312,0.0820000022649765,0.0,1
1667257295.01999402,108604624,0,3,169313000,2234,15,0.7000000000000001,42.6891062,-84.4915678,266.56,0.43641382455825806,177.50473022460938,0.09700000286102295,0.0,1
1667257295.21994901,108804579,0,3,169313200,2234,15,0.7000000000000001,42.689105399999995,-84.4915678,266.52,0.456070214509964,178.99490356445312,0.005000000353902578,0.0,1
1667257295.41998601,109004616,0,3,169313400,2234,15,0.7000000000000001,42.689104799999996,-84.49156769999999,266.51,0.2896791398525238,156.17808532714844,0.07700000703334808,0.0,1
1667257295.59999895,109184629,0,3,169313600,2234,15,0.7000000000000001,42.6891043,-84.4915674,266.49,0.2876178026199341,143.767578125,0.14500001072883606,0.0,1
1667257295.81995010,109404580,0,3,169313800,2234,15,0.7000000000000001,42.689104,-84.49156699999999,266.45,0.21380366384983063,107.41796112060547,0.1550000011920929,0.0,1
1667257296.02006888,109604699,0,3,169314000,2234,15,0.7000000000000001,42.689104,-84.49156649999999,266.41,0.2148418128490448,73.5051040649414,0.2800000011920929,0.0,1
1667257296.22002387,109804654,0,3,169314200,2234,15,0.7000000000000001,42.6891041,-84.4915661,266.35,0.18310926854610443,70.87239074707031,0.36500000953674316,0.0,1
1667257296.42000294,110004633,0,3,169314400,2234,15,0.7000000000000001,42.689104199999996,-84.4915657,266.28000000000003,0.22321514785289764,74.40718078613281,0.38200002908706665,0.0,1
1667257296.62003398,110204664,0,3,169314600,2234,15,0.7000000000000001,42.6891043,-84.4915655,266.18,0.11859595775604248,24.40397071838379,0.4310000240802765,0.0,1
1667257296.82002401,110404654,0,3,169314800,2234,15,0.7000000000000001,42.6891044,-84.4915652,266.11,0.18784035742282867,71.37213134765625,0.31800001859664917,0.0,1
1667257297.02002692,110604657,0,3,169315000,2234,15,0.7000000000000001,42.6891046,-84.491565,266.03000000000003,0.11737973242998123,45.0,0.367000013589859,0.0,1
1667257297.22002888,110804659,0,3,169315200,2234,15,0.7000000000000001,42.6891047,-84.49156479999999,265.96,0.14142844080924988,45.57293701171875,0.1860000044107437,0.0,1
1667257297.42002702,111004657,0,3,169315400,2234,15,0.7000000000000001,42.6891049,-84.49156459999999,265.93,0.1296340972185135,41.56012725830078,0.15600000321865082,0.0,1
1667257297.61999393,111204624,0,3,169315600,2234,15,0.7000000000000001,42.689105,-84.4915645,265.9,0.11520851403474808,36.17362976074219,0.13600000739097595,0.0,1
1667257297.82002211,111404652,0,3,169315800,2234,15,0.7000000000000001,42.6891051,-84.4915645,265.87,0.08827798068523407,355.45196533203125,0.09100000560283661,0.0,1
1667257298.00006604,111584696,0,3,169316000,2234,15,0.7000000000000001,42.6891053,-84.4915647,265.86,0.09964437037706375,328.5431823730469,0.021000001579523087,0.0,1
1667257298.22000504,111804635,0,3,169316200,2234,16,0.7000000000000001,42.689105399999995,-84.4915649,265.85,0.10893117636442184,316.48785400390625,0.039000000804662704,0.0,1
1667257298.40002990,111984660,0,3,169316400,2234,16,0.7000000000000001,42.6891055,-84.4915651,265.83,0.12397581338882446,289.3118591308594,-0.030000001192092896,0.0,1
1667257298.60007191,112184702,0,3,169316600,2234,16,0.66,42.6891056,-84.4915655,265.82,0.11583609879016876,297.2286682128906,0.01900000125169754,0.0,1
1667257298.81998205,112404612,0,3,169316800,2234,16,0.66,42.6891056,-84.49156579999999,265.81,0.11690167337656021,280.34869384765625,0.02800000086426735,0.0,1
1667257299.01997900,112604609,0,3,169317000,2234,16,0.66,42.6891057,-84.4915661,265.79,0.0984073206782341,307.568603515625,0.10300000756978989,0.0,1
1667257299.21998501,112804615,0,3,169317200,2234,16,0.66,42.6891058,-84.4915663,265.77,0.08273451775312424,314.51031494140625,0.12800000607967377,0.0,1
1667257299.41992998,113004560,0,3,169317400,2234,16,0.66,42.6891059,-84.4915664,265.73,0.08984431624412537,343.1785888671875,0.20600001513957977,0.0,1
1667257299.60002899,113184659,0,3,169317600,2234,16,0.66,42.6891061,-84.4915664,265.68,0.11515641957521439,23.002595901489258,0.1990000158548355,0.0,1
1667257299.82000494,113404635,0,3,169317800,2234,16,0.66,42.6891062,-84.4915663,265.63,0.13300377130508423,36.439109802246094,0.2770000100135803,0.0,1
1667257300.02001595,113604646,0,3,169318000,2234,16,0.66,42.6891064,-84.4915661,265.57,0.13325540721416473,58.81502151489258,0.26200002431869507,0.0,1
1667257300.22002292,113804653,0,3,169318200,2234,16,0.66,42.6891065,-84.49156579999999,265.51,0.20723900198936462,67.89054870605469,0.31300002336502075,0.0,1
1667257300.42002988,114004660,0,3,169318400,2234,16,0.66,42.689106599999995,-84.4915654,265.44,0.22600001096725464,82.37184143066406,0.36400002241134644,0.0,1
1667257300.62002206,114204652,0,3,169318600,2234,16,0.66,42.689106599999995,-84.4915649,265.38,0.2370232194662094,84.67425537109375,0.28300002217292786,0.0,1
1667257300.81999087,114404621,0,3,169318800,2234,16,0.66,42.689106599999995,-84.4915644,265.3,0.15877342224121094,67.79651641845703,0.4240000247955322,0.0,1
1667257300.99998593,114584616,0,3,169319000,2234,16,0.66,42.689106699999996,-84.4915642,265.22,0.10430724173784256,57.52880859375,0.3540000021457672,0.0,1
1667257301.22000289,114804633,0,3,169319200,2234,16,0.66,42.6891068,-84.4915642,265.14,0.10210779309272766,351.5524597167969,0.3190000057220459,0.0,1
1667257301.42001510,115004645,0,3,169319400,2234,16,0.66,42.689107,-84.4915643,265.07,0.16613851487636566,326.7881774902344,0.29600000381469727,0.0,1
1667257301.61998796,115204618,0,3,169319600,2234,16,0.66,42.689107199999995,-84.49156459999999,265.01,0.1491643488407135,320.4403381347656,0.2980000078678131,0.0,1
1667257301.82001710,115404647,0,3,169319800,2234,16,0.66,42.6891074,-84.49156479999999,264.95,0.09682974964380264,321.7098388671875,0.19700001180171967,0.0,1
1667257302.02001595,115604646,0,3,169320000,2234,16,0.66,42.6891075,-84.4915649,264.91,0.055542778223752975,23.33403968811035,0.12800000607967377,0.0,1
1667257302.22006607,115804696,0,3,169320200,2234,16,0.66,42.6891076,-84.4915647,264.86,0.11007270961999893,65.29756927490234,0.09200000762939453,0.0,1
1667257302.40000105,115984631,0,3,169320400,2234,16,0.66,42.6891077,-84.4915645,264.83,0.14263591170310974,77.03548431396484,0.20600001513957977,0.0,1
1667257302.61998105,116204611,0,3,169320600,2234,16,0.66,42.6891077,-84.49156409999999,264.77,0.2081730216741562,81.71420288085938,0.2540000081062317,0.0,1
1667257302.81999493,116404625,0,3,169320800,2234,16,0.66,42.689107799999995,-84.4915635,264.7,0.3353818655014038,87.26555633544922,0.3150000274181366,0.0,1
1667257303.01999688,116604627,0,3,169321000,2234,16,0.66,42.6891077,-84.4915627,264.63,0.29506102204322815,94.86038970947266,0.31300002336502075,0.0,1
1667257303.22001410,116804644,0,3,169321200,2234,16,0.66,42.6891077,-84.4915619,264.55,0.4030112028121948,90.42649841308594,0.29600000381469727,0.0,1
1667257303.42000103,117004631,0,3,169321400,2234,16,0.66,42.6891077,-84.4915609,264.47,0.394220769405365,85.48982238769531,0.2990000247955322,0.0,1
1667257303.62002897,117204659,0,3,169321600,2234,16,0.66,42.689107799999995,-84.4915601,264.42,0.34747663140296936,84.71599578857422,0.28600001335144043,0.0,1
1667257303.80002904,117384659,0,3,169321800,2234,16,0.66,42.689107899999996,-84.49155929999999,264.35,0.3469538986682892,79.37019348144531,0.23600001633167267,0.0,1
1667257304.01995111,117604581,0,3,169322000,2234,16,0.66,42.689107899999996,-84.49155859999999,264.31,0.2565326690673828,83.73379516601562,0.18400001525878906,0.0,1
1667257304.21999407,117804624,0,3,169322200,2234,16,0.66,42.6891081,-84.4915582,264.26,0.10026465356349945,38.92753982543945,0.11100000888109207,0.0,1
1667257304.41999388,118004624,0,3,169322400,2234,16,0.66,42.6891082,-84.4915582,264.23,0.07615773379802704,13.671307563781738,0.22200001776218414,0.0,1
1667257304.61999106,118204621,0,3,169322600,2234,16,0.66,42.6891083,-84.4915583,264.19,0.07561084628105164,339.8874206542969,0.28700000047683716,0.0,1
1667257304.82002211,118404652,0,3,169322800,2234,16,0.66,42.689108399999995,-84.4915584,264.13,0.0728628858923912,316.6683349609375,0.21900001168251038,0.0,1
1667257305.02001905,118604649,0,3,169323000,2234,16,0.66,42.689108499999996,-84.4915585,264.08,0.1240362897515297,352.5885009765625,0.1980000138282776,0.0,1
1667257305.22003698,118804667,0,3,169323200,2234,16,0.66,42.6891087,-84.49155859999999,264.02,0.09192388504743576,345.5102233886719,0.2639999985694885,0.0,1
1667257305.42008710,119004717,0,3,169323400,2234,16,0.66,42.6891089,-84.4915587,263.95,0.07531268149614334,349.286865234375,0.2980000078678131,0.0,1
1667257305.62000394,119204634,0,3,169323600,2234,16,0.66,42.689108999999995,-84.4915589,263.89,0.0768439993262291,325.0690612792969,0.398000031709671,0.0,1
1667257305.82001305,119404643,0,3,169323800,2234,16,0.66,42.689109099999996,-84.491559,263.81,0.0860232561826706,342.4075927734375,0.3490000069141388,0.0,1
1667257306.01997709,119604607,0,3,169324000,2234,16,0.66,42.6891092,-84.4915592,263.72,0.08363014459609985,296.2586669921875,0.33400002121925354,0.0,1
1667257306.22000003,119804630,0,3,169324200,2234,16,0.66,42.6891093,-84.4915594,263.66,0.09095603972673416,345.3526306152344,0.3750000298023224,0.0,1
1667257306.39998603,119984616,0,3,169324400,2234,16,0.66,42.6891095,-84.49155929999999,263.56,0.17269916832447052,22.109447479248047,0.3720000088214874,0.0,1
1667257306.61997294,120204603,0,3,169324600,2234,16,0.66,42.689109699999996,-84.4915594,263.48,0.08653901517391205,337.5838623046875,0.43700000643730164,0.0,1
1667257306.82004905,120404679,0,3,169324800,2234,16,0.66,42.6891099,-84.4915594,263.39,0.13656499981880188,13.120402336120605,0.4180000126361847,0.0,1
1667257307.02000308,120604633,0,3,169325000,2234,16,0.66,42.68911,-84.4915595,263.3,0.0851469337940216,347.10626220703125,0.47200003266334534,0.0,1
1667257307.21999192,120804622,0,3,169325200,2234,16,0.66,42.689110199999995,-84.4915596,263.21,0.11539497971534729,334.32318115234375,0.4220000207424164,0.0,1
1667257307.41999197,121004622,0,3,169325400,2234,16,0.66,42.689110299999996,-84.49155979999999,263.11,0.1131591871380806,334.3407287597656,0.5070000290870667,0.0,1
1667257307.61998391,121204614,0,3,169325600,2234,16,0.66,42.6891104,-84.49155999999999,263.02,0.07981228083372116,307.875,0.4230000078678131,0.0,1
1667257307.82001305,121404643,0,3,169325800,2234,16,0.66,42.6891105,-84.4915604,262.94,0.19734488427639008,276.69287109375,0.12200000882148743,0.0,1
1667257308.01997805,121604608,0,3,169326000,2234,16,0.66,42.6891105,-84.4915604,262.92,0.17626401782035828,110.59408569335938,0.01100000087171793,0.0,1
1667257308.21988702,121804517,0,3,169326200,2234,16,0.66,42.6891104,-84.4915603,262.9,0.036124784499406815,274.7636413574219,-0.04000000283122063,0.0,1
1667257308.41996503,122004595,0,3,169326400,2234,16,0.66,42.6891105,-84.4915604,262.89,0.03551056236028671,302.3474426269531,-0.010000000707805157,0.0,1
1667257308.62003088,122204661,0,3,169326600,2234,16,0.66,42.6891105,-84.4915604,262.87,0.04123105853796005,75.96375274658203,0.049000002443790436,0.0,1
1667257308.82012010,122404750,0,3,169326800,2234,16,0.66,42.6891105,-84.4915603,262.85,0.0259422454982996,117.55279541015625,0.0690000057220459,0.0,1
1667257309.02000403,122604634,0,3,169327000,2234,16,0.66,42.6891105,-84.4915604,262.83,0.035171013325452805,14.8264799118042,0.11700000613927841,0.0,1
1667257309.21999192,122804622,0,3,169327200,2234,16,0.66,42.6891106,-84.4915604,262.81,0.05232590064406395,45.0,0.125,0.0,1
1667257309.42000508,123004635,0,3,169327400,2234,16,0.66,42.6891106,-84.4915603,262.79,0.03818376734852791,45.0,0.14500001072883606,0.0,1
1667257309.62001896,123204649,0,3,169327600,2234,16,0.66,42.6891106,-84.4915604,262.77,0.022472206503152847,32.27564239501953,0.1120000034570694,0.0,1
1667257309.82000709,123404637,0,3,169327800,2234,16,0.66,42.6891106,-84.4915604,262.75,0.026248810812830925,40.364532470703125,0.12700000405311584,0.0,1
1667257310.02000499,123604635,0,3,169328000,2234,16,0.66,42.6891107,-84.4915604,262.73,0.049678973853588104,49.89908981323242,0.15900000929832458,0.0,1
1667257310.21999002,123804620,0,3,169328200,2234,16,0.66,42.6891107,-84.4915604,262.7,0.025495098903775215,64.44003295898438,0.08700000494718552,0.0,1
1667257310.42001104,124004641,0,3,169328400,2234,16,0.66,42.6891107,-84.4915604,262.68,0.022360680624842644,79.69514465332031,0.07900000363588333,0.0,1
1667257310.62000108,124204631,0,3,169328600,2234,16,0.66,42.6891107,-84.4915604,262.66,0.02500000037252903,16.26020622253418,0.08300000429153442,0.0,1
1667257310.82002306,124404653,0,3,169328800,2234,16,0.66,42.689110799999995,-84.4915604,262.63,0.009899495169520378,225.0,0.058000002056360245,0.0,1
1667257311.02002192,124604652,0,3,169329000,2234,16,0.66,42.689110799999995,-84.49156049999999,262.62,0.02408318966627121,318.366455078125,0.046000003814697266,0.0,1
1667257311.21999192,124804622,0,3,169329200,2234,16,0.66,42.689110799999995,-84.4915606,262.61,0.033600594848394394,323.47113037109375,0.032999999821186066,0.0,1
1667257311.41999197,125004622,0,3,169329400,2234,16,0.66,42.689110899999996,-84.4915606,262.59000000000003,0.04666904732584953,45.0,0.07600000500679016,0.0,1
1667257311.62005997,125204690,0,3,169329600,2234,16,0.66,42.689110899999996,-84.4915606,262.57,0.03894868493080139,119.19747924804688,0.021000001579523087,0.0,1
1667257311.79999709,125384627,0,3,169329800,2234,16,0.66,42.689110899999996,-84.49156049999999,262.54,0.024596748873591423,63.4349479675293,0.004000000189989805,0.0,1
1667257312.01998591,125604616,0,3,169330000,2234,16,0.66,42.689111,-84.49156049999999,262.53000000000003,0.014866068959236145,70.3461685180664,0.11800000816583633,0.0,1
1667257312.22001696,125804647,0,3,169330200,2234,16,0.66,42.689111,-84.49156049999999,262.51,0.02088061347603798,286.6992492675781,0.06100000441074371,0.0,1
1667257312.42001104,126004641,0,3,169330400,2234,16,0.66,42.689111,-84.4915606,262.48,0.007000000216066837,180.0,0.013000000268220901,0.0,1
1667257312.62000990,126204640,0,3,169330600,2234,16,0.66,42.689111,-84.4915606,262.46,0.010000000707805157,126.8698959350586,0.055000003427267075,0.0,1
1667257312.82004094,126404671,0,3,169330800,2234,16,0.66,42.689111,-84.4915606,262.45,0.014142136089503765,81.8698959350586,0.1080000028014183,0.0,1
1667257313.01992893,126604559,0,3,169331000,2234,16,0.66,42.689111,-84.4915606,262.42,0.012806248851120472,321.3402099609375,0.12000000476837158,0.0,1
1667257313.20001793,126784648,0,3,169331200,2234,16,0.66,42.689111,-84.4915607,262.4,0.012806248851120472,141.34017944335938,0.024000000208616257,0.0,1
1667257313.41996789,127004598,0,3,169331400,2234,16,0.66,42.689111,-84.4915607,262.39,0.015132746659219265,97.59463500976562,0.09300000220537186,0.0,1
1667257313.61998796,127204618,0,3,169331600,2234,16,0.66,42.689111,-84.4915607,262.36,0.015556350350379944,135.0,0.01900000125169754,0.0,1
1667257313.81998301,127404613,0,3,169331800,2234,16,0.66,42.689111,-84.4915607,262.35,0.02282542549073696,28.810791015625,0.029000001028180122,0.0,1
1667257314.02003288,127604663,0,3,169332000,2234,16,0.66,42.6891111,-84.4915607,262.34000000000003,0.005099019967019558,258.6900634765625,0.004000000189989805,0.0,1
1667257314.22002387,127804654,0,3,169332200,2234,16,0.66,42.689111,-84.4915607,262.34000000000003,0.028160257264971733,73.4956283569336,0.13900001347064972,0.0,1
1667257314.42001104,128004641,0,3,169332400,2234,16,0.66,42.6891111,-84.4915607,262.31,0.0022360680159181356,26.56505012512207,0.049000002443790436,0.0,1
1667257314.60000896,128184639,0,3,169332600,2234,16,0.66,42.6891111,-84.4915607,262.3,0.059439048171043396,77.36663818359375,0.11900000274181366,0.0,1
1667257314.82001495,128404645,0,3,169332800,2234,16,0.66,42.6891111,-84.4915607,262.28000000000003,0.0292061660438776,51.95295333862305,0.07800000160932541,0.0,1
1667257315.01997590,128604606,0,3,169333000,2234,16,0.66,42.6891111,-84.4915607,262.25,0.02941088378429413,287.81890869140625,0.01600000075995922,0.0,1
1667257315.21999598,128804626,0,3,169333200,2234,16,0.66,42.6891112,-84.4915608,262.24,0.031048350036144257,345.0685729980469,0.10100000351667404,0.0,1
1667257315.41998410,129004614,0,3,169333400,2234,16,0.66,42.6891112,-84.4915608,262.22,0.018439089879393578,102.52880096435547,0.0820000022649765,0.0,1
1667257315.61999702,129204627,0,3,169333600,2234,16,0.66,42.6891112,-84.4915608,262.2,0.04393176734447479,11.821488380432129,0.03500000014901161,0.0,1
1667257315.82005405,129404684,0,3,169333800,2234,16,0.66,42.6891113,-84.4915608,262.19,0.020024985074996948,87.13758850097656,0.052000001072883606,0.0,1
1667257316.00002599,129584656,0,3,169334000,2234,16,0.66,42.6891113,-84.4915608,262.18,0.0470956489443779,93.65221405029297,0.029000001028180122,0.0,1
1667257316.22006607,129804696,0,3,169334200,2234,16,0.66,42.6891112,-84.4915607,262.18,0.04560701921582222,127.87498474121094,0.003000000026077032,0.0,1
1667257316.42001104,130004641,0,3,169334400,2234,16,0.66,42.6891112,-84.4915607,262.17,0.04346263036131859,66.9745101928711,0.05400000140070915,0.0,1
1667257316.62000489,130204635,0,3,169334600,2234,16,0.66,42.6891112,-84.4915608,262.17,0.0036055513191968203,146.30992126464844,0.06599999964237213,0.0,1
1667257316.81997895,130404609,0,3,169334800,2234,16,0.66,42.6891112,-84.4915607,262.15,0.05124451592564583,107.02051544189453,-0.003000000026077032,0.0,1
1667257317.02000904,130604639,0,3,169335000,2234,16,0.66,42.6891112,-84.4915607,262.14,0.009219544939696789,12.528807640075684,-0.014000000432133675,0.0,1
1667257317.21995497,130804585,0,3,169335200,2234,16,0.66,42.6891112,-84.4915608,262.12,0.022671569138765335,318.5763244628906,0.06800000369548798,0.0,1
1667257317.42000699,131004637,0,3,169335400,2234,16,0.66,42.6891113,-84.4915609,262.09000000000003,0.06264184415340424,253.30076599121094,0.0860000029206276,0.0,1
1667257317.62001300,131204643,0,3,169335600,2234,16,0.66,42.6891113,-84.49156099999999,262.08,0.05882176756858826,17.81888771057129,0.06800000369548798,0.0,1
1667257317.82007003,131404700,0,3,169335800,2234,16,0.66,42.6891113,-84.4915611,262.06,0.05300000309944153,148.1092071533203,0.0560000017285347,0.0,1
1667257318.04040408,131625034,0,3,169336000,2234,16,0.66,42.6891112,-84.4915611,262.06,0.011180340312421322,333.4349365234375,0.0650000050663948,0.0,1
1667257318.22001195,131804642,0,3,169336200,2234,16,0.66,42.6891113,-84.4915611,262.03000000000003,0.07655716687440872,23.886499404907227,0.03700000047683716,0.0,1
1667257318.41999102,132004621,0,3,169336400,2234,16,0.66,42.6891113,-84.4915611,262.0,0.05688585340976715,190.1246795654297,0.017000000923871994,0.0,1
1667257318.61999202,132204622,0,3,169336600,2234,16,0.66,42.6891113,-84.49156119999999,262.0,0.05682429298758507,28.36904525756836,0.08700000494718552,0.0,1
1667257318.81999207,132404622,0,3,169336800,2234,16,0.66,42.6891113,-84.49156119999999,261.96,0.049000002443790436,180.0,-0.0010000000474974513,0.0,1
1667257319.01998997,132604620,0,3,169337000,2234,16,0.66,42.6891112,-84.49156119999999,261.96,0.018681542947888374,74.47588348388672,0.06800000369548798,0.0,1
1667257319.22002602,132804656,0,3,169337200,2234,16,0.66,42.6891113,-84.4915613,261.95,0.06378871947526932,13.600542068481445,0.08800000697374344,0.0,1
1667257319.42006397,133004694,0,3,169337400,2234,16,0.66,42.6891114,-84.4915613,261.94,0.07452517002820969,11.61148452758789,0.0690000057220459,0.0,1
1667257319.62002587,133204656,0,3,169337600,2234,16,0.66,42.6891114,-84.4915613,261.91,0.03939543291926384,113.96247863769531,0.10300000756978989,0.0,1
1667257319.82001495,133404645,0,3,169337800,2234,16,0.66,42.6891113,-84.4915613,261.91,0.058008622378110886,90.98775482177734,0.12200000882148743,0.0,1
1667257319.99999404,133584624,0,3,169338000,2234,16,0.66,42.6891113,-84.4915614,261.89,0.01702938787639141,3.3664605617523193,0.1210000067949295,0.0,1
1667257320.21998405,133804614,0,3,169338200,2234,16,0.66,42.6891114,-84.4915615,261.89,0.12376187741756439,347.8729248046875,0.15300001204013824,0.0,1
1667257320.41999888,134004629,0,3,169338400,2234,16,0.66,42.6891114,-84.4915618,261.87,0.10742440074682236,245.82089233398438,0.05100000277161598,0.0,1
1667257320.62001395,134204644,0,3,169338600,2234,16,0.66,42.6891113,-84.4915618,261.85,0.11627553403377533,116.5650405883789,0.09100000560283661,0.0,1
1667257320.81996489,134404595,0,3,169338800,2234,16,0.66,42.6891114,-84.49156169999999,261.84000000000003,0.14689452946186066,21.149526596069336,0.16100001335144043,0.0,1
1667257321.01998591,134604616,0,3,169339000,2234,16,0.66,42.6891116,-84.49156169999999,261.8,0.077006496489048,322.38604736328125,0.058000002056360245,0.0,1
1667257321.22003388,134804664,0,3,169339200,2234,16,0.66,42.6891116,-84.49156169999999,261.78000000000003,0.01345362514257431,41.98720932006836,0.1290000081062317,0.0,1
1667257321.42002892,135004659,0,3,169339400,2234,16,0.66,42.6891117,-84.49156169999999,261.76,0.04360045865178108,36.60707473754883,0.021000001579523087,0.0,1
1667257321.62001896,135204649,0,3,169339600,2234,16,0.66,42.6891118,-84.49156169999999,261.75,0.10983624309301376,10.491476058959961,0.18900001049041748,0.0,1
1667257321.82002497,135404655,0,3,169339800,2234,16,0.66,42.6891119,-84.4915618,261.73,0.027802878990769386,217.69424438476562,0.11800000816583633,0.0,1
1667257322.02000308,135604633,0,3,169340000,2234,16,0.66,42.6891118,-84.4915619,261.73,0.05622277408838272,51.49934387207031,0.07000000029802322,0.0,1
1667257322.22001100,135804641,0,3,169340200,2234,16,0.66,42.6891118,-84.4915618,261.72,0.047201696783304214,143.6156463623047,0.0020000000949949026,0.0,1
1667257322.42002392,136004654,0,3,169340400,2234,16,0.66,42.6891118,-84.49156169999999,261.73,0.12918978929519653,86.89396667480469,-0.02500000037252903,0.0,1
1667257322.61999893,136204629,0,3,169340600,2234,16,0.66,42.6891117,-84.4915616,261.74,0.017464250326156616,166.7594757080078,0.05900000408291817,0.0,1
1667257322.80003190,136384662,0,3,169340800,2234,16,0.66,42.6891117,-84.4915616,261.74,0.06307139247655869,64.65382385253906,0.11400000751018524,0.0,1
1667257323.02001190,136604642,0,3,169341000,2234,16,0.66,42.6891117,-84.4915615,261.72,0.025019992142915726,87.70938110351562,0.020000001415610313,0.0,1
1667257323.22001195,136804642,0,3,169341200,2234,16,0.66,42.6891117,-84.4915616,261.73,0.023345237597823143,170.13418579101562,0.052000001072883606,0.0,1
1667257323.42001200,137004642,0,3,169341400,2234,16,0.66,42.6891116,-84.4915616,261.71,0.02831960655748844,132.13760375976562,0.06200000271201134,0.0,1
1667257323.62004399,137204674,0,3,169341600,2234,16,0.66,42.6891116,-84.4915616,261.7,0.014212671667337418,129.28941345214844,-0.0010000000474974513,0.0,1
1667257323.81994295,137404573,0,3,169341800,2234,16,0.66,42.6891117,-84.4915616,261.69,0.03710795193910599,345.9637451171875,0.058000002056360245,0.0,1
1667257324.02002192,137604652,0,3,169342000,2234,16,0.66,42.6891117,-84.4915616,261.67,0.04365776106715202,69.9047622680664,0.09400000423192978,0.0,1
1667257324.21998501,137804615,0,3,169342200,2234,16,0.66,42.6891117,-84.4915615,261.68,0.15088075399398804,109.75598907470703,0.0650000050663948,0.0,1
1667257354.01996303,167604593,0,3,169372000,2234,16,0.66,42.689113899999995,-84.4915564,260.38,0.013152946718037128,81.25382995605469,0.07900000363588333,0.0,1
1667257354.22000289,167804633,0,3,169372200,2234,16,0.66,42.689113899999995,-84.4915564,260.37,0.040718547999858856,24.676862716674805,0.07400000095367432,0.0,1
1667257354.41999507,168004625,0,3,169372400,2234,16,0.66,42.689113899999995,-84.4915564,260.34000000000003,0.013152946718037128,81.25382995605469,0.03700000047683716,0.0,1
1667257354.61991906,168204549,0,3,169372600,2234,16,0.66,42.689113899999995,-84.4915564,260.33,0.034885529428720474,27.299570083618164,0.049000002443790436,0.0,1
1667257354.81997204,168404602,0,3,169372800,2234,16,0.66,42.689114,-84.4915564,260.32,0.036878179758787155,77.47118377685547,0.032999999821186066,0.0,1
1667257355.01993990,168604570,0,3,169373000,2234,16,0.66,42.689114,-84.4915564,260.31,0.00806225836277008,29.74488067626953,0.09400000423192978,0.0,1
1667257355.21991396,168804544,0,3,169373200,2234,16,0.66,42.689113899999995,-84.4915565,260.29,0.030000001192092896,216.86990356445312,0.04000000283122063,0.0,1
1667257355.41999388,169004624,0,3,169373400,2234,16,0.66,42.689113899999995,-84.4915566,260.28000000000003,0.021587034687399864,346.6075134277344,0.05700000375509262,0.0,1
1667257355.61995792,169204588,0,3,169373600,2234,16,0.66,42.689113899999995,-84.4915566,260.27,0.025806978344917297,54.46232223510742,-0.006000000052154064,0.0,1
1667257355.82000494,169404635,0,3,169373800,2234,16,0.66,42.689113899999995,-84.4915566,260.27,0.025079872459173203,4.573921203613281,0.03400000184774399,0.0,1
1667257356.02000403,169604634,0,3,169374000,2234,16,0.66,42.689113899999995,-84.4915566,260.26,0.02140093594789505,142.5946502685547,0.0010000000474974513,0.0,1
1667257356.22000408,169804634,0,3,169374200,2234,16,0.66,42.689113899999995,-84.49155669999999,260.25,0.008602325804531574,35.53767776489258,0.029000001028180122,0.0,1
1667257356.41997099,170004601,0,3,169374400,2234,16,0.66,42.689113899999995,-84.49155669999999,260.24,0.030870698392391205,65.09523010253906,0.030000001192092896,0.0,1
1667257356.61991906,170204549,0,3,169374600,2234,16,0.66,42.689113899999995,-84.49155669999999,260.23,0.012206556275486946,325.00799560546875,0.09300000220537186,0.0,1
1667257356.81996489,170404595,0,3,169374800,2234,16,0.66,42.6891138,-84.49155669999999,260.23,0.036124784499406815,131.63352966308594,0.003000000026077032,0.0,1
1667257357.01999998,170604630,0,3,169375000,2234,16,0.66,42.6891138,-84.4915568,260.22,0.04400000348687172,270.0,0.012000000104308128,0.0,1
1667257357.22005391,170804684,0,3,169375200,2234,16,0.66,42.6891137,-84.49155689999999,260.22,0.03324154019355774,133.78111267089844,0.03100000135600567,0.0,1
1667257357.41999888,171004629,0,3,169375400,2234,16,0.66,42.6891137,-84.49155689999999,260.2,0.027018513530492783,308.9909973144531,0.015000000596046448,0.0,1
1667257357.62000299,171204633,0,3,169375600,2234,16,0.66,42.6891137,-84.49155689999999,260.19,0.03101612627506256,20.772254943847656,0.024000000208616257,0.0,1
1667257357.82001591,171404646,0,3,169375800,2234,16,0.66,42.6891138,-84.491557,260.19,0.01900000125169754,0.0,0.032999999821186066,0.0,1
1667257358.01999187,171604622,0,3,169376000,2234,16,0.66,42.6891137,-84.491557,260.18,0.021954499185085297,149.93141174316406,0.0,0.0,1
1667257358.21988487,171804515,0,3,169376200,2234,16,0.66,42.6891137,-84.491557,260.16,0.017804494127631187,51.842769622802734,0.00800000037997961,0.0,1
1667257358.42004800,172004678,0,3,169376400,2234,16,0.66,42.6891137,-84.4915571,260.15,0.04356604442000389,238.134033203125,0.009000000543892384,0.0,1
1667257358.61996293,172204593,0,3,169376600,2234,16,0.66,42.6891137,-84.4915571,260.14,0.02607681043446064,184.39871215820312,0.032999999821186066,0.0,1
1667257358.81994700,172404577,0,3,169376800,2234,16,0.66,42.6891137,-84.4915572,260.12,0.010049876756966114,185.71060180664062,-0.10700000822544098,0.0,1
1667257359.01999688,172604627,0,3,169377000,2234,16,0.66,42.6891136,-84.4915572,260.13,0.03324154019355774,21.161258697509766,0.05400000140070915,0.0,1
1667257359.22002387,172804654,0,3,169377200,2234,16,0.66,42.6891137,-84.4915572,260.13,0.05215362086892128,4.398705005645752,0.03500000014901161,0.0,1
1667257359.41996193,173004592,0,3,169377400,2234,16,0.66,42.6891137,-84.4915573,260.12,0.03138471022248268,300.6506652832031,0.005000000353902578,0.0,1
1667257359.62000895,173204639,0,3,169377600,2234,16,0.66,42.6891137,-84.49155739999999,260.11,0.023345235735177994,226.73570251464844,0.05100000277161598,0.0,1
1667257359.82003093,173404661,0,3,169377800,2234,16,0.66,42.6891137,-84.4915575,260.12,0.0450998917222023,266.1859130859375,-0.039000000804662704,0.0,1
1667257360.02001095,173604641,0,3,169378000,2234,16,0.66,42.6891136,-84.4915577,260.14,0.08089499920606613,261.46923828125,-0.2160000056028366,0.0,1
1667257360.21995902,173804589,0,3,169378200,2234,16,0.66,42.6891136,-84.49155789999999,260.2,0.09259049594402313,242.3279266357422,-0.36400002241134644,0.0,1
1667257360.41998601,174004616,0,3,169378400,2234,16,0.66,42.6891135,-84.49155809999999,260.3,0.03036445379257202,342.758544921875,-0.4320000112056732,0.0,1
1667257360.61995101,174204581,0,3,169378600,2234,16,0.66,42.6891134,-84.4915584,260.4,0.2733861804008484,239.6832275390625,-0.5670000314712524,0.0,1
1667257360.81998801,174404618,0,3,169378800,2234,16,0.66,42.689113299999995,-84.49155879999999,260.53000000000003,0.04295346513390541,12.094756126403809,-0.5470000505447388,0.0,1
1667257361.02003407,174604664,0,3,169379000,2234,16,0.66,42.689113299999995,-84.49155879999999,260.65,0.03401470556855202,271.6846923828125,-0.4930000305175781,0.0,1
1667257361.22001696,174804647,0,3,169379200,2234,16,0.66,42.6891132,-84.49155879999999,260.72,0.11986659467220306,154.29002380371094,-0.3150000274181366,0.0,1
1667257361.42005205,175004682,0,3,169379400,2234,16,0.66,42.689113,-84.4915587,260.77,0.07211102545261383,123.6900634765625,-0.10200000554323196,0.0,1
1667257361.61999106,175204621,0,3,169379600,2234,16,0.66,42.6891129,-84.4915587,260.79,0.05491812527179718,146.88864135742188,-0.09000000357627869,0.0,1
1667257361.81994104,175404571,0,3,169379800,2234,16,0.66,42.6891128,-84.4915587,260.82,0.04011234641075134,184.28915405273438,-0.2150000035762787,0.0,1
1667257362.04026103,175624891,0,3,169380000,2234,16,0.66,42.689112699999995,-84.4915587,260.88,0.09849365800619125,195.30613708496094,-0.29500001668930054,0.0,1
1667257362.21998096,175804611,0,3,169380200,2234,16,0.66,42.6891125,-84.49155879999999,260.94,0.08702298998832703,181.31692504882812,-0.42600002884864807,0.0,1
1667257362.41993690,176004567,0,3,169380400,2234,16,0.66,42.6891124,-84.49155879999999,261.03000000000003,0.03551056236028671,147.6525421142578,-0.39900001883506775,0.0,1
1667257362.62001801,176204648,0,3,169380600,2234,16,0.66,42.6891124,-84.49155879999999,261.11,0.037215590476989746,353.829833984375,-0.4090000092983246,0.0,1
1667257362.81996107,176404591,0,3,169380800,2234,16,0.66,42.6891124,-84.4915589,261.22,0.051478154957294464,24.075496673583984,-0.5610000491142273,0.0,1
1667257363.04038787,176625018,0,3,169381000,2234,16,0.66,42.6891126,-84.4915589,261.31,0.14814183115959167,335.68408203125,-0.5020000338554382,0.0,1
1667257363.22001410,176804644,0,3,169381200,2234,16,0.66,42.6891128,-84.49155909999999,261.41,0.13245753943920135,355.2363586425781,-0.48000001907348633,0.0,1
1667257363.42002797,177004658,0,3,169381400,2234,16,0.66,42.689113,-84.4915592,261.51,0.09908077865839005,357.686279296875,-0.46800002455711365,0.0,1
1667257363.61997509,177204605,0,3,169381600,2234,16,0.66,42.6891132,-84.4915592,261.58,0.1295222043991089,346.6075134277344,-0.2900000214576721,0.0,1
1667257363.81998897,177404619,0,3,169381800,2234,16,0.66,42.6891134,-84.4915594,261.64,0.08614522963762283,350.64703369140625,-0.2670000195503235,0.0,1
1667257364.01993799,177604568,0,3,169382000,2234,16,0.66,42.6891135,-84.4915594,261.69,0.08702298998832703,358.6830749511719,-0.11900000274181366,0.0,1
1667257364.22004008,177804670,0,3,169382200,2234,16,0.66,42.6891137,-84.4915595,261.7,0.10600472241640091,0.5405101776123047,-0.0950000062584877,0.0,1
1667257364.41997790,178004608,0,3,169382400,2234,16,0.66,42.689113899999995,-84.4915595,261.72,0.11207141727209091,34.824485778808594,-0.05700000375509262,0.0,1
1667257364.62006402,178204694,0,3,169382600,2234,16,0.66,42.689114,-84.49155929999999,261.73,0.13980701565742493,52.55634307861328,-0.03700000047683716,0.0,1
1667257364.82001591,178404646,0,3,169382800,2234,16,0.66,42.6891142,-84.491559,261.74,0.1461232304573059,59.57421112060547,0.009000000543892384,0.0,1
1667257365.02008605,178604716,0,3,169383000,2234,16,0.66,42.6891143,-84.49155879999999,261.73,0.12254387140274048,62.80764389038086,0.07800000160932541,0.0,1
1667257365.22000694,178804637,0,3,169383200,2234,16,0.66,42.6891143,-84.4915585,261.73,0.13787676393985748,71.82787322998047,0.055000003427267075,0.0,1
1667257365.41998506,179004615,0,3,169383400,2234,16,0.66,42.6891144,-84.4915583,261.73,0.09610411524772644,77.98851776123047,0.05300000309944153,0.0,1
1667257365.61998701,179204617,0,3,169383600,2234,16,0.66,42.6891144,-84.4915582,261.72,0.10463747382164001,51.596736907958984,0.07400000095367432,0.0,1
1667257365.81998801,179404618,0,3,169383800,2234,16,0.66,42.689114499999995,-84.49155809999999,261.7,0.0774209275841713,35.53767776489258,0.11300000548362732,0.0,1
1667257366.01991701,179604547,0,3,169384000,2234,16,0.66,42.689114599999996,-84.4915582,261.69,0.08542833477258682,308.3455810546875,0.10400000214576721,0.0,1
1667257366.22008109,179804711,0,3,169384200,2234,16,0.66,42.6891147,-84.4915585,261.68,0.1869679093360901,275.83258056640625,0.0010000000474974513,0.0,1
1667257366.42000008,180004630,0,3,169384400,2234,16,0.66,42.6891147,-84.4915592,261.67,0.2740456461906433,271.0454406738281,0.03500000014901161,0.0,1
1667257366.62000704,180204637,0,3,169384600,2234,16,0.66,42.689114599999996,-84.4915599,261.66,0.35880497097969055,257.2806701660156,0.15000000596046448,0.0,1
1667257366.82000399,180404634,0,3,169384800,2234,16,0.66,42.6891143,-84.4915608,261.64,0.376324325799942,240.02850341796875,0.16300000250339508,0.0,1
1667257367.02000809,180604638,0,3,169385000,2234,16,0.66,42.689113899999995,-84.4915618,261.63,0.4306332767009735,238.96780395507812,0.11100000888109207,0.0,1
1667257367.21999288,180804623,0,3,169385200,2234,16,0.66,42.6891134,-84.4915626,261.61,0.4975188672542572,222.63778686523438,-0.0430000014603138,0.0,1
1667257367.42002988,181004660,0,3,169385400,2234,16,0.66,42.689112699999995,-84.4915635,261.63,0.5189730525016785,218.34947204589844,0.03200000151991844,0.0,1
1667257367.61999798,181204628,0,3,169385600,2234,16,0.66,42.6891119,-84.4915643,261.62,0.5769376158714294,215.61849975585938,0.08300000429153442,0.0,1
1667257367.82006288,181404693,0,3,169385800,2234,16,0.66,42.689110799999995,-84.4915652,261.61,0.790246844291687,209.32220458984375,-0.02200000174343586,0.0,1
1667257368.04032707,181624957,0,3,169386000,2234,16,0.66,42.689109599999995,-84.4915663,261.61,0.808555543422699,212.88424682617188,0.027000000700354576,0.0,1
1667257368.22000003,181804630,0,3,169386200,2234,16,0.66,42.6891083,-84.4915673,261.62,0.8524810671806335,205.72341918945312,-0.0430000014603138,0.0,1
1667257368.42003608,182004666,0,3,169386400,2234,16,0.66,42.689107,-84.4915682,261.61,0.7878705859184265,211.18826293945312,0.010000000707805157,0.0,1
1667257368.61999607,182204626,0,3,169386600,2234,16,0.66,42.6891057,-84.49156909999999,261.61,0.8136153817176819,207.60438537597656,0.01100000087171793,0.0,1
1667257368.82000494,182404635,0,3,169386800,2234,16,0.66,42.6891045,-84.49157009999999,261.59000000000003,0.7969674468040466,211.29666137695312,-0.04500000178813934,0.0,1
1667257369.01997495,182604605,0,3,169387000,2234,16,0.66,42.6891033,-84.4915709,261.61,0.6856311559677124,197.74786376953125,0.01900000125169754,0.0,1
1667257369.21997190,182804602,0,3,169387200,2234,16,0.66,42.6891021,-84.49157129999999,261.6,0.6651173233985901,192.23916625976562,0.07800000160932541,0.0,1
1667257369.42002988,183004660,0,3,169387400,2234,16,0.66,42.6891009,-84.4915714,261.59000000000003,0.6651150584220886,175.42950439453125,0.055000003427267075,0.0,1
1667257369.61995506,183204585,0,3,169387600,2234,16,0.66,42.6890997,-84.49157129999999,261.58,0.7084758281707764,169.67344665527344,0.15800000727176666,0.0,1
1667257369.82000089,183404631,0,3,169387800,2234,16,0.66,42.6890985,-84.49157079999999,261.55,0.7250745296478271,159.24046325683594,0.26500001549720764,0.0,1
1667257370.01999998,183604630,0,3,169388000,2234,16,0.66,42.6890972,-84.49157029999999,261.51,0.7361956834793091,161.9588165283203,0.27400001883506775,0.0,1
1667257370.22000599,183804636,0,3,169388200,2234,16,0.66,42.689096,-84.4915698,261.48,0.6798309087753296,158.15162658691406,0.20400001108646393,0.0,1
1667257370.42000794,184004638,0,3,169388400,2234,16,0.66,42.6890948,-84.4915692,261.46,0.6557469367980957,156.64077758789062,0.22100001573562622,0.0,1
1667257370.62000108,184204631,0,3,169388600,2234,16,0.66,42.689093899999996,-84.4915686,261.42,0.4963970482349396,148.00685119628906,0.13500000536441803,0.0,1
1667257370.82003689,184404667,0,3,169388800,2234,16,0.66,42.689093199999995,-84.491568,261.41,0.42944616079330444,149.49386596679688,0.05700000375509262,0.0,1
1667257371.01999092,184604621,0,3,169389000,2234,16,0.66,42.689092599999995,-84.4915675,261.4,0.3712317645549774,134.89085388183594,0.08100000023841858,0.0,1
1667257371.21998096,184804611,0,3,169389200,2234,16,0.66,42.689092099999996,-84.49156699999999,261.4,0.32388269901275635,135.75054931640625,0.05900000408291817,0.0,1
1667257371.41997695,185004607,0,3,169389400,2234,16,0.66,42.6890917,-84.49156649999999,261.38,0.27638378739356995,138.81407165527344,0.046000003814697266,0.0,1
1667257371.62001109,185204641,0,3,169389600,2234,16,0.66,42.6890913,-84.4915661,261.37,0.20669302344322205,125.15097045898438,0.1850000023841858,0.0,1
