timestamp,TimeUS,Lat,Lng,Alt,RelHomeAlt,RelOriginAlt
1667257267.52041507,81105045,42.6891415,-84.4915451,268.30999755859375,0.004552345722913742,-0.935447633266449
1667257267.56024408,81144874,42.6891415,-84.4915451,268.30999755859375,0.006896238774061203,-0.9331037402153015
1667257267.58055091,81165181,42.6891415,-84.4915451,268.30999755859375,0.008117716759443283,-0.9318822622299194
1667257267.60036206,81184992,42.6891415,-84.4915451,268.30999755859375,0.009055178612470627,-0.9309448003768921
1667257267.64066410,81225294,42.6891415,-84.491545,268.32000732421875,0.010563712567090988,-0.9294362664222717
1667257267.68079901,81265429,42.6891415,-84.491545,268.32000732421875,0.011511605232954025,-0.9284883737564087
1667257267.68091702,81265547,42.6891415,-84.491545,268.32000732421875,0.011511605232954025,-0.9284883737564087
1667257267.72025609,81304886,42.6891415,-84.491545,268.32000732421875,0.012538950890302658,-0.9274610280990601
1667257267.76027608,81344906,42.6891415,-84.491545,268.32000732421875,0.01369444653391838,-0.9263055324554443
1667257267.78082490,81365455,42.6891415,-84.491545,268.32000732421875,0.01420019194483757,-0.9257997870445251
1667257267.80036092,81384991,42.6891415,-84.491545,268.32000732421875,0.014811914414167404,-0.9251880645751953
1667257267.84069610,81425326,42.6891415,-84.491545,268.32000732421875,0.015179973095655441,-0.9248200058937073
1667257267.88092303,81465553,42.6891416,-84.491545,268.32000732421875,0.015872281044721603,-0.9241276979446411
1667257267.88104010,81465670,42.6891416,-84.491545,268.32000732421875,0.015872281044721603,-0.9241276979446411
1667257267.92032290,81504953,42.6891416,-84.491545,268.32000732421875,0.016670208424329758,-0.923329770565033
1667257267.96027708,81544907,42.6891416,-84.491545,268.32000732421875,0.017637949436903,-0.9223620295524597
1667257267.98089600,81565526,42.6891416,-84.491545,268.32000732421875,0.01804284378886223,-0.9219571352005005
1667257268.00047088,81585101,42.6891416,-84.491545,268.32000732421875,0.01858566328883171,-0.921414315700531
1667257268.04065108,81625281,42.6891416,-84.491545,268.32000732421875,0.017730694264173508,-0.9222692847251892
1667257268.08083892,81665469,42.6891416,-84.491545,268.32000732421875,0.01760266348719597,-0.9223973155021667
1667257268.08095503,81665585,42.6891416,-84.491545,268.32000732421875,0.01760266348719597,-0.9223973155021667
1667257268.12035990,81704990,42.6891416,-84.491545,268.32000732421875,0.017643790692090988,-0.9223561882972717
1667257268.16033006,81744960,42.6891416,-84.4915449,268.32000732421875,0.017926376312971115,-0.9220736026763916
1667257268.18089604,81765526,42.6891416,-84.4915449,268.32000732421875,0.017967265099287033,-0.9220327138900757
1667257268.20037889,81785009,42.6891416,-84.4915449,268.32000732421875,0.018286388367414474,-0.9217135906219482
1667257268.24056697,81825197,42.6891416,-84.4915449,268.32000732421875,0.01801035925745964,-0.9219896197319031
1667257268.28079796,81865428,42.6891416,-84.4915449,268.32000732421875,0.017857056111097336,-0.9221429228782654
1667257268.28094792,81865578,42.6891416,-84.4915449,268.32000732421875,0.017857056111097336,-0.9221429228782654
1667257268.32037997,81905010,42.6891416,-84.4915449,268.32000732421875,0.017771761864423752,-0.922228217124939
1667257268.36026692,81944897,42.6891417,-84.4915449,268.32000732421875,0.017759662121534348,-0.9222403168678284
1667257268.38084698,81965477,42.6891417,-84.4915449,268.32000732421875,0.01761738583445549,-0.9223825931549072
1667257268.40028501,81984915,42.6891417,-84.4915449,268.32000732421875,0.017809491604566574,-0.9221904873847961
1667257268.44065189,82025282,42.6891417,-84.4915448,268.32000732421875,0.016715507954359055,-0.9232844710350037
1667257268.48083687,82065467,42.6891417,-84.4915448,268.32000732421875,0.01635078713297844,-0.9236491918563843
1667257268.48101401,82065644,42.6891417,-84.4915448,268.32000732421875,0.01635078713297844,-0.9236491918563843
1667257268.52036190,82104992,42.6891417,-84.4915448,268.32000732421875,0.016018252819776535,-0.9239817261695862
1667257268.56040001,82145030,42.6891417,-84.4915448,268.32000732421875,0.0156506709754467,-0.924349308013916
1667257268.58078909,82165419,42.6891417,-84.4915448,268.32000732421875,0.015314918011426926,-0.9246850609779358
1667257268.60028410,82184914,42.6891417,-84.4915448,268.32000732421875,0.01539025828242302,-0.9246097207069397
1667257268.64058900,82225219,42.6891418,-84.49154469999999,268.32000732421875,0.015230219811201096,-0.9247697591781616
1667257268.68077302,82265403,42.6891418,-84.49154469999999,268.32000732421875,0.015477638691663742,-0.924522340297699
1667257268.68090391,82265534,42.6891418,-84.49154469999999,268.32000732421875,0.015477638691663742,-0.924522340297699
1667257268.72043109,82305061,42.6891418,-84.49154469999999,268.32000732421875,0.01590130850672722,-0.9240986704826355
1667257268.76036310,82344993,42.6891418,-84.49154469999999,268.32000732421875,0.016575854271650314,-0.9234241247177124
1667257268.78078794,82365418,42.6891418,-84.49154469999999,268.32000732421875,0.016868870705366135,-0.9231311082839966
1667257268.80030298,82384933,42.6891418,-84.49154469999999,268.32000732421875,0.0172373466193676,-0.9227626323699951
1667257268.84066892,82425299,42.6891418,-84.49154469999999,268.32000732421875,0.017225544899702072,-0.9227744340896606
1667257268.88089108,82465521,42.6891418,-84.49154469999999,268.32000732421875,0.017561834305524826,-0.9224381446838379
1667257268.88101602,82465646,42.6891418,-84.49154469999999,268.32000732421875,0.017561834305524826,-0.9224381446838379
1667257268.92032194,82504952,42.6891418,-84.49154469999999,268.32000732421875,0.017946284264326096,-0.9220536947250366
1667257268.96030903,82544939,42.689141899999996,-84.49154469999999,268.32000732421875,0.018390517681837082,-0.9216094613075256
1667257268.98078609,82565416,42.689141899999996,-84.49154469999999,268.32000732421875,0.01855669543147087,-0.9214432835578918
1667257269.00037694,82585007,42.689141899999996,-84.49154469999999,268.32000732421875,0.018840711563825607,-0.9211592674255371
1667257269.04062796,82625258,42.689141899999996,-84.49154469999999,268.32000732421875,0.01856587454676628,-0.9214341044425964
1667257269.08088088,82665511,42.689141899999996,-84.49154469999999,268.32000732421875,0.01863686367869377,-0.921363115310669
1667257269.08098197,82665612,42.689141899999996,-84.49154469999999,268.32000732421875,0.01863686367869377,-0.921363115310669
1667257269.12028098,82704911,42.689141899999996,-84.49154469999999,268.32000732421875,0.018794994801282883,-0.9212049841880798
1667257269.16026902,82744899,42.689141899999996,-84.4915448,268.32000732421875,0.01901565119624138,-0.9209843277931213
1667257269.18078995,82765420,42.689141899999996,-84.4915448,268.32000732421875,0.019056301563978195,-0.9209436774253845
1667257269.20037293,82785003,42.689141899999996,-84.4915448,268.32000732421875,0.019263070076704025,-0.9207369089126587
1667257269.24066091,82825291,42.689141899999996,-84.4915448,268.32000732421875,0.01751033589243889,-0.9224896430969238
1667257269.28086591,82865496,42.689141899999996,-84.4915448,268.32000732421875,0.016580086201429367,-0.9234198927879333
1667257269.28098488,82865615,42.689141899999996,-84.4915448,268.32000732421875,0.016580086201429367,-0.9234198927879333
1667257269.32028890,82904919,42.689141899999996,-84.4915448,268.32000732421875,0.01585112139582634,-0.9241488575935364
1667257269.36020303,82944833,42.689141899999996,-84.4915448,268.32000732421875,0.01534227654337883,-0.9246577024459839
1667257269.38085389,82965484,42.689141899999996,-84.4915448,268.32000732421875,0.014957647770643234,-0.9250423312187195
1667257269.40032196,82984952,42.689142,-84.4915448,268.32000732421875,0.014921646565198898,-0.9250783324241638
1667257269.44064498,83025275,42.689142,-84.4915448,268.32000732421875,0.014933925122022629,-0.9250660538673401
1667257269.48086810,83065498,42.689142,-84.4915448,268.32000732421875,0.015214662998914719,-0.924785315990448
1667257269.48097706,83065607,42.689142,-84.4915448,268.32000732421875,0.015214662998914719,-0.924785315990448
1667257269.52032900,83104959,42.689142,-84.4915448,268.32000732421875,0.015586834400892258,-0.9244131445884705
1667257269.56035089,83144981,42.689142,-84.4915448,268.32000732421875,0.016102533787488937,-0.9238974452018738
1667257269.58092594,83165556,42.689142,-84.4915448,268.32000732421875,0.016353946179151535,-0.9236460328102112
1667257269.60033488,83184965,42.689142,-84.4915448,268.32000732421875,0.016603928059339523,-0.9233960509300232
1667257269.64069510,83225325,42.689142,-84.4915448,268.32000732421875,0.014536242932081223,-0.9254637360572815
1667257269.68091202,83265542,42.6891421,-84.4915448,268.32000732421875,0.01329062506556511,-0.9267093539237976
1667257269.68099499,83265625,42.6891421,-84.4915448,268.32000732421875,0.01329062506556511,-0.9267093539237976
1667257269.72043109,83305061,42.6891421,-84.4915448,268.32000732421875,0.012289147824048996,-0.9277108311653137
1667257269.76039696,83345027,42.6891421,-84.4915448,268.32000732421875,0.01157711073756218,-0.9284228682518005
1667257269.78089094,83365521,42.6891421,-84.4915448,268.32000732421875,0.011094849556684494,-0.9289051294326782
1667257269.80029702,83384927,42.6891421,-84.4915448,268.32000732421875,0.010948460549116135,-0.9290515184402466
1667257269.84065008,83425280,42.6891421,-84.4915448,268.30999755859375,0.00825534388422966,-0.9317446351051331
1667257269.88095188,83465582,42.6891421,-84.49154469999999,268.30999755859375,0.006630938500165939,-0.9333690404891968
1667257269.88103890,83465669,42.6891421,-84.49154469999999,268.30999755859375,0.006630938500165939,-0.9333690404891968
1667257269.92038298,83505013,42.6891422,-84.49154469999999,268.30999755859375,0.0052807144820690155,-0.9347192645072937
1667257269.96032691,83544957,42.6891422,-84.49154469999999,268.30999755859375,0.004268031567335129,-0.9357319474220276
1667257269.98099995,83565630,42.6891422,-84.49154469999999,268.30999755859375,0.003623049706220627,-0.9363769292831421
1667257270.00039697,83585027,42.6891422,-84.49154469999999,268.30999755859375,0.003350239247083664,-0.936649739742279
1667257270.04058290,83625213,42.6891422,-84.49154469999999,268.30999755859375,0.0014318637549877167,-0.938568115234375
1667257270.08076787,83665398,42.6891422,-84.49154469999999,268.29998779296875,-0.000566679984331131,-0.9405666589736938
1667257270.08092093,83665551,42.6891422,-84.49154469999999,268.29998779296875,-0.000566679984331131,-0.9405666589736938
1667257270.12039304,83705023,42.6891423,-84.49154469999999,268.29998779296875,-0.002326447516679764,-0.9423264265060425
1667257270.16039205,83745022,42.6891423,-84.49154469999999,268.29998779296875,-0.0038331933319568634,-0.9438331723213196
1667257270.18087387,83765504,42.6891423,-84.49154469999999,268.29998779296875,-0.004755217581987381,-0.9447551965713501
1667257270.20030499,83784935,42.6891423,-84.49154469999999,268.29998779296875,-0.005200225859880447,-0.9452002048492432
1667257270.24058604,83825216,42.6891423,-84.4915446,268.29998779296875,-0.008226234465837479,-0.9482262134552002
1667257270.28079796,83865428,42.6891423,-84.4915446,268.2900085449219,-0.010203439742326736,-0.9502034187316895
1667257270.28092504,83865555,42.6891423,-84.4915446,268.2900085449219,-0.010203439742326736,-0.9502034187316895
1667257270.32041097,83905041,42.6891423,-84.4915446,268.2900085449219,-0.011937815696001053,-0.9519377946853638
1667257270.36040592,83945036,42.6891423,-84.4915446,268.2900085449219,-0.013382751494646072,-0.9533827304840088
1667257270.38073397,83965364,42.6891424,-84.4915446,268.2900085449219,-0.014250654727220535,-0.9542506337165833
1667257270.40036106,83984991,42.6891424,-84.4915446,268.2900085449219,-0.014720816165208817,-0.9547207951545715
1667257270.44068599,84025316,42.6891424,-84.4915446,268.2900085449219,-0.018338460475206375,-0.9583384394645691
1667257270.48077202,84065402,42.6891424,-84.49154449999999,268.2799987792969,-0.020800728350877762,-0.9608007073402405
1667257270.48089790,84065528,42.6891424,-84.49154449999999,268.2799987792969,-0.020800728350877762,-0.9608007073402405
1667257270.52031493,84104945,42.6891424,-84.49154449999999,268.2799987792969,-0.02297796681523323,-0.962977945804596
1667257270.56031394,84144944,42.6891424,-84.49154449999999,268.2799987792969,-0.024906832724809647,-0.9649068117141724
1667257270.58081102,84165441,42.6891424,-84.49154449999999,268.2799987792969,-0.026023942977190018,-0.9660239219665527
1667257270.60033202,84184962,42.6891424,-84.49154449999999,268.2799987792969,-0.026659030467271805,-0.9666590094566345
1667257270.64066100,84225291,42.6891424,-84.49154449999999,268.2699890136719,-0.030047256499528885,-0.9700472354888916
1667257270.68086410,84265494,42.6891424,-84.49154449999999,268.2699890136719,-0.03234585002064705,-0.9723458290100098
1667257270.68096495,84265595,42.6891424,-84.49154449999999,268.2699890136719,-0.03234585002064705,-0.9723458290100098
1667257270.72032595,84304956,42.6891424,-84.49154449999999,268.2699890136719,-0.03444995358586311,-0.9744499325752258
1667257270.76028395,84344914,42.6891424,-84.4915444,268.2699890136719,-0.03633739426732063,-0.9763373732566833
1667257270.78078890,84365419,42.689142499999996,-84.4915444,268.2699890136719,-0.037428755313158035,-0.9774287343025208
1667257270.80035710,84384987,42.689142499999996,-84.4915444,268.2699890136719,-0.03809740021824837,-0.9780973792076111
1667257270.84070897,84425339,42.689142499999996,-84.4915444,268.2599792480469,-0.04264708235859871,-0.9826470613479614
1667257270.88089800,84465528,42.689142499999996,-84.4915444,268.2599792480469,-0.045831818133592606,-0.9858317971229553
1667257270.88099909,84465629,42.689142499999996,-84.4915444,268.2599792480469,-0.045831818133592606,-0.9858317971229553
1667257270.92030191,84504932,42.689142499999996,-84.4915444,268.2599792480469,-0.04877318814396858,-0.9887731671333313
1667257270.96026111,84544891,42.689142499999996,-84.4915444,268.25,-0.051519352942705154,-0.9915193319320679
1667257270.98088598,84565516,42.689142499999996,-84.4915444,268.25,-0.05305476859211922,-0.9930547475814819
1667257271.00031805,84584948,42.689142499999996,-84.4915444,268.25,-0.05399860814213753,-0.9939985871315002
1667257271.04060888,84625239,42.689142499999996,-84.4915444,268.25,-0.05745263770222664,-0.9974526166915894
1667257271.08094192,84665572,42.689142499999996,-84.4915444,268.25,-0.059955496340990067,-0.9999554753303528
1667257271.08101392,84665644,42.689142499999996,-84.4915444,268.25,-0.059955496340990067,-0.9999554753303528
1667257271.12029696,84704927,42.689142499999996,-84.4915444,268.239990234375,-0.06207748129963875,-1.0020774602890015
1667257271.16028309,84744913,42.689142499999996,-84.4915444,268.239990234375,-0.06348831951618195,-1.003488302230835
1667257271.18091393,84765544,42.6891426,-84.4915444,268.239990234375,-0.06431777775287628,-1.0043177604675293
1667257271.20028400,84784914,42.6891426,-84.4915444,268.239990234375,-0.06492812931537628,-1.0049281120300293
1667257271.24074388,84825374,42.6891426,-84.4915444,268.239990234375,-0.06582184135913849,-1.0058218240737915
1667257271.28079295,84865423,42.6891426,-84.4915444,268.239990234375,-0.0667782574892044,-1.0067782402038574
1667257271.28095198,84865582,42.6891426,-84.4915444,268.239990234375,-0.0667782574892044,-1.0067782402038574
1667257271.32030892,84904939,42.6891426,-84.4915444,268.239990234375,-0.06762559711933136,-1.0076255798339844
1667257271.36032009,84944950,42.6891426,-84.4915444,268.239990234375,-0.06824071705341339,-1.0082406997680664
1667257271.38086891,84965499,42.6891426,-84.4915444,268.239990234375,-0.06849487125873566,-1.0084948539733887
1667257271.40031695,84984947,42.6891426,-84.4915444,268.239990234375,-0.06890316307544708,-1.0089031457901
1667257271.44074798,85025378,42.6891426,-84.4915444,268.239990234375,-0.06852586567401886,-1.0085258483886719
1667257271.48081398,85065444,42.6891426,-84.4915444,268.239990234375,-0.06830950081348419,-1.0083094835281372
1667257271.48094893,85065579,42.6891426,-84.4915444,268.239990234375,-0.06830950081348419,-1.0083094835281372
1667257271.52033401,85104964,42.6891426,-84.4915444,268.239990234375,-0.06803067028522491,-1.008030652999878
1667257271.56028390,85144914,42.6891426,-84.4915444,268.239990234375,-0.06761141121387482,-1.0076113939285278
1667257271.58085608,85165486,42.6891426,-84.4915444,268.239990234375,-0.0672282725572586,-1.0072282552719116
1667257271.60064793,85185278,42.6891427,-84.4915444,268.239990234375,-0.06734748184680939,-1.0073474645614624
1667257271.64067292,85225303,42.6891427,-84.4915444,268.239990234375,-0.0675482302904129,-1.007548213005066
1667257271.68084788,85265478,42.6891427,-84.4915444,268.239990234375,-0.0679212361574173,-1.0079212188720703
1667257271.68102789,85265658,42.6891427,-84.4915444,268.239990234375,-0.0679212361574173,-1.0079212188720703
1667257271.72040892,85305039,42.6891427,-84.4915444,268.239990234375,-0.06826193630695343,-1.0082619190216064
1667257271.76038289,85345013,42.6891427,-84.4915444,268.239990234375,-0.06853528320789337,-1.0085352659225464
1667257271.78080201,85365432,42.6891427,-84.4915444,268.239990234375,-0.06855709850788116,-1.0085570812225342
1667257271.80035090,85384981,42.6891427,-84.4915444,268.239990234375,-0.06887741386890411,-1.0088773965835571
1667257271.84062505,85425255,42.6891427,-84.4915444,268.239990234375,-0.0680212527513504,-1.0080212354660034
1667257271.88082194,85465452,42.6891427,-84.4915444,268.239990234375,-0.0677003413438797,-1.0077003240585327
1667257271.88096809,85465598,42.6891427,-84.4915444,268.239990234375,-0.0677003413438797,-1.0077003240585327
1667257271.92034006,85504970,42.6891427,-84.49154449999999,268.239990234375,-0.06732518970966339,-1.0073251724243164
1667257271.96037698,85545007,42.6891427,-84.49154449999999,268.239990234375,-0.06670410931110382,-1.0067040920257568
1667257271.98089600,85565526,42.6891427,-84.49154449999999,268.239990234375,-0.06623895466327667,-1.0062389373779297
1667257272.00039887,85585029,42.6891427,-84.49154449999999,268.239990234375,-0.06630261242389679,-1.0063025951385498
1667257272.04061699,85625247,42.6891427,-84.4915444,268.239990234375,-0.0643736869096756,-1.0043736696243286
1667257272.08090901,85665539,42.6891427,-84.4915444,268.239990234375,-0.0634579211473465,-1.0034579038619995
1667257272.08109903,85665729,42.6891427,-84.4915444,268.239990234375,-0.0634579211473465,-1.0034579038619995
1667257272.12040806,85705038,42.6891427,-84.4915444,268.239990234375,-0.06248040869832039,-1.002480387687683
1667257272.16042304,85745053,42.6891427,-84.4915444,268.239990234375,-0.06138332560658455,-1.0013833045959473
1667257272.18083596,85765466,42.6891427,-84.4915444,268.239990234375,-0.060593683272600174,-1.000593662261963
1667257272.20043707,85785067,42.6891427,-84.4915444,268.239990234375,-0.06052728369832039,-1.000527262687683
1667257272.24076700,85825397,42.6891427,-84.4915444,268.25,-0.05987204983830452,-0.9998720288276672
1667257272.28091192,85865542,42.6891427,-84.4915444,268.25,-0.059556860476732254,-0.999556839466095
1667257272.28099489,85865625,42.6891427,-84.4915444,268.25,-0.059556860476732254,-0.999556839466095
1667257272.32032490,85904955,42.6891427,-84.4915444,268.25,-0.059078533202409744,-0.9990785121917725
1667257272.36033010,85944960,42.6891428,-84.4915444,268.25,-0.058116573840379715,-0.9981165528297424
1667257272.38086510,85965495,42.6891428,-84.4915444,268.25,-0.05746908858418465,-0.9974690675735474
1667257272.40031195,85984942,42.6891428,-84.4915444,268.25,-0.057478029280900955,-0.9974780082702637
1667257272.44069910,86025329,42.6891428,-84.4915444,268.25,-0.05581887438893318,-0.9958188533782959
1667257272.48088789,86065518,42.6891428,-84.4915443,268.25,-0.05480505898594856,-0.9948050379753113
1667257272.48100305,86065633,42.6891428,-84.4915443,268.25,-0.05480505898594856,-0.9948050379753113
1667257272.52036595,86104996,42.6891428,-84.4915443,268.25,-0.05361254885792732,-0.99361252784729
1667257272.56028199,86144912,42.6891428,-84.4915443,268.25,-0.051701564341783524,-0.9917015433311462
1667257272.58083701,86165467,42.6891428,-84.4915443,268.25,-0.05043889954686165,-0.9904388785362244
1667257272.60060906,86185239,42.6891428,-84.4915443,268.25,-0.05010904744267464,-0.9901090264320374
1667257272.64069510,86225325,42.6891428,-84.4915443,268.2599792480469,-0.04689433053135872,-0.9868943095207214
1667257272.68092990,86265560,42.6891428,-84.4915443,268.2599792480469,-0.044934649020433426,-0.9849346280097961
1667257272.68101406,86265644,42.6891428,-84.4915443,268.2599792480469,-0.044934649020433426,-0.9849346280097961
1667257272.72032809,86304958,42.6891428,-84.4915443,268.2599792480469,-0.0426764078438282,-0.9826763868331909
1667257272.76033688,86344967,42.6891428,-84.4915443,268.2699890136719,-0.03974856808781624,-0.979748547077179
1667257272.78089404,86365524,42.6891428,-84.4915443,268.2699890136719,-0.037887949496507645,-0.9778879284858704
1667257272.80041003,86385040,42.6891428,-84.4915443,268.2699890136719,-0.0371568389236927,-0.9771568179130554
1667257272.84068394,86425314,42.6891428,-84.4915443,268.2699890136719,-0.0327087827026844,-0.9727087616920471
1667257272.88098693,86465617,42.6891428,-84.4915443,268.2799987792969,-0.0295194573700428,-0.9695194363594055
1667257272.88112807,86465758,42.6891428,-84.4915443,268.2799987792969,-0.0295194573700428,-0.9695194363594055
1667257272.92043304,86505063,42.6891428,-84.4915443,268.2799987792969,-0.02557583525776863,-0.9655758142471313
1667257272.96031499,86544945,42.6891428,-84.4915443,268.2799987792969,-0.0200284905731678,-0.9600284695625305
1667257272.98087692,86565507,42.6891428,-84.4915443,268.2900085449219,-0.01650150492787361,-0.9565014839172363
1667257273.00030804,86584938,42.6891428,-84.4915443,268.2900085449219,-0.014559466391801834,-0.9545594453811646
1667257273.04067087,86625301,42.6891428,-84.4915443,268.29998779296875,-0.005502123385667801,-0.9455021023750305
1667257273.08092999,86665560,42.6891428,-84.4915443,268.30999755859375,0.0022471360862255096,-0.9377528429031372
1667257273.08103299,86665663,42.6891428,-84.4915443,268.30999755859375,0.0022471360862255096,-0.9377528429031372
1667257273.12034488,86704975,42.6891428,-84.4915443,268.32000732421875,0.011351328343153,-0.9286486506462097
1667257273.16035795,86744988,42.6891428,-84.4915443,268.3299865722656,0.0227765254676342,-0.9172234535217285
1667257273.18085599,86765486,42.6891428,-84.4915443,268.3299865722656,0.029805701225996017,-0.9101942777633667
1667257273.20041394,86785044,42.6891428,-84.4915443,268.3399963378906,0.034926336258649826,-0.9050736427307129
1667257273.24063993,86825270,42.6891428,-84.4915443,268.3599853515625,0.05271671339869499,-0.8872832655906677
1667257273.28081107,86865441,42.6891428,-84.4915443,268.3699951171875,0.06931827962398529,-0.8706817030906677
1667257273.28095102,86865581,42.6891428,-84.4915443,268.3699951171875,0.06931827962398529,-0.8706817030906677
1667257273.32035398,86904984,42.6891428,-84.4915444,268.3899841308594,0.08798478543758392,-0.8520151972770691
1667257273.36039305,86945023,42.6891428,-84.4915444,268.4100036621094,0.10934214293956757,-0.8306578397750854
1667257273.38084006,86965470,42.6891428,-84.4915444,268.42999267578125,0.12138603627681732,-0.8186139464378357
1667257273.40035295,86984983,42.6891428,-84.4915444,268.44000244140625,0.13100050389766693,-0.8089994788169861
1667257273.44060302,87025233,42.6891428,-84.4915444,268.4700012207031,0.16152261197566986,-0.7784773707389832
1667257273.48081589,87065446,42.6891428,-84.4915444,268.489990234375,0.1888650506734848,-0.7511349320411682
1667257273.48096108,87065591,42.6891428,-84.4915444,268.489990234375,0.1888650506734848,-0.7511349320411682
1667257273.52040696,87105037,42.6891428,-84.4915444,268.5199890136719,0.21817921102046967,-0.7218207716941833
1667257273.56039190,87145022,42.6891428,-84.4915444,268.54998779296875,0.24912165105342865,-0.6908783316612244
1667257273.58074999,87165380,42.6891428,-84.4915444,268.57000732421875,0.2663235366344452,-0.6736764311790466
1667257273.60049605,87185126,42.6891428,-84.4915444,268.5899963378906,0.2803971469402313,-0.6596028208732605
1667257273.64059401,87225224,42.6891429,-84.49154449999999,268.6300048828125,0.3204098641872406,-0.6195901036262512
1667257273.68083000,87265460,42.6891429,-84.49154449999999,268.6600036621094,0.35615846514701843,-0.5838415026664734
1667257273.68093204,87265562,42.6891429,-84.49154449999999,268.6600036621094,0.35615846514701843,-0.5838415026664734
1667257273.72037697,87305007,42.6891429,-84.49154449999999,268.6999816894531,0.39257702231407166,-0.5474229454994202
1667257273.76040006,87345030,42.6891429,-84.49154449999999,268.739990234375,0.43105295300483704,-0.5089470148086548
1667257273.78086996,87365500,42.6891429,-84.49154449999999,268.7599792480469,0.45149973034858704,-0.4885002374649048
1667257273.80033207,87384962,42.6891429,-84.49154449999999,268.7699890136719,0.4685593843460083,-0.4714405834674835
1667257273.84065390,87425284,42.6891429,-84.49154449999999,268.8299865722656,0.525931715965271,-0.4140682816505432
1667257273.88092089,87465551,42.6891429,-84.49154449999999,268.8800048828125,0.5767915844917297,-0.3632083833217621
1667257273.88102889,87465659,42.6891429,-84.49154449999999,268.8800048828125,0.5767915844917297,-0.3632083833217621
1667257273.92033887,87504969,42.6891429,-84.49154449999999,268.92999267578125,0.6291000247001648,-0.3108999729156494
1667257273.96037698,87545007,42.6891429,-84.49154449999999,268.989990234375,0.6863299012184143,-0.2536700665950775
1667257273.98082209,87565452,42.6891429,-84.49154449999999,269.0199890136719,0.7177405953407288,-0.22225935757160187
1667257274.00027704,87584907,42.6891429,-84.49154449999999,269.0400085449219,0.7392416596412659,-0.20075833797454834
1667257274.04069591,87625326,42.689143,-84.49154449999999,269.1099853515625,0.8017129302024841,-0.13828705251216888
1667257274.08086705,87665497,42.689143,-84.49154449999999,269.1600036621094,0.8524321913719177,-0.08756779879331589
1667257274.08093810,87665568,42.689143,-84.49154449999999,269.1600036621094,0.8524321913719177,-0.08756779879331589
1667257274.12037992,87705010,42.689143,-84.49154449999999,269.2099914550781,0.9005693793296814,-0.03943061828613281
1667257274.16029406,87744924,42.689143,-84.49154449999999,269.25,0.9473770260810852,0.0073770442977547646
1667257274.18094206,87765572,42.689143,-84.49154449999999,269.2799987792969,0.9728056192398071,0.032805632799863815
1667257274.20029688,87784927,42.689143,-84.49154449999999,269.29998779296875,0.990344762802124,0.0503448024392128
1667257274.24064589,87825276,42.689143099999995,-84.49154449999999,269.3399963378906,1.0321426391601562,0.09214266389608383
1667257274.28092003,87865550,42.689143099999995,-84.49154449999999,269.3699951171875,1.0628689527511597,0.12286896258592606
1667257274.28102207,87865652,42.689143099999995,-84.49154449999999,269.3699951171875,1.0628689527511597,0.12286896258592606
1667257274.32034707,87904977,42.689143099999995,-84.49154449999999,269.3999938964844,1.0908381938934326,0.1508381962776184
1667257274.36028409,87944914,42.689143099999995,-84.49154449999999,269.41998291015625,1.1162370443344116,0.1762371063232422
1667257274.38091087,87965541,42.689143099999995,-84.49154449999999,269.42999267578125,1.1293861865997314,0.18938620388507843
1667257274.40026689,87984897,42.6891432,-84.49154449999999,269.44000244140625,1.1391839981079102,0.19918397068977356
1667257274.44062495,88025255,42.6891432,-84.49154449999999,269.4599914550781,1.153060793876648,0.21306082606315613
1667257274.48081207,88065442,42.6891432,-84.49154449999999,269.4700012207031,1.1643552780151367,0.22435535490512848
1667257274.48096800,88065598,42.6891432,-84.49154449999999,269.4700012207031,1.1643552780151367,0.22435535490512848
1667257274.52038407,88105014,42.6891432,-84.49154449999999,269.47998046875,1.1736255884170532,0.2336256504058838
1667257274.56032300,88144953,42.6891432,-84.49154449999999,269.489990234375,1.1808189153671265,0.24081891775131226
1667257274.58082104,88165451,42.6891432,-84.49154449999999,269.489990234375,1.1837406158447266,0.24374063313007355
1667257274.60055399,88185184,42.6891432,-84.49154449999999,269.489990234375,1.1873129606246948,0.24731303751468658
1667257274.64064908,88225279,42.6891432,-84.49154449999999,269.489990234375,1.1847598552703857,0.24475982785224915
1667257274.68089199,88265522,42.6891432,-84.4915444,269.489990234375,1.184333086013794,0.24433313310146332
1667257274.68104410,88265674,42.6891432,-84.4915444,269.489990234375,1.184333086013794,0.24433313310146332
1667257274.72036695,88304997,42.689143099999995,-84.4915444,269.489990234375,1.183478593826294,0.24347858130931854
1667257274.76039696,88345027,42.689143099999995,-84.4915444,269.489990234375,1.1819263696670532,0.2419263869524002
1667257274.78080392,88365434,42.689143099999995,-84.4915444,269.489990234375,1.1800919771194458,0.2400919646024704
1667257274.80031490,88384945,42.689143099999995,-84.4915444,269.489990234375,1.1806617975234985,0.24066177010536194
1667257274.84061098,88425241,42.689143099999995,-84.4915444,269.47998046875,1.1741713285446167,0.23417139053344727
1667257274.88090110,88465531,42.6891432,-84.4915444,269.47998046875,1.1715118885040283,0.23151186108589172
1667257274.88103795,88465668,42.6891432,-84.4915444,269.47998046875,1.1715118885040283,0.23151186108589172
1667257274.92041802,88505048,42.6891432,-84.4915444,269.4700012207031,1.1696553230285645,0.22965537011623383
1667257274.96035290,88544983,42.6891432,-84.4915444,269.4700012207031,1.1684683561325073,0.2284683734178543
1667257274.98083305,88565463,42.6891432,-84.4915444,269.4700012207031,1.1672431230545044,0.227243110537529
1667257275.00037503,88585005,42.6891432,-84.49154449999999,269.4700012207031,1.1690186262130737,0.22901864349842072
1667257275.04065704,88625287,42.689143099999995,-84.4915444,269.4700012207031,1.1686521768569946,0.2286522537469864
1667257275.08073306,88665363,42.689143099999995,-84.4915444,269.47998046875,1.1726970672607422,0.2326970398426056
1667257275.08084893,88665479,42.689143099999995,-84.4915444,269.47998046875,1.1726970672607422,0.2326970398426056
1667257275.12029696,88704927,42.689143099999995,-84.4915444,269.47998046875,1.178344964981079,0.23834501206874847
1667257275.16038990,88745020,42.689143099999995,-84.4915444,269.489990234375,1.1853526830673218,0.24535265564918518
1667257275.18086004,88765490,42.689143099999995,-84.4915444,269.489990234375,1.1888142824172974,0.24881431460380554
1667257275.20040989,88785040,42.689143099999995,-84.4915444,269.5,1.1942529678344727,0.25425300002098083
1667257275.24059606,88825226,42.689143099999995,-84.4915444,269.5099792480469,1.2054725885391235,0.2654726505279541
1667257275.28082204,88865452,42.689143099999995,-84.4915444,269.5199890136719,1.2191493511199951,0.2791493237018585
1667257275.28092289,88865553,42.689143099999995,-84.4915444,269.5199890136719,1.2191493511199951,0.2791493237018585
1667257275.32042003,88905050,42.689143,-84.4915444,269.5400085449219,1.234315276145935,0.29431524872779846
1667257275.36033702,88944967,42.689143,-84.4915444,269.55999755859375,1.2507303953170776,0.31073036789894104
1667257275.38087487,88965505,42.689143,-84.4915444,269.55999755859375,1.2585455179214478,0.3185455799102783
1667257275.40037203,88985002,42.689143,-84.4915444,269.57000732421875,1.2680195569992065,0.3280196189880371
1667257275.44073391,89025364,42.689143,-84.4915444,269.5899963378906,1.2865564823150635,0.34655648469924927
1667257275.48079705,89065427,42.689143,-84.4915444,269.6099853515625,1.3073238134384155,0.3673238158226013
1667257275.48091006,89065540,42.689143,-84.4915444,269.6099853515625,1.3073238134384155,0.3673238158226013
1667257275.52028990,89104920,42.689143,-84.4915444,269.6300048828125,1.3291596174240112,0.3891596794128418
1667257275.56027603,89144906,42.6891429,-84.4915444,269.6600036621094,1.3517805337905884,0.41178053617477417
1667257275.58086300,89165493,42.6891429,-84.4915444,269.66998291015625,1.3627355098724365,0.4227355420589447
1667257275.60047388,89185104,42.6891429,-84.4915444,269.67999267578125,1.3745231628417969,0.43452322483062744
1667257275.64064193,89225272,42.6891428,-84.4915444,269.6999816894531,1.3980255126953125,0.4580254852771759
1667257275.68089795,89265528,42.6891428,-84.4915443,269.72998046875,1.4211937189102173,0.4811937212944031
1667257275.68099999,89265630,42.6891428,-84.4915443,269.72998046875,1.4211937189102173,0.4811937212944031
1667257275.72039890,89305029,42.6891427,-84.4915443,269.75,1.443522572517395,0.5035225749015808
1667257275.76029205,89344922,42.6891426,-84.4915443,269.7699890136719,1.4656637907028198,0.5256637930870056
1667257275.78087592,89365506,42.6891426,-84.4915443,269.7799987792969,1.4765048027038574,0.536504864692688
1667257275.80030203,89384932,42.6891426,-84.49154419999999,269.7900085449219,1.4876381158828735,0.5476381778717041
1667257275.84062910,89425259,42.689142499999996,-84.49154419999999,269.80999755859375,1.5072667598724365,0.5672668218612671
1667257275.88091898,89465549,42.6891423,-84.49154419999999,269.8299865722656,1.5273698568344116,0.5873698592185974
1667257275.88103390,89465664,42.6891423,-84.49154419999999,269.8299865722656,1.5273698568344116,0.5873698592185974
1667257275.92038488,89505015,42.6891422,-84.49154419999999,269.8500061035156,1.5476635694503784,0.607663631439209
1667257275.96033788,89544968,42.6891421,-84.49154419999999,269.8699951171875,1.5673415660858154,0.627341628074646
1667257275.98088694,89565517,42.689142,-84.49154419999999,269.8800048828125,1.5771483182907104,0.6371483206748962
1667257276.00027704,89584907,42.689142,-84.49154419999999,269.8899841308594,1.5869168043136597,0.6469168066978455
1667257276.04069400,89625324,42.6891418,-84.49154419999999,269.9100036621094,1.6040520668029785,0.6640521287918091
1667257276.08090591,89665536,42.6891416,-84.49154419999999,269.92999267578125,1.6217132806777954,0.681713342666626
1667257276.08097696,89665607,42.6891416,-84.49154419999999,269.92999267578125,1.6217132806777954,0.681713342666626
1667257276.12042093,89705051,42.6891415,-84.49154419999999,269.94000244140625,1.6394058465957642,0.6994059085845947
1667257276.16027594,89744906,42.689141299999996,-84.4915443,269.9599914550781,1.6570583581924438,0.7170583605766296
1667257276.18081594,89765446,42.689141199999995,-84.4915443,269.9700012207031,1.6655100584030151,0.7255100607872009
1667257276.20029998,89784930,42.6891411,-84.4915443,269.97998046875,1.6743322610855103,0.734332263469696
1667257276.24067307,89825303,42.689141,-84.4915444,270.0,1.6901737451553345,0.7501737475395203
1667257276.28101897,89865649,42.6891408,-84.4915444,270.0099792480469,1.7063580751419067,0.7663580775260925
1667257276.28109002,89865720,42.6891408,-84.4915444,270.0099792480469,1.7063580751419067,0.7663580775260925
1667257276.32035995,89904990,42.689140599999995,-84.4915444,270.0299987792969,1.7217992544174194,0.7817992568016052
1667257276.36037493,89945005,42.6891404,-84.4915444,270.0400085449219,1.7360323667526245,0.7960323691368103
1667257276.38073206,89965362,42.6891403,-84.49154449999999,270.04998779296875,1.7428699731826782,0.802869975566864
1667257276.40033197,89984962,42.6891402,-84.49154449999999,270.04998779296875,1.7498701810836792,0.809870183467865
1667257276.44069600,90025326,42.689139999999995,-84.4915446,270.07000732421875,1.7620697021484375,0.8220697045326233
1667257276.48081207,90065442,42.6891398,-84.49154469999999,270.0799865722656,1.775075912475586,0.8350759744644165
1667257276.48094988,90065580,42.6891398,-84.49154469999999,270.0799865722656,1.775075912475586,0.8350759744644165
1667257276.52029896,90104929,42.6891396,-84.4915448,270.0899963378906,1.7873549461364746,0.8473549485206604
1667257276.56035900,90144989,42.689139399999995,-84.4915449,270.1000061035156,1.7989060878753662,0.8589061498641968
1667257276.58080888,90165439,42.6891393,-84.4915449,270.1099853515625,1.8043441772460938,0.8643442392349243
1667257276.60041404,90185044,42.6891392,-84.491545,270.1199951171875,1.8101720809936523,0.8701720833778381
1667257276.64078808,90225418,42.689139,-84.4915451,270.1300048828125,1.8205783367156982,0.880578339099884
1667257276.68080688,90265437,42.689138799999995,-84.4915453,270.1399841308594,1.8307216167449951,0.8907216787338257
1667257276.68088007,90265510,42.689138799999995,-84.4915453,270.1399841308594,1.8307216167449951,0.8907216787338257
1667257276.72031689,90304947,42.6891386,-84.49154539999999,270.1499938964844,1.8401985168457031,0.9001985192298889
1667257276.76039791,90345028,42.6891384,-84.4915456,270.1499938964844,1.8491982221603394,0.9091982841491699
1667257276.78082800,90365458,42.689138299999996,-84.4915457,270.1600036621094,1.8532359600067139,0.9132359623908997
1667257276.80039501,90385025,42.689138199999995,-84.4915458,270.1600036621094,1.857540249824524,0.9175402522087097
1667257276.84073710,90425367,42.689138,-84.491546,270.16998291015625,1.8641968965530396,0.9241969585418701
1667257276.88085008,90465480,42.6891379,-84.4915463,270.17999267578125,1.870782494544983,0.9307824969291687
1667257276.88095093,90465581,42.6891379,-84.4915463,270.17999267578125,1.870782494544983,0.9307824969291687
1667257276.92027092,90504901,42.689137699999996,-84.4915465,270.17999267578125,1.8768991231918335,0.9368991255760193
1667257276.96033001,90544960,42.6891375,-84.4915468,270.19000244140625,1.882271647453308,0.9422716498374939
1667257276.98087502,90565505,42.6891374,-84.4915469,270.19000244140625,1.8846840858459473,0.9446840882301331
1667257277.00040698,90585037,42.6891373,-84.491547,270.19000244140625,1.8874262571334839,0.9474262595176697
1667257277.04066992,90625300,42.689137099999996,-84.4915473,270.1999816894531,1.8900560140609741,0.9500560760498047
1667257277.08081198,90665442,42.689136999999995,-84.49154759999999,270.1999816894531,1.893567681312561,0.9535676836967468
1667257277.08092809,90665558,42.689136999999995,-84.49154759999999,270.1999816894531,1.893567681312561,0.9535676836967468
1667257277.12042499,90705055,42.6891368,-84.4915479,270.1999816894531,1.8968968391418457,0.9568969011306763
1667257277.16040897,90745039,42.6891366,-84.4915482,270.1999816894531,1.8998397588729858,0.9598398208618164
1667257277.18089104,90765521,42.6891366,-84.4915484,270.2099914550781,1.9010554552078247,0.9610554575920105
1667257277.20042300,90785053,42.6891365,-84.4915485,270.2099914550781,1.9027581214904785,0.9627581238746643
1667257277.24061394,90825244,42.689136399999995,-84.4915489,270.2099914550781,1.904097557067871,0.9640975594520569
1667257277.28094792,90865578,42.6891362,-84.4915492,270.2099914550781,1.906065583229065,0.9660656452178955
1667257277.28106403,90865694,42.6891362,-84.4915492,270.2099914550781,1.906065583229065,0.9660656452178955
1667257277.32033896,90904969,42.6891361,-84.4915496,270.2099914550781,1.907327651977539,0.9673276543617249
1667257277.36026692,90944897,42.6891359,-84.4915499,270.2099914550781,1.9073755741119385,0.9673755764961243
1667257277.38088703,90965517,42.6891359,-84.4915501,270.2099914550781,1.9070205688476562,0.9670206308364868
1667257277.40025902,90984889,42.689135799999995,-84.4915503,270.2099914550781,1.9077948331832886,0.9677948951721191
1667257277.44060493,91025235,42.6891357,-84.49155069999999,270.2099914550781,1.907943844795227,0.9679438471794128
1667257277.48090005,91065530,42.6891355,-84.491551,270.2099914550781,1.9096304178237915,0.9696304798126221
1667257277.48097110,91065601,42.6891355,-84.491551,270.2099914550781,1.9096304178237915,0.9696304798126221
1667257277.52038598,91105016,42.6891354,-84.49155139999999,270.2200012207031,1.9120337963104248,0.9720337986946106
1667257277.56037998,91145010,42.6891353,-84.4915518,270.2200012207031,1.9153144359588623,0.9753144979476929
1667257277.58083510,91165465,42.689135199999996,-84.491552,270.2200012207031,1.9169538021087646,0.9769538640975952
1667257277.60026789,91184898,42.6891351,-84.4915522,270.2200012207031,1.9188154935836792,0.978815495967865
1667257277.64064097,91225271,42.689135,-84.49155259999999,270.22998046875,1.923109769821167,0.9831098318099976
1667257277.68084097,91265471,42.6891349,-84.491553,270.22998046875,1.927706003189087,0.9877060055732727
1667257277.68097305,91265603,42.6891349,-84.491553,270.22998046875,1.927706003189087,0.9877060055732727
1667257277.72040391,91305034,42.6891347,-84.4915534,270.239990234375,1.9320663213729858,0.9920663237571716
1667257277.76027989,91344910,42.689134599999996,-84.49155379999999,270.239990234375,1.936038613319397,0.9960386157035828
1667257277.78087211,91365502,42.6891345,-84.491554,270.239990234375,1.9380520582199097,0.9980520606040955
1667257277.80030990,91384940,42.6891344,-84.4915542,270.25,1.9402356147766113,1.000235676765442
1667257277.84062290,91425253,42.6891343,-84.4915546,270.25,1.9454632997512817,1.0054633617401123
1667257277.88089108,91465521,42.6891342,-84.49155499999999,270.2599792480469,1.9504075050354004,1.010407567024231
1667257277.88108301,91465713,42.6891342,-84.49155499999999,270.2599792480469,1.9504075050354004,1.010407567024231
1667257277.92042804,91505058,42.6891341,-84.4915554,270.2599792480469,1.9554462432861328,1.0154463052749634
1667257277.96039510,91545025,42.689133899999995,-84.4915558,270.2699890136719,1.9607064723968506,1.0207065343856812
1667257277.98078895,91565419,42.689133899999995,-84.491556,270.2699890136719,1.9633077383041382,1.0233078002929688
1667257278.00031900,91584949,42.6891338,-84.49155619999999,270.2699890136719,1.965838074684143,1.0258381366729736
1667257278.04066610,91625296,42.6891337,-84.4915566,270.2799987792969,1.9719562530517578,1.0319563150405884
1667257278.08080602,91665436,42.6891336,-84.491557,270.2799987792969,1.97794508934021,1.0379451513290405
1667257278.08093596,91665566,42.6891336,-84.491557,270.2799987792969,1.97794508934021,1.0379451513290405
1667257278.12041688,91705047,42.689133399999996,-84.4915573,270.2900085449219,1.9840677976608276,1.0440678596496582
1667257278.16038799,91745018,42.689133299999995,-84.4915577,270.29998779296875,1.9904142618179321,1.0504143238067627
1667257278.18080497,91765435,42.689133299999995,-84.49155789999999,270.29998779296875,1.9937548637390137,1.0537549257278442
1667257278.20037103,91785001,42.6891332,-84.49155809999999,270.29998779296875,1.9965494871139526,1.0565495491027832
1667257278.24070406,91825334,42.6891331,-84.4915584,270.30999755859375,2.0028884410858154,1.0628883838653564
1667257278.28086305,91865493,42.689133,-84.4915587,270.30999755859375,2.0086982250213623,1.0686982870101929
1667257278.28098702,91865617,42.689133,-84.4915587,270.30999755859375,2.0086982250213623,1.0686982870101929
1667257278.32036304,91904993,42.689133,-84.491559,270.32000732421875,2.0148541927337646,1.0748542547225952
1667257278.36031103,91944941,42.6891329,-84.49155929999999,270.3299865722656,2.021883726119995,1.0818836688995361
1667257278.38091588,91965546,42.689132799999996,-84.4915595,270.3299865722656,2.0256030559539795,1.08560311794281
1667257278.40036201,91984992,42.689132799999996,-84.4915596,270.3299865722656,2.0289525985717773,1.088952660560608
1667257278.44065094,92025281,42.689132799999996,-84.4915599,270.3399963378906,2.038785457611084,1.098785400390625
1667257278.48080707,92065437,42.689132699999995,-84.4915601,270.3500061035156,2.048319101333618,1.1083190441131592
1667257278.48087788,92065508,42.689132699999995,-84.4915601,270.3500061035156,2.048319101333618,1.1083190441131592
1667257278.52028394,92104914,42.689132699999995,-84.4915604,270.3599853515625,2.05867338180542,1.118673324584961
1667257278.56034088,92144971,42.6891326,-84.4915606,270.3699951171875,2.0699493885040283,1.1299493312835693
1667257278.58083987,92165470,42.6891326,-84.4915607,270.3800048828125,2.0762476921081543,1.1362477540969849
1667257278.60038495,92185015,42.6891326,-84.4915609,270.3899841308594,2.0820882320404053,1.1420882940292358
1667257278.64077902,92225409,42.6891326,-84.49156099999999,270.3999938964844,2.0957775115966797,1.1557775735855103
1667257278.68081093,92265441,42.6891326,-84.49156119999999,270.4100036621094,2.1091480255126953,1.1691480875015259
1667257278.68092394,92265554,42.6891326,-84.49156119999999,270.4100036621094,2.1091480255126953,1.1691480875015259
1667257278.72031307,92304943,42.6891326,-84.4915614,270.42999267578125,2.123377561569214,1.1833775043487549
1667257278.76028705,92344917,42.6891326,-84.4915615,270.44000244140625,2.138826608657837,1.198826551437378
1667257278.78088808,92365518,42.6891326,-84.4915616,270.4499816894531,2.147017478942871,1.2070175409317017
1667257278.80042505,92385055,42.6891326,-84.49156169999999,270.4599914550781,2.1548306941986084,1.214830756187439
1667257278.84060502,92425235,42.6891326,-84.4915619,270.47998046875,2.172376871109009,1.2323768138885498
1667257278.88091707,92465547,42.6891326,-84.491562,270.489990234375,2.189732789993286,1.2497328519821167
1667257278.88098788,92465618,42.6891326,-84.491562,270.489990234375,2.189732789993286,1.2497328519821167
1667257278.92038703,92505017,42.6891325,-84.49156219999999,270.5099792480469,2.207611322402954,1.2676113843917847
1667257278.96041989,92545050,42.6891325,-84.4915623,270.5299987792969,2.225670337677002,1.2856703996658325
1667257278.98088002,92565510,42.6891325,-84.49156239999999,270.5400085449219,2.234915256500244,1.2949151992797852
1667257279.00041199,92585042,42.6891325,-84.4915625,270.54998779296875,2.243709087371826,1.3037091493606567
1667257279.04061007,92625240,42.6891324,-84.4915627,270.57000732421875,2.2616231441497803,1.3216232061386108
1667257279.08084393,92665474,42.6891324,-84.4915628,270.5799865722656,2.279118299484253,1.339118242263794
1667257279.08091903,92665549,42.6891324,-84.4915628,270.5799865722656,2.279118299484253,1.339118242263794
1667257279.12036109,92704991,42.6891323,-84.491563,270.6000061035156,2.2962894439697266,1.3562893867492676
1667257279.16029096,92744921,42.6891323,-84.4915632,270.6199951171875,2.3129961490631104,1.3729960918426514
1667257279.18095303,92765583,42.689132199999996,-84.4915632,270.6300048828125,2.321237087249756,1.3812370300292969
1667257279.20031095,92784941,42.689132199999996,-84.4915633,270.6300048828125,2.3288915157318115,1.3888914585113525
1667257279.24060607,92825236,42.689132099999995,-84.4915635,270.6499938964844,2.343611478805542,1.4036115407943726
1667257279.28094602,92865576,42.689132,-84.49156359999999,270.6600036621094,2.357495069503784,1.4174950122833252
1667257279.28101897,92865649,42.689132,-84.49156359999999,270.6600036621094,2.357495069503784,1.4174950122833252
1667257279.32036400,92904994,42.689132,-84.4915637,270.67999267578125,2.370864152908325,1.4308642148971558
1667257279.36034608,92944976,42.6891319,-84.4915639,270.69000244140625,2.3835840225219727,1.4435839653015137
1667257279.38088202,92965512,42.6891319,-84.4915639,270.69000244140625,2.3896803855895996,1.4496803283691406
1667257279.40032506,92984955,42.6891318,-84.491564,270.6999816894531,2.3954970836639404,1.455497145652771
1667257279.44059992,93025230,42.6891318,-84.49156409999999,270.7099914550781,2.405574321746826,1.4655742645263672
1667257279.48078895,93065419,42.6891317,-84.49156409999999,270.7200012207031,2.415177583694458,1.475177526473999
1667257279.48091698,93065547,42.6891317,-84.49156409999999,270.7200012207031,2.415177583694458,1.475177526473999
1667257279.52039099,93105021,42.689131599999996,-84.4915642,270.72998046875,2.4246108531951904,1.4846107959747314
1667257279.56031895,93144949,42.689131599999996,-84.4915642,270.739990234375,2.4338912963867188,1.4938913583755493
1667257279.58075190,93165382,42.689131599999996,-84.4915643,270.739990234375,2.438416004180908,1.4984160661697388
1667257279.60031796,93184948,42.689131499999995,-84.4915643,270.75,2.442577362060547,1.5025774240493774
1667257279.64079809,93225428,42.689131499999995,-84.4915643,270.75,2.448413372039795,1.508413314819336
1667257279.68088508,93265515,42.689131499999995,-84.4915643,270.7599792480469,2.4543397426605225,1.514339804649353
1667257279.68097806,93265608,42.689131499999995,-84.4915643,270.7599792480469,2.4543397426605225,1.514339804649353
1667257279.72042894,93305059,42.689131499999995,-84.4915643,270.7699890136719,2.460017204284668,1.5200172662734985
1667257279.76037192,93345002,42.6891314,-84.4915642,270.7699890136719,2.4655909538269043,1.5255910158157349
1667257279.78074002,93365370,42.6891314,-84.4915642,270.7699890136719,2.468095541000366,1.5280956029891968
1667257279.80038500,93385015,42.6891314,-84.4915642,270.7799987792969,2.4705028533935547,1.5305029153823853
1667257279.84070301,93425333,42.6891314,-84.49156409999999,270.7799987792969,2.4742233753204346,1.5342234373092651
1667257279.88078809,93465418,42.6891313,-84.491564,270.7799987792969,2.4779443740844727,1.5379443168640137
1667257279.88090992,93465540,42.6891313,-84.491564,270.7799987792969,2.4779443740844727,1.5379443168640137
1667257279.92027187,93504902,42.6891313,-84.491564,270.7900085449219,2.4813809394836426,1.5413808822631836
1667257279.96029305,93544923,42.6891313,-84.4915639,270.7900085449219,2.4844443798065186,1.5444443225860596
1667257279.98083591,93565466,42.6891313,-84.4915639,270.7900085449219,2.485851287841797,1.545851230621338
1667257280.00038600,93585016,42.6891313,-84.4915638,270.7900085449219,2.48734974861145,1.5473496913909912
1667257280.04064298,93625273,42.6891313,-84.4915637,270.7900085449219,2.489365816116333,1.5493658781051636
1667257280.08092594,93665556,42.6891313,-84.4915637,270.79998779296875,2.4912331104278564,1.551233172416687
1667257280.08106208,93665692,42.6891313,-84.4915637,270.79998779296875,2.4912331104278564,1.551233172416687
1667257280.12025905,93704889,42.6891312,-84.49156359999999,270.79998779296875,2.4933571815490723,1.5533571243286133
1667257280.16029501,93744925,42.6891312,-84.49156359999999,270.79998779296875,2.495797634124756,1.5557976961135864
1667257280.18090010,93765530,42.6891312,-84.49156359999999,270.79998779296875,2.4968998432159424,1.5568997859954834
1667257280.20040989,93785040,42.6891312,-84.49156359999999,270.79998779296875,2.4980340003967285,1.558034062385559
1667257280.24068499,93825315,42.6891311,-84.4915635,270.80999755859375,2.5007011890411377,1.5607012510299683
1667257280.28085208,93865482,42.689130999999996,-84.4915635,270.80999755859375,2.5028674602508545,1.5628674030303955
1667257280.28093290,93865563,42.689130999999996,-84.4915635,270.80999755859375,2.5028674602508545,1.5628674030303955
1667257280.32026005,93904890,42.689130899999995,-84.49156339999999,270.80999755859375,2.504704236984253,1.5647042989730835
1667257280.36029506,93944925,42.689130899999995,-84.49156339999999,270.80999755859375,2.5061638355255127,1.5661637783050537
1667257280.38083291,93965463,42.6891308,-84.49156339999999,270.80999755859375,2.5067696571350098,1.5667697191238403
1667257280.40043402,93985064,42.6891308,-84.49156339999999,270.80999755859375,2.507228136062622,1.5672281980514526
1667257280.44073200,94025362,42.6891307,-84.49156339999999,270.80999755859375,2.5068483352661133,1.5668483972549438
1667257280.48093200,94065562,42.6891306,-84.49156339999999,270.80999755859375,2.506646156311035,1.5666460990905762
1667257280.48100305,94065633,42.6891306,-84.49156339999999,270.80999755859375,2.506646156311035,1.5666460990905762
1667257280.52030587,94104936,42.6891305,-84.49156339999999,270.80999755859375,2.506222724914551,1.5662227869033813
1667257280.56031203,94144942,42.6891305,-84.49156339999999,270.80999755859375,2.505556106567383,1.5655560493469238
1667257280.58090591,94165536,42.689130399999996,-84.49156339999999,270.80999755859375,2.505061149597168,1.565061092376709
1667257280.60035801,94184988,42.689130399999996,-84.49156339999999,270.80999755859375,2.5046300888061523,1.564630150794983
1667257280.64068198,94225312,42.689130399999996,-84.49156339999999,270.80999755859375,2.50296950340271,1.5629695653915405
1667257280.68086195,94265492,42.689130299999995,-84.4915635,270.80999755859375,2.5013229846954346,1.5613229274749756
1667257280.68097401,94265604,42.689130299999995,-84.4915635,270.80999755859375,2.5013229846954346,1.5613229274749756
1667257280.72044301,94305073,42.689130299999995,-84.4915635,270.79998779296875,2.499549627304077,1.5595496892929077
1667257280.76032805,94344958,42.6891302,-84.4915635,270.79998779296875,2.4975125789642334,1.557512640953064
1667257280.78082800,94365458,42.6891302,-84.4915635,270.79998779296875,2.4963767528533936,1.5563766956329346
1667257280.80031991,94384950,42.6891302,-84.4915635,270.79998779296875,2.495300769805908,1.5553008317947388
1667257280.84060788,94425238,42.6891301,-84.4915635,270.79998779296875,2.4933578968048096,1.5533578395843506
1667257280.88085604,94465486,42.68913,-84.4915635,270.79998779296875,2.491513252258301,1.5515133142471313
1667257280.88102508,94465655,42.68913,-84.4915635,270.79998779296875,2.491513252258301,1.5515133142471313
1667257280.92039490,94505025,42.68913,-84.4915635,270.7900085449219,2.489548444747925,1.5495483875274658
1667257280.96034288,94544973,42.68913,-84.4915635,270.7900085449219,2.4874143600463867,1.5474144220352173
1667257280.98095608,94565586,42.68913,-84.4915635,270.7900085449219,2.4863128662109375,1.546312928199768
1667257281.00035810,94584988,42.68913,-84.4915635,270.7900085449219,2.485177993774414,1.5451780557632446
1667257281.04063296,94625263,42.68913,-84.4915635,270.7900085449219,2.4833695888519287,1.5433696508407593
1667257281.08086395,94665494,42.68913,-84.4915635,270.7900085449219,2.481502056121826,1.5415021181106567
1667257281.08100891,94665639,42.68913,-84.4915635,270.7900085449219,2.481502056121826,1.5415021181106567
1667257281.12039495,94705025,42.6891299,-84.4915635,270.7799987792969,2.479585647583008,1.5395855903625488
1667257281.16037893,94745009,42.6891299,-84.4915635,270.7799987792969,2.477768898010254,1.5377689599990845
1667257281.18079805,94765428,42.6891299,-84.4915635,270.7799987792969,2.476956605911255,1.536956548690796
1667257281.20033002,94784960,42.6891299,-84.4915635,270.7799987792969,2.475785970687866,1.5357859134674072
1667257281.24062800,94825258,42.689129799999996,-84.4915635,270.7799987792969,2.4738988876342773,1.533898949623108
1667257281.28080988,94865440,42.689129799999996,-84.4915635,270.7799987792969,2.471693515777588,1.5316935777664185
1667257281.28094506,94865575,42.689129799999996,-84.4915635,270.7799987792969,2.471693515777588,1.5316935777664185
1667257281.32047510,94905105,42.689129799999996,-84.49156339999999,270.7699890136719,2.469421625137329,1.5294215679168701
1667257281.36037588,94945006,42.689129699999995,-84.49156339999999,270.7699890136719,2.4670286178588867,1.5270286798477173
1667257281.38075805,94965388,42.689129699999995,-84.49156339999999,270.7699890136719,2.4658915996551514,1.525891661643982
1667257281.40038490,94985015,42.689129699999995,-84.49156339999999,270.7699890136719,2.464566707611084,1.524566650390625
1667257281.44070387,95025334,42.689129699999995,-84.49156339999999,270.7699890136719,2.4632627964019775,1.523262858390808
1667257281.48089409,95065524,42.6891296,-84.49156339999999,270.7699890136719,2.4612643718719482,1.5212644338607788
1667257281.48103905,95065669,42.6891296,-84.49156339999999,270.7699890136719,2.4612643718719482,1.5212644338607788
1667257281.52040195,95105032,42.6891296,-84.49156339999999,270.7599792480469,2.4590020179748535,1.519002079963684
1667257281.56031108,95144941,42.6891296,-84.49156339999999,270.7599792480469,2.456620931625366,1.5166209936141968
1667257281.58084893,95165479,42.6891295,-84.49156339999999,270.7599792480469,2.455646514892578,1.5156465768814087
1667257281.60040689,95185037,42.6891295,-84.49156339999999,270.7599792480469,2.4542300701141357,1.5142301321029663
1667257281.64073992,95225370,42.6891295,-84.4915633,270.7599792480469,2.451246500015259,1.5112464427947998
1667257281.68091893,95265549,42.6891295,-84.4915633,270.75,2.4481918811798096,1.5081918239593506
1667257281.68101001,95265640,42.6891295,-84.4915633,270.75,2.4481918811798096,1.5081918239593506
1667257281.72033191,95304962,42.6891294,-84.4915633,270.75,2.445195436477661,1.5051954984664917
1667257281.76033187,95344962,42.6891294,-84.4915633,270.75,2.4422786235809326,1.5022786855697632
1667257281.78084588,95365476,42.6891294,-84.4915633,270.75,2.4409825801849365,1.5009825229644775
1667257281.80039787,95385028,42.6891294,-84.4915633,270.739990234375,2.4395806789398193,1.49958074092865
1667257281.84069991,95425330,42.6891294,-84.4915633,270.739990234375,2.436927080154419,1.49692702293396
1667257281.88096309,95465593,42.6891294,-84.4915632,270.739990234375,2.4345428943634033,1.4945429563522339
1667257281.88113904,95465769,42.6891294,-84.4915632,270.739990234375,2.4345428943634033,1.4945429563522339
1667257281.92036796,95504998,42.6891294,-84.4915632,270.739990234375,2.432507276535034,1.4925072193145752
1667257281.96027803,95544908,42.6891293,-84.4915632,270.739990234375,2.4310314655303955,1.491031527519226
1667257281.98092508,95565555,42.6891293,-84.4915632,270.739990234375,2.4304540157318115,1.490454077720642
1667257282.00040102,95585031,42.6891293,-84.4915632,270.72998046875,2.4299440383911133,1.4899441003799438
1667257282.04074788,95625378,42.6891293,-84.4915632,270.739990234375,2.430626630783081,1.490626573562622
1667257282.08090496,95665535,42.6891293,-84.4915632,270.739990234375,2.4317381381988525,1.4917380809783936
1667257282.08102489,95665655,42.6891293,-84.4915632,270.739990234375,2.4317381381988525,1.4917380809783936
1667257282.12028599,95704916,42.6891293,-84.4915631,270.739990234375,2.4340832233428955,1.494083285331726
1667257282.16039896,95745029,42.6891293,-84.4915631,270.739990234375,2.437917470932007,1.4979174137115479
1667257282.18089008,95765520,42.6891293,-84.4915631,270.75,2.4404733180999756,1.5004733800888062
1667257282.20030403,95784934,42.6891293,-84.4915631,270.75,2.4427554607391357,1.5027554035186768
1667257282.24067593,95825306,42.6891293,-84.4915631,270.7599792480469,2.4520459175109863,1.5120458602905273
1667257282.28084302,95865473,42.6891294,-84.4915631,270.7699890136719,2.460812568664551,1.5208126306533813
1667257282.28096104,95865591,42.6891294,-84.4915631,270.7699890136719,2.460812568664551,1.5208126306533813
1667257282.32043600,95905066,42.6891294,-84.4915631,270.7799987792969,2.4702532291412354,1.530253291130066
1667257282.36030197,95944932,42.6891294,-84.4915631,270.7900085449219,2.4803524017333984,1.540352463722229
1667257282.38083792,95965468,42.6891294,-84.4915631,270.7900085449219,2.4859209060668945,1.545920968055725
1667257282.40033603,95984966,42.6891294,-84.4915631,270.79998779296875,2.490813732147217,1.5508137941360474
1667257282.44060707,96025237,42.6891294,-84.4915631,270.80999755859375,2.5031192302703857,1.5631191730499268
1667257282.48081303,96065443,42.6891294,-84.491563,270.82000732421875,2.514838457107544,1.574838399887085
1667257282.48094606,96065576,42.6891294,-84.491563,270.82000732421875,2.514838457107544,1.574838399887085
1667257282.52038002,96105010,42.6891294,-84.491563,270.8299865722656,2.5271925926208496,1.5871925354003906
1667257282.56033587,96144966,42.6891294,-84.491563,270.8500061035156,2.5403594970703125,1.600359559059143
1667257282.58099604,96165626,42.6891294,-84.491563,270.8500061035156,2.547546625137329,1.6075465679168701
1667257282.60042500,96185055,42.6891294,-84.491563,270.8599853515625,2.5536224842071533,1.6136225461959839
1667257282.64077902,96225409,42.6891293,-84.491563,270.8699951171875,2.5678393840789795,1.6278393268585205
1667257282.68080306,96265433,42.6891293,-84.491563,270.8899841308594,2.581090211868286,1.6410901546478271
1667257282.68093801,96265568,42.6891293,-84.491563,270.8899841308594,2.581090211868286,1.6410901546478271
1667257282.72040796,96305038,42.6891293,-84.491563,270.8999938964844,2.59466290473938,1.654662847518921
1667257282.76032591,96344956,42.6891293,-84.491563,270.9100036621094,2.60872745513916,1.6687273979187012
1667257282.78081894,96365449,42.689129199999996,-84.491563,270.91998291015625,2.6161320209503174,1.6761319637298584
1667257282.80032587,96384956,42.689129199999996,-84.491563,270.92999267578125,2.622807025909424,1.6828070878982544
