timestamp,TimeUS,C,Q1,Q2,Q3,Q4
1667257267.51959705,81104227,1,0.1852864921092987,-0.012236392125487328,0.006999143399298191,-0.9825834035873413
1667257267.55955505,81144185,1,0.1852654069662094,-0.012248548679053783,0.007006979547441006,-0.9825872182846069
1667257267.57962108,81164251,1,0.18525594472885132,-0.012248458340764046,0.007009380497038364,-0.9825889468193054
1667257267.59962010,81184250,1,0.18524523079395294,-0.01225175242871046,0.007008567918092012,-0.9825909733772278
1667257267.63960791,81224238,1,0.18522565066814423,-0.012247472070157528,0.006992848124355078,-0.9825947880744934
1667257267.67963099,81264261,1,0.18522535264492035,-0.012265116907656193,0.006968710105866194,-0.9825947880744934
1667257267.71955895,81304189,1,0.18523216247558594,-0.012262812815606594,0.0069720689207315445,-0.9825935363769531
1667257267.75958204,81344212,1,0.1852247714996338,-0.012262026779353619,0.006992000620812178,-0.9825947880744934
1667257267.77962303,81364253,1,0.18523356318473816,-0.012256069108843803,0.006976549047976732,-0.982593297958374
1667257267.79958105,81384211,1,0.1852332204580307,-0.012263957411050797,0.006973764393478632,-0.982593297958374
1667257267.83960891,81424239,1,0.18520474433898926,-0.012249904684722424,0.006970184855163097,-0.9825989007949829
1667257267.87960601,81464236,1,0.1852044314146042,-0.012258587405085564,0.006939360406249762,-0.9825990796089172
1667257267.91963410,81504264,1,0.18520404398441315,-0.012254300527274609,0.006931219715625048,-0.9825992584228516
1667257267.95955801,81544188,1,0.18519948422908783,-0.012264779768884182,0.006937478203326464,-0.9825999140739441
1667257267.97961807,81564248,1,0.18521568179130554,-0.012272471562027931,0.006937964353710413,-0.982596755027771
1667257267.99957991,81584210,1,0.18520081043243408,-0.012281372211873531,0.0069401138462126255,-0.9825994372367859
1667257268.03955698,81624187,1,0.1852055788040161,-0.012267684563994408,0.00693643419072032,-0.9825987219810486
1667257268.07962608,81664256,1,0.1852041333913803,-0.012269806116819382,0.006940838880836964,-0.9825989603996277
1667257268.11962390,81704254,1,0.18519975244998932,-0.012251093052327633,0.006914106663316488,-0.982600212097168
1667257268.15963507,81744265,1,0.18519514799118042,-0.012251120060682297,0.006898671854287386,-0.9826011657714844
1667257268.17960405,81764234,1,0.18518488109111786,-0.012267098762094975,0.006900065578520298,-0.9826028943061829
1667257268.19955802,81784188,1,0.18518464267253876,-0.01225742232054472,0.00691232131794095,-0.9826030135154724
1667257268.23957896,81824209,1,0.18516360223293304,-0.01225222460925579,0.006921896245330572,-0.9826069474220276
1667257268.27961802,81864248,1,0.1851649135351181,-0.012245283462107182,0.00690040597692132,-0.9826069474220276
1667257268.31961799,81904248,1,0.18518348038196564,-0.012236795388162136,0.006880720611661673,-0.9826036691665649
1667257268.35960197,81944232,1,0.18520888686180115,-0.01223828736692667,0.006871706340461969,-0.9825989603996277
1667257268.37959504,81964225,1,0.18520599603652954,-0.01223713904619217,0.0068818069994449615,-0.9825994372367859
1667257268.39959192,81984222,1,0.1852116584777832,-0.012234470807015896,0.006876141764223576,-0.9825984239578247
1667257268.43959188,82024222,1,0.18524609506130219,-0.012223932892084122,0.006897724233567715,-0.9825919270515442
1667257268.47958899,82064219,1,0.1852499097585678,-0.012223071418702602,0.006878336425870657,-0.9825913310050964
1667257268.51959205,82104222,1,0.18523873388767242,-0.01222109142690897,0.006850784178823233,-0.9825936555862427
1667257268.55961800,82144248,1,0.1852296143770218,-0.012203938327729702,0.006834289990365505,-0.9825957417488098
1667257268.57958698,82164217,1,0.1852239966392517,-0.012209170497953892,0.006821486633270979,-0.9825968146324158
1667257268.59962606,82184256,1,0.18522422015666962,-0.012202023528516293,0.0068105775862932205,-0.9825969338417053
1667257268.63956189,82224192,1,0.18524351716041565,-0.012208416126668453,0.006825641728937626,-0.9825931191444397
1667257268.67957997,82264210,1,0.185256689786911,-0.012211036868393421,0.006843725685030222,-0.9825904369354248
1667257268.71956587,82304196,1,0.1852465122938156,-0.012225341983139515,0.006841109599918127,-0.9825922250747681
1667257268.75961304,82344243,1,0.18525512516498566,-0.012207560241222382,0.006812145467847586,-0.9825910329818726
1667257268.77959991,82364230,1,0.18526330590248108,-0.012220952659845352,0.006798774003982544,-0.9825894236564636
1667257268.79959393,82384224,1,0.18527361750602722,-0.012229991145431995,0.006793777458369732,-0.9825873970985413
1667257268.83961511,82424245,1,0.18527103960514069,-0.012223795056343079,0.006790588144212961,-0.982587993144989
1667257268.87955904,82464189,1,0.18528109788894653,-0.01223032921552658,0.006803067401051521,-0.9825859069824219
1667257268.91957998,82504210,1,0.18530049920082092,-0.012252749875187874,0.006779539864510298,-0.982582151889801
1667257268.95958090,82544211,1,0.18534958362579346,-0.012241625227034092,0.006751863285899162,-0.9825732111930847
1667257268.97958589,82564216,1,0.18537333607673645,-0.012238767929375172,0.006742072757333517,-0.9825688004493713
1667257268.99962592,82584256,1,0.1854124367237091,-0.012242279015481472,0.00672949617728591,-0.982561469078064
1667257269.03961492,82624245,1,0.18544785678386688,-0.012242616154253483,0.006698848679661751,-0.9825550317764282
1667257269.07963395,82664264,1,0.18548119068145752,-0.012235832400619984,0.006701132282614708,-0.9825487732887268
1667257269.11955595,82704186,1,0.1855027973651886,-0.01224134024232626,0.006679703015834093,-0.9825447797775269
1667257269.15958905,82744219,1,0.18555131554603577,-0.012235045433044434,0.006660764571279287,-0.9825358390808105
1667257269.17962289,82764253,1,0.18556071817874908,-0.01220260001718998,0.006649065762758255,-0.9825345277786255
1667257269.19961095,82784241,1,0.18556161224842072,-0.01219998486340046,0.006626692600548267,-0.9825345277786255
1667257269.23961306,82824243,1,0.1855728030204773,-0.01221151277422905,0.006614353973418474,-0.9825323820114136
1667257269.27962399,82864254,1,0.1855902075767517,-0.01220936793833971,0.006601240020245314,-0.9825292229652405
1667257269.31959200,82904222,1,0.18563567101955414,-0.012209132313728333,0.006581386085599661,-0.9825207591056824
1667257269.35958409,82944214,1,0.1856556534767151,-0.012211018241941929,0.0065455748699605465,-0.9825171828269958
1667257269.37962890,82964259,1,0.18567124009132385,-0.012212731875479221,0.006528906524181366,-0.9825143218040466
1667257269.39957905,82984209,1,0.18567518889904022,-0.012219950556755066,0.006506048608571291,-0.9825136661529541
1667257269.43961787,83024248,1,0.18569357693195343,-0.012220073491334915,0.00647401437163353,-0.9825103878974915
1667257269.47961593,83064246,1,0.18570999801158905,-0.012231995351612568,0.006457408890128136,-0.9825072288513184
1667257269.51963091,83104261,1,0.18573008477687836,-0.012234760448336601,0.006457824259996414,-0.9825034141540527
1667257269.55955505,83144185,1,0.1857677847146988,-0.012232148088514805,0.0064252037554979324,-0.9824965000152588
1667257269.57961202,83164242,1,0.18581125140190125,-0.012230392545461655,0.0064110285602509975,-0.9824883937835693
1667257269.59958291,83184213,1,0.18581576645374298,-0.012219619937241077,0.006400003097951412,-0.9824877977371216
1667257269.63958287,83224213,1,0.18586958944797516,-0.012227258644998074,0.00636265380308032,-0.9824777245521545
1667257269.67962289,83264253,1,0.18592685461044312,-0.012235038913786411,0.006337451748549938,-0.982466995716095
1667257269.71959400,83304224,1,0.185984805226326,-0.012229963205754757,0.006316720973700285,-0.9824562072753906
1667257269.75962305,83344253,1,0.18600507080554962,-0.012254219502210617,0.006320965941995382,-0.9824520349502563
1667257269.77960801,83364238,1,0.18600548803806305,-0.012265408411622047,0.006299933418631554,-0.9824519753456116
1667257269.79956889,83384199,1,0.1860169768333435,-0.012267149984836578,0.006285780109465122,-0.9824498295783997
1667257269.83958197,83424212,1,0.18601655960083008,-0.012285456992685795,0.006258449051529169,-0.9824498891830444
1667257269.87958193,83464212,1,0.18600627779960632,-0.012282892130315304,0.006232984829694033,-0.9824520349502563
1667257269.91959500,83504225,1,0.18600790202617645,-0.01225284393876791,0.006219823379069567,-0.9824521541595459
1667257269.95962310,83544253,1,0.1860547512769699,-0.01225645374506712,0.0062017180025577545,-0.9824433326721191
1667257269.97958398,83564214,1,0.18608011305332184,-0.01225481741130352,0.006194998510181904,-0.9824386239051819
1667257269.99964595,83584276,1,0.1860988587141037,-0.012260117568075657,0.006177279632538557,-0.9824351072311401
1667257270.03956008,83624190,1,0.18610002100467682,-0.012255440466105938,0.0061481730081140995,-0.9824351072311401
1667257270.07958794,83664218,1,0.18610066175460815,-0.012261154130101204,0.006112957373261452,-0.9824351668357849
1667257270.11962390,83704254,1,0.18612012267112732,-0.012269126251339912,0.006090289447456598,-0.9824315309524536
1667257270.15961194,83744242,1,0.1861068159341812,-0.012279251590371132,0.0060888128355145454,-0.9824339151382446
1667257270.17958808,83764218,1,0.18610863387584686,-0.012255719862878323,0.006076553370803595,-0.9824339151382446
1667257270.19963694,83784267,1,0.1861080676317215,-0.012242020107805729,0.006058207247406244,-0.9824343323707581
1667257270.23956704,83824197,1,0.18612268567085266,-0.012257374823093414,0.006027499679476023,-0.9824315905570984
1667257270.27959299,83864223,1,0.1861296445131302,-0.012246468104422092,0.006000109016895294,-0.9824305176734924
1667257270.31958699,83904217,1,0.18613140285015106,-0.012255164794623852,0.005978383589535952,-0.9824302196502686
1667257270.35961604,83944246,1,0.18606768548488617,-0.012278060428798199,0.005989563185721636,-0.9824419617652893
1667257270.37956190,83964192,1,0.18606972694396973,-0.012275781482458115,0.005983824376016855,-0.9824416041374207
1667257270.39962006,83984250,1,0.18608810007572174,-0.012283364310860634,0.005957118701189756,-0.9824382066726685
1667257270.43963289,84024263,1,0.18618936836719513,-0.012266242876648903,0.005935138091444969,-0.9824193716049194
1667257270.47956610,84064196,1,0.18623988330364227,-0.012285004369914532,0.005896212067455053,-0.9824097752571106
1667257270.51959109,84104221,1,0.18618862330913544,-0.012269637547433376,0.005900540389120579,-0.9824196696281433
1667257270.55958509,84144215,1,0.18606242537498474,-0.012263724580407143,0.005843719467520714,-0.9824439883232117
1667257270.57959890,84164229,1,0.1859986037015915,-0.01223341841250658,0.005808764137327671,-0.9824566841125488
1667257270.59962010,84184250,1,0.18592722713947296,-0.012216199189424515,0.005804548505693674,-0.9824704527854919
1667257270.63962698,84224257,1,0.18578749895095825,-0.012207129038870335,0.005764905363321304,-0.9824972152709961
1667257270.67962790,84264258,1,0.18580149114131927,-0.012216830626130104,0.0057309651747345924,-0.9824946522712708
1667257270.71956205,84304192,1,0.18598242104053497,-0.012224645353853703,0.005681494250893593,-0.982460618019104
1667257270.75958991,84344220,1,0.1860608607530594,-0.012236368842422962,0.005681319162249565,-0.9824455976486206
1667257270.77963901,84364269,1,0.18605919182300568,-0.012240622192621231,0.005690377205610275,-0.9824458360671997
1667257270.79963303,84384263,1,0.1860870122909546,-0.012204943224787712,0.0057065244764089584,-0.9824408888816833
1667257270.83961511,84424245,1,0.18589846789836884,-0.012087959796190262,0.005581600591540337,-0.9824787378311157
1667257270.87963390,84464264,1,0.18569570779800415,-0.01195137295871973,0.0053526246920228004,-0.9825200438499451
1667257270.91960502,84504235,1,0.18560390174388885,-0.011689979583024979,0.005115045700222254,-0.9825417995452881
1667257270.95959496,84544225,1,0.18563084304332733,-0.011615746654570103,0.0051681422628462315,-0.9825373291969299
1667257270.97961998,84564250,1,0.18559609353542328,-0.011676514521241188,0.0052464744076132774,-0.9825427532196045
1667257270.99959803,84584228,1,0.18550103902816772,-0.011585656553506851,0.0051191458478569984,-0.9825624227523804
1667257271.03961492,84624245,1,0.18552850186824799,-0.01156117208302021,0.0055078743025660515,-0.9825554490089417
1667257271.07962298,84664253,1,0.1852719932794571,-0.011620047502219677,0.0056212409399449825,-0.9826024770736694
1667257271.11962605,84704256,1,0.18500860035419464,-0.011737681925296783,0.004978756420314312,-0.9826542139053345
1667257271.15960002,84744230,1,0.18459632992744446,-0.011610179208219051,0.004989903885871172,-0.9827331900596619
1667257271.17962098,84764251,1,0.1843576282262802,-0.011724641546607018,0.004930275026708841,-0.982776939868927
1667257271.19956803,84784198,1,0.18426163494586945,-0.011758045293390751,0.005116175394505262,-0.9827935695648193
1667257271.23960495,84824235,1,0.18404828011989594,-0.011696604080498219,0.00509260967373848,-0.9828343987464905
1667257271.27962089,84864251,1,0.18389774858951569,-0.011541344225406647,0.005156890023499727,-0.9828640818595886
1667257271.31961107,84904241,1,0.18376007676124573,-0.0115947425365448,0.005184400826692581,-0.9828890562057495
1667257271.35962296,84944253,1,0.18345271050930023,-0.011621411889791489,0.004994314629584551,-0.9829471707344055
1667257271.37963104,84964261,1,0.18334822356700897,-0.011611059308052063,0.005012314300984144,-0.9829666614532471
1667257271.39956594,84984196,1,0.18327532708644867,-0.011599438264966011,0.005049887113273144,-0.9829801917076111
1667257271.43962598,85024256,1,0.1826825737953186,-0.01170180644840002,0.0051398021169006824,-0.9830888509750366
1667257271.47957301,85064203,1,0.18252012133598328,-0.011697358451783657,0.005061930976808071,-0.9831194877624512
1667257271.51961994,85104250,1,0.18218167126178741,-0.011687892489135265,0.004910039249807596,-0.9831831455230713
1667257271.55960894,85144239,1,0.18212340772151947,-0.011735045351088047,0.004856239538639784,-0.9831936359405518
1667257271.57958603,85164216,1,0.18209758400917053,-0.011710429564118385,0.004865887574851513,-0.9831987023353577
1667257271.59958291,85184213,1,0.1819896101951599,-0.011685704812407494,0.004789144266396761,-0.98321932554245
1667257271.63956094,85224191,1,0.18167978525161743,-0.011683942750096321,0.004807171877473593,-0.9832766056060791
1667257271.67956400,85264194,1,0.18151624500751495,-0.01169169507920742,0.00489966431632638,-0.9833062291145325
1667257271.71963191,85304262,1,0.18116940557956696,-0.011664697900414467,0.004774327389895916,-0.9833711385726929
1667257271.75962496,85344255,1,0.1810702383518219,-0.011627617292106152,0.004755096510052681,-0.9833899140357971
1667257271.77959299,85364223,1,0.18083830177783966,-0.01154441200196743,0.004796258173882961,-0.9834333658218384
1667257271.79962206,85384252,1,0.18066145479679108,-0.011647099629044533,0.004707337822765112,-0.9834651350975037
1667257271.83958006,85424210,1,0.18049533665180206,-0.011723902076482773,0.004805430769920349,-0.983494222164154
1667257271.87957788,85464208,1,0.18039734661579132,-0.011762681417167187,0.004852762445807457,-0.9835115075111389
1667257271.91959190,85504222,1,0.18029610812664032,-0.011910648085176945,0.004790146369487047,-0.9835286140441895
1667257271.95959210,85544222,1,0.1800554245710373,-0.01188750471919775,0.0048480406403541565,-0.9835726618766785
1667257271.97957993,85564210,1,0.17988987267017365,-0.011876377277076244,0.004731791093945503,-0.9836036562919617
1667257271.99962592,85584256,1,0.17977094650268555,-0.01197026763111353,0.004618619102984667,-0.9836248159408569
1667257272.03962803,85624258,1,0.17950505018234253,-0.01186611782759428,0.004676974844187498,-0.9836743474006653
1667257272.07957292,85664203,1,0.17909851670265198,-0.011927132494747639,0.004713113885372877,-0.9837475419044495
1667257272.11962199,85704252,1,0.17899319529533386,-0.01196296140551567,0.004600529558956623,-0.9837667942047119
1667257272.15957689,85744207,1,0.17881914973258972,-0.011928597465157509,0.00478140776976943,-0.9837980270385742
1667257272.17960596,85764236,1,0.17874954640865326,-0.01179675292223692,0.00453612906858325,-0.9838134050369263
1667257272.19963288,85784263,1,0.17870865762233734,-0.011863219551742077,0.004552929662168026,-0.9838199615478516
1667257272.23960996,85824240,1,0.17849573493003845,-0.011818377301096916,0.004337933845818043,-0.9838601350784302
1667257272.27963209,85864262,1,0.1781902313232422,-0.011697745881974697,0.004463832359761,-0.9839164018630981
1667257272.31958604,85904216,1,0.17781446874141693,-0.011826038360595703,0.004622789099812508,-0.9839820861816406
1667257272.35956502,85944195,1,0.17745879292488098,-0.011773251928389072,0.004519305191934109,-0.9840474128723145
1667257272.37963390,85964264,1,0.17740370333194733,-0.01183812040835619,0.004748547915369272,-0.9840555191040039
1667257272.39958787,85984218,1,0.17711004614830017,-0.011524448171257973,0.0044136024080216885,-0.9841136932373047
1667257272.43961692,86024247,1,0.1768830418586731,-0.011859649792313576,0.004634589422494173,-0.9841495156288147
1667257272.47959805,86064228,1,0.1766202747821808,-0.011799960397183895,0.004445242695510387,-0.984198272228241
1667257272.51958203,86104212,1,0.17642785608768463,-0.011690440587699413,0.004574895370751619,-0.9842334985733032
1667257272.55955887,86144189,1,0.17609107494354248,-0.01166145596653223,0.0043858727440238,-0.9842950105667114
1667257272.57962108,86164251,1,0.17589125037193298,-0.011711782775819302,0.004440056625753641,-0.9843299388885498
1667257272.59959793,86184228,1,0.17575868964195251,-0.011640728451311588,0.004050267860293388,-0.9843561053276062
1667257272.63962889,86224259,1,0.17528587579727173,-0.011689489707350731,0.004338237922638655,-0.9844385981559753
1667257272.67962408,86264254,1,0.17482410371303558,-0.01147234532982111,0.003668080549687147,-0.9845259785652161
1667257272.71963191,86304262,1,0.17436663806438446,-0.011826138012111187,0.004438586067408323,-0.984599769115448
1667257272.75960994,86344240,1,0.17400281131267548,-0.011928281746804714,0.004477921407669783,-0.9846627116203308
1667257272.77961802,86364248,1,0.17371736466884613,-0.011783936992287636,0.004451029002666473,-0.9847149848937988
1667257272.79959393,86384224,1,0.17362895607948303,-0.011727611534297466,0.004336430691182613,-0.9847317337989807
1667257272.83958793,86424218,1,0.17316122353076935,-0.011582119390368462,0.003284691134467721,-0.9848198890686035
1667257272.87962604,86464256,1,0.17269088327884674,-0.011426289565861225,0.0026524520944803953,-0.9849061965942383
1667257272.91962409,86504254,1,0.172324076294899,-0.011727038770914078,0.002846846356987953,-0.9849663972854614
1667257272.95963001,86544260,1,0.17191475629806519,-0.011282066814601421,0.002574713435024023,-0.9850438833236694
1667257272.97961903,86564249,1,0.1714705377817154,-0.011195814236998558,0.002570364624261856,-0.9851222634315491
1667257272.99958992,86584220,1,0.1713331937789917,-0.010943691246211529,0.0025041343178600073,-0.9851492047309875
1667257273.03958988,86624220,1,0.17114415764808655,-0.010820040479302406,0.001685402006842196,-0.9851851463317871
1667257273.07958388,86664214,1,0.1706722378730774,-0.009683852083981037,0.0012538412120193243,-0.9852795004844666
1667257273.11962295,86704253,1,0.17042678594589233,-0.008468825370073318,0.0008356176549568772,-0.9853336215019226
1667257273.15960288,86744233,1,0.17018476128578186,-0.006673135794699192,1.3131961168255657e-05,-0.9853895902633667
1667257273.17959094,86764221,1,0.16980098187923431,-0.005565319210290909,0.0007719681598246098,-0.9854623675346375
1667257273.19963002,86784260,1,0.16993018984794617,-0.004672683775424957,0.00043934385757893324,-0.9854449033737183
1667257273.23956108,86824191,1,0.16968704760074615,-0.0021435879170894623,-0.0015069220680743456,-0.9854944944381714
1667257273.27958703,86864217,1,0.16966956853866577,1.1824529792647809e-05,-0.0016785587649792433,-0.9854995608329773
1667257273.31958604,86904216,1,0.16962994635105133,0.0024097058922052383,-0.002785298740491271,-0.9855009317398071
1667257273.35962892,86944259,1,0.16964936256408691,0.004668937996029854,-0.003976145759224892,-0.9854854345321655
1667257273.37958694,86964217,1,0.16965149343013763,0.005767821799963713,-0.004700232297182083,-0.985476016998291
1667257273.39961696,86984247,1,0.16967685520648956,0.006147054955363274,-0.0030627597589045763,-0.9854758381843567
1667257273.43957305,87024203,1,0.16971293091773987,0.00719319935888052,-0.003524172119796276,-0.9854609966278076
1667257273.47959900,87064229,1,0.16986516118049622,0.007165694143623114,-0.0030804499983787537,-0.9854364395141602
1667257273.51958704,87104217,1,0.1700987070798874,0.006716701202094555,-0.0030528416391462088,-0.9853994250297546
1667257273.55961609,87144246,1,0.1701243668794632,0.006025766488164663,-0.001752012292854488,-0.9854026436805725
1667257273.57955790,87164188,1,0.1702924370765686,0.0059624770656228065,-0.0010368477087467909,-0.9853749871253967
1667257273.59962010,87184250,1,0.17035800218582153,0.0056578293442726135,-0.0019563445821404457,-0.9853640794754028
1667257273.63961697,87224247,1,0.1707855761051178,0.004874784499406815,-0.00021506626217160374,-0.9852961301803589
1667257273.67960906,87264239,1,0.17108702659606934,0.004437529947608709,-0.00014384406676981598,-0.985245943069458
1667257273.71958899,87304219,1,0.17152149975299835,0.003928941208869219,0.0007783319451846182,-0.9851722121238708
1667257273.75958800,87344218,1,0.1719522476196289,0.0033156685531139374,0.001986999297514558,-0.9850977063179016
1667257273.77962494,87364255,1,0.17233553528785706,0.0028165457770228386,0.002708640182390809,-0.9850305318832397
1667257273.79961610,87384246,1,0.17240354418754578,0.002362155122682452,0.0029272085521370173,-0.9850192070007324
1667257273.83962393,87424254,1,0.04197855666279793,-0.000783311843406409,-0.0004207355377729982,0.9991180896759033
1667257273.87964606,87464276,1,0.04127565771341324,0.0003664753457996994,-0.0003411031502764672,0.9991476535797119
1667257273.91956306,87504193,1,0.0405568927526474,0.0011398036731407046,-0.00021197246678639203,0.999176561832428
1667257273.95958805,87544218,1,0.039658322930336,0.0017093560891225934,9.584827785147354e-05,0.999211847782135
1667257273.97962308,87564253,1,0.0393979474902153,0.001965117175132036,-0.0005469662137329578,0.9992215037345886
1667257273.99955988,87584190,1,0.038944195955991745,0.0017739393515512347,0.00044845230877399445,0.9992396831512451
1667257274.03962398,87624254,1,0.038119714707136154,0.001013656728900969,-0.00010217740054940805,0.9992726445198059
1667257274.07961488,87664245,1,0.03733471781015396,-0.00024071746156550944,-0.00029062191606499255,0.9993027448654175
1667257274.11962891,87704259,1,0.03656082972884178,-0.0012253540335223079,-0.001111985300667584,0.9993300437927246
1667257274.15959907,87744229,1,0.035981517285108566,-0.0018565489444881678,-0.0011700470931828022,0.9993500709533691
1667257274.17962503,87764255,1,0.03568326309323311,-0.0019642747938632965,-0.0018969873199239373,0.9993594288825989
1667257274.19957399,87784204,1,0.03532262519001961,-0.0017514192732051015,-0.0024015181697905064,0.9993715286254883
1667257274.23957610,87824206,1,0.034763403236866,-0.0005152228404767811,-0.0024213434662669897,0.9993925094604492
1667257274.27962995,87864260,1,0.03422923758625984,0.0013633548514917493,-0.0016809888184070587,0.9994116425514221
1667257274.31962204,87904252,1,0.03340703621506691,0.003997498657554388,-0.0023876528721302748,0.9994309544563293
1667257274.35959792,87944228,1,0.032672129571437836,0.006464662030339241,-0.0013447643723338842,0.999444305896759
1667257274.37961888,87964249,1,0.032101795077323914,0.007834617048501968,-0.001342112198472023,0.9994530081748962
1667257274.39957404,87984204,1,0.03174974396824837,0.008915855549275875,0.00031074380967766047,0.9994560480117798
1667257274.43958497,88024215,1,0.03062252141535282,0.010821019299328327,0.0015205091331154108,0.9994713068008423
1667257274.47962499,88064255,1,0.02976854145526886,0.0116653461009264,0.004213063511997461,0.9994798898696899
1667257274.51961803,88104248,1,0.028653139248490334,0.012414220720529556,0.005256895441561937,0.9994984865188599
1667257274.55963492,88144265,1,0.027825936675071716,0.012283680029213428,0.006597592961043119,0.9995155334472656
1667257274.57959104,88164221,1,0.027429481968283653,0.012384172528982162,0.006460388656705618,0.9995261430740356
1667257274.59958196,88184212,1,0.027125999331474304,0.01221504993736744,0.006317191291600466,0.9995374083518982
1667257274.63959002,88224220,1,0.026487741619348526,0.011515708640217781,0.0064527904614806175,0.9995619654655457
1667257274.67959094,88264221,1,0.02631770446896553,0.010684831067919731,0.0052077434957027435,0.9995829463005066
1667257274.71959710,88304227,1,0.025956837460398674,0.009963209740817547,0.004823233000934124,0.9996017813682556
1667257274.75959992,88344230,1,0.025954091921448708,0.008953600190579891,0.004311959259212017,0.9996137619018555
1667257274.77958488,88364215,1,0.02585456892848015,0.008326681330800056,0.0039909230545163155,0.9996230602264404
1667257274.79962206,88384252,1,0.02605917677283287,0.007955806329846382,0.0031644157133996487,0.999623715877533
1667257274.83955693,88424187,1,0.02610830031335354,0.006706003565341234,0.0031891055405139923,0.9996315240859985
1667257274.87959599,88464226,1,0.026364414021372795,0.005207802169024944,0.0028651717584580183,0.9996347427368164
1667257274.91959190,88504222,1,0.02662491239607334,0.0037562272045761347,0.0028653028421103954,0.999634325504303
1667257274.95964193,88544272,1,0.026995843276381493,0.0021684973035007715,0.001530675683170557,0.9996320009231567
1667257274.97959304,88564223,1,0.027143362909555435,0.0013668524334207177,0.0017888393485918641,0.999629020690918
1667257274.99958801,88584218,1,0.02725691720843315,0.0007770581869408488,0.0012399631086736917,0.999627411365509
1667257275.03957701,88624207,1,0.027648715302348137,-0.0001767590147210285,-3.7038003938505426e-05,0.9996176958084106
1667257275.07955909,88664189,1,0.028143038973212242,-0.0006350646144710481,-0.0003996994928456843,0.9996036291122437
1667257275.11958909,88704219,1,0.02870996855199337,-0.0009104606579057872,-0.0019820877350866795,0.9995853900909424
1667257275.15961599,88744246,1,0.029206620529294014,-0.0006900788866914809,-0.001498004305176437,0.9995720386505127
1667257275.17957306,88764203,1,0.029508769512176514,-0.00043767254101112485,-0.0015998997259885073,0.9995631575584412
1667257275.19961500,88784245,1,0.02981388568878174,-5.3468400437850505e-05,-0.00201109959743917,0.9995534420013428
1667257275.23962903,88824259,1,0.030353540554642677,0.0011939497198909521,-0.0021769993472844362,0.9995361566543579
1667257275.27960992,88864240,1,0.031046003103256226,0.002955779666081071,-0.0026835387106984854,0.9995099902153015
1667257275.31959701,88904227,1,0.03157038986682892,0.0051645515486598015,-0.0025861584581434727,0.9994848370552063
1667257275.35958695,88944217,1,0.03238147124648094,0.008073410019278526,-0.002761449432000518,0.9994391798973083
1667257275.37962699,88964257,1,0.03265176713466644,0.009650600142776966,-0.003509890055283904,0.9994140267372131
1667257275.39961505,88984245,1,0.03308740630745888,0.011586920358240604,-0.003257828066125512,0.9993799924850464
1667257275.43962002,89024250,1,0.033778924494981766,0.015614735893905163,-0.0036036528181284666,0.9993008375167847
1667257275.47962809,89064258,1,0.03458762913942337,0.02009398862719536,-0.0036703436635434628,0.9991928935050964
1667257275.51955891,89104189,1,0.03514369577169418,0.0242414902895689,-0.0034331311471760273,0.9990823268890381
1667257275.55956507,89144195,1,0.03594759851694107,0.027292214334011078,-0.002663553459569812,0.9989773631095886
1667257275.57962203,89164252,1,0.03633398562669754,0.028132371604442596,-0.0019076529424637556,0.9989418387413025
1667257275.59957600,89184206,1,0.0365503765642643,0.028933269903063774,-0.0017749476246535778,0.9989113211631775
1667257275.63962388,89224254,1,0.03722564876079559,0.029705366119742393,0.00019563235400710255,0.9988652467727661
1667257275.67960596,89264236,1,0.037791501730680466,0.029935622587800026,0.0024789609014987946,0.9988340735435486
1667257275.71963501,89304265,1,0.038335930556058884,0.03053448535501957,0.004490201361477375,0.9987881779670715
1667257275.75957894,89344209,1,0.0389082096517086,0.03182454779744148,0.005919012241065502,0.9987183213233948
1667257275.77963209,89364262,1,0.03920203819870949,0.03257342800498009,0.006369678769260645,0.9986799359321594
1667257275.79958606,89384216,1,0.039409246295690536,0.0332367904484272,0.006604515947401524,0.9986484050750732
1667257275.83958602,89424216,1,0.03989630565047264,0.03422493860125542,0.007071864325553179,0.9985924959182739
1667257275.87962008,89464250,1,0.04012523964047432,0.0341593436896801,0.007173844613134861,0.9985848069190979
1667257275.91963291,89504263,1,0.04045606404542923,0.03285681828856468,0.006641521118581295,0.9986188411712646
1667257275.95961595,89544246,1,0.04047539085149765,0.03043423406779766,0.006287394091486931,0.9986971616744995
1667257275.97962093,89564251,1,0.04062085971236229,0.02886826917529106,0.005521912593394518,0.9987422227859497
1667257275.99958110,89584211,1,0.04049750789999962,0.02715122699737549,0.005842255428433418,0.9987936019897461
1667257276.03960705,89624237,1,0.040437307208776474,0.023305149748921394,0.005240166559815407,0.9988964796066284
1667257276.07962203,89664252,1,0.0402061864733696,0.020061179995536804,0.004927355330437422,0.9989778399467468
1667257276.11962390,89704254,1,0.04005955532193184,0.017873084172606468,0.004341615363955498,0.9990279674530029
1667257276.15962505,89744255,1,0.03977704048156738,0.01742074266076088,0.004264943301677704,0.999047577381134
1667257276.17958593,89764216,1,0.03963800519704819,0.017593665048480034,0.004032987169921398,0.999051034450531
1667257276.19959903,89784229,1,0.039489347487688065,0.01797829009592533,0.004080917686223984,0.9990499019622803
1667257276.23958588,89824216,1,0.03900900483131409,0.0194013062864542,0.004383555613458157,0.9990409016609192
1667257276.27958989,89864220,1,0.03834165632724762,0.020974379032850266,0.006083304062485695,0.9990260004997253
1667257276.31962109,89904251,1,0.03766410052776337,0.02207137458026409,0.00855319108814001,0.9990100860595703
1667257276.35961604,89944246,1,0.036828480660915375,0.022186968475580215,0.011327364481985569,0.9990110397338867
1667257276.37958598,89964216,1,0.03642122074961662,0.02192261442542076,0.013765173964202404,0.9990012049674988
1667257276.39962101,89984251,1,0.036024607717990875,0.021321045234799385,0.01544591598212719,0.999004065990448
1667257276.43958807,90024218,1,0.03512326255440712,0.019829949364066124,0.019912229850888252,0.9989877939224243
1667257276.47957301,90064203,1,0.03426729887723923,0.017661500722169876,0.024179626256227493,0.9989640712738037
1667257276.51957703,90104207,1,0.03349289298057556,0.01572924666106701,0.02841832861304283,0.9989110231399536
1667257276.55961800,90144248,1,0.03259687125682831,0.013285842724144459,0.031110156327486038,0.9988959431648254
1667257276.57958388,90164214,1,0.03229314088821411,0.012209780514240265,0.031821489334106445,0.998897135257721
1667257276.59966707,90184297,1,0.03175955265760422,0.01103716716170311,0.03414897620677948,0.9988510012626648
1667257276.63965988,90224290,1,0.03050140105187893,0.009245761670172215,0.0354187972843647,0.9988641738891602
1667257276.67955804,90264188,1,0.028984874486923218,0.007384671363979578,0.03652632236480713,0.9988849759101868
1667257276.71958590,90304216,1,0.027196666225790977,0.006487206090241671,0.03710135817527771,0.9989202618598938
1667257276.75960708,90344237,1,0.025110362097620964,0.005301665049046278,0.03733641654253006,0.9989731311798096
1667257276.77959800,90364228,1,0.02411932870745659,0.005125716328620911,0.037336092442274094,0.9989985227584839
1667257276.79961610,90384246,1,0.022880908101797104,0.00476303044706583,0.03718891367316246,0.9990349411964417
1667257276.83961606,90424246,1,0.02039048634469509,0.004253877326846123,0.03702680394053459,0.9990971684455872
1667257276.87961197,90464242,1,0.017511241137981415,0.003822284983471036,0.03670763596892357,0.9991652965545654
1667257276.91955900,90504189,1,0.014588817954063416,0.0028620967641472816,0.03613422065973282,0.9992363452911377
1667257276.95958591,90544216,1,0.011518820188939571,0.0013889985857531428,0.03509487584233284,0.9993166327476501
1667257276.97962999,90564260,1,0.009914428927004337,0.00021489693608600646,0.035153694450855255,0.9993327260017395
1667257276.99962997,90584260,1,0.007962959818542004,-0.0006944271735846996,0.03390185907483101,0.9993932247161865
1667257277.03962302,90624253,1,0.004284982103854418,-0.0028089156839996576,0.03330338001251221,0.9994321465492249
1667257277.07963395,90664264,1,0.00027211045380681753,-0.004853926133364439,0.03259534388780594,0.9994568228721619
1667257277.11960101,90704231,1,-0.003846764098852873,-0.006060190498828888,0.0324837863445282,0.9994465112686157
1667257277.15960193,90744232,1,-0.008448371663689613,-0.006298916880041361,0.032319728285074234,0.999422013759613
1667257277.17961407,90764244,1,-0.010656854137778282,-0.006518470589071512,0.031714871525764465,0.9994189143180847
1667257277.19958496,90784215,1,-0.01303279958665371,-0.005952845793217421,0.032275907695293427,0.9993762969970703
1667257277.23961687,90824247,1,-0.01799141988158226,-0.005084550008177757,0.031274210661649704,0.9993359446525574
1667257277.27961802,90864248,1,-0.022988641634583473,-0.003645378863438964,0.03100101463496685,0.9992483258247375
1667257277.31963491,90904265,1,-0.02815123088657856,-0.001754972618073225,0.030479583889245987,0.9991373419761658
1667257277.35956693,90944197,1,-0.03324134647846222,0.00040880058077163994,0.030027130618691444,0.9989960789680481
1667257277.37961507,90964245,1,-0.03571727126836777,0.0017409833380952477,0.028869720175862312,0.9989433288574219
1667257277.39957905,90984209,1,-0.038326580077409744,0.0026565315201878548,0.029426509514451027,0.9988283514976501
1667257277.43956709,91024197,1,-0.04315178841352463,0.005048035643994808,0.028624165803194046,0.9986456036567688
1667257277.47961807,91064248,1,-0.04812825098633766,0.007152261678129435,0.028119994327425957,0.9984196424484253
1667257277.51960111,91104231,1,-0.05294080823659897,0.009131587110459805,0.027295952662825584,0.9981827735900879
1667257277.55962706,91144257,1,-0.057480670511722565,0.010274931788444519,0.027896754443645477,0.9979038834571838
1667257277.57961607,91164246,1,-0.059683166444301605,0.010742289014160633,0.026591656729578972,0.9978052973747253
1667257277.59955907,91184189,1,-0.06186599284410477,0.011074368841946125,0.02472819574177265,0.9977166056632996
1667257277.63958693,91224217,1,-0.06590750813484192,0.011148041114211082,0.022240033373236656,0.9975155591964722
1667257277.67958689,91264217,1,-0.06987092643976212,0.011464131064713001,0.02094726637005806,0.9972701668739319
1667257277.71963000,91304260,1,-0.07334473729133606,0.011079343035817146,0.015774928033351898,0.9971203207969666
1667257277.75961995,91344250,1,-0.07662664353847504,0.010674945078790188,0.012450323440134525,0.9969249963760376
1667257277.77957296,91364203,1,-0.077972911298275,0.010101803578436375,0.011211159639060497,0.9968412518501282
1667257277.79960203,91384232,1,-0.0795552060008049,0.009518137201666832,0.008473750203847885,0.9967489838600159
1667257277.83955789,91424188,1,-0.08234874904155731,0.008313709869980812,0.005972329527139664,0.996550977230072
1667257277.87958694,91464217,1,-0.08499721437692642,0.007121744100004435,0.001714430283755064,0.9963542819023132
1667257277.91962695,91504257,1,-0.0872303768992424,0.005764726549386978,-0.0005412680329754949,0.9961713552474976
1667257277.95962596,91544256,1,-0.08940917253494263,0.0038234631065279245,-0.0015479149296879768,0.9959864616394043
1667257277.97959208,91564222,1,-0.0902465358376503,0.0029460531659424305,-0.0032404272351413965,0.9959098100662231
1667257277.99964809,91584278,1,-0.09112710505723953,0.0016808687942102551,-0.003795359982177615,0.9958305954933167
1667257278.03956008,91624190,1,-0.09271702915430069,-0.0007192063494585454,-0.005685918033123016,0.9956759810447693
1667257278.07958698,91664217,1,-0.09416144341230392,-0.0034013420809060335,-0.008027597330510616,0.9955187439918518
1667257278.11958599,91704216,1,-0.09538723528385162,-0.0066007464192807674,-0.010318025946617126,0.9953649044036865
1667257278.15962696,91744257,1,-0.09614953398704529,-0.009802067652344704,-0.01383991353213787,0.9952223896980286
1667257278.17955995,91764190,1,-0.09654447436332703,-0.011343908496201038,-0.014915475621819496,0.9951522350311279
1667257278.19960999,91784240,1,-0.09689304232597351,-0.012990160845220089,-0.016663961112499237,0.9950705170631409
1667257278.23963308,91824263,1,-0.0973268374800682,-0.015802333131432533,-0.019620006904006004,0.9949336051940918
1667257278.27957892,91864209,1,-0.0976276844739914,-0.01880982331931591,-0.022611986845731735,0.9947882890701294
1667257278.31959605,91904226,1,-0.09777919203042984,-0.021735724061727524,-0.02544761635363102,0.9946452379226685
1667257278.35958791,91944218,1,-0.09768211841583252,-0.0242493636906147,-0.027625279501080513,0.9945386052131653
1667257278.37960792,91964238,1,-0.0975809395313263,-0.02564532496035099,-0.027716118842363358,0.9945110082626343
1667257278.39961696,91984247,1,-0.09738272428512573,-0.027090640738606453,-0.028105920180678368,0.9944811463356018
1667257278.43958187,92024212,1,-0.09702099859714508,-0.02922634780406952,-0.02711898647248745,0.9944834113121033
1667257278.47959304,92064223,1,-0.09650944173336029,-0.030481427907943726,-0.02544439025223255,0.9945397973060608
1667257278.51956296,92104193,1,-0.09585903584957123,-0.030587531626224518,-0.02236427739262581,0.9946734309196472
1667257278.55958605,92144216,1,-0.09508876502513885,-0.029376542195677757,-0.01978953927755356,0.9948384165763855
1667257278.57963705,92164267,1,-0.09452685713768005,-0.028334658592939377,-0.017916245386004448,0.994957685470581
1667257278.59962893,92184259,1,-0.09412533789873123,-0.026809172704815865,-0.01572585664689541,0.9950750470161438
1667257278.63962007,92224250,1,-0.09324313700199127,-0.022690365090966225,-0.01244064699858427,0.9953070282936096
1667257278.67962599,92264256,1,-0.09202545136213303,-0.017713269218802452,-0.008920653723180294,0.9955591559410095
1667257278.71959996,92304230,1,-0.0909658744931221,-0.012393457815051079,-0.004804940428584814,0.9957652688026428
1667257278.75958490,92344215,1,-0.08966665714979172,-0.006314567755907774,-0.0015718273352831602,0.9959505796432495
1667257278.77959704,92364227,1,-0.08894797414541245,-0.0031640990637242794,0.0004657049139495939,0.9960311651229858
1667257278.79957294,92384203,1,-0.08823946863412857,-0.0005369190475903451,0.002179940929636359,0.9960967898368835
1667257278.83961391,92424244,1,-0.0869758278131485,0.005563212558627129,0.0046519627794623375,0.9961840510368347
1667257278.87962103,92464251,1,-0.08526230603456497,0.010504590347409248,0.0055964672937989235,0.99628746509552
1667257278.91964197,92504272,1,-0.08399850130081177,0.015020772814750671,0.00794273428618908,0.9963210225105286
1667257278.95958209,92544212,1,-0.08225493133068085,0.017914369702339172,0.007447747513651848,0.9964224696159363
1667257278.97962403,92564254,1,-0.08160801976919174,0.018916616216301918,0.005727613810449839,0.9964684844017029
1667257278.99958801,92584218,1,-0.0807274729013443,0.019540756940841675,0.005310996435582638,0.9965304732322693
1667257279.03957701,92624207,1,-0.07919085025787354,0.01954616606235504,0.0022050943225622177,0.996665358543396
1667257279.07961607,92664246,1,-0.07774680852890015,0.01804218627512455,-0.0011601484147831798,0.996809184551239
1667257279.11961198,92704242,1,-0.07624375820159912,0.015468218363821507,-0.005713227670639753,0.9969528317451477
1667257279.15960693,92744237,1,-0.07486556470394135,0.011831766925752163,-0.009163928218185902,0.9970813393592834
1667257279.17960906,92764239,1,-0.07425938546657562,0.009920463897287846,-0.010668052360415459,0.9971325397491455
1667257279.19959807,92784228,1,-0.07364800572395325,0.007856403477489948,-0.012855949811637402,0.9971705079078674
1667257279.23959303,92824223,1,-0.07237875461578369,0.0037732310593128204,-0.01664346642792225,0.9972311854362488
1667257279.27959490,92864225,1,-0.07104096561670303,-0.0004446038801688701,-0.019923487678170204,0.9972742795944214
1667257279.31963110,92904261,1,-0.0699169859290123,-0.0043609607964754105,-0.02476685307919979,0.9972357749938965
1667257279.35963988,92944270,1,-0.06885658204555511,-0.007827888242900372,-0.027730023488402367,0.9972103834152222
1667257279.37958694,92964217,1,-0.06834949553012848,-0.00961198378354311,-0.029641875997185707,0.9971746802330017
1667257279.39962387,92984254,1,-0.06798060983419418,-0.01100935973227024,-0.032179124653339386,0.9971067905426025
1667257279.43955994,93024190,1,-0.06713540107011795,-0.014034189283847809,-0.03430638834834099,0.9970551133155823
1667257279.47958708,93064217,1,-0.06642657518386841,-0.016682740300893784,-0.03786779195070267,0.9969329237937927
1667257279.51961994,93104250,1,-0.06580784171819687,-0.019309433177113533,-0.03839219734072685,0.9969064593315125
1667257279.55962110,93144251,1,-0.06519578397274017,-0.021381724625825882,-0.039715200662612915,0.9968525767326355
1667257279.57956505,93164195,1,-0.06496058404445648,-0.022045210003852844,-0.03947816416621208,0.9968628883361816
1667257279.59961700,93184247,1,-0.06471289694309235,-0.02231653407216072,-0.04018978029489517,0.9968445301055908
1667257279.63961196,93224242,1,-0.06422637403011322,-0.02274513989686966,-0.03756720945239067,0.9969685673713684
1667257279.67959809,93264228,1,-0.06371177732944489,-0.021854201331734657,-0.03502780199050903,0.9971139430999756
1667257279.71958709,93304217,1,-0.06349989771842957,-0.019787486642599106,-0.0321771465241909,0.9972667098045349
1667257279.75961590,93344246,1,-0.06306833028793335,-0.01770256645977497,-0.027428556233644485,0.9974751472473145
1667257279.77957296,93364203,1,-0.06278419494628906,-0.016457872465252876,-0.025762001052498817,0.9975588321685791
1667257279.79959202,93384222,1,-0.06269810348749161,-0.015059050172567368,-0.0232550036162138,0.9976479411125183
1667257279.83964896,93424279,1,-0.0625116229057312,-0.01237009558826685,-0.019947821274399757,0.9977681636810303
1667257279.87955904,93464189,1,-0.062272701412439346,-0.009579455479979515,-0.01572714000940323,0.9978892803192139
1667257279.91958904,93504219,1,-0.06222647801041603,-0.006049402058124542,-0.010930187068879604,0.9979838728904724
1667257279.95955610,93544186,1,-0.06211595609784126,-0.0012790156761184335,-0.008322203531861305,0.9980334043502808
1667257279.97961903,93564249,1,-0.06212710589170456,0.00140066456515342,-0.006122419144958258,0.9980484843254089
1667257279.99959588,93584226,1,-0.062103960663080215,0.0038417046889662743,-0.004394705407321453,0.9980525970458984
1667257280.03959394,93624224,1,-0.062207236886024475,0.009460896253585815,-0.0003797791723627597,0.9980183243751526
1667257280.07962704,93664257,1,-0.062407009303569794,0.01443468313664198,0.0033413271885365248,0.9979407787322998
1667257280.11956692,93704197,1,-0.06242692843079567,0.017724743112921715,0.006161168217658997,0.9978731274604797
1667257280.15958905,93744219,1,-0.06272058933973312,0.01945502497255802,0.010711537674069405,0.9977840185165405
1667257280.17964101,93764271,1,-0.0628853514790535,0.019724570214748383,0.011144471354782581,0.9977635741233826
1667257280.19959402,93784224,1,-0.06297130137681961,0.019046809524297714,0.013410823419690132,0.9977434277534485
1667257280.23961687,93824247,1,-0.06327036768198013,0.016955619677901268,0.015805451199412346,0.9977272152900696
1667257280.27963710,93864267,1,-0.06374511867761612,0.013283496722579002,0.01683146134018898,0.997735857963562
1667257280.31956506,93904195,1,-0.0641247108578682,0.009055367670953274,0.017683451995253563,0.9977441430091858
1667257280.35955906,93944189,1,-0.06452921032905579,0.004442926030606031,0.01752454973757267,0.9977520108222961
1667257280.37961006,93964240,1,-0.06465385109186172,0.0022275508381426334,0.01681223325431347,0.9977636337280273
1667257280.39960098,93984231,1,-0.06488685309886932,2.0838663203903707e-06,0.01617712900042534,0.9977614879608154
1667257280.43963003,94024260,1,-0.06537587195634842,-0.0035733473487198353,0.0137676652520895,0.9977593421936035
1667257280.47963190,94064262,1,-0.06583329290151596,-0.006978475954383612,0.012215941213071346,0.9977314472198486
1667257280.51965189,94104282,1,-0.06613554060459137,-0.009341267868876457,0.009697433561086655,0.9977198243141174
1667257280.55959892,94144229,1,-0.06657809764146805,-0.011171950958669186,0.008620237931609154,0.9976814389228821
1667257280.57962489,94164255,1,-0.06680520623922348,-0.011684191413223743,0.006987032480537891,0.9976731538772583
1667257280.59959602,94184226,1,-0.06692023575305939,-0.0123227434232831,0.005334752146154642,0.9976679682731628
1667257280.63959098,94224221,1,-0.06736818701028824,-0.012959177605807781,0.0035999480169266462,0.9976375102996826
1667257280.67963290,94264263,1,-0.06780539453029633,-0.012768011540174484,0.0016140065854415298,0.9976155757904053
1667257280.71961999,94304250,1,-0.06818003207445145,-0.012441216967999935,0.00013926798419561237,0.9975954294204712
1667257280.75962400,94344254,1,-0.06853585690259933,-0.011142067611217499,-0.00024873382062651217,0.9975864291191101
1667257280.77961397,94364244,1,-0.06875952333211899,-0.010624217800796032,-0.0011169133940711617,0.9975760579109192
1667257280.79956388,94384194,1,-0.06883496791124344,-0.009778209030628204,-0.0030464776791632175,0.9975754618644714
1667257280.83959389,94424224,1,-0.06926770508289337,-0.00791593175381422,-0.0017640222795307636,0.9975651502609253
1667257280.87959003,94464220,1,-0.06958228349685669,-0.005453160032629967,-0.0029675252735614777,0.9975569248199463
1667257280.91961789,94504248,1,-0.06981644779443741,-0.002699210774153471,-0.003219579579308629,0.9975510239601135
1667257280.95958710,94544217,1,-0.07012524455785751,-0.00020998633408453315,-0.0028626383282244205,0.9975340366363525
1667257280.97959495,94564225,1,-0.07017200440168381,0.0012843295698985457,-0.00233915145508945,0.9975313544273376
1667257280.99963593,94584266,1,-0.07038767635822296,0.002288904506713152,-0.002043180400505662,0.9975150227546692
1667257281.03959894,94624229,1,-0.07058560848236084,0.003711530240252614,-0.0010712099028751254,0.9974982738494873
1667257281.07958698,94664217,1,-0.07075340300798416,0.0053633591160178185,-0.0004540607624221593,0.9974793195724487
1667257281.11963296,94704263,1,-0.07100245356559753,0.005847504828125238,0.0004209984908811748,0.9974589347839355
1667257281.15961599,94744246,1,-0.0711493045091629,0.005569757893681526,0.0006344144348986447,0.9974499344825745
1667257281.17959189,94764222,1,-0.07099946588277817,0.005244856234639883,0.00129124172963202,0.99746173620224
1667257281.19961691,94784247,1,-0.07113470882177353,0.005095056723803282,0.0012003157753497362,0.997452974319458
1667257281.23960304,94824233,1,-0.07125333696603775,0.004287850111722946,0.002196179935708642,0.997446596622467
1667257281.27955890,94864189,1,-0.07121691107749939,0.0034662627149373293,0.00221449276432395,0.9974523782730103
1667257281.31958699,94904217,1,-0.07123449444770813,0.0023450239095836878,0.0029113558121025562,0.9974526166915894
1667257281.35962009,94944250,1,-0.07132590562105179,0.0013239214895293117,0.0030167438089847565,0.9974476099014282
1667257281.37957287,94964203,1,-0.07110777497291565,0.0007905593956820667,0.002599770436063409,0.9974649548530579
1667257281.39961600,94984246,1,-0.07118768990039825,0.00013267590838950127,0.0034442751202732325,0.997456967830658
1667257281.43964195,95024272,1,-0.07109152525663376,-0.0011127728503197432,0.0041475617326796055,0.9974605441093445
1667257281.47960806,95064238,1,-0.07109399139881134,-0.0016176511999219656,0.00325887487269938,0.9974629878997803
1667257281.51958799,95104218,1,-0.07105252891778946,-0.002371367998421192,0.004325276240706444,0.9974603652954102
1667257281.55958796,95144218,1,-0.07099038362503052,-0.003069159109145403,0.0038756628055125475,0.9974647760391235
1667257281.57960892,95164239,1,-0.07086802273988724,-0.0030936812981963158,0.00414119241759181,0.9974722862243652
1667257281.59962392,95184254,1,-0.07084004580974579,-0.0033358484506607056,0.0036425201687961817,0.9974754452705383
1667257281.63961291,95224243,1,-0.0708434209227562,-0.0034123628865927458,0.00339986733160913,0.997475802898407
1667257281.67964101,95264271,1,-0.07067019492387772,-0.003539710771292448,0.003665654454380274,0.9974867105484009
1667257281.71956396,95304194,1,-0.07058288156986237,-0.003684302791953087,0.0038248682394623756,0.9974917769432068
1667257281.75960302,95344233,1,-0.07040145993232727,-0.0032028714194893837,0.002252238802611828,0.9975110292434692
1667257281.77963209,95364262,1,-0.07037951052188873,-0.0031624401453882456,0.002535445149987936,0.9975120425224304
1667257281.79958892,95384219,1,-0.07032037526369095,-0.003237761091440916,0.003683373797684908,0.9975124001502991
1667257281.83961797,95424248,1,-0.0703638345003128,-0.0026629106141626835,0.0034332768991589546,0.9975119233131409
1667257281.87962103,95464251,1,-0.07001037895679474,-0.0025116526521742344,0.0021548040676862,0.9975407719612122
1667257281.91962910,95504259,1,-0.06998759508132935,-0.0023438979405909777,0.004328232724219561,0.9975357055664062
1667257281.95956087,95544191,1,-0.06973695755004883,-0.0020410495344549417,0.004000538028776646,0.9975553154945374
1667257281.97962904,95564259,1,-0.06977889686822891,-0.001561345299705863,0.0033424387220293283,0.997555673122406
1667257281.99958491,95584215,1,-0.06953463703393936,-0.0014242889592424035,0.0030741365626454353,0.9975737929344177
1667257282.03967905,95624309,1,-0.06945012509822845,-0.0013404268538579345,0.004000972956418991,0.9975764751434326
1667257282.07961488,95664245,1,-0.06933556497097015,-0.0010753062088042498,0.004592259414494038,0.9975822567939758
1667257282.11962700,95704257,1,-0.0691026896238327,-0.0006857527187094092,0.0035109426826238632,0.9976031184196472
1667257282.15960693,95744237,1,-0.06892572343349457,-0.0007266525644809008,0.00364263285882771,0.997614860534668
1667257282.17959309,95764223,1,-0.06879783421754837,-0.0008272916893474758,0.003994040656834841,0.9976223111152649
1667257282.19957209,95784202,1,-0.06885882467031479,-0.0005292192217893898,0.004840326961129904,0.9976145029067993
1667257282.23958707,95824217,1,-0.06863345205783844,-0.000407541636377573,0.005038412753492594,0.9976291656494141
1667257282.27962804,95864258,1,-0.06854040920734406,0.0004843432689085603,0.0036418598610907793,0.9976415634155273
1667257282.31962109,95904251,1,-0.06831394135951996,0.0019889685790985823,0.002837515203282237,0.997657835483551
1667257282.35962796,95944258,1,-0.06826384365558624,0.004372355993837118,0.0031306298915296793,0.9976528286933899
1667257282.37959099,95964221,1,-0.0679970532655716,0.0055423458106815815,0.0022192196920514107,0.997667670249939
1667257282.39960289,95984233,1,-0.06793520599603653,0.006761100143194199,0.0015476070111617446,0.9976656436920166
1667257282.43958592,96024216,1,-0.06773262470960617,0.009122149087488651,0.0023021120578050613,0.9976591467857361
1667257282.47958398,96064214,1,-0.06771053373813629,0.011849096044898033,0.002706470200791955,0.9976309537887573
1667257282.51961398,96104244,1,-0.06752149760723114,0.013322986662387848,0.0018398374086245894,0.9976271390914917
1667257282.55961108,96144241,1,-0.0673503503203392,0.014415405690670013,0.0023238067515194416,0.997622549533844
1667257282.57960606,96164236,1,-0.06733420491218567,0.014742120169103146,0.0020566468592733145,0.9976194500923157
1667257282.59962988,96184260,1,-0.06734427064657211,0.014906786382198334,0.002796296961605549,0.9976145029067993
1667257282.63957310,96224203,1,-0.06729016453027725,0.015934109687805176,0.0018976080464199185,0.9976043701171875
1667257282.67957091,96264201,1,-0.06702341139316559,0.016194207593798637,0.0015650928253307939,0.9976187348365784
1667257282.71958709,96304217,1,-0.06720753759145737,0.017664624378085136,0.0027159180026501417,0.9975789189338684
1667257282.75959587,96344226,1,0.0016632478218525648,0.01905936747789383,0.0007263215375132859,0.9998167157173157
1667257282.77958703,96364217,1,0.0018085779156535864,0.019576409831643105,0.0004388234228827059,0.9998066425323486
1667257282.79957891,96384209,1,0.0018665228271856904,0.019948985427618027,0.0003487844951450825,0.9997991919517517
1667257282.83957195,96424202,1,0.0014145966852083802,0.020413512364029884,0.001031564432196319,0.9997900724411011
1667257282.87956095,96464191,1,0.0004299003048799932,0.02020626701414585,0.0003860649303533137,0.99979567527771
1667257282.91959000,96504220,1,-0.0006985453073866665,0.018710684031248093,0.0008118907571770251,0.9998243451118469
1667257282.95961809,96544248,1,-0.0005875114002265036,0.01753809116780758,0.0010248646140098572,0.9998455047607422
1667257282.97957492,96564205,1,-0.0003215666802134365,0.01639377325773239,0.001362430164590478,0.9998646378517151
1667257282.99959707,96584227,1,0.00016113703895825893,0.015227477066218853,0.0012895556865260005,0.999883234500885
1667257283.03963399,96624264,1,0.0011892184847965837,0.013148794881999493,0.0011127255856990814,0.9999122023582458
1667257283.07958293,96664213,1,0.002722314326092601,0.010431936010718346,0.0029235240072011948,0.9999375939369202
1667257283.11959004,96704220,1,0.004405648913234472,0.007625754456967115,0.0024713934399187565,0.9999581575393677
1667257283.15958595,96744216,1,0.00597734097391367,0.004528313409537077,0.004403803963214159,0.9999622106552124
1667257283.17963195,96764262,1,0.00658041937276721,0.0027546228375285864,0.004033882170915604,0.9999664425849915
1667257283.19961190,96784242,1,0.007343609817326069,0.0011104538571089506,0.003695395076647401,0.9999656081199646
1667257283.23963094,96824261,1,0.008793164044618607,-0.0024753727484494448,0.004371421877294779,0.9999487400054932
1667257283.27964401,96864274,1,0.010147057473659515,-0.005933917127549648,0.005357208661735058,0.9999165534973145
1667257283.31959295,96904223,1,0.011564821936190128,-0.009458926506340504,0.005655895918607712,0.9998723864555359
1667257283.35958290,96944213,1,0.012685869820415974,-0.012464598752558231,0.005770058371126652,0.9998251795768738
1667257283.37962508,96964255,1,0.01324727013707161,-0.013969743624329567,0.005947884637862444,0.999796986579895
1667257283.39958596,96984216,1,0.013701756484806538,-0.015358615666627884,0.006101405713707209,0.9997695684432983
1667257283.43961596,97024246,1,0.014679742977023125,-0.01810336299240589,0.0062906877137720585,0.9997085332870483
1667257283.47960806,97064238,1,0.015152002684772015,-0.02033020742237568,0.005729258991777897,0.9996621012687683
1667257283.51962304,97104253,1,0.015669463202357292,-0.021415501832962036,0.006084043998271227,0.9996293187141418
1667257283.55957794,97144208,1,0.01588156633079052,-0.021579457446932793,0.005511172115802765,0.9996258020401001
1667257283.57964706,97164277,1,0.015970313921570778,-0.021278686821460724,0.00476970337331295,0.9996346235275269
1667257283.59959388,97184224,1,0.015984531491994858,-0.020965982228517532,0.003775124903768301,0.9996452927589417
1667257283.63958788,97224218,1,0.015912577509880066,-0.018909402191638947,0.004274993669241667,0.9996854066848755
1667257283.67961907,97264249,1,0.015575001016259193,-0.0165425855666399,0.0031429987866431475,0.9997369050979614
1667257283.71962690,97304257,1,0.015306210145354271,-0.014051598496735096,0.0030780984088778496,0.9997794032096863
1667257283.75963688,97344267,1,0.01477185171097517,-0.011396495625376701,0.0018958721775561571,0.9998241662979126
1667257283.77961588,97364246,1,0.014467176981270313,-0.010413693264126778,0.0019342487212270498,0.9998392462730408
1667257283.79955888,97384189,1,0.014229658991098404,-0.009172872640192509,0.0013120825169607997,0.9998558163642883
1667257283.83958387,97424214,1,0.013558651320636272,-0.007122028153389692,0.0008468922460451722,0.9998823404312134
1667257283.87962008,97464250,1,0.013031295500695705,-0.005459468811750412,0.0010394630953669548,0.9998996257781982
1667257283.91962290,97504253,1,0.012536701746284962,-0.0027341051027178764,8.709200483281165e-05,0.9999176859855652
1667257283.95961690,97544247,1,0.012166480533778667,-0.00010341881716158241,-1.1873550647578668e-05,0.999925971031189
1667257283.97964501,97564275,1,0.011990053579211235,0.001615893212147057,-0.000242282374529168,0.9999268054962158
1667257283.99958897,97584219,1,0.011884750798344612,0.002912773285061121,-0.0005868205917067826,0.9999249577522278
1667257284.03958988,97624220,1,0.011525486595928669,0.005858226213604212,2.6223504391964525e-05,0.9999164342880249
1667257284.07958603,97664216,1,0.011177870444953442,0.008206900209188461,0.00026662967866286635,0.9999037981033325
1667257284.11961699,97704247,1,0.011126738972961903,0.009299563243985176,-0.0001328674698015675,0.9998948574066162
1667257284.15961289,97744243,1,0.010989001952111721,0.009752469137310982,0.0016537107294425368,0.9998906850814819
1667257284.17958903,97764219,1,0.010860120877623558,0.009487529285252094,0.0013070703716948628,0.9998951554298401
1667257284.19963908,97784269,1,0.01084897294640541,0.009268241003155708,0.0009371725609526038,0.9998977780342102
1667257284.23955798,97824188,1,0.010904142633080482,0.00839154701679945,0.0026205803733319044,0.9999018907546997
1667257284.27959490,97864225,1,0.01090879738330841,0.008436227217316628,0.0015213044825941324,0.9999037384986877
1667257284.31958699,97904217,1,0.011175165884196758,0.008654940873384476,0.00233100657351315,0.9998973608016968
1667257284.35961890,97944249,1,0.011457941494882107,0.009292759001255035,0.0038641688879579306,0.9998837113380432
1667257284.37959790,97964228,1,0.01138930395245552,0.00992442574352026,0.0024679016787558794,0.9998828172683716
1667257284.39960694,97984237,1,0.011650310829281807,0.010407143272459507,0.003295355476438999,0.9998725652694702
1667257284.43963504,98024265,1,0.011981572024524212,0.010978586040437222,0.003730163909494877,0.9998610019683838
1667257284.47955990,98064190,1,0.012179565615952015,0.011843394488096237,0.003282026620581746,0.9998502731323242
1667257284.51960707,98104237,1,0.01244574785232544,0.011669880710542202,0.004905169364064932,0.9998424053192139
1667257284.55956888,98144199,1,0.012722047977149487,0.011747033335268497,0.004071900155395269,0.9998417496681213
1667257284.57959104,98164221,1,0.012739663943648338,0.011717146262526512,0.004323945846408606,0.9998408555984497
1667257284.59961796,98184248,1,0.012800758704543114,0.011636978946626186,0.005251867230981588,0.9998365640640259
1667257284.63963103,98224261,1,0.013163316063582897,0.01149722095578909,0.003604795318096876,0.9998407363891602
1667257284.67960596,98264236,1,0.013355333358049393,0.011426961049437523,0.0035923575051128864,0.9998390674591064
1667257284.71955895,98304189,1,0.013540029525756836,0.011201302520930767,0.004367723595350981,0.9998360276222229
1667257284.75958991,98344220,1,0.013964874669909477,0.011844267137348652,0.0017234934493899345,0.9998308420181274
1667257284.77963090,98364261,1,0.014042437076568604,0.012214639224112034,0.00257560214959085,0.9998234510421753
1667257284.79962993,98384260,1,0.014208988286554813,0.012524365447461605,0.0029728859663009644,0.9998161792755127
1667257284.83962202,98424252,1,0.01449770387262106,0.01357202511280775,0.0017670111265033484,0.9998012185096741
1667257284.87962699,98464257,1,0.014706870540976524,0.01495263259857893,0.001588769257068634,0.9997787475585938
1667257284.91960597,98504236,1,0.01476863119751215,0.015983637422323227,0.001896850299090147,0.9997614026069641
1667257284.95958495,98544215,1,0.014902491122484207,0.016816535964608192,-0.00010863811621675268,0.9997475147247314
1667257284.97963595,98564266,1,0.014963636174798012,0.01705496571958065,0.0009578715544193983,0.9997420907020569
1667257284.99958897,98584219,1,0.014789586886763573,0.01715186797082424,0.0018808264285326004,0.9997417330741882
1667257285.03963304,98624263,1,0.014864387921988964,0.01645110733807087,8.485175931127742e-05,0.9997541904449463
