timestamp,TimeUS,C,Roll,Pitch,Yaw,VN,VE,VD,dPD,PN,PE,PD,GX,GY,GZ,OH
1667257267.51959705,81104227,1,-1.04,-1.22,201.36,0.005557227414101362,-0.05091819912195206,-0.05528450384736061,-0.049297723919153214,-1.0607032775878906,-1.1137163639068604,0.9026866555213928,0.16,-0.09,-0.12,269.21
1667257267.55955505,81144185,1,-1.04,-1.23,201.36,0.005507313180714846,-0.05096516013145447,-0.05511758476495743,-0.043766237795352936,-1.0602056980133057,-1.1135799884796143,0.9003530740737915,0.16,-0.09,-0.12,269.21
1667257267.57962108,81164251,1,-1.04,-1.23,201.36,0.005311836954206228,-0.05082840844988823,-0.05499544367194176,-0.04415260627865791,-1.0599411725997925,-1.1132888793945312,0.8992160558700562,0.16,-0.09,-0.12,269.21
1667257267.59962010,81184250,1,-1.04,-1.23,201.36,0.005017038434743881,-0.0510106086730957,-0.05522968992590904,-0.045592501759529114,-1.0597679615020752,-1.1137088537216187,0.8980931639671326,0.16,-0.09,-0.12,269.21
1667257267.63960791,81224238,1,-1.04,-1.23,201.36,0.004727986175566912,-0.05081593990325928,-0.0553583949804306,-0.046588409692049026,-1.059260368347168,-1.1134756803512573,0.8963014483451843,0.16,-0.09,-0.12,269.21
1667257267.67963099,81264261,1,-1.04,-1.23,201.36,0.004610229749232531,-0.04953803867101669,-0.0547623373568058,-0.0365978442132473,-1.0584498643875122,-1.1112489700317383,0.8957754969596863,0.16,-0.09,-0.12,269.21
1667257267.71955895,81304189,1,-1.04,-1.23,201.36,0.00457308953627944,-0.04935296252369881,-0.054629623889923096,-0.02639773115515709,-1.0578721761703491,-1.110558032989502,0.8945817351341248,0.16,-0.09,-0.12,269.21
1667257267.75958204,81344212,1,-1.04,-1.23,201.36,0.004562789108604193,-0.04922124743461609,-0.05432679131627083,-0.022233422845602036,-1.0573506355285645,-1.1101375818252563,0.8932461738586426,0.16,-0.09,-0.12,269.21
1667257267.77962303,81364253,1,-1.04,-1.23,201.36,0.004557800013571978,-0.04896968603134155,-0.05416521057486534,-0.022122465074062347,-1.0570660829544067,-1.1096749305725098,0.8927046060562134,0.16,-0.09,-0.12,269.21
1667257267.79958105,81384211,1,-1.04,-1.23,201.36,0.004185358993709087,-0.0490301176905632,-0.054201629012823105,-0.022500943392515182,-1.0568881034851074,-1.1100099086761475,0.8918477892875671,0.16,-0.09,-0.12,269.21
1667257267.83960891,81424239,1,-1.04,-1.23,201.35,0.004540806636214256,-0.04738147184252739,-0.053451474756002426,-0.018856249749660492,-1.055686116218567,-1.1088498830795288,0.8912047147750854,0.16,-0.09,-0.12,269.21
1667257267.87960601,81464236,1,-1.04,-1.23,201.35,0.005205629393458366,-0.04597263038158417,-0.052470818161964417,-0.014397768303751945,-1.0543102025985718,-1.107180118560791,0.890828013420105,0.16,-0.09,-0.12,269.21
1667257267.91963410,81504264,1,-1.04,-1.23,201.35,0.005767716094851494,-0.045760396867990494,-0.05176234245300293,-0.012501996010541916,-1.0533262491226196,-1.1067394018173218,0.88983154296875,0.16,-0.09,-0.12,269.21
1667257267.95955801,81544188,1,-1.04,-1.23,201.35,0.00636667013168335,-0.04603658244013786,-0.051313742995262146,-0.015320145525038242,-1.0523982048034668,-1.1065988540649414,0.88860023021698,0.16,-0.09,-0.12,269.21
1667257267.97961807,81564248,1,-1.04,-1.23,201.36,0.006639346946030855,-0.045621324330568314,-0.05096546933054924,-0.017696689814329147,-1.0518593788146973,-1.1063300371170044,0.8881043791770935,0.17,-0.09,-0.12,269.21
1667257267.99957991,81584210,1,-1.04,-1.23,201.35,0.006697820499539375,-0.0456150583922863,-0.05113893002271652,-0.02021641470491886,-1.051533579826355,-1.1066867113113403,0.8873350024223328,0.17,-0.09,-0.12,269.21
1667257268.03955698,81624187,1,-1.04,-1.23,201.35,0.007063581142574549,-0.043290939182043076,-0.05044951289892197,-0.013697292655706406,-1.05031418800354,-1.1052314043045044,0.8876488208770752,0.17,-0.1,-0.12,269.21
1667257268.07962608,81664256,1,-1.04,-1.23,201.35,0.007425413466989994,-0.04105771332979202,-0.04923141002655029,-0.0024437513202428818,-1.0489234924316406,-1.1031965017318726,0.8882910013198853,0.17,-0.1,-0.12,269.21
1667257268.11962390,81704254,1,-1.03,-1.23,201.35,0.007950371131300926,-0.03942465782165527,-0.048604611307382584,0.0040206871926784515,-1.0479023456573486,-1.1023728847503662,0.8880137205123901,0.17,-0.1,-0.12,269.21
1667257268.15963507,81744265,1,-1.03,-1.23,201.35,0.008397316560149193,-0.03879165276885033,-0.047916263341903687,0.0033170960377901793,-1.04693603515625,-1.1017982959747314,0.8874394297599792,0.17,-0.1,-0.12,269.21
1667257268.17960405,81764234,1,-1.03,-1.23,201.35,0.00853260513395071,-0.037857361137866974,-0.04745938256382942,0.001042124698869884,-1.0463876724243164,-1.101246953010559,0.887343168258667,0.17,-0.1,-0.12,269.21
1667257268.19955802,81784188,1,-1.03,-1.23,201.35,0.008763296529650688,-0.037339553236961365,-0.04749774560332298,-0.0015028466004878283,-1.0460312366485596,-1.1014026403427124,0.8867723345756531,0.17,-0.1,-0.12,269.21
1667257268.23957896,81824209,1,-1.03,-1.23,201.35,0.009227118454873562,-0.03537388890981674,-0.04688462242484093,-0.006060219369828701,-1.0449851751327515,-1.1004854440689087,0.8863306045532227,0.17,-0.1,-0.12,269.21
1667257268.27961802,81864248,1,-1.03,-1.23,201.35,0.009834038093686104,-0.030347781255841255,-0.04587341099977493,-0.002855371218174696,-1.0433458089828491,-1.0973247289657593,0.8870074152946472,0.17,-0.1,-0.12,269.21
1667257268.31961799,81904248,1,-1.03,-1.23,201.35,0.010457240045070648,-0.0275346040725708,-0.04474767670035362,0.0012827771715819836,-1.0421234369277954,-1.0955277681350708,0.8868823051452637,0.17,-0.1,-0.12,269.21
1667257268.35960197,81944232,1,-1.03,-1.23,201.35,0.010764592327177525,-0.025616515427827835,-0.04432053864002228,0.002446531318128109,-1.0409706830978394,-1.0939346551895142,0.8866583704948425,0.17,-0.1,-0.12,269.21
1667257268.37959504,81964225,1,-1.03,-1.23,201.35,0.011365458369255066,-0.02399415336549282,-0.044162094593048096,0.0013763464521616697,-1.040310025215149,-1.0928072929382324,0.8867186903953552,0.17,-0.1,-0.12,269.21
1667257268.39959192,81984222,1,-1.03,-1.23,201.36,0.011902282014489174,-0.02326222136616707,-0.04389599338173866,0.0005877455696463585,-1.0398670434951782,-1.0925191640853882,0.8862674236297607,0.17,-0.1,-0.12,269.21
1667257268.43959188,82024222,1,-1.03,-1.23,201.36,0.012613506056368351,-0.01912771910429001,-0.04298478364944458,0.004525934811681509,-1.0384501218795776,-1.0900492668151855,0.8868260383605957,0.17,-0.1,-0.12,269.21
1667257268.47958899,82064219,1,-1.03,-1.23,201.36,0.013255729340016842,-0.014611433260142803,-0.04213434085249901,0.00921582244336605,-1.0368586778640747,-1.086800217628479,0.8877305388450623,0.17,-0.1,-0.12,269.21
1667257268.51959205,82104222,1,-1.03,-1.23,201.36,0.013754813000559807,-0.011718693189322948,-0.04139719903469086,0.011043530888855457,-1.0356241464614868,-1.084733247756958,0.8878522515296936,0.17,-0.1,-0.12,269.21
1667257268.55961800,82144248,1,-1.02,-1.22,201.36,0.013978779315948486,-0.009243910200893879,-0.04078280180692673,0.011228014715015888,-1.0344502925872803,-1.0828115940093994,0.887951135635376,0.17,-0.1,-0.12,269.21
1667257268.57958698,82164217,1,-1.02,-1.23,201.36,0.01440635696053505,-0.007808604743331671,-0.04043984040617943,0.009968239814043045,-1.0338000059127808,-1.0815588235855103,0.8882017731666565,0.17,-0.1,-0.12,269.21
1667257268.59962606,82184256,1,-1.02,-1.22,201.36,0.014766912907361984,-0.007135898806154728,-0.04026483744382858,0.009062021970748901,-1.0333434343338013,-1.0810307264328003,0.8879132866859436,0.17,-0.1,-0.12,269.21
1667257268.63956189,82224192,1,-1.02,-1.22,201.36,0.01501099020242691,-0.0056229764595627785,-0.03955985978245735,0.005988301243633032,-1.0320619344711304,-1.0791573524475098,0.8877926468849182,0.17,-0.1,-0.12,269.21
1667257268.67957997,82264210,1,-1.03,-1.22,201.36,0.01520888414233923,-0.0034679339732974768,-0.03897561877965927,0.0006823783623985946,-1.0306929349899292,-1.0769004821777344,0.8878218531608582,0.17,-0.1,-0.12,269.21
1667257268.71956587,82304196,1,-1.03,-1.23,201.36,0.015430930070579052,-0.0026303764898329973,-0.03824389725923538,-0.004378905054181814,-1.0296125411987305,-1.0754709243774414,0.887226402759552,0.17,-0.1,-0.12,269.21
1667257268.75961304,82344243,1,-1.02,-1.23,201.36,0.015569979324936867,-0.0018447181209921837,-0.03775131702423096,-0.011844170279800892,-1.0285978317260742,-1.0742181539535522,0.8863652348518372,0.17,-0.1,-0.12,269.21
1667257268.77959991,82364230,1,-1.02,-1.23,201.36,0.0153810391202569,-0.001427383627742529,-0.03737552464008331,-0.01564120501279831,-1.0280629396438599,-1.0734740495681763,0.8860097527503967,0.17,-0.1,-0.12,269.21
1667257268.79959393,82384224,1,-1.02,-1.23,201.36,0.015371957793831825,-0.0019079414196312428,-0.037487614899873734,-0.019171560183167458,-1.027652382850647,-1.073150634765625,0.8854491710662842,0.17,-0.1,-0.12,269.21
1667257268.83961511,82424245,1,-1.02,-1.23,201.36,0.015315425582230091,-0.002364995889365673,-0.03681380674242973,-0.018372172489762306,-1.0266157388687134,-1.0721373558044434,0.8853287100791931,0.17,-0.1,-0.12,269.21
1667257268.87955904,82464189,1,-1.02,-1.23,201.36,0.014572701416909695,-0.0022405425552278757,-0.03610634431242943,-0.014887822791934013,-1.0255539417266846,-1.07107412815094,0.8853078484535217,0.17,-0.1,-0.12,269.21
1667257268.91957998,82504210,1,-1.02,-1.23,201.37,0.014134783297777176,-0.0026798879262059927,-0.03537680208683014,-0.012382554821670055,-1.0247187614440918,-1.0705100297927856,0.8848137259483337,0.17,-0.1,-0.12,269.21
1667257268.95958090,82544211,1,-1.02,-1.23,201.37,0.013726592995226383,-0.0027735410258173943,-0.035073477774858475,-0.012560444884002209,-1.0239626169204712,-1.0701113939285278,0.8842164874076843,0.17,-0.1,-0.13,269.21
1667257268.97958589,82564216,1,-1.01,-1.23,201.37,0.013775931671261787,-0.0028728784527629614,-0.03477790951728821,-0.013326023705303669,-1.0235753059387207,-1.0699121952056885,0.8839923739433289,0.17,-0.1,-0.13,269.21
1667257268.99962592,82584256,1,-1.01,-1.23,201.38,0.013843325898051262,-0.0029675543773919344,-0.03468421846628189,-0.014061362482607365,-1.0232597589492798,-1.0698634386062622,0.8835444450378418,0.17,-0.1,-0.13,269.21
1667257269.03961492,82624245,1,-1.01,-1.23,201.38,0.013445448130369186,-0.003662919159978628,-0.03418117016553879,-0.010573643259704113,-1.0224136114120483,-1.0695329904556274,0.8836240172386169,0.17,-0.1,-0.12,269.21
1667257269.07963395,82664264,1,-1.01,-1.23,201.39000000000001,0.013227484188973904,-0.0035928464494645596,-0.03360917046666145,-0.005221768748015165,-1.0215696096420288,-1.0692875385284424,0.8839260339736938,0.17,-0.1,-0.12,269.21
1667257269.11955595,82704186,1,-1.01,-1.23,201.39000000000001,0.013206535018980503,-0.003991326782852411,-0.033383727073669434,-0.002423608908429742,-1.020877718925476,-1.0692850351333618,0.883678674697876,0.17,-0.1,-0.13,269.21
1667257269.15958905,82744219,1,-1.01,-1.23,201.39000000000001,0.013135870918631554,-0.0042617591097950935,-0.03291163221001625,-0.002422509016469121,-1.0202264785766602,-1.0693998336791992,0.883310854434967,0.17,-0.1,-0.13,269.21
1667257269.17962289,82764253,1,-1.0,-1.23,201.4,0.013010223396122456,-0.004306761082261801,-0.03267218917608261,-0.0034496872685849667,-1.0199124813079834,-1.0695033073425293,0.8832494020462036,0.17,-0.1,-0.13,269.21
1667257269.19961095,82784241,1,-1.0,-1.23,201.4,0.01325212325900793,-0.004398316610604525,-0.03248199447989464,-0.004438307136297226,-1.0196212530136108,-1.0696159601211548,0.8828579783439636,0.17,-0.1,-0.13,269.21
1667257269.23961306,82824243,1,-1.0,-1.23,201.4,0.012696185149252415,-0.0047193244099617004,-0.031433749943971634,0.005228548310697079,-1.0190356969833374,-1.0694053173065186,0.8841137290000916,0.17,-0.1,-0.13,269.21
1667257269.27962399,82864254,1,-1.0,-1.23,201.4,0.012043934315443039,-0.004614860750734806,-0.030320867896080017,0.018496183678507805,-1.0185134410858154,-1.0692508220672607,0.8857909440994263,0.17,-0.1,-0.13,269.21
1667257269.31959200,82904222,1,-1.0,-1.23,201.4,0.011509966105222702,-0.004322436638176441,-0.029457787051796913,0.026724128052592278,-1.018046259880066,-1.0692939758300781,0.8864104747772217,0.17,-0.1,-0.13,269.21
1667257269.35958409,82944214,1,-0.99,-1.23,201.41,0.010787468403577805,-0.004542661365121603,-0.029127495363354683,0.026755232363939285,-1.0176470279693604,-1.0694140195846558,0.8868072032928467,0.17,-0.1,-0.13,269.21
1667257269.37962890,82964259,1,-0.99,-1.23,201.41,0.010472296737134457,-0.004729718901216984,-0.02864329144358635,0.024913733825087547,-1.0174825191497803,-1.0695074796676636,0.8871857523918152,0.17,-0.1,-0.13,269.21
1667257269.39957905,82984209,1,-0.99,-1.23,201.41,0.010187308304011822,-0.005131058394908905,-0.02858252078294754,0.022584451362490654,-1.0172977447509766,-1.0696226358413696,0.8870453834533691,0.17,-0.1,-0.13,269.21
1667257269.43961787,83024248,1,-0.98,-1.23,201.41,0.010802647098898888,-0.005252857692539692,-0.028076758608222008,0.015774225816130638,-1.0162632465362549,-1.0693821907043457,0.8870177865028381,0.17,-0.1,-0.13,269.21
1667257269.47961593,83064246,1,-0.98,-1.23,201.41,0.01152645330876112,-0.005012809298932552,-0.027707582339644432,0.0062491558492183685,-1.0151177644729614,-1.0691578388214111,0.8869958519935608,0.17,-0.1,-0.13,269.21
1667257269.51963091,83104261,1,-0.98,-1.24,201.42000000000002,0.012126023881137371,-0.0049612619914114475,-0.02767680026590824,-0.0022951553110033274,-1.0142015218734741,-1.0691405534744263,0.886534571647644,0.17,-0.1,-0.13,269.21
1667257269.55955505,83144185,1,-0.98,-1.24,201.42000000000002,0.012503251433372498,-0.004792890977114439,-0.027180051431059837,-0.010004013776779175,-1.0133144855499268,-1.0691967010498047,0.8858808875083923,0.17,-0.1,-0.13,269.21
1667257269.57961202,83164242,1,-0.98,-1.24,201.42000000000002,0.01292472891509533,-0.004548733588308096,-0.026943670585751534,-0.01340782642364502,-1.0128254890441895,-1.0692371129989624,0.8856117725372314,0.17,-0.1,-0.13,269.21
1667257269.59958291,83184213,1,-0.98,-1.23,201.43,0.012939345091581345,-0.004368236754089594,-0.026898033916950226,-0.016179846599698067,-1.0124554634094238,-1.0693105459213257,0.8852009177207947,0.17,-0.1,-0.13,269.21
1667257269.63958287,83224213,1,-0.97,-1.24,201.43,0.01430656760931015,-0.0032795872539281845,-0.02527955174446106,-0.003889102255925536,-1.0105544328689575,-1.0684247016906738,0.8867444396018982,0.17,-0.1,-0.13,269.21
1667257269.67962289,83264253,1,-0.97,-1.24,201.44,0.015766499564051628,-0.0021162189077585936,-0.024244844913482666,0.015400675125420094,-1.0083712339401245,-1.0673757791519165,0.8888046741485596,0.17,-0.1,-0.13,269.21
1667257269.71959400,83304224,1,-0.97,-1.24,201.44,0.016871627420186996,-0.0016677759122103453,-0.02367378957569599,0.02860424481332302,-1.0066478252410889,-1.0667345523834229,0.8897300362586975,0.17,-0.1,-0.13,269.21
1667257269.75962305,83344253,1,-0.97,-1.24,201.45000000000002,0.017438942566514015,-0.0009048525826074183,-0.022999482229351997,0.03152790293097496,-1.005008339881897,-1.0661672353744507,0.8903443217277527,0.17,-0.1,-0.13,269.21
1667257269.77960801,83364238,1,-0.97,-1.24,201.45000000000002,0.017961855977773666,-0.0004747736675199121,-0.022707555443048477,0.0299686249345541,-1.004050850868225,-1.0658235549926758,0.8908002376556396,0.17,-0.1,-0.13,269.21
1667257269.79956889,83384199,1,-0.96,-1.24,201.45000000000002,0.01844768598675728,-0.00037306424928829074,-0.02262544445693493,0.028007853776216507,-1.0033968687057495,-1.0656667947769165,0.8907713294029236,0.17,-0.1,-0.13,269.21
1667257269.83958197,83424212,1,-0.96,-1.24,201.45000000000002,0.019440045580267906,0.0010371814714744687,-0.021538762375712395,0.03466886654496193,-1.0015206336975098,-1.0641798973083496,0.8928577303886414,0.17,-0.1,-0.13,269.21
1667257269.87958193,83464212,1,-0.96,-1.25,201.45000000000002,0.020779289305210114,0.003126334398984909,-0.02035890705883503,0.043926067650318146,-0.9994010925292969,-1.062404751777649,0.8953315019607544,0.17,-0.1,-0.13,269.21
1667257269.91959500,83504225,1,-0.96,-1.24,201.45000000000002,0.02150568924844265,0.0042031751945614815,-0.01950385794043541,0.04837212339043617,-0.9976818561553955,-1.0611687898635864,0.8965929746627808,0.17,-0.1,-0.13,269.21
1667257269.95962310,83544253,1,-0.9500000000000001,-1.24,201.45000000000002,0.021533509716391563,0.005155055783689022,-0.0190066397190094,0.0444086417555809,-0.9960379600524902,-1.0600262880325317,0.89748215675354,0.17,-0.1,-0.13,269.21
1667257269.97958398,83564214,1,-0.9500000000000001,-1.24,201.46,0.0217727180570364,0.005810102913528681,-0.018777435645461082,0.04004574194550514,-0.9951195120811462,-1.0593432188034058,0.8980945348739624,0.17,-0.1,-0.13,269.21
1667257269.99964595,83584276,1,-0.9500000000000001,-1.24,201.46,0.021875904873013496,0.006289054173976183,-0.01869921013712883,0.03606919199228287,-0.9944576025009155,-1.0589559078216553,0.8981884121894836,0.17,-0.1,-0.13,269.21
1667257270.03956008,83624190,1,-0.9500000000000001,-1.24,201.46,0.022322557866573334,0.007414958905428648,-0.017918940633535385,0.028996340930461884,-0.9926802515983582,-1.0577008724212646,0.8992332220077515,0.17,-0.1,-0.13,269.21
1667257270.07958794,83664218,1,-0.9400000000000001,-1.25,201.46,0.023839764297008514,0.008873319253325462,-0.016148153692483902,0.03727750480175018,-0.9900359511375427,-1.0556409358978271,0.9022006988525391,0.17,-0.1,-0.13,269.21
1667257270.11962390,83704254,1,-0.9400000000000001,-1.25,201.46,0.025216422975063324,0.009742898866534233,-0.01491815596818924,0.04637523368000984,-0.9879218339920044,-1.0541609525680542,0.903916597366333,0.17,-0.1,-0.13,269.21
1667257270.15961194,83744242,1,-0.9400000000000001,-1.25,201.46,0.02576163411140442,0.010400937870144844,-0.01419044379144907,0.04870665445923805,-0.985884428024292,-1.052788496017456,0.9053520560264587,0.17,-0.1,-0.13,269.21
1667257270.17958808,83764218,1,-0.9400000000000001,-1.25,201.46,0.026111295446753502,0.011311398819088936,-0.013811956159770489,0.04709639772772789,-0.9847376346588135,-1.0519920587539673,0.906277596950531,0.17,-0.1,-0.13,269.21
1667257270.19963694,83784267,1,-0.9400000000000001,-1.24,201.46,0.02630484476685524,0.011691371910274029,-0.013483155518770218,0.045702919363975525,-0.9839335680007935,-1.0514984130859375,0.906579315662384,0.17,-0.1,-0.13,269.21
1667257270.23956704,83824197,1,-0.9400000000000001,-1.25,201.46,0.025681547820568085,0.013202940113842487,-0.01236934307962656,0.04990983381867409,-0.982526957988739,-1.0496008396148682,0.9090610146522522,0.17,-0.1,-0.13,269.21
1667257270.27959299,83864223,1,-0.93,-1.25,201.46,0.025250764563679695,0.015190117061138153,-0.010792415589094162,0.05619418993592262,-0.9810983538627625,-1.0474306344985962,0.9119720458984375,0.17,-0.1,-0.13,269.21
1667257270.31958699,83904217,1,-0.93,-1.25,201.46,0.025128541514277458,0.014781306497752666,-0.009954809211194515,0.05816717818379402,-0.9798448085784912,-1.0457940101623535,0.9136896133422852,0.17,-0.1,-0.13,269.21
1667257270.35961604,83944246,1,-0.93,-1.25,201.45000000000002,0.026819460093975067,0.018344327807426453,-0.00901985913515091,0.05386028066277504,-0.9786404371261597,-1.0442779064178467,0.9150810241699219,0.17,-0.1,-0.13,269.21
1667257270.37956190,83964192,1,-0.93,-1.25,201.45000000000002,0.024778194725513458,0.016536792740225792,-0.008565470576286316,0.049810316413640976,-0.9780139327049255,-1.0433942079544067,0.9159665703773499,0.17,-0.1,-0.13,269.21
1667257270.39962006,83984250,1,-0.93,-1.25,201.46,0.022724373266100883,0.014604141004383564,-0.008729121647775173,0.04571392759680748,-0.9774997234344482,-1.0428466796875,0.9162943363189697,0.17,-0.1,-0.13,269.21
1667257270.43963289,84024263,1,-0.93,-1.25,201.47,0.026336589828133583,0.017837826162576675,-0.0066794101148843765,0.05169859528541565,-0.9764292240142822,-1.04130220413208,0.9192730188369751,0.17,-0.1,-0.13,269.21
1667257270.47956610,84064196,1,-0.92,-1.25,201.47,0.0228672344237566,0.018742607906460762,-0.006438222248107195,0.060714252293109894,-0.9755016565322876,-1.0396980047225952,0.922787606716156,0.17,-0.1,-0.13,269.21
1667257270.51959109,84104221,1,-0.92,-1.25,201.47,0.023929040879011154,0.01652313955128193,-0.0029677904676645994,0.06850583851337433,-0.9745205044746399,-1.0383776426315308,0.9249770641326904,0.17,-0.1,-0.13,269.21
1667257270.55958509,84144215,1,-0.91,-1.25,201.45000000000002,0.0256632249802351,0.01894734427332878,-0.0040833717212080956,0.06458550691604614,-0.9736709594726562,-1.0371990203857422,0.9268949031829834,0.17,-0.1,-0.13,269.21
1667257270.57959890,84164229,1,-0.91,-1.25,201.45000000000002,0.026580294594168663,0.017101118341088295,-0.003361772047355771,0.06155865639448166,-0.9731850028038025,-1.036558747291565,0.9280576109886169,0.17,-0.1,-0.13,269.21
1667257270.59962010,84184250,1,-0.91,-1.25,201.44,0.023466579616069794,0.017217328771948814,-0.00349579774774611,0.05818623676896095,-0.9727407097816467,-1.0361138582229614,0.9285731911659241,0.17,-0.1,-0.13,269.21
1667257270.63962698,84224257,1,-0.9,-1.25,201.42000000000002,0.0264739952981472,0.019925998523831367,-0.002102957572788,0.060440000146627426,-0.9715168476104736,-1.0349067449569702,0.9314787983894348,0.17,-0.1,-0.13,269.21
1667257270.67962790,84264258,1,-0.9,-1.25,201.42000000000002,0.020960737019777298,0.019901491701602936,-0.00015971300308592618,0.06527326256036758,-0.9703314900398254,-1.0337451696395874,0.9347547292709351,0.17,-0.1,-0.13,269.21
1667257270.71956205,84304192,1,-0.9,-1.25,201.44,0.024868221953511238,0.014057368971407413,0.00025540764909237623,0.06550578027963638,-0.969221830368042,-1.032795786857605,0.9368937611579895,0.17,-0.1,-0.13,269.21
1667257270.75958991,84344220,1,-0.9,-1.25,201.45000000000002,0.026317965239286423,0.01798105053603649,0.0009709790465421975,0.06137097626924515,-0.9681148529052734,-1.0320608615875244,0.9387751221656799,0.17,-0.1,-0.13,269.21
1667257270.77963901,84364269,1,-0.9,-1.25,201.45000000000002,0.026313457638025284,0.02159656584262848,0.0015711780870333314,0.05808466300368309,-0.9675256609916687,-1.0316065549850464,0.9399021863937378,0.17,-0.1,-0.13,269.21
1667257270.79963303,84384263,1,-0.9,-1.25,201.46,0.022842224687337875,0.022592809051275253,0.0026147551834583282,0.05565401166677475,-0.9669977426528931,-1.0311253070831299,0.940451979637146,0.17,-0.1,-0.13,269.21
1667257270.83961511,84424245,1,-0.88,-1.24,201.43,0.02567773126065731,0.015326579101383686,0.0030244775116443634,0.06350360810756683,-0.9661298990249634,-1.0302338600158691,0.9442659020423889,0.17,-0.1,-0.12,269.21
1667257270.87963390,84464264,1,-0.85,-1.23,201.41,0.0305293221026659,0.02263808622956276,0.009021816775202751,0.08230134099721909,-0.9650298357009888,-1.0293958187103271,0.9486649632453918,0.17,-0.1,-0.12,269.21
1667257270.91960502,84504235,1,-0.8200000000000001,-1.2,201.4,0.030131325125694275,0.01914754882454872,0.0038362499326467514,0.08422791212797165,-0.9638938903808594,-1.0285258293151855,0.9516448974609375,0.17,-0.1,-0.12,269.21
1667257270.95959496,84544225,1,-0.8200000000000001,-1.19,201.4,0.0342370830476284,0.018993118777871132,0.017643248662352562,0.09766379743814468,-0.962802529335022,-1.0276954174041748,0.954383373260498,0.17,-0.1,-0.12,269.21
1667257270.97961998,84564250,1,-0.8300000000000001,-1.2,201.4,0.028347250074148178,0.015346121042966843,0.019323764368891716,0.09620260447263718,-0.9622524380683899,-1.027446985244751,0.9559723138809204,0.17,-0.1,-0.12,269.21
1667257270.99959803,84584228,1,-0.8200000000000001,-1.19,201.39000000000001,0.03295879811048508,0.015340287238359451,0.013447090983390808,0.087331622838974,-0.9616318345069885,-1.027167558670044,0.9568184614181519,0.17,-0.1,-0.12,269.21
1667257271.03961492,84624245,1,-0.86,-1.18,201.39000000000001,0.03019006922841072,0.0023593157529830933,0.016538988798856735,0.08706984668970108,-0.9604254961013794,-1.0273486375808716,0.9598870873451233,0.17,-0.1,-0.12,269.21
1667257271.07962298,84664253,1,-0.87,-1.18,201.36,0.021042022854089737,0.023860478773713112,0.022594522684812546,0.08885719627141953,-0.9588510394096375,-1.0279057025909424,0.9632617235183716,0.17,-0.1,-0.12,269.21
1667257271.11962605,84704256,1,-0.8,-1.21,201.33,0.02253369800746441,0.009583097882568836,0.03293083608150482,0.09325738251209259,-0.958045482635498,-1.0281153917312622,0.9654088020324707,0.17,-0.1,-0.12,269.21
1667257271.15960002,84744230,1,-0.8,-1.2,201.28,0.02600126713514328,0.010370741598308086,0.01592155173420906,0.06307229399681091,-0.956688404083252,-1.0283150672912598,0.9668627977371216,0.17,-0.1,-0.12,269.21
1667257271.17962098,84764251,1,-0.8,-1.21,201.25,0.01652824692428112,0.00041166783194057643,0.02139211632311344,0.06083597242832184,-0.956289529800415,-1.028725504875183,0.9677309989929199,0.17,-0.1,-0.12,269.21
1667257271.19956803,84784198,1,-0.8200000000000001,-1.21,201.24,0.037667516618967056,0.005045922473073006,0.00411321921274066,0.03699630871415138,-0.955767035484314,-1.028866171836853,0.9682577252388,0.17,-0.1,-0.12,269.21
1667257271.23960495,84824235,1,-0.8200000000000001,-1.21,201.22,0.020783454179763794,0.008075532503426075,-0.001219122321344912,0.01783432625234127,-0.954155445098877,-1.029009461402893,0.9692370891571045,0.17,-0.1,-0.12,269.21
1667257271.27962089,84864251,1,-0.8200000000000001,-1.19,201.20000000000002,0.042851343750953674,0.0021125709172338247,0.011571578681468964,0.020940111950039864,-0.9526256322860718,-1.0292624235153198,0.9704959392547607,0.17,-0.1,-0.12,269.21
1667257271.31961107,84904241,1,-0.8200000000000001,-1.19,201.18,0.028279686346650124,0.022188439965248108,0.0041748834773898125,0.007826431654393673,-0.950861394405365,-1.0290521383285522,0.9713523387908936,0.17,-0.1,-0.12,269.21
1667257271.35962296,84944253,1,-0.8,-1.2,201.15,0.02795914001762867,0.005508237052708864,0.015891972929239273,0.012993116863071918,-0.9495795965194702,-1.0292778015136719,0.9718818068504333,0.17,-0.1,-0.11,269.21
1667257271.37963104,84964261,1,-0.8,-1.2,201.13,0.038279395550489426,0.02059752121567726,0.005570913199335337,-0.0004154806083533913,-0.9487004280090332,-1.029349684715271,0.9721871614456177,0.17,-0.1,-0.11,269.21
1667257271.39956594,84984196,1,-0.81,-1.2,201.13,0.035295382142066956,0.00798096228390932,0.009280771017074585,0.0009544095955789089,-0.9478222727775574,-1.0292296409606934,0.9725160598754883,0.17,-0.1,-0.11,269.21
1667257271.43962598,85024256,1,-0.8200000000000001,-1.21,201.06,0.01756623014807701,-0.0027720259968191385,0.01430478598922491,0.0011073763016611338,-0.9472447633743286,-1.0295512676239014,0.9726897478103638,0.17,-0.1,-0.11,269.21
1667257271.47957301,85064203,1,-0.81,-1.21,201.04,0.037623852491378784,0.0030610477551817894,0.01479838415980339,-0.006173798814415932,-0.9463823437690735,-1.0297131538391113,0.9724060297012329,0.17,-0.1,-0.11,269.21
1667257271.51961994,85104250,1,-0.79,-1.21,201.0,0.016984451562166214,0.0014850306324660778,0.016845861449837685,-0.00895116850733757,-0.9456620216369629,-1.0299360752105713,0.9723386764526367,0.17,-0.1,-0.11,269.21
1667257271.55960894,85144239,1,-0.79,-1.22,200.99,0.03943880647420883,0.008778352290391922,0.012982428073883057,-0.017654243856668472,-0.944843053817749,-1.0302340984344482,0.9721022844314575,0.17,-0.1,-0.11,269.21
1667257271.57958603,85164216,1,-0.79,-1.21,200.99,0.0324440635740757,0.011682562530040741,0.011753696016967297,-0.020296268165111542,-0.9442682862281799,-1.0302565097808838,0.971828818321228,0.17,-0.1,-0.11,269.21
1667257271.59958291,85184213,1,-0.78,-1.21,200.98000000000002,0.022093528881669044,0.0027468728367239237,0.009111570194363594,-0.024194026365876198,-0.9438217282295227,-1.0302363634109497,0.9718908071517944,0.17,-0.1,-0.11,269.21
1667257271.63956094,85224191,1,-0.78,-1.21,200.94,0.03951532021164894,0.0008642194443382323,0.01576414704322815,-0.013347338885068893,-0.943294882774353,-1.0308525562286377,0.9723600745201111,0.17,-0.1,-0.11,269.21
1667257271.67956400,85264194,1,-0.79,-1.21,200.92000000000002,0.03439334034919739,-0.001313418848440051,0.01730276644229889,-0.005876545794308186,-0.9424197673797607,-1.031437635421753,0.972633421421051,0.17,-0.1,-0.11,269.21
1667257271.71963191,85304262,1,-0.78,-1.21,200.88,0.02461002767086029,-0.0028437969740480185,0.02413426712155342,0.0060305362567305565,-0.9419705271720886,-1.0318559408187866,0.9729602932929993,0.17,-0.1,-0.11,269.21
1667257271.75962496,85344255,1,-0.77,-1.21,200.87,0.03638172149658203,0.0009435464744456112,0.02142428234219551,0.005152523517608643,-0.9410385489463806,-1.0324500799179077,0.9731759428977966,0.17,-0.1,-0.11,269.21
1667257271.77959299,85364223,1,-0.77,-1.2,200.84,0.017153525725007057,0.0013426750665530562,0.02346261590719223,0.007806898560374975,-0.940791666507721,-1.03263521194458,0.9732431769371033,0.17,-0.1,-0.11,269.21
1667257271.79962206,85384252,1,-0.77,-1.21,200.82,0.016640128567814827,-0.01389277819544077,0.025991419330239296,0.010606305673718452,-0.9406571984291077,-1.0328508615493774,0.9734787344932556,0.17,-0.1,-0.11,269.21
1667257271.83958006,85424210,1,-0.78,-1.22,200.8,0.03671909123659134,-0.008055043406784534,0.02608570270240307,0.010566877201199532,-0.939943253993988,-1.0332739353179932,0.9736241698265076,0.17,-0.1,-0.11,269.21
1667257271.87957788,85464208,1,-0.79,-1.22,200.79,0.013901066966354847,-0.008422049693763256,0.022395772859454155,0.004760516807436943,-0.9394281506538391,-1.0336006879806519,0.9734853506088257,0.17,-0.1,-0.11,269.21
1667257271.91959190,85504222,1,-0.78,-1.24,200.78,0.03281933441758156,-0.009982358664274216,0.021742254495620728,0.0026638840790838003,-0.9390685558319092,-1.034043312072754,0.9734529852867126,0.17,-0.1,-0.11,269.21
1667257271.95959210,85544222,1,-0.79,-1.23,200.75,0.019757717847824097,-0.011210169643163681,0.0331064909696579,0.008765414357185364,-0.9381552934646606,-1.0342851877212524,0.9730652570724487,0.17,-0.1,-0.11,269.21
1667257271.97957993,85564210,1,-0.77,-1.24,200.73000000000002,0.019192924723029137,-0.01004264410585165,0.015046665444970131,-0.011631827801465988,-0.938026487827301,-1.0345427989959717,0.9728008508682251,0.17,-0.1,-0.11,269.21
1667257271.99962592,85584256,1,-0.76,-1.25,200.72,0.03223119676113129,-0.00025601149536669254,0.020570561289787292,-0.008083592168986797,-0.9376175999641418,-1.0347033739089966,0.9728635549545288,0.17,-0.1,-0.11,269.21
1667257272.03962803,85624258,1,-0.77,-1.24,200.69,0.028711067512631416,-0.012097720988094807,0.01059816125780344,-0.022925453260540962,-0.936565101146698,-1.0341758728027344,0.972121000289917,0.17,-0.1,-0.1,269.21
1667257272.07957292,85664203,1,-0.77,-1.24,200.64000000000001,0.021630918607115746,0.006518041715025902,0.022641386836767197,-0.01753288321197033,-0.9359434247016907,-1.0334782600402832,0.9709526300430298,0.17,-0.1,-0.1,269.21
1667257272.11962199,85704252,1,-0.76,-1.25,200.63,0.03364230692386627,-0.02609126642346382,0.032098956406116486,-0.011729896999895573,-0.9351122379302979,-1.0331636667251587,0.9701828360557556,0.17,-0.1,-0.1,269.21
1667257272.15957689,85744207,1,-0.78,-1.24,200.61,0.01980406977236271,-0.00029913836624473333,0.023971155285835266,-0.024468183517456055,-0.9344965219497681,-1.0329124927520752,0.9692128300666809,0.17,-0.1,-0.1,269.21
1667257272.17960596,85764236,1,-0.75,-1.23,200.6,0.02926553413271904,-0.008791514672338963,0.024305153638124466,-0.02530132792890072,-0.9341349005699158,-1.0325965881347656,0.9685273170471191,0.17,-0.1,-0.1,269.21
1667257272.19963288,85784263,1,-0.75,-1.24,200.59,0.024347610771656036,-0.018703017383813858,0.019942425191402435,-0.030683619901537895,-0.933688223361969,-1.0326440334320068,0.9684004187583923,0.17,-0.1,-0.1,269.21
1667257272.23960996,85824240,1,-0.73,-1.24,200.57,0.025888584554195404,-0.016841523349285126,0.019327474758028984,-0.024910863488912582,-0.9333773255348206,-1.0319395065307617,0.9684075117111206,0.17,-0.1,-0.1,269.21
1667257272.27963209,85864262,1,-0.74,-1.22,200.53,0.02831791155040264,-0.004267108626663685,0.03527890518307686,-0.0022782422602176666,-0.9331274628639221,-1.0308640003204346,0.9679000377655029,0.17,-0.1,-0.1,269.21
1667257272.31958604,85904216,1,-0.76,-1.23,200.49,0.027864454314112663,0.0006646427209489048,0.015855683013796806,-0.015683753415942192,-0.932411253452301,-1.030401349067688,0.9675778150558472,0.17,-0.1,-0.1,269.21
1667257272.35956502,85944195,1,-0.74,-1.23,200.45000000000002,0.023954147472977638,-0.013146836310625076,0.033579640090465546,4.53656139143277e-06,-0.9318782091140747,-1.02993643283844,0.9667083621025085,0.17,-0.1,-0.1,269.21
1667257272.37963390,85964264,1,-0.77,-1.23,200.44,0.015359298326075077,-0.007264034356921911,0.02354990690946579,-0.011626249179244041,-0.9317448139190674,-1.0296529531478882,0.9661366939544678,0.17,-0.1,-0.1,269.21
1667257272.39958787,85984218,1,-0.73,-1.21,200.41,0.027123302221298218,-0.013291126117110252,0.02783755399286747,-0.009080221876502037,-0.93135005235672,-1.0296229124069214,0.9661312103271484,0.17,-0.1,-0.1,269.21
1667257272.43961692,86024247,1,-0.76,-1.24,200.38,0.02404589019715786,-0.001675043604336679,0.016207586973905563,-0.020902929827570915,-0.9306009411811829,-1.0284417867660522,0.9656007885932922,0.17,-0.1,-0.09,269.21
1667257272.47959805,86064228,1,-0.74,-1.24,200.35,0.024285925552248955,-0.007042611949145794,0.02982778660953045,-0.010593346320092678,-0.9300111532211304,-1.0270551443099976,0.964216947555542,0.17,-0.1,-0.09,269.21
1667257272.51958203,86104212,1,-0.75,-1.22,200.33,0.0181695856153965,-0.0014646673807874322,0.021523084491491318,-0.020908307284116745,-0.9292423725128174,-1.0263500213623047,0.9632760286331177,0.17,-0.1,-0.09,269.21
1667257272.55955887,86144189,1,-0.73,-1.22,200.29,0.02653142437338829,-0.009037316776812077,0.025423740968108177,-0.02596583403646946,-0.928542971611023,-1.0258562564849854,0.9616441130638123,0.17,-0.1,-0.09,269.21
1667257272.57962108,86164251,1,-0.73,-1.23,200.27,0.02323012240231037,-0.012062883004546165,0.016175126656889915,-0.039035022258758545,-0.9282091856002808,-1.0254905223846436,0.9605712890625,0.17,-0.1,-0.09,269.21
1667257272.59959793,86184228,1,-0.6900000000000001,-1.23,200.25,0.02153780125081539,-0.01356624998152256,0.005214388482272625,-0.053599853068590164,-0.9277383089065552,-1.025414228439331,0.960307776927948,0.17,-0.1,-0.09,269.21
1667257272.63962889,86224259,1,-0.72,-1.23,200.19,0.02278032712638378,-0.015061186626553535,0.01547212339937687,-0.04556073993444443,-0.9275569319725037,-1.0245293378829956,0.9589146971702576,0.17,-0.1,-0.09,269.21
1667257272.67962408,86264254,1,-0.64,-1.22,200.14000000000001,0.025678614154458046,-0.01213199831545353,0.03314133360981941,-0.03060995601117611,-0.9274926781654358,-1.0234084129333496,0.9567264914512634,0.17,-0.1,-0.09,269.21
1667257272.71963191,86304262,1,-0.73,-1.24,200.09,0.014476143755018711,-0.010845878161489964,0.015078654512763023,-0.04890083149075508,-0.9272794127464294,-1.022919774055481,0.9550014138221741,0.17,-0.1,-0.09,269.21
1667257272.75960994,86344240,1,-0.74,-1.25,200.05,0.01955079473555088,-0.019089970737695694,0.017983436584472656,-0.054321132600307465,-0.9270963668823242,-1.0226858854293823,0.9525892734527588,0.17,-0.1,-0.08,269.21
1667257272.77961802,86364248,1,-0.73,-1.24,200.01,0.014787205494940281,-0.019365817308425903,0.01233613584190607,-0.06305797398090363,-0.9270033240318298,-1.022540807723999,0.9510726928710938,0.17,-0.1,-0.08,269.21
1667257272.79959393,86384224,1,-0.72,-1.23,200.0,0.016877267509698868,-0.004710168112069368,0.010547741316258907,-0.06813012808561325,-0.9267866015434265,-1.0226092338562012,0.9505173563957214,0.17,-0.1,-0.08,269.21
1667257272.83958793,86424218,1,-0.6,-1.24,199.95000000000002,0.017134493216872215,-0.023427993059158325,-0.0012967267539352179,-0.07826316356658936,-0.9264408946037292,-1.0228716135025024,0.9485424757003784,0.17,-0.1,-0.08,269.21
1667257272.87962604,86464256,1,-0.52,-1.23,199.89000000000001,0.024816596880555153,-0.03672296181321144,0.009528843685984612,-0.06665874272584915,-0.9261249303817749,-1.0233731269836426,0.9454652070999146,0.17,-0.1,-0.08,269.21
1667257272.91962409,86504254,1,-0.55,-1.26,199.85,0.023657500743865967,-0.04835180565714836,0.02040613256394863,-0.05277634412050247,-0.9255884885787964,-1.0245815515518188,0.9424780607223511,0.17,-0.1,-0.08,269.21
1667257272.95963001,86544260,1,-0.51,-1.22,199.8,0.02773709036409855,-0.04249056801199913,-0.038379013538360596,-0.12428497523069382,-0.9248746633529663,-1.0261603593826294,0.9378864169120789,0.17,-0.1,-0.08,269.21
1667257272.97961903,86564249,1,-0.51,-1.21,199.75,0.03211343660950661,-0.05349854379892349,0.009805483743548393,-0.08227139711380005,-0.9245040416717529,-1.0271015167236328,0.9349817037582397,0.17,-0.1,-0.08,269.21
1667257272.99958992,86584220,1,-0.49,-1.18,199.73000000000002,0.028091488406062126,-0.054861195385456085,-0.025476863607764244,-0.12358445674180984,-0.9240320324897766,-1.0280448198318481,0.9333161115646362,0.17,-0.1,-0.08,269.21
1667257273.03958988,86624220,1,-0.4,-1.18,199.71,0.02501199208199978,-0.05105283483862877,-0.06524035334587097,-0.1753479689359665,-0.9234187006950378,-1.0300240516662598,0.9267797470092773,0.17,-0.1,-0.07,269.21
1667257273.07958388,86664214,1,-0.33,-1.06,199.65,0.022949865087866783,-0.04485713317990303,-0.05390409380197525,-0.18495647609233856,-0.9234116673469543,-1.032285451889038,0.9174026846885681,0.17,-0.1,-0.07,269.21
1667257273.11962295,86704253,1,-0.25,-0.93,199.62,0.02125316672027111,-0.04880845919251442,-0.12276983261108398,-0.26530230045318604,-0.9231253862380981,-1.0345429182052612,0.908604085445404,0.17,-0.1,-0.07,269.21
1667257273.15960288,86744233,1,-0.13,-0.75,199.59,0.016282944008708,-0.039761871099472046,-0.15665842592716217,-0.3190438151359558,-0.9229183197021484,-1.0368150472640991,0.8973719477653503,0.17,-0.1,-0.07,269.21
1667257273.17959094,86764221,1,-0.19,-0.61,199.55,0.016430532559752464,-0.058386944234371185,-0.18195222318172455,-0.3504905104637146,-0.9229055643081665,-1.0380336046218872,0.8904510140419006,0.17,-0.1,-0.07,269.21
1667257273.19963002,86784260,1,-0.14,-0.51,199.56,0.01710766740143299,-0.05113543942570686,-0.13470837473869324,-0.30828550457954407,-0.9227965474128723,-1.0390782356262207,0.8853679895401001,0.17,-0.1,-0.07,269.21
1667257273.23956108,86824191,1,0.12,-0.27,199.53,0.019349008798599243,-0.07055235654115677,-0.1711859405040741,-0.3493508994579315,-0.9229869842529297,-1.0407438278198242,0.8706548810005188,0.17,-0.1,-0.06,269.21
1667257273.27958703,86864217,1,0.18,-0.03,199.53,0.02072914130985737,-0.05430153012275696,-0.24668288230895996,-0.43235674500465393,-0.9233439564704895,-1.0424467325210571,0.8524075746536255,0.17,-0.1,-0.06,269.21
1667257273.31958604,86904216,1,0.36,0.21,199.53,0.02462177164852619,-0.07967502623796463,-0.262498676776886,-0.44593262672424316,-0.9232083559036255,-1.0445433855056763,0.834328293800354,0.17,-0.1,-0.06,269.21
1667257273.35962892,86944259,1,0.53,0.44,199.53,0.02887369506061077,-0.07830360531806946,-0.33824729919433594,-0.535189688205719,-0.9228628277778625,-1.0469142198562622,0.8133928775787354,0.17,-0.1,-0.06,269.21
1667257273.37958694,86964217,1,0.64,0.55,199.53,0.024257512763142586,-0.06651003658771515,-0.3725297749042511,-0.5737038254737854,-0.9226224422454834,-1.0481534004211426,0.8014271259307861,0.17,-0.1,-0.06,269.21
1667257273.39961696,86984247,1,0.46,0.63,199.54,0.04041633754968643,-0.08716194331645966,-0.3637247383594513,-0.5700656771659851,-0.9222467541694641,-1.0494790077209473,0.7919397950172424,0.17,-0.1,-0.06,269.21
1667257273.43957305,87024203,1,0.53,0.74,199.54,0.031132899224758148,-0.08402694761753082,-0.4074983596801758,-0.6496065855026245,-0.9213021993637085,-1.0525836944580078,0.7634788155555725,0.17,-0.1,-0.06,269.21
1667257273.47959900,87064229,1,0.48,0.74,199.56,0.03771236538887024,-0.07792346179485321,-0.47874537110328674,-0.7734434008598328,-0.9202936887741089,-1.0558425188064575,0.7304173111915588,0.17,-0.1,-0.06,269.21
1667257273.51958704,87104217,1,0.47000000000000003,0.6900000000000001,199.59,0.040959108620882034,-0.09209111332893372,-0.5240413546562195,-0.8464174270629883,-0.9189436435699463,-1.0592877864837646,0.7004521489143372,0.17,-0.1,-0.06,269.21
1667257273.55961609,87144246,1,0.31,0.64,199.59,0.050739455968141556,-0.0904628112912178,-0.5431376099586487,-0.8823851346969604,-0.917418360710144,-1.062891960144043,0.6684724688529968,0.17,-0.1,-0.05,269.21
1667257273.57955790,87164188,1,0.23,0.65,199.61,0.040253639221191406,-0.08867005258798599,-0.53130042552948,-0.8698374032974243,-0.9166456460952759,-1.0646687746047974,0.6507354378700256,0.17,-0.1,-0.05,269.21
1667257273.59962010,87184250,1,0.33,0.6,199.61,0.05408385768532753,-0.08661594986915588,-0.5630702972412109,-0.9005566239356995,-0.9156811237335205,-1.0664993524551392,0.6364332437515259,0.17,-0.1,-0.05,269.21
1667257273.63961697,87224247,1,0.11,0.54,199.66,0.05886107310652733,-0.0903434082865715,-0.6038293838500977,-0.9541576504707336,-0.9136991500854492,-1.0700416564941406,0.5986362099647522,0.17,-0.1,-0.05,269.21
1667257273.67960906,87264239,1,0.1,0.49,199.70000000000002,0.054001349955797195,-0.08407969027757645,-0.6155416369438171,-0.9992409348487854,-0.9116047024726868,-1.0737472772598267,0.5551994442939758,0.17,-0.1,-0.05,269.21
1667257273.71958899,87304219,1,-0.01,0.45,199.75,0.05780170112848282,-0.08749943971633911,-0.6518488526344299,-1.050123691558838,-0.9094259142875671,-1.0774799585342407,0.5168113112449646,0.17,-0.1,-0.05,269.21
1667257273.75958800,87344218,1,-0.15,0.41000000000000003,199.8,0.04873606562614441,-0.0779343768954277,-0.6646295785903931,-1.0779509544372559,-0.9071629643440247,-1.081375241279602,0.4768739938735962,0.17,-0.1,-0.05,269.21
1667257273.77962494,87364255,1,-0.25,0.37,199.84,0.05621830001473427,-0.10067857801914215,-0.663120448589325,-1.0742026567459106,-0.9059839844703674,-1.0833923816680908,0.45486459136009216,0.17,-0.1,-0.05,269.21
1667257273.79961610,87384246,1,-0.28,0.32,199.85,0.06244657188653946,-0.08604777604341507,-0.6661807894706726,-1.0753188133239746,-0.90485018491745,-1.0852673053741455,0.4379678964614868,0.17,-0.1,-0.05,269.21
1667257273.83962393,87424254,1,-0.05,0.08,175.18,0.05278356745839119,-0.07783982902765274,-0.673067569732666,-1.1220085620880127,-0.9034532904624939,-1.085876226425171,0.38855528831481934,0.17,-0.1,-0.05,269.21
1667257273.87964606,87464276,1,-0.03,-0.04,175.26,0.05348363518714905,-0.07487853616476059,-0.6624774932861328,-1.2269885540008545,-0.9024350047111511,-1.0857560634613037,0.32878991961479187,0.17,-0.1,-0.05,269.21
1667257273.91956306,87504193,1,-0.01,-0.13,175.35,0.050606243312358856,-0.08235669881105423,-0.6588840484619141,-1.3022546768188477,-0.9010674357414246,-1.086904525756836,0.2760500907897949,0.17,-0.1,-0.05,269.21
1667257273.95958805,87544218,1,0.01,-0.19,175.45000000000002,0.052070315927267075,-0.0844668447971344,-0.6680232286453247,-1.4187636375427246,-0.89979088306427,-1.0882192850112915,0.21896712481975555,0.17,-0.1,-0.05,269.21
1667257273.97962308,87564253,1,-0.05,-0.22,175.48,0.0510975606739521,-0.0835905447602272,-0.6691062450408936,-1.4540373086929321,-0.8992217779159546,-1.0886516571044922,0.18754248321056366,0.17,-0.1,-0.05,269.21
1667257273.99955988,87584190,1,0.05,-0.2,175.53,0.049290981143713,-0.08273783326148987,-0.6754180192947388,-1.4895678758621216,-0.898438036441803,-1.0897749662399292,0.16601459681987762,0.17,-0.1,-0.05,269.21
1667257274.03962398,87624254,1,0.0,-0.11,175.63,0.047313857823610306,-0.08285508304834366,-0.6126196980476379,-1.443645715713501,-0.89650559425354,-1.090598702430725,0.11170622706413269,0.17,-0.1,-0.05,269.21
1667257274.07961488,87664245,1,-0.03,0.02,175.72,0.05687907710671425,-0.09200702607631683,-0.5971250534057617,-1.438664436340332,-0.8945584893226624,-1.090886116027832,0.050460703670978546,0.17,-0.1,-0.05,269.21
1667257274.11962891,87704259,1,-0.13,0.13,175.8,0.05913328751921654,-0.08097594976425171,-0.5925347805023193,-1.4074565172195435,-0.8924522399902344,-1.092123031616211,0.0019381716847419739,0.17,-0.1,-0.05,269.21
1667257274.15959907,87744229,1,-0.14,0.2,175.87,0.05491526424884796,-0.08435066789388657,-0.5399361252784729,-1.3184623718261719,-0.8902697563171387,-1.0936416387557983,-0.04557083919644356,0.17,-0.1,-0.05,269.21
1667257274.17962503,87764255,1,-0.22,0.21,175.9,0.05358938127756119,-0.0847974643111229,-0.530817985534668,-1.2778387069702148,-0.8891550302505493,-1.0941002368927002,-0.0708952322602272,0.17,-0.1,-0.05,269.21
1667257274.19957399,87784204,1,-0.28,0.19,175.95000000000002,0.0623922199010849,-0.07987400144338608,-0.5209881067276001,-1.2405786514282227,-0.8880155086517334,-1.0952048301696777,-0.08851507306098938,0.17,-0.1,-0.05,269.21
1667257274.23957610,87824206,1,-0.27,0.04,176.01,0.052535638213157654,-0.07819348573684692,-0.5224028825759888,-1.1524330377578735,-0.8855581283569336,-1.0963640213012695,-0.12646698951721191,0.17,-0.1,-0.05,269.21
1667257274.27962995,87864260,1,-0.18,-0.16,176.07,0.05423257127404213,-0.07970564812421799,-0.43860164284706116,-0.9400988817214966,-0.8826318979263306,-1.0957739353179932,-0.16244471073150635,0.17,-0.1,-0.05,269.21
1667257274.31962204,87904252,1,-0.25,-0.46,176.17000000000002,0.056467827409505844,-0.07025763392448425,-0.42261171340942383,-0.8038015961647034,-0.8798692226409912,-1.0962625741958618,-0.1909123957157135,0.17,-0.1,-0.05,269.21
1667257274.35959792,87944228,1,-0.12,-0.74,176.25,0.056646548211574554,-0.07807425409555435,-0.389390230178833,-0.6738880276679993,-0.8771191239356995,-1.096968650817871,-0.21693037450313568,0.17,-0.1,-0.05,269.21
1667257274.37961888,87964249,1,-0.12,-0.9,176.32,0.052583470940589905,-0.06025571748614311,-0.36766016483306885,-0.6106388568878174,-0.8757103681564331,-1.0970453023910522,-0.2301868051290512,0.17,-0.1,-0.05,269.21
1667257274.39957404,87984204,1,0.06,-1.02,176.36,0.04954098165035248,-0.08019836992025375,-0.3385993540287018,-0.5499645471572876,-0.8745061755180359,-1.0978500843048096,-0.2400306761264801,0.17,-0.1,-0.05,269.21
1667257274.43958497,88024215,1,0.21,-1.23,176.48,0.04889961704611778,-0.058519888669252396,-0.3050021827220917,-0.42125746607780457,-0.8740718960762024,-1.09761381149292,-0.25428783893585205,0.17,-0.1,-0.05,269.21
1667257274.47962499,88064255,1,0.52,-1.32,176.58,0.03724449872970581,-0.07568852603435516,-0.3047766387462616,-0.30663883686065674,-0.8740829825401306,-1.0968620777130127,-0.2654843330383301,0.17,-0.1,-0.05,269.21
1667257274.51961803,88104248,1,0.64,-1.4000000000000001,176.70000000000002,0.03662616014480591,-0.0662117749452591,-0.24727261066436768,-0.166188582777977,-0.873710572719574,-1.0973280668258667,-0.27499547600746155,0.17,-0.1,-0.05,269.21
1667257274.55963492,88144265,1,0.79,-1.3800000000000001,176.8,0.03317371755838394,-0.07216434180736542,-0.24223273992538452,-0.10125316679477692,-0.8734641075134277,-1.0979756116867065,-0.28197067975997925,0.17,-0.1,-0.05,269.21
1667257274.57959104,88164221,1,0.77,-1.3900000000000001,176.84,0.027822159230709076,-0.06524618715047836,-0.24162070453166962,-0.08082957565784454,-0.8735758662223816,-1.0981725454330444,-0.2849506437778473,0.17,-0.1,-0.05,269.21
1667257274.59958196,88184212,1,0.76,-1.37,176.88,0.013064038939774036,-0.06425211578607559,-0.22091935575008392,-0.046197302639484406,-0.8734092712402344,-1.0990511178970337,-0.28864699602127075,0.17,-0.1,-0.05,269.21
1667257274.63959002,88224220,1,0.77,-1.29,176.95000000000002,0.014098675921559334,-0.07227865606546402,-0.20277655124664307,0.017170600593090057,-0.8736416101455688,-1.097577452659607,-0.28866633772850037,0.17,-0.1,-0.05,269.21
1667257274.67959094,88264221,1,0.62,-1.2,176.97,0.007880805991590023,-0.0676979273557663,-0.21081167459487915,0.0656033307313919,-0.8742495775222778,-1.0953381061553955,-0.28510552644729614,0.17,-0.1,-0.05,269.21
1667257274.71959710,88304227,1,0.58,-1.12,177.01,-0.007221047766506672,-0.05470221862196922,-0.17304743826389313,0.13346309959888458,-0.8748981356620789,-1.0948371887207031,-0.28413450717926025,0.17,-0.1,-0.05,269.21
1667257274.75959992,88344230,1,0.52,-1.01,177.02,-0.007482759654521942,-0.0760449543595314,-0.13478359580039978,0.1825619339942932,-0.8757036328315735,-1.0946218967437744,-0.28225553035736084,0.17,-0.1,-0.05,269.21
1667257274.77958488,88364215,1,0.48,-0.9400000000000001,177.03,-0.012731966562569141,-0.07596752792596817,-0.14852775633335114,0.16454385221004486,-0.8763060569763184,-1.094262719154358,-0.28025397658348083,0.17,-0.1,-0.05,269.21
1667257274.79962206,88384252,1,0.38,-0.9,177.01,-0.017383350059390068,-0.06381279975175858,-0.14829029142856598,0.16035696864128113,-0.8767330050468445,-1.0948116779327393,-0.28068476915359497,0.17,-0.1,-0.05,269.21
1667257274.83955693,88424187,1,0.38,-0.75,177.0,-0.022115448489785194,-0.07819993048906326,-0.1355488896369934,0.1627768576145172,-0.8782724142074585,-1.0944640636444092,-0.27724307775497437,0.17,-0.1,-0.05,269.21
1667257274.87959599,88464226,1,0.34,-0.58,176.97,-0.02817147970199585,-0.07134392112493515,-0.1434752345085144,0.14782766997814178,-0.8800484538078308,-1.0935906171798706,-0.2716066241264343,0.17,-0.1,-0.05,269.21
1667257274.91959190,88504222,1,0.33,-0.42,176.94,-0.030827084556221962,-0.07103948295116425,-0.1763235628604889,0.10103257745504379,-0.8816950917243958,-1.093977451324463,-0.2698037028312683,0.17,-0.1,-0.05,269.21
1667257274.95964193,88544272,1,0.18,-0.24,176.9,-0.02976330928504467,-0.07917378842830658,-0.18327687680721283,0.08501783758401871,-0.8833849430084229,-1.0945899486541748,-0.26841267943382263,0.17,-0.1,-0.05,269.21
1667257274.97959304,88564223,1,0.2,-0.15,176.88,-0.035175859928131104,-0.07059263437986374,-0.17775286734104156,0.08185824751853943,-0.884358823299408,-1.094712495803833,-0.26724717020988464,0.17,-0.1,-0.05,269.21
1667257274.99958801,88584218,1,0.14,-0.08,176.87,-0.032458845525979996,-0.07347974926233292,-0.20602688193321228,0.047545481473207474,-0.8851731419563293,-1.095434308052063,-0.26893681287765503,0.17,-0.1,-0.05,269.21
1667257275.03957701,88624207,1,0.0,0.02,176.83,-0.037123776972293854,-0.06820917874574661,-0.25190651416778564,-0.017408287152647972,-0.887052059173584,-1.0949645042419434,-0.2706420123577118,0.17,-0.1,-0.05,269.21
1667257275.07955909,88664189,1,-0.04,0.07,176.77,-0.03941972926259041,-0.0549025721848011,-0.2726823091506958,-0.0641510933637619,-0.8889729976654053,-1.093856930732727,-0.2725723683834076,0.17,-0.1,-0.05,269.21
1667257275.11958909,88704219,1,-0.23,0.09,176.70000000000002,-0.03555943816900253,-0.049954306334257126,-0.29759448766708374,-0.11536628007888794,-0.8907395005226135,-1.0939712524414062,-0.2782696783542633,0.17,-0.1,-0.05,269.21
1667257275.15961599,88744246,1,-0.17,0.07,176.65,-0.03878806158900261,-0.059130895882844925,-0.326111763715744,-0.16166286170482635,-0.8924742937088013,-1.0942440032958984,-0.28508278727531433,0.17,-0.1,-0.05,269.21
1667257275.17957306,88764203,1,-0.18,0.04,176.61,-0.03687209635972977,-0.06357867270708084,-0.35943692922592163,-0.20376527309417725,-0.8933634757995605,-1.0940921306610107,-0.2884241044521332,0.17,-0.1,-0.05,269.21
1667257275.19961500,88784245,1,-0.23,0.0,176.58,-0.0348641611635685,-0.05394773930311203,-0.3763824999332428,-0.22665081918239594,-0.894178032875061,-1.0945754051208496,-0.29399147629737854,0.17,-0.1,-0.05,269.21
1667257275.23962903,88824259,1,-0.24,-0.14,176.52,-0.03929899260401726,-0.04837202653288841,-0.4122910797595978,-0.27972617745399475,-0.8962258100509644,-1.092975378036499,-0.3050408661365509,0.17,-0.1,-0.05,269.21
1667257275.27960992,88864240,1,-0.29,-0.34,176.44,-0.03790055587887764,-0.045563697814941406,-0.44368475675582886,-0.32501086592674255,-0.8984529376029968,-1.090509057044983,-0.3163434863090515,0.17,-0.1,-0.05,269.21
1667257275.31959701,88904227,1,-0.27,-0.6,176.38,-0.040146972984075546,-0.03625370189547539,-0.4626334309577942,-0.35511288046836853,-0.900555431842804,-1.0892422199249268,-0.3303581476211548,0.17,-0.1,-0.05,269.21
1667257275.35958695,88944217,1,-0.28,-0.93,176.29,-0.05238192528486252,-0.03226031735539436,-0.5104909539222717,-0.4052250385284424,-0.9028267860412598,-1.088104248046875,-0.3452724814414978,0.17,-0.1,-0.05,269.21
1667257275.37962699,88964257,1,-0.36,-1.11,176.26,-0.05762704089283943,-0.021665891632437706,-0.514568567276001,-0.41087430715560913,-0.9040700793266296,-1.0871115922927856,-0.3524205684661865,0.17,-0.1,-0.05,269.21
1667257275.39961505,88984245,1,-0.32,-1.33,176.21,-0.05882950499653816,-0.03160155192017555,-0.5041744112968445,-0.4010196626186371,-0.9053467512130737,-1.0869667530059814,-0.36175966262817383,0.17,-0.1,-0.05,269.21
1667257275.43962002,89024250,1,-0.35000000000000003,-1.8,176.13,-0.06960085034370422,-0.023337356746196747,-0.5663079619407654,-0.47175392508506775,-0.9073869585990906,-1.0841705799102783,-0.38006991147994995,0.17,-0.1,-0.05,269.21
1667257275.47962809,89064258,1,-0.34,-2.31,176.04,-0.08035628497600555,-0.01870759017765522,-0.5924520492553711,-0.5116284489631653,-0.9097790718078613,-1.080460548400879,-0.3990411162376404,0.17,-0.1,-0.05,269.21
1667257275.51955891,89104189,1,-0.29,-2.79,175.97,-0.09982483088970184,-0.013839436694979668,-0.6202342510223389,-0.5529201030731201,-0.9129160046577454,-1.077958583831787,-0.4203541576862335,0.17,-0.1,-0.05,269.21
1667257275.55956507,89144195,1,-0.19,-3.13,175.88,-0.1149488240480423,-0.006008607801049948,-0.6070281863212585,-0.5504711866378784,-0.9166637659072876,-1.0756793022155762,-0.44226908683776855,0.17,-0.1,-0.05,269.21
1667257275.57962203,89164252,1,-0.1,-3.22,175.83,-0.12283824384212494,-0.0029844369273632765,-0.6078571081161499,-0.5563925504684448,-0.9186828136444092,-1.074137806892395,-0.4530932307243347,0.17,-0.1,-0.05,269.21
1667257275.59957600,89184206,1,-0.08,-3.3200000000000003,175.81,-0.13033753633499146,-0.0029616912361234426,-0.6119433641433716,-0.5640550851821899,-0.921080470085144,-1.0734517574310303,-0.46466222405433655,0.17,-0.1,-0.05,269.21
1667257275.63962388,89224254,1,0.14,-3.4,175.72,-0.15677300095558167,-0.006690841633826494,-0.5898407697677612,-0.5548880100250244,-0.9270026087760925,-1.0701031684875488,-0.48818424344062805,0.17,-0.1,-0.05,269.21
1667257275.67960596,89264236,1,0.41000000000000003,-3.41,175.65,-0.17490063607692719,0.009195305407047272,-0.6032249927520752,-0.5792840719223022,-0.9336464405059814,-1.066141128540039,-0.5104386806488037,0.17,-0.1,-0.05,269.21
1667257275.71963501,89304265,1,0.64,-3.47,175.58,-0.1972687840461731,0.0027644552756100893,-0.5834524035453796,-0.5665804743766785,-0.9410357475280762,-1.0633498430252075,-0.5323652029037476,0.17,-0.1,-0.05,269.21
1667257275.75957894,89344209,1,0.8200000000000001,-3.61,175.51,-0.22261537611484528,0.005634800065308809,-0.5719060301780701,-0.5537710785865784,-0.9497161507606506,-1.0608450174331665,-0.5544267296791077,0.17,-0.1,-0.05,269.21
1667257275.77963209,89364262,1,0.87,-3.7,175.47,-0.23894102871418,0.002256820909678936,-0.573207437992096,-0.5535988807678223,-0.9542126655578613,-1.0592505931854248,-0.5646654367446899,0.17,-0.1,-0.05,269.21
1667257275.79958606,89384216,1,0.9,-3.77,175.45000000000002,-0.24873965978622437,-0.0006772383931092918,-0.5710523128509521,-0.5493389964103699,-0.9591740965843201,-1.0584818124771118,-0.57586270570755,0.17,-0.1,-0.05,269.21
1667257275.83958602,89424216,1,0.96,-3.88,175.39000000000001,-0.27580201625823975,-0.0011781976791098714,-0.5788021683692932,-0.5435953140258789,-0.9715558290481567,-1.0561630725860596,-0.5955813527107239,0.17,-0.1,-0.05,269.21
1667257275.87962008,89464250,1,0.98,-3.87,175.36,-0.2928306460380554,0.014153322204947472,-0.5556425452232361,-0.5020477771759033,-0.9853470921516418,-1.053592324256897,-0.6143638491630554,0.17,-0.1,-0.05,269.21
1667257275.91963291,89504263,1,0.91,-3.73,175.33,-0.3254033327102661,-0.0004821622569579631,-0.5487123131752014,-0.48352277278900146,-0.9992859959602356,-1.0518648624420166,-0.6341049671173096,0.17,-0.1,-0.05,269.21
1667257275.95961595,89544246,1,0.86,-3.45,175.33,-0.34168580174446106,-0.0009665800607763231,-0.5519691705703735,-0.4813987910747528,-1.014191746711731,-1.0504761934280396,-0.6537346243858337,0.17,-0.1,-0.05,269.21
1667257275.97962093,89564251,1,0.76,-3.27,175.31,-0.35552212595939636,0.0015893729869276285,-0.5295422673225403,-0.45922937989234924,-1.0220537185668945,-1.0496524572372437,-0.6629685163497925,0.17,-0.1,-0.05,269.21
1667257275.99958110,89584211,1,0.79,-3.08,175.33,-0.36185047030448914,-0.007542851381003857,-0.5146137475967407,-0.4446018934249878,-1.0296584367752075,-1.049322485923767,-0.6728340983390808,0.17,-0.1,-0.05,269.21
1667257276.03960705,89624237,1,0.7000000000000001,-2.64,175.34,-0.38829535245895386,-0.0155916977673769,-0.5146916508674622,-0.4409964084625244,-1.0475521087646484,-1.0498093366622925,-0.6904739141464233,0.17,-0.1,-0.05,269.21
1667257276.07962203,89664252,1,0.65,-2.27,175.37,-0.40339523553848267,0.00311844889074564,-0.49436619877815247,-0.4111471474170685,-1.0665560960769653,-1.0506415367126465,-0.7061205506324768,0.17,-0.1,-0.05,269.21
1667257276.11962390,89704254,1,0.5700000000000001,-2.02,175.39000000000001,-0.42506080865859985,-0.010207388550043106,-0.4971643090248108,-0.4089384973049164,-1.0854429006576538,-1.0515004396438599,-0.7232110500335693,0.17,-0.1,-0.05,269.21
1667257276.15962505,89744255,1,0.56,-1.97,175.43,-0.45089176297187805,-0.015451059676706791,-0.48625805974006653,-0.3984870910644531,-1.1051437854766846,-1.0525883436203003,-0.7405158877372742,0.17,-0.1,-0.05,269.21
1667257276.17958593,89764216,1,0.54,-1.99,175.44,-0.45558634400367737,-0.02893776074051857,-0.47980937361717224,-0.3951592445373535,-1.1154576539993286,-1.0532798767089844,-0.7485991716384888,0.17,-0.1,-0.05,269.21
1667257276.19959903,89784229,1,0.54,-2.04,175.46,-0.4605451226234436,-0.012405719608068466,-0.4845755398273468,-0.4025803506374359,-1.1254619359970093,-1.0538583993911743,-0.7576900124549866,0.17,-0.1,-0.05,269.21
1667257276.23958588,89824216,1,0.58,-2.2,175.51,-0.4764809012413025,-0.029739638790488243,-0.4648919105529785,-0.3877790570259094,-1.1447898149490356,-1.0572415590286255,-0.7738019227981567,0.17,-0.1,-0.05,269.21
1667257276.27958989,89864220,1,0.78,-2.37,175.58,-0.4954772889614105,-0.04028696194291115,-0.46048709750175476,-0.3863618075847626,-1.1648101806640625,-1.0616062879562378,-0.7886123061180115,0.17,-0.1,-0.05,269.21
1667257276.31962109,89904251,1,1.07,-2.49,175.65,-0.5042373538017273,-0.04418284818530083,-0.42844492197036743,-0.3578738272190094,-1.1851123571395874,-1.0653964281082153,-0.8036623597145081,0.17,-0.1,-0.05,269.21
1667257276.35961604,89944246,1,1.3900000000000001,-2.49,175.74,-0.5112185478210449,-0.05016591027379036,-0.405897319316864,-0.3361511528491974,-1.2058628797531128,-1.069522738456726,-0.8177584409713745,0.17,-0.1,-0.05,269.21
1667257276.37958598,89964216,1,1.6600000000000001,-2.45,175.78,-0.5221081972122192,-0.06906036287546158,-0.3802124261856079,-0.31178510189056396,-1.2164908647537231,-1.0721163749694824,-0.8241955041885376,0.17,-0.1,-0.05,269.21
1667257276.39962101,89984251,1,1.85,-2.37,175.83,-0.5355231761932373,-0.0691516101360321,-0.4021117687225342,-0.33443546295166016,-1.227088212966919,-1.0741215944290161,-0.831307590007782,0.17,-0.1,-0.05,269.21
1667257276.43958807,90024218,1,2.36,-2.19,175.92000000000002,-0.5403897762298584,-0.08943250775337219,-0.3508200943470001,-0.28535938262939453,-1.2491832971572876,-1.079288363456726,-0.8440895080566406,0.17,-0.1,-0.05,269.21
1667257276.47957301,90064203,1,2.84,-1.92,176.02,-0.5530264377593994,-0.10338133573532104,-0.37132036685943604,-0.3115319311618805,-1.2715764045715332,-1.0856090784072876,-0.8558979630470276,0.17,-0.1,-0.05,269.21
1667257276.51957703,90104207,1,3.31,-1.69,176.11,-0.5674972534179688,-0.12273932248353958,-0.3250589072704315,-0.27154579758644104,-1.294262170791626,-1.091916799545288,-0.8679378628730774,0.17,-0.1,-0.05,269.21
1667257276.55961800,90144248,1,3.61,-1.4000000000000001,176.21,-0.5730097889900208,-0.13874651491641998,-0.34599778056144714,-0.29635149240493774,-1.3172755241394043,-1.0989265441894531,-0.8793485164642334,0.17,-0.1,-0.05,269.21
1667257276.57958388,90164214,1,3.69,-1.27,176.25,-0.5831336379051208,-0.14982415735721588,-0.3223211467266083,-0.27501192688941956,-1.3292055130004883,-1.1031060218811035,-0.8847596049308777,0.17,-0.1,-0.05,269.21
