timestamp,TimeUS,DesRoll,Roll,DesPitch,Pitch,DesYaw,Yaw,ErrRP,ErrYaw,AEKF
1682374604.45865297,34781332,0.0,0.88,0.0,0.56,313.6,313.61,0.0,0.0,3
1682374604.55869699,34881376,0.0,0.88,0.0,0.56,313.62,313.63,0.0,0.01,3
1682374604.65857697,34981256,0.0,0.88,0.0,0.56,313.61,313.62,0.0,0.01,3
1682374604.75849891,35081178,0.0,0.88,0.0,0.56,313.6,313.61,0.0,0.01,3
1682374604.85848904,35181168,0.0,0.88,0.0,0.56,313.61,313.62,0.0,0.0,3
1682374604.95857692,35281256,0.0,0.88,0.0,0.56,313.59000000000003,313.6,0.0,0.01,3
1682374605.05863905,35381318,0.0,0.88,0.0,0.56,313.58,313.59000000000003,0.0,0.01,3
1682374605.15866804,35481347,0.0,0.87,0.0,0.56,313.58,313.59000000000003,0.0,0.01,3
1682374605.25865984,35581339,0.0,0.88,0.0,0.56,313.56,313.57,0.0,0.01,3
1682374605.35874486,35681424,0.0,0.87,0.0,0.56,313.55,313.56,0.0,0.01,3
1682374605.45869899,35781378,0.0,0.88,0.0,0.5700000000000001,313.56,313.56,0.0,0.01,3
1682374605.55858207,35881261,0.0,0.87,0.0,0.5700000000000001,313.54,313.55,0.0,0.01,3
1682374605.65850592,35981185,0.0,0.88,0.0,0.5700000000000001,313.54,313.55,0.0,0.01,3
1682374605.75852489,36081204,0.0,0.88,0.0,0.5700000000000001,313.54,313.55,0.0,0.01,3
1682374605.85858393,36181263,0.0,0.88,0.0,0.5700000000000001,313.53000000000003,313.54,0.0,0.01,3
1682374605.95886993,36281549,0.0,0.88,0.0,0.5700000000000001,313.51,313.52,0.0,0.01,3
1682374606.05898905,36381668,0.0,0.88,0.0,0.5700000000000001,313.51,313.52,0.0,0.01,3
1682374606.15887594,36481555,0.0,0.88,0.0,0.5700000000000001,313.5,313.51,0.0,0.01,3
1682374606.25863695,36581316,0.0,0.88,0.0,0.5700000000000001,313.49,313.5,0.0,0.01,3
1682374606.35878491,36681464,0.0,0.89,0.0,0.5700000000000001,313.49,313.5,0.0,0.01,3
1682374606.45859385,36781273,0.0,0.88,0.0,0.58,313.48,313.49,0.0,0.0,3
1682374606.55849099,36881170,0.0,0.89,0.0,0.58,313.48,313.49,0.0,0.0,3
1682374606.65849805,36981177,0.0,0.89,0.0,0.58,313.49,313.5,0.0,0.0,3
1682374606.75858307,37081262,0.0,0.89,0.0,0.58,313.48,313.49,0.0,0.0,3
1682374606.85867190,37181351,0.0,0.89,0.0,0.58,313.48,313.49,0.0,0.0,3
1682374606.95868087,37281360,0.0,0.89,0.0,0.58,313.49,313.5,0.0,0.01,3
1682374607.05871105,37381390,0.0,0.9,0.0,0.58,313.48,313.49,0.0,0.0,3
1682374607.15864205,37481321,0.0,0.9,0.0,0.58,313.47,313.48,0.0,0.0,3
1682374607.25872302,37581402,0.0,0.9,0.0,0.58,313.47,313.48,0.0,0.0,3
1682374607.35867190,37681351,0.0,0.9,0.0,0.58,313.47,313.48,0.0,0.0,3
1682374607.45849204,37781171,0.0,0.9,0.0,0.59,313.47,313.48,0.0,0.0,3
1682374607.55852890,37881208,0.0,0.9,0.0,0.59,313.48,313.49,0.0,0.0,3
1682374607.65856385,37981243,0.0,0.91,0.0,0.59,313.48,313.49,0.0,0.0,3
1682374607.75864291,38081322,0.0,0.91,0.0,0.59,313.49,313.5,0.0,0.0,3
1682374607.85869193,38181371,0.0,0.91,0.0,0.59,313.49,313.5,0.0,0.0,3
1682374607.95870185,38281381,0.0,0.91,0.0,0.59,313.48,313.49,0.0,0.0,3
1682374608.05865693,38381336,0.0,0.91,0.0,0.59,313.47,313.48,0.0,0.0,3
1682374608.15900087,38481680,0.0,0.91,0.0,0.59,313.48,313.49,0.0,0.0,3
1682374608.25884604,38581525,0.0,0.92,0.0,0.59,313.47,313.48,0.0,0.0,3
1682374608.35890007,38681579,0.0,0.92,0.0,0.59,313.48,313.49,0.0,0.01,3
1682374608.45877600,38781455,0.0,0.92,0.0,0.59,313.48,313.49,0.0,0.01,3
1682374608.55880284,38881482,0.0,0.92,0.0,0.59,313.47,313.48,0.0,0.01,3
1682374608.65885997,38981539,0.0,0.92,0.0,0.59,313.47,313.48,0.0,0.01,3
1682374608.75886297,39081542,0.0,0.92,0.0,0.59,313.46,313.47,0.0,0.01,3
1682374608.85889101,39181570,0.0,0.92,0.0,0.59,313.45,313.46,0.0,0.01,3
1682374608.95864391,39281323,0.0,0.93,0.0,0.59,313.45,313.46,0.0,0.01,3
1682374609.05872393,39381403,0.0,0.93,0.0,0.59,313.45,313.46,0.0,0.01,3
1682374609.15859795,39481277,0.0,0.93,0.0,0.59,313.44,313.45,0.0,0.01,3
1682374609.25873685,39581416,0.0,0.9400000000000001,0.0,0.59,313.44,313.45,0.0,0.0,3
1682374609.35886598,39681545,0.0,0.9400000000000001,0.0,0.59,313.44,313.45,0.0,0.0,3
1682374609.45876503,39781444,0.0,0.9400000000000001,0.0,0.58,313.43,313.44,0.0,0.0,3
1682374609.55879188,39881471,0.0,0.9400000000000001,0.0,0.58,313.44,313.45,0.0,0.0,3
1682374609.65880895,39981488,0.0,0.9400000000000001,0.0,0.58,313.45,313.46,0.0,0.0,3
1682374609.75881195,40081491,0.0,0.9400000000000001,0.0,0.58,313.45,313.46,0.0,0.0,3
1682374609.85880589,40181485,0.0,0.9400000000000001,0.0,0.58,313.45,313.46,0.0,0.0,3
1682374609.95891094,40281590,0.0,0.9400000000000001,0.0,0.59,313.46,313.47,0.0,0.0,3
1682374610.05881906,40381498,0.0,0.9400000000000001,0.0,0.59,313.46,313.47,0.0,0.0,3
1682374610.15874696,40481426,0.0,0.9500000000000001,0.0,0.59,313.46,313.47,0.0,0.0,3
1682374610.25878096,40581460,0.0,0.9500000000000001,0.0,0.59,313.47,313.48,0.0,0.01,3
1682374610.35883498,40681514,0.0,0.9500000000000001,0.0,0.59,313.48,313.49,0.0,0.0,3
1682374610.45880985,40781489,0.0,0.9500000000000001,0.0,0.59,313.49,313.5,0.0,0.0,3
1682374610.55881906,40881498,0.0,0.9500000000000001,0.0,0.58,313.5,313.51,0.0,0.01,3
1682374610.65902591,40981705,0.0,0.9500000000000001,0.0,0.58,313.5,313.51,0.0,0.0,3
1682374610.75863385,41081313,0.0,0.9500000000000001,0.0,0.58,313.5,313.51,0.0,0.01,3
1682374610.85873199,41181411,0.0,0.9500000000000001,0.0,0.5700000000000001,313.5,313.51,0.0,0.01,3
1682374610.95858407,41281263,0.0,0.96,0.0,0.5700000000000001,313.49,313.5,0.0,0.01,3
1682374611.05849099,41381170,0.0,0.96,0.0,0.5700000000000001,313.48,313.49,0.0,0.01,3
1682374611.15852499,41481204,0.0,0.96,0.0,0.5700000000000001,313.47,313.48,0.0,0.01,3
1682374611.25857902,41581258,0.0,0.96,0.0,0.58,313.46,313.47,0.0,0.01,3
1682374611.35870600,41681385,0.0,0.96,0.0,0.5700000000000001,313.46,313.47,0.0,0.01,3
1682374611.45868206,41781361,0.0,0.96,0.0,0.58,313.46,313.47,0.0,0.01,3
1682374611.55870390,41881383,0.0,0.9500000000000001,0.0,0.58,313.46,313.47,0.0,0.01,3
1682374611.65863585,41981315,0.0,0.9500000000000001,0.0,0.58,313.47,313.48,0.0,0.0,3
1682374611.75874686,42081426,0.0,0.9500000000000001,0.0,0.5700000000000001,313.47,313.48,0.0,0.0,3
1682374611.85858488,42181264,0.0,0.96,0.0,0.5700000000000001,313.47,313.48,0.0,0.0,3
1682374611.95849705,42281176,0.0,0.96,0.0,0.5700000000000001,313.47,313.48,0.0,0.0,3
1682374612.05854392,42381223,0.0,0.96,0.0,0.5700000000000001,313.47,313.48,0.0,0.0,3
1682374612.15859604,42481275,0.0,0.96,0.0,0.5700000000000001,313.47,313.48,0.0,0.0,3
1682374612.25865102,42581330,0.0,0.9500000000000001,0.0,0.5700000000000001,313.47,313.48,0.0,0.0,3
1682374612.35903907,42681718,0.0,0.9500000000000001,0.0,0.5700000000000001,313.47,313.48,0.0,0.0,3
1682374612.45890307,42781582,0.0,0.9500000000000001,0.0,0.5700000000000001,313.47,313.48,0.0,0.0,3
1682374612.55885005,42881529,0.0,0.96,0.0,0.5700000000000001,313.47,313.48,0.0,0.0,3
1682374612.65898705,42981666,0.0,0.96,0.0,0.56,313.47,313.48,0.0,0.0,3
1682374612.75884485,43081524,0.0,0.96,0.0,0.5700000000000001,313.48,313.49,0.0,0.0,3
1682374612.85875607,43181435,0.0,0.9500000000000001,0.0,0.5700000000000001,313.49,313.5,0.0,0.0,3
1682374612.95877290,43281452,0.0,0.9500000000000001,0.0,0.56,313.49,313.5,0.0,0.0,3
1682374613.05858302,43381262,0.0,0.96,0.0,0.56,313.49,313.5,0.0,0.0,3
1682374613.15865707,43481336,0.0,0.9500000000000001,0.0,0.56,313.5,313.51,0.0,0.0,3
1682374613.25867701,43581356,0.0,0.96,0.0,0.56,313.5,313.51,0.0,0.0,3
1682374613.35873485,43681414,0.0,0.9500000000000001,0.0,0.56,313.5,313.51,0.0,0.01,3
1682374613.45864201,43781321,0.0,0.9500000000000001,0.0,0.56,313.5,313.51,0.0,0.0,3
1682374613.55872297,43881402,0.0,0.9500000000000001,0.0,0.56,313.5,313.51,0.0,0.01,3
1682374613.65859485,43981274,0.0,0.9500000000000001,0.0,0.56,313.49,313.5,0.0,0.01,3
1682374613.75849795,44081177,0.0,0.9500000000000001,0.0,0.56,313.5,313.51,0.0,0.01,3
1682374613.85852385,44181203,0.0,0.9500000000000001,0.0,0.56,313.5,313.51,0.0,0.01,3
1682374613.95856786,44281247,0.0,0.9500000000000001,0.0,0.56,313.5,313.51,0.0,0.01,3
1682374614.05865192,44381331,0.0,0.9500000000000001,0.0,0.56,313.5,313.51,0.0,0.01,3
1682374614.15869308,44481372,0.0,0.9500000000000001,0.0,0.56,313.49,313.5,0.0,0.01,3
1682374614.25868893,44581368,0.0,0.9500000000000001,0.0,0.56,313.49,313.5,0.0,0.01,3
1682374614.35875797,44681437,0.0,0.9500000000000001,0.0,0.56,313.49,313.5,0.0,0.01,3
1682374614.45874000,44781419,0.0,0.9500000000000001,0.0,0.56,313.49,313.5,0.0,0.01,3
1682374614.55858493,44881264,0.0,0.9500000000000001,0.0,0.56,313.49,313.5,0.0,0.01,3
1682374614.65876698,44981446,0.0,0.9500000000000001,0.0,0.56,313.5,313.51,0.0,0.01,3
1682374614.75878596,45081465,0.0,0.9500000000000001,0.0,0.56,313.5,313.51,0.0,0.0,3
1682374614.85880685,45181486,0.0,0.9500000000000001,0.0,0.56,313.5,313.51,0.0,0.0,3
1682374614.95886898,45281548,0.0,0.9500000000000001,0.0,0.5700000000000001,313.51,313.52,0.0,0.01,3
1682374615.05888891,45381568,0.0,0.9500000000000001,0.0,0.56,313.51,313.52,0.0,0.0,3
1682374615.15889597,45481575,0.0,0.9500000000000001,0.0,0.56,313.5,313.51,0.0,0.0,3
1682374615.25864697,45581326,0.0,0.9500000000000001,0.0,0.5700000000000001,313.5,313.51,0.0,0.0,3
1682374615.35880303,45681482,0.0,0.9500000000000001,0.0,0.5700000000000001,313.49,313.5,0.0,0.01,3
1682374615.45859385,45781273,0.0,0.9400000000000001,0.0,0.5700000000000001,313.48,313.49,0.0,0.01,3
1682374615.55849099,45881170,0.0,0.9400000000000001,0.0,0.5700000000000001,313.49,313.5,0.0,0.01,3
1682374615.65855289,45981232,0.0,0.9400000000000001,0.0,0.5700000000000001,313.49,313.5,0.0,0.01,3
1682374615.75857186,46081251,0.0,0.9400000000000001,0.0,0.5700000000000001,313.5,313.51,0.0,0.01,3
1682374615.85865402,46181333,0.0,0.9400000000000001,0.0,0.5700000000000001,313.5,313.51,0.0,0.0,3
1682374615.95868206,46281361,0.0,0.9400000000000001,0.0,0.5700000000000001,313.51,313.52,0.0,0.0,3
1682374616.05869198,46381371,0.0,0.9400000000000001,0.0,0.5700000000000001,313.51,313.52,0.0,0.0,3
1682374616.15865207,46481331,0.0,0.9400000000000001,0.0,0.5700000000000001,313.51,313.52,0.0,0.0,3
1682374616.25873685,46581416,0.0,0.9400000000000001,0.0,0.5700000000000001,313.52,313.53000000000003,0.0,0.0,3
1682374616.35863686,46681316,0.0,0.9400000000000001,0.0,0.5700000000000001,313.52,313.53000000000003,0.0,0.0,3
1682374616.45850205,46781181,0.0,0.93,0.0,0.58,313.52,313.53000000000003,0.0,0.01,3
1682374616.55851102,46881190,0.0,0.9400000000000001,0.0,0.58,313.52,313.53000000000003,0.0,0.0,3
1682374616.65858889,46981268,0.0,0.9400000000000001,0.0,0.5700000000000001,313.52,313.53000000000003,0.0,0.0,3
1682374616.75865793,47081337,0.0,0.93,0.0,0.5700000000000001,313.52,313.53000000000003,0.0,0.0,3
1682374616.85868597,47181365,0.0,0.93,0.0,0.5700000000000001,313.53000000000003,313.54,0.0,0.0,3
1682374616.95868587,47281365,0.0,0.93,0.0,0.58,313.52,313.53000000000003,0.0,0.0,3
1682374617.05865693,47381336,0.0,0.93,0.0,0.59,313.52,313.53000000000003,0.0,0.0,3
1682374617.15871596,47481395,0.0,0.93,0.0,0.58,313.52,313.53000000000003,0.0,0.0,3
1682374617.25859904,47581278,0.0,0.93,0.0,0.58,313.52,313.53000000000003,0.0,0.0,3
1682374617.35854197,47681221,0.0,0.93,0.0,0.58,313.51,313.52,0.0,0.0,3
1682374617.45856094,47781240,0.0,0.93,0.0,0.58,313.51,313.52,0.0,0.0,3
1682374617.55859995,47881279,0.0,0.93,0.0,0.58,313.51,313.52,0.0,0.0,3
1682374617.65866303,47981342,0.0,0.93,0.0,0.58,313.51,313.52,0.0,0.0,3
1682374617.75869107,48081370,0.0,0.93,0.0,0.58,313.51,313.52,0.0,0.0,3
1682374617.85870099,48181380,0.0,0.93,0.0,0.59,313.51,313.52,0.0,0.0,3
1682374617.95863605,48281315,0.0,0.93,0.0,0.59,313.51,313.52,0.0,0.0,3
1682374618.05870390,48381383,0.0,0.93,0.0,0.59,313.51,313.52,0.0,0.0,3
1682374618.15859485,48481274,0.0,0.93,0.0,0.59,313.5,313.51,0.0,0.01,3
1682374618.25849104,48581170,0.0,0.93,0.0,0.59,313.5,313.51,0.0,0.01,3
1682374618.35859585,48681275,0.0,0.9400000000000001,0.0,0.59,313.5,313.51,0.0,0.01,3
1682374618.45859098,48781270,0.0,0.93,0.0,0.59,313.51,313.52,0.0,0.01,3
1682374618.55865192,48881331,0.0,0.9400000000000001,0.0,0.59,313.52,313.53000000000003,0.0,0.01,3
1682374618.65875602,48981435,0.0,0.9400000000000001,0.0,0.59,313.52,313.53000000000003,0.0,0.01,3
1682374618.75869298,49081372,0.0,0.9400000000000001,0.0,0.59,313.53000000000003,313.54,0.0,0.0,3
1682374618.85866284,49181342,0.0,0.9400000000000001,0.0,0.58,313.54,313.55,0.0,0.0,3
1682374618.95871186,49281391,0.0,0.9400000000000001,0.0,0.58,313.54,313.55,0.0,0.0,3
1682374619.05858588,49381265,0.0,0.9400000000000001,0.0,0.58,313.54,313.55,0.0,0.0,3
1682374619.15876198,49481441,0.0,0.9500000000000001,0.0,0.58,313.54,313.55,0.0,0.0,3
1682374619.25880003,49581479,0.0,0.9500000000000001,0.0,0.58,313.53000000000003,313.54,0.0,0.0,3
1682374619.35893488,49681614,0.0,0.9500000000000001,0.0,0.58,313.53000000000003,313.54,0.0,0.0,3
1682374619.45888805,49781567,0.0,0.96,0.0,0.58,313.51,313.52,0.0,0.01,3
1682374619.55889988,49881579,0.0,0.96,0.0,0.5700000000000001,313.51,313.52,0.0,0.01,3
1682374619.65891290,49981592,0.0,0.96,0.0,0.5700000000000001,313.5,313.51,0.0,0.01,3
1682374619.75867105,50081350,0.0,0.96,0.0,0.58,313.49,313.5,0.0,0.0,3
1682374619.85896993,50181649,0.0,0.96,0.0,0.58,313.49,313.5,0.0,0.0,3
1682374619.95886207,50281541,0.0,0.97,0.0,0.5700000000000001,313.49,313.5,0.0,0.0,3
1682374620.05877090,50381450,0.0,0.97,0.0,0.5700000000000001,313.49,313.5,0.0,0.0,3
1682374620.15876293,50481442,0.0,0.97,0.0,0.5700000000000001,313.48,313.49,0.0,0.0,3
1682374620.25877190,50581451,0.0,0.97,0.0,0.5700000000000001,313.48,313.49,0.0,0.0,3
1682374620.35908484,50681764,0.0,0.97,0.0,0.5700000000000001,313.47,313.48,0.0,0.0,3
1682374620.45891094,50781590,0.0,0.97,0.0,0.5700000000000001,313.47,313.48,0.0,0.0,3
1682374620.55891800,50881597,0.0,0.97,0.0,0.5700000000000001,313.47,313.48,0.0,0.0,3
1682374620.65884805,50981527,0.0,0.97,0.0,0.5700000000000001,313.47,313.48,0.0,0.0,3
1682374620.75902486,51081704,0.0,0.98,0.0,0.5700000000000001,313.47,313.48,0.0,0.0,3
1682374620.85888004,51181559,0.0,0.98,0.0,0.56,313.47,313.48,0.0,0.0,3
1682374620.95876408,51281443,0.0,0.98,0.0,0.56,313.48,313.49,0.0,0.0,3
1682374621.05877090,51381450,0.0,0.98,0.0,0.56,313.48,313.49,0.0,0.0,3
1682374621.15880394,51481483,0.0,0.98,0.0,0.56,313.48,313.49,0.0,0.0,3
1682374621.25887585,51581555,0.0,0.98,0.0,0.56,313.48,313.49,0.0,0.0,3
1682374621.35926485,51681944,0.0,0.98,0.0,0.56,313.48,313.49,0.0,0.0,3
1682374621.45915008,51781829,0.0,0.98,0.0,0.56,313.48,313.49,0.0,0.0,3
1682374621.55911589,51881795,0.0,0.97,0.0,0.5700000000000001,313.48,313.49,0.0,0.0,3
1682374621.65895700,51981636,0.0,0.97,0.0,0.5700000000000001,313.47,313.48,0.0,0.0,3
1682374621.75888896,52081568,0.0,0.97,0.0,0.5700000000000001,313.47,313.48,0.0,0.0,3
1682374621.85876989,52181449,0.0,0.97,0.0,0.5700000000000001,313.47,313.48,0.0,0.01,3
1682374621.95876193,52281441,0.0,0.96,0.0,0.5700000000000001,313.46,313.47,0.0,0.01,3
1682374622.05879188,52381471,0.0,0.96,0.0,0.5700000000000001,313.45,313.46,0.0,0.01,3
1682374622.15887189,52481551,0.0,0.9500000000000001,0.0,0.5700000000000001,313.45,313.46,0.0,0.0,3
1682374622.25888801,52581567,0.0,0.9500000000000001,0.0,0.5700000000000001,313.44,313.45,0.0,0.0,3
1682374622.35898590,52681665,0.0,0.9500000000000001,0.0,0.5700000000000001,313.43,313.44,0.0,0.0,3
1682374622.45883393,52781513,0.0,0.9400000000000001,0.0,0.5700000000000001,313.43,313.44,0.0,0.0,3
1682374622.55896306,52881642,0.0,0.9400000000000001,0.0,0.5700000000000001,313.43,313.44,0.0,0.0,3
1682374622.65858793,52981267,0.0,0.9400000000000001,0.0,0.5700000000000001,313.43,313.44,0.0,0.0,3
1682374622.75850201,53081181,0.0,0.9400000000000001,0.0,0.5700000000000001,313.42,313.43,0.0,0.0,3
1682374622.85858798,53181267,0.0,0.93,0.0,0.5700000000000001,313.42,313.43,0.0,0.01,3
1682374622.95859289,53281272,0.0,0.93,0.0,0.58,313.42,313.43,0.0,0.0,3
1682374623.05865407,53381333,0.0,0.93,0.0,0.5700000000000001,313.42,313.43,0.0,0.0,3
1682374623.15866685,53481346,0.0,0.92,0.0,0.5700000000000001,313.43,313.44,0.0,0.01,3
1682374623.25867987,53581359,0.0,0.92,0.0,0.5700000000000001,313.43,313.44,0.0,0.0,3
1682374623.35876584,53681445,0.0,0.92,0.0,0.5700000000000001,313.43,313.44,0.0,0.0,3
1682374623.45871997,53781399,0.0,0.92,0.0,0.5700000000000001,313.44,313.45,0.0,0.0,3
1682374623.55859089,53881270,0.0,0.91,0.0,0.5700000000000001,313.44,313.45,0.0,0.0,3
1682374623.65878487,53981464,0.0,0.92,0.0,0.5700000000000001,313.43,313.44,0.0,0.0,3
1682374623.75879502,54081474,0.0,0.92,0.0,0.5700000000000001,313.43,313.44,0.0,0.0,3
1682374623.85875988,54181439,0.0,0.91,0.0,0.56,313.43,313.44,0.0,0.0,3
1682374623.95878601,54281465,0.0,0.91,0.0,0.5700000000000001,313.42,313.43,0.0,0.0,3
1682374624.05882502,54381504,0.0,0.9,0.0,0.5700000000000001,313.42,313.43,0.0,0.0,3
1682374624.15882301,54481502,0.0,0.9,0.0,0.5700000000000001,313.42,313.43,0.0,0.0,3
1682374624.25880599,54581485,0.0,0.9,0.0,0.5700000000000001,313.42,313.43,0.0,0.0,3
1682374624.35899401,54681673,0.0,0.9,0.0,0.5700000000000001,313.42,313.43,0.0,0.0,3
1682374624.45881104,54781490,0.0,0.9,0.0,0.5700000000000001,313.42,313.43,0.0,0.0,3
1682374624.55874085,54881420,0.0,0.89,0.0,0.5700000000000001,313.41,313.42,0.0,0.0,3
1682374624.65870786,54981387,0.0,0.89,0.0,0.58,313.41,313.42,0.0,0.0,3
1682374624.75876188,55081441,0.0,0.89,0.0,0.5700000000000001,313.41,313.42,0.0,0.0,3
1682374624.85883784,55181517,0.0,0.89,0.0,0.5700000000000001,313.40000000000003,313.41,0.0,0.0,3
1682374624.95893192,55281611,0.0,0.89,0.0,0.5700000000000001,313.40000000000003,313.41,0.0,0.0,3
1682374625.05883408,55381513,0.0,0.89,0.0,0.5700000000000001,313.39,313.40000000000003,0.0,0.0,3
1682374625.15880084,55481480,0.0,0.89,0.0,0.56,313.39,313.40000000000003,0.0,0.0,3
1682374625.25891304,55581592,0.0,0.88,0.0,0.56,313.39,313.40000000000003,0.0,0.0,3
1682374625.35892606,55681605,0.0,0.88,0.0,0.56,313.39,313.40000000000003,0.0,0.0,3
1682374625.45874596,55781425,0.0,0.87,0.0,0.56,313.39,313.40000000000003,0.0,0.0,3
1682374625.55870605,55881385,0.0,0.87,0.0,0.56,313.39,313.40000000000003,0.0,0.01,3
1682374625.65874791,55981427,0.0,0.87,0.0,0.56,313.39,313.40000000000003,0.0,0.0,3
1682374625.75883603,56081515,0.0,0.87,0.0,0.56,313.39,313.40000000000003,0.0,0.01,3
1682374625.85882902,56181508,0.0,0.87,0.0,0.5700000000000001,313.39,313.40000000000003,0.0,0.0,3
1682374625.95909786,56281777,0.0,0.87,0.0,0.5700000000000001,313.40000000000003,313.41,0.0,0.0,3
1682374626.05884099,56381520,0.0,0.87,0.0,0.5700000000000001,313.40000000000003,313.41,0.0,0.0,3
1682374626.15871501,56481394,0.0,0.87,0.0,0.5700000000000001,313.40000000000003,313.41,0.0,0.0,3
1682374626.25858998,56581269,0.0,0.88,0.0,0.5700000000000001,313.40000000000003,313.41,0.0,0.0,3
1682374626.35854697,56681226,0.0,0.88,0.0,0.5700000000000001,313.40000000000003,313.41,0.0,0.0,3
1682374626.45850396,56781183,0.0,0.88,0.0,0.5700000000000001,313.40000000000003,313.41,0.0,0.0,3
1682374626.55858707,56881266,0.0,0.88,0.0,0.58,313.40000000000003,313.41,0.0,0.0,3
1682374626.65864706,56981326,0.0,0.88,0.0,0.58,313.40000000000003,313.41,0.0,0.01,3
1682374626.75868607,57081365,0.0,0.88,0.0,0.58,313.41,313.42,0.0,0.01,3
1682374626.85870790,57181387,0.0,0.88,0.0,0.58,313.41,313.42,0.0,0.01,3
1682374626.95864797,57281327,0.0,0.89,0.0,0.58,313.42,313.43,0.0,0.01,3
1682374627.05872297,57381402,0.0,0.89,0.0,0.58,313.42,313.43,0.0,0.01,3
1682374627.15858102,57481260,0.0,0.89,0.0,0.58,313.43,313.44,0.0,0.01,3
1682374627.25849795,57581177,0.0,0.9,0.0,0.58,313.43,313.44,0.0,0.01,3
1682374627.35863090,57681310,0.0,0.9,0.0,0.58,313.43,313.44,0.0,0.01,3
1682374627.45857000,57781249,0.0,0.9,0.0,0.59,313.43,313.44,0.0,0.0,3
1682374627.55865788,57881337,0.0,0.9,0.0,0.59,313.43,313.44,0.0,0.01,3
1682374627.65868688,57981366,0.0,0.9,0.0,0.6,313.43,313.44,0.0,0.01,3
1682374627.75867987,58081359,0.0,0.9,0.0,0.6,313.44,313.45,0.0,0.01,3
1682374627.85864902,58181328,0.0,0.9,0.0,0.61,313.44,313.45,0.0,0.01,3
1682374627.95895004,58281629,0.0,0.9,0.0,0.61,313.45,313.46,0.0,0.01,3
1682374628.05884504,58381524,0.0,0.9,0.0,0.61,313.44,313.45,0.0,0.01,3
1682374628.15850091,58481180,0.0,0.9,0.0,0.61,313.45,313.46,0.0,0.01,3
1682374628.25849485,58581174,0.0,0.9,0.0,0.61,313.45,313.46,0.0,0.01,3
1682374628.35871506,58681394,0.0,0.9,0.0,0.61,313.46,313.47,0.0,0.01,3
1682374628.45866394,58781343,0.0,0.9,0.0,0.61,313.47,313.48,0.0,0.01,3
1682374628.55868506,58881364,0.0,0.91,0.0,0.61,313.47,313.48,0.0,0.01,3
1682374628.65867305,58981352,0.0,0.91,0.0,0.62,313.47,313.48,0.0,0.0,3
1682374628.75864792,59081327,0.0,0.92,0.0,0.62,313.47,313.48,0.0,0.0,3
1682374628.85896301,59181642,0.0,0.92,0.0,0.62,313.47,313.48,0.0,0.0,3
1682374628.95888996,59281569,0.0,0.91,0.0,0.62,313.47,313.48,0.0,0.0,3
1682374629.05876303,59381442,0.0,0.91,0.0,0.62,313.48,313.49,0.0,0.0,3
1682374629.15882897,59481508,0.0,0.91,0.0,0.63,313.48,313.49,0.0,0.0,3
1682374629.25880384,59581483,0.0,0.91,0.0,0.63,313.48,313.49,0.0,0.01,3
1682374629.35894585,59681625,0.0,0.91,0.0,0.63,313.48,313.49,0.0,0.0,3
1682374629.45889688,59781576,0.0,0.91,0.0,0.63,313.49,313.5,0.0,0.01,3
1682374629.55890107,59881580,0.0,0.91,0.0,0.64,313.49,313.5,0.0,0.01,3
1682374629.65864706,59981326,0.0,0.91,0.0,0.64,313.5,313.51,0.0,0.01,3
1682374629.75872207,60081401,0.0,0.91,0.0,0.64,313.51,313.52,0.0,0.01,3
1682374629.85859489,60181274,0.0,0.91,0.0,0.64,313.52,313.53000000000003,0.0,0.01,3
1682374629.95850396,60281183,0.0,0.91,0.0,0.65,313.53000000000003,313.54,0.0,0.01,3
1682374630.05855298,60381232,0.0,0.91,0.0,0.65,313.53000000000003,313.54,0.0,0.01,3
1682374630.15859699,60481276,0.0,0.9,0.0,0.65,313.53000000000003,313.54,0.0,0.0,3
1682374630.25866890,60581348,0.0,0.9,0.0,0.65,313.54,313.55,0.0,0.01,3
1682374630.35873604,60681415,0.0,0.9,0.0,0.64,313.53000000000003,313.54,0.0,0.0,3
1682374630.45890594,60781585,0.0,0.9,0.0,0.65,313.53000000000003,313.54,0.0,0.0,3
1682374630.55884290,60881522,0.0,0.9,0.0,0.65,313.53000000000003,313.54,0.0,0.0,3
1682374630.65897489,60981654,0.0,0.9,0.0,0.65,313.53000000000003,313.54,0.0,0.0,3
1682374630.75884700,61081526,0.0,0.9,0.0,0.65,313.53000000000003,313.54,0.0,0.0,3
1682374630.85877204,61181451,0.0,0.91,0.0,0.65,313.53000000000003,313.54,0.0,0.0,3
1682374630.95852590,61281205,0.0,0.91,0.0,0.65,313.53000000000003,313.54,0.0,0.0,3
1682374631.05882001,61381499,0.0,0.91,0.0,0.65,313.53000000000003,313.54,0.0,0.0,3
1682374631.15886688,61481546,0.0,0.91,0.0,0.65,313.53000000000003,313.54,0.0,0.0,3
1682374631.25897884,61581658,0.0,0.92,0.0,0.65,313.53000000000003,313.54,0.0,0.0,3
1682374631.35895801,61681637,0.0,0.92,0.0,0.65,313.53000000000003,313.54,0.0,0.0,3
1682374631.45884705,61781526,0.0,0.92,0.0,0.65,313.53000000000003,313.54,0.0,0.0,3
1682374631.55898285,61881662,0.0,0.92,0.0,0.65,313.53000000000003,313.54,0.0,0.0,3
1682374631.65886402,61981543,0.0,0.92,0.0,0.65,313.53000000000003,313.54,0.0,0.0,3
1682374631.75878191,62081461,0.0,0.92,0.0,0.65,313.53000000000003,313.54,0.0,0.0,3
1682374631.85878301,62181462,0.0,0.93,0.0,0.65,313.53000000000003,313.54,0.0,0.0,3
1682374631.95879197,62281471,0.0,0.92,0.0,0.66,313.53000000000003,313.54,0.0,0.0,3
1682374632.05885792,62381537,0.0,0.92,0.0,0.65,313.53000000000003,313.54,0.0,0.0,3
1682374632.15889287,62481572,0.0,0.92,0.0,0.66,313.54,313.55,0.0,0.0,3
1682374632.25890398,62581583,0.0,0.92,0.0,0.66,313.54,313.55,0.0,0.01,3
1682374632.35896492,62681644,0.0,0.92,0.0,0.66,313.53000000000003,313.54,0.0,0.0,3
1682374632.45894003,62781619,0.0,0.92,0.0,0.67,313.53000000000003,313.54,0.0,0.0,3
1682374632.55889606,62881575,0.0,0.92,0.0,0.67,313.53000000000003,313.54,0.0,0.0,3
1682374632.65877390,62981453,0.0,0.93,0.0,0.68,313.53000000000003,313.54,0.0,0.0,3
1682374632.75880003,63081479,0.0,0.93,0.0,0.68,313.53000000000003,313.54,0.0,0.0,3
1682374632.85915589,63181835,0.0,0.93,0.0,0.68,313.52,313.53000000000003,0.0,0.0,3
1682374632.95913100,63281810,0.0,0.93,0.0,0.68,313.52,313.53000000000003,0.0,0.0,3
1682374633.05889392,63381573,0.0,0.93,0.0,0.68,313.52,313.53000000000003,0.0,0.0,3
1682374633.15887785,63481557,0.0,0.93,0.0,0.68,313.51,313.52,0.0,0.0,3
1682374633.25886393,63581543,0.0,0.93,0.0,0.68,313.51,313.52,0.0,0.0,3
1682374633.35917091,63681850,0.0,0.93,0.0,0.68,313.51,313.52,0.0,0.0,3
1682374633.45889688,63781576,0.0,0.93,0.0,0.68,313.51,313.52,0.0,0.0,3
1682374633.55850101,63881180,0.0,0.93,0.0,0.68,313.51,313.52,0.0,0.01,3
1682374633.65854192,63981221,0.0,0.93,0.0,0.68,313.51,313.52,0.0,0.01,3
1682374633.75859785,64081277,0.0,0.93,0.0,0.68,313.51,313.52,0.0,0.0,3
1682374633.85866499,64181344,0.0,0.93,0.0,0.68,313.52,313.53000000000003,0.0,0.01,3
1682374633.95867395,64281353,0.0,0.93,0.0,0.6900000000000001,313.52,313.53000000000003,0.0,0.0,3
1682374634.05869102,64381370,0.0,0.93,0.0,0.6900000000000001,313.52,313.53000000000003,0.0,0.0,3
1682374634.15868187,64481361,0.0,0.9400000000000001,0.0,0.6900000000000001,313.53000000000003,313.54,0.0,0.0,3
1682374634.25875998,64581439,0.0,0.9400000000000001,0.0,0.68,313.53000000000003,313.54,0.0,0.0,3
1682374634.35869193,64681371,0.0,0.9400000000000001,0.0,0.68,313.53000000000003,313.54,0.0,0.0,3
1682374634.45850396,64781183,0.0,0.9400000000000001,0.0,0.68,313.53000000000003,313.54,0.0,0.0,3
1682374634.55854392,64881223,0.0,0.9400000000000001,0.0,0.68,313.53000000000003,313.54,0.0,0.0,3
1682374634.65856194,64981241,0.0,0.9400000000000001,0.0,0.68,313.53000000000003,313.54,0.0,0.0,3
1682374634.75864387,65081323,0.0,0.9400000000000001,0.0,0.68,313.53000000000003,313.54,0.0,0.0,3
1682374634.85869694,65181376,0.0,0.9400000000000001,0.0,0.68,313.54,313.55,0.0,0.0,3
1682374634.95870590,65281385,0.0,0.9400000000000001,0.0,0.68,313.54,313.55,0.0,0.0,3
1682374635.05864596,65381325,0.0,0.9400000000000001,0.0,0.68,313.54,313.55,0.0,0.0,3
1682374635.15874195,65481421,0.0,0.9400000000000001,0.0,0.6900000000000001,313.54,313.55,0.0,0.01,3
1682374635.25857902,65581258,0.0,0.9400000000000001,0.0,0.6900000000000001,313.55,313.56,0.0,0.01,3
1682374635.35858297,65681262,0.0,0.9400000000000001,0.0,0.6900000000000001,313.56,313.57,0.0,0.01,3
1682374635.45859098,65781270,0.0,0.9400000000000001,0.0,0.6900000000000001,313.57,313.58,0.0,0.01,3
1682374635.55858803,65881267,0.0,0.9400000000000001,0.0,0.6900000000000001,313.58,313.59000000000003,0.0,0.01,3
1682374635.65865993,65981339,0.0,0.9400000000000001,0.0,0.68,313.58,313.59000000000003,0.0,0.01,3
1682374635.75869799,66081377,0.0,0.9400000000000001,0.0,0.68,313.59000000000003,313.6,0.0,0.0,3
1682374635.85869503,66181374,0.0,0.9400000000000001,0.0,0.68,313.59000000000003,313.6,0.0,0.01,3
1682374635.95863390,66281313,0.0,0.9400000000000001,0.0,0.68,313.6,313.61,0.0,0.01,3
1682374636.05873799,66381417,0.0,0.93,0.0,0.68,313.6,313.61,0.0,0.01,3
1682374636.15859485,66481274,0.0,0.93,0.0,0.68,313.6,313.61,0.0,0.01,3
1682374636.25849605,66581175,0.0,0.93,0.0,0.68,313.6,313.61,0.0,0.01,3
1682374636.35858798,66681267,0.0,0.93,0.0,0.68,313.6,313.61,0.0,0.01,3
1682374636.45859194,66781271,0.0,0.93,0.0,0.68,313.6,313.61,0.0,0.0,3
1682374636.55865097,66881330,0.0,0.93,0.0,0.68,313.61,313.62,0.0,0.0,3
1682374636.65892291,66981602,0.0,0.93,0.0,0.68,313.61,313.62,0.0,0.0,3
1682374636.75891685,67081596,0.0,0.9400000000000001,0.0,0.68,313.61,313.62,0.0,0.0,3
1682374636.85865593,67181335,0.0,0.9400000000000001,0.0,0.68,313.61,313.62,0.0,0.0,3
1682374636.95875192,67281431,0.0,0.9400000000000001,0.0,0.68,313.61,313.62,0.0,0.0,3
1682374637.05880284,67381482,0.0,0.9400000000000001,0.0,0.68,313.6,313.61,0.0,0.0,3
1682374637.15873289,67481412,0.0,0.9400000000000001,0.0,0.68,313.59000000000003,313.6,0.0,0.0,3
1682374637.25870800,67581387,0.0,0.93,0.0,0.6900000000000001,313.59000000000003,313.6,0.0,0.0,3
1682374637.35880804,67681487,0.0,0.93,0.0,0.6900000000000001,313.59000000000003,313.6,0.0,0.0,3
1682374637.45878696,67781466,0.0,0.93,0.0,0.6900000000000001,313.59000000000003,313.6,0.0,0.01,3
1682374637.55894303,67881622,0.0,0.93,0.0,0.6900000000000001,313.6,313.61,0.0,0.0,3
1682374637.65882993,67981509,0.0,0.93,0.0,0.6900000000000001,313.6,313.61,0.0,0.01,3
1682374637.75881886,68081498,0.0,0.93,0.0,0.68,313.6,313.61,0.0,0.01,3
1682374637.85889602,68181575,0.0,0.9400000000000001,0.0,0.68,313.61,313.62,0.0,0.0,3
1682374637.95879793,68281477,0.0,0.9400000000000001,0.0,0.68,313.61,313.62,0.0,0.0,3
1682374638.05873585,68381415,0.0,0.9500000000000001,0.0,0.67,313.61,313.62,0.0,0.01,3
1682374638.15869999,68481379,0.0,0.9500000000000001,0.0,0.68,313.61,313.62,0.0,0.0,3
1682374638.25875902,68581438,0.0,0.96,0.0,0.68,313.61,313.62,0.0,0.0,3
1682374638.35893893,68681618,0.0,0.9500000000000001,0.0,0.68,313.61,313.62,0.0,0.0,3
1682374638.45883107,68781510,0.0,0.9500000000000001,0.0,0.68,313.61,313.62,0.0,0.0,3
1682374638.55882192,68881501,0.0,0.9500000000000001,0.0,0.6900000000000001,313.6,313.61,0.0,0.0,3
1682374638.65882206,68981501,0.0,0.9500000000000001,0.0,0.6900000000000001,313.61,313.62,0.0,0.0,3
1682374638.75892091,69081600,0.0,0.9500000000000001,0.0,0.68,313.61,313.62,0.0,0.0,3
1682374638.85880089,69181480,0.0,0.9500000000000001,0.0,0.68,313.61,313.62,0.0,0.0,3
1682374638.95873404,69281413,0.0,0.96,0.0,0.68,313.61,313.62,0.0,0.0,3
1682374639.05869102,69381370,0.0,0.9500000000000001,0.0,0.68,313.61,313.62,0.0,0.0,3
1682374639.15876603,69481445,0.0,0.96,0.0,0.68,313.61,313.62,0.0,0.0,3
1682374639.25887799,69581557,0.0,0.96,0.0,0.68,313.62,313.63,0.0,0.0,3
1682374639.35897684,69681656,0.0,0.96,0.0,0.68,313.62,313.63,0.0,0.0,3
1682374639.45889902,69781578,0.0,0.96,0.0,0.68,313.63,313.64,0.0,0.0,3
1682374639.55865788,69881337,0.0,0.96,0.0,0.68,313.63,313.64,0.0,0.0,3
1682374639.65876389,69981443,0.0,0.96,0.0,0.68,313.63,313.64,0.0,0.0,3
1682374639.75862694,70081306,0.0,0.96,0.0,0.67,313.63,313.64,0.0,0.0,3
1682374639.85849905,70181178,0.0,0.97,0.0,0.67,313.63,313.64,0.0,0.0,3
1682374639.95852184,70281201,0.0,0.97,0.0,0.67,313.62,313.63,0.0,0.0,3
1682374640.05857301,70381252,0.0,0.97,0.0,0.67,313.62,313.63,0.0,0.0,3
1682374640.15866399,70481343,0.0,0.97,0.0,0.66,313.62,313.63,0.0,0.0,3
1682374640.25868988,70581369,0.0,0.97,0.0,0.67,313.62,313.63,0.0,0.01,3
1682374640.35878992,70681469,0.0,0.97,0.0,0.66,313.62,313.63,0.0,0.0,3
1682374640.45864892,70781328,0.0,0.97,0.0,0.66,313.62,313.63,0.0,0.0,3
1682374640.55873585,70881415,0.0,0.97,0.0,0.66,313.62,313.63,0.0,0.01,3
1682374640.65858197,70981261,0.0,0.97,0.0,0.66,313.62,313.63,0.0,0.01,3
1682374640.75849986,71081179,0.0,0.97,0.0,0.66,313.61,313.62,0.0,0.01,3
1682374640.85852885,71181208,0.0,0.97,0.0,0.66,313.6,313.61,0.0,0.01,3
1682374640.95857501,71281254,0.0,0.96,0.0,0.66,313.6,313.61,0.0,0.01,3
1682374641.05866385,71381343,0.0,0.96,0.0,0.66,313.61,313.62,0.0,0.01,3
1682374641.15869188,71481371,0.0,0.96,0.0,0.66,313.61,313.62,0.0,0.0,3
1682374641.25870204,71581381,0.0,0.96,0.0,0.67,313.62,313.63,0.0,0.01,3
1682374641.35873890,71681418,0.0,0.96,0.0,0.66,313.62,313.63,0.0,0.01,3
1682374641.45873189,71781411,0.0,0.96,0.0,0.66,313.62,313.63,0.0,0.01,3
1682374641.55859184,71881271,0.0,0.96,0.0,0.66,313.62,313.63,0.0,0.01,3
1682374641.65850091,71981180,0.0,0.96,0.0,0.66,313.62,313.63,0.0,0.01,3
1682374641.75858998,72081269,0.0,0.96,0.0,0.66,313.62,313.63,0.0,0.0,3
1682374641.85859799,72181277,0.0,0.96,0.0,0.66,313.62,313.63,0.0,0.0,3
1682374641.95865989,72281339,0.0,0.96,0.0,0.66,313.62,313.63,0.0,0.0,3
1682374642.05871701,72381396,0.0,0.97,0.0,0.67,313.62,313.63,0.0,0.0,3
1682374642.15870905,72481388,0.0,0.96,0.0,0.66,313.62,313.63,0.0,0.0,3
1682374642.25867486,72581354,0.0,0.96,0.0,0.66,313.61,313.62,0.0,0.0,3
1682374642.35905194,72681731,0.0,0.96,0.0,0.66,313.61,313.62,0.0,0.0,3
1682374642.45888591,72781565,0.0,0.97,0.0,0.66,313.61,313.62,0.0,0.0,3
1682374642.55876803,72881447,0.0,0.97,0.0,0.65,313.61,313.62,0.0,0.0,3
1682374642.65876484,72981444,0.0,0.97,0.0,0.65,313.6,313.61,0.0,0.0,3
1682374642.75882292,73081502,0.0,0.97,0.0,0.65,313.61,313.62,0.0,0.0,3
1682374642.85885692,73181536,0.0,0.97,0.0,0.65,313.61,313.62,0.0,0.0,3
1682374642.95889401,73281573,0.0,0.97,0.0,0.65,313.61,313.62,0.0,0.0,3
1682374643.05890584,73381585,0.0,0.97,0.0,0.64,313.62,313.63,0.0,0.0,3
1682374643.15865088,73481330,0.0,0.97,0.0,0.64,313.61,313.62,0.0,0.0,3
1682374643.25874305,73581422,0.0,0.97,0.0,0.64,313.61,313.62,0.0,0.0,3
1682374643.35869002,73681369,0.0,0.97,0.0,0.64,313.61,313.62,0.0,0.0,3
1682374643.45849586,73781175,0.0,0.97,0.0,0.64,313.61,313.62,0.0,0.01,3
1682374643.55854487,73881224,0.0,0.97,0.0,0.64,313.6,313.61,0.0,0.01,3
1682374643.65857601,73981255,0.0,0.96,0.0,0.64,313.6,313.61,0.0,0.01,3
1682374643.75866294,74081342,0.0,0.96,0.0,0.63,313.59000000000003,313.6,0.0,0.0,3
1682374643.85874104,74181420,0.0,0.96,0.0,0.63,313.59000000000003,313.6,0.0,0.0,3
1682374643.95867205,74281351,0.0,0.96,0.0,0.63,313.59000000000003,313.6,0.0,0.0,3
1682374644.05864501,74381324,0.0,0.9500000000000001,0.0,0.63,313.58,313.59000000000003,0.0,0.0,3
1682374644.15872502,74481404,0.0,0.96,0.0,0.63,313.59000000000003,313.6,0.0,0.0,3
1682374644.25859594,74581275,0.0,0.96,0.0,0.63,313.59000000000003,313.6,0.0,0.0,3
1682374644.35854793,74681227,0.0,0.96,0.0,0.63,313.59000000000003,313.6,0.0,0.0,3
1682374644.45854402,74781223,0.0,0.96,0.0,0.63,313.59000000000003,313.6,0.0,0.0,3
1682374644.55856586,74881245,0.0,0.96,0.0,0.63,313.59000000000003,313.6,0.0,0.0,3
1682374644.65865588,74981335,0.0,0.96,0.0,0.62,313.59000000000003,313.6,0.0,0.0,3
1682374644.75868487,75081364,0.0,0.9500000000000001,0.0,0.62,313.59000000000003,313.6,0.0,0.0,3
1682374644.85886288,75181542,0.0,0.9500000000000001,0.0,0.61,313.59000000000003,313.6,0.0,0.0,3
1682374644.95870495,75281384,0.0,0.9500000000000001,0.0,0.61,313.59000000000003,313.6,0.0,0.0,3
1682374645.05895591,75381635,0.0,0.9500000000000001,0.0,0.61,313.59000000000003,313.6,0.0,0.0,3
1682374645.15890002,75481579,0.0,0.9500000000000001,0.0,0.61,313.59000000000003,313.6,0.0,0.0,3
1682374645.25878906,75581468,0.0,0.9500000000000001,0.0,0.61,313.58,313.59000000000003,0.0,0.0,3
1682374645.35889101,75681570,0.0,0.9400000000000001,0.0,0.61,313.58,313.59000000000003,0.0,0.0,3
1682374645.45880294,75781482,0.0,0.9400000000000001,0.0,0.61,313.58,313.59000000000003,0.0,0.0,3
1682374645.55884886,75881528,0.0,0.9400000000000001,0.0,0.61,313.57,313.58,0.0,0.0,3
1682374645.65884590,75981525,0.0,0.93,0.0,0.61,313.58,313.59000000000003,0.0,0.0,3
1682374645.75887704,76081556,0.0,0.93,0.0,0.61,313.58,313.59000000000003,0.0,0.0,3
1682374645.85884190,76181521,0.0,0.92,0.0,0.61,313.57,313.58,0.0,0.0,3
1682374645.95900106,76281680,0.0,0.92,0.0,0.62,313.57,313.58,0.0,0.01,3
1682374646.05888796,76381567,0.0,0.92,0.0,0.61,313.57,313.58,0.0,0.0,3
1682374646.15878487,76481464,0.0,0.92,0.0,0.62,313.57,313.58,0.0,0.0,3
1682374646.25875998,76581439,0.0,0.92,0.0,0.62,313.56,313.57,0.0,0.0,3
1682374646.35897899,76681658,0.0,0.92,0.0,0.63,313.57,313.58,0.0,0.0,3
1682374646.45887589,76781555,0.0,0.91,0.0,0.62,313.56,313.57,0.0,0.0,3
1682374646.55884504,76881524,0.0,0.91,0.0,0.62,313.57,313.58,0.0,0.0,3
1682374646.65889692,76981576,0.0,0.91,0.0,0.63,313.57,313.58,0.0,0.0,3
1682374646.75883484,77081514,0.0,0.91,0.0,0.63,313.57,313.58,0.0,0.0,3
1682374646.85895705,77181636,0.0,0.91,0.0,0.62,313.57,313.58,0.0,0.0,3
1682374646.95885205,77281531,0.0,0.91,0.0,0.62,313.57,313.58,0.0,0.0,3
1682374647.05877590,77381455,0.0,0.91,0.0,0.63,313.56,313.57,0.0,0.0,3
1682374647.15877604,77481455,0.0,0.9,0.0,0.62,313.57,313.58,0.0,0.0,3
1682374647.25880885,77581488,0.0,0.91,0.0,0.62,313.57,313.58,0.0,0.0,3
1682374647.35895300,77681632,0.0,0.91,0.0,0.62,313.56,313.57,0.0,0.0,3
1682374647.45890093,77781580,0.0,0.91,0.0,0.62,313.56,313.57,0.0,0.0,3
1682374647.55889297,77881572,0.0,0.91,0.0,0.62,313.56,313.57,0.0,0.0,3
1682374647.65884185,77981521,0.0,0.91,0.0,0.62,313.56,313.57,0.0,0.0,3
1682374647.75895095,78081630,0.0,0.91,0.0,0.62,313.55,313.56,0.0,0.0,3
1682374647.85884500,78181524,0.0,0.91,0.0,0.62,313.55,313.56,0.0,0.0,3
1682374647.95877194,78281451,0.0,0.91,0.0,0.62,313.55,313.56,0.0,0.0,3
1682374648.05883193,78381511,0.0,0.91,0.0,0.62,313.55,313.56,0.0,0.0,3
1682374648.15880203,78481481,0.0,0.91,0.0,0.62,313.54,313.55,0.0,0.0,3
1682374648.25884891,78581528,0.0,0.91,0.0,0.62,313.55,313.56,0.0,0.0,3
1682374648.35896897,78681648,0.0,0.91,0.0,0.62,313.55,313.56,0.0,0.0,3
1682374648.45890403,78781583,0.0,0.91,0.0,0.61,313.54,313.55,0.0,0.0,3
1682374648.55883408,78881513,0.0,0.9,0.0,0.61,313.54,313.55,0.0,0.0,3
1682374648.65893388,78981613,0.0,0.91,0.0,0.61,313.54,313.55,0.0,0.0,3
1682374648.75883889,79081518,0.0,0.9,0.0,0.61,313.53000000000003,313.54,0.0,0.0,3
1682374648.85876489,79181444,0.0,0.91,0.0,0.61,313.53000000000003,313.54,0.0,0.0,3
1682374648.95878792,79281467,0.0,0.9,0.0,0.62,313.52,313.53000000000003,0.0,0.0,3
1682374649.05879498,79381474,0.0,0.91,0.0,0.62,313.52,313.53000000000003,0.0,0.0,3
1682374649.15886593,79481545,0.0,0.91,0.0,0.62,313.52,313.53000000000003,0.0,0.0,3
1682374649.25886607,79581545,0.0,0.9,0.0,0.62,313.52,313.53000000000003,0.0,0.0,3
1682374649.35899496,79681674,0.0,0.9,0.0,0.62,313.51,313.52,0.0,0.0,3
1682374649.45884705,79781526,0.0,0.9,0.0,0.63,313.52,313.53000000000003,0.0,0.01,3
1682374649.55915999,79881839,0.0,0.9,0.0,0.63,313.52,313.53000000000003,0.0,0.0,3
1682374649.65884399,79981523,0.0,0.89,0.0,0.63,313.52,313.53000000000003,0.0,0.0,3
1682374649.75877190,80081451,0.0,0.89,0.0,0.63,313.53000000000003,313.54,0.0,0.0,3
1682374649.85877705,80181456,0.0,0.89,0.0,0.62,313.53000000000003,313.54,0.0,0.0,3
1682374649.95879984,80281479,0.0,0.89,0.0,0.62,313.52,313.53000000000003,0.0,0.0,3
1682374650.05888104,80381560,0.0,0.89,0.0,0.62,313.53000000000003,313.54,0.0,0.0,3
1682374650.15898395,80481663,0.0,0.89,0.0,0.62,313.53000000000003,313.54,0.0,0.0,3
1682374650.25891495,80581594,0.0,0.89,0.0,0.62,313.53000000000003,313.54,0.0,0.0,3
1682374650.35895491,80681634,0.0,0.89,0.0,0.62,313.54,313.55,0.0,0.0,3
1682374650.45897007,80781649,0.0,0.89,0.0,0.62,313.54,313.55,0.0,0.0,3
1682374650.55886388,80881543,0.0,0.9,0.0,0.62,313.53000000000003,313.54,0.0,0.0,3
1682374650.65878701,80981466,0.0,0.89,0.0,0.62,313.54,313.55,0.0,0.0,3
1682374650.75879598,81081475,0.0,0.89,0.0,0.62,313.53000000000003,313.54,0.0,0.0,3
1682374650.85877395,81181453,0.0,0.89,0.0,0.62,313.53000000000003,313.54,0.0,0.0,3
1682374650.95886707,81281546,0.0,0.89,0.0,0.62,313.53000000000003,313.54,0.0,0.0,3
1682374651.05889487,81381574,0.0,0.89,0.0,0.62,313.53000000000003,313.54,0.0,0.0,3
1682374651.15891600,81481595,0.0,0.88,0.0,0.61,313.53000000000003,313.54,0.0,0.0,3
1682374651.25889492,81581574,0.0,0.89,0.0,0.61,313.53000000000003,313.54,0.0,0.0,3
1682374651.35903692,81681716,0.0,0.89,0.0,0.61,313.52,313.53000000000003,0.0,0.0,3
1682374651.45885992,81781539,0.0,0.89,0.0,0.61,313.52,313.53000000000003,0.0,0.0,3
1682374651.55877805,81881457,0.0,0.89,0.0,0.61,313.52,313.53000000000003,0.0,0.0,3
1682374651.65878606,81981465,0.0,0.89,0.0,0.61,313.52,313.53000000000003,0.0,0.0,3
1682374651.75880504,82081484,0.0,0.89,0.0,0.61,313.51,313.52,0.0,0.0,3
1682374651.85889292,82181572,0.0,0.89,0.0,0.61,313.52,313.53000000000003,0.0,0.0,3
1682374651.95888996,82281569,0.0,0.9,0.0,0.61,313.51,313.52,0.0,0.0,3
1682374652.05890584,82381585,0.0,0.9,0.0,0.62,313.51,313.52,0.0,0.0,3
1682374652.15884590,82481525,0.0,0.9,0.0,0.61,313.52,313.53000000000003,0.0,0.0,3
1682374652.25901604,82581695,0.0,0.91,0.0,0.61,313.52,313.53000000000003,0.0,0.0,3
1682374652.35896897,82681648,0.0,0.91,0.0,0.61,313.51,313.52,0.0,0.0,3
1682374652.45876789,82781447,0.0,0.92,0.0,0.61,313.51,313.52,0.0,0.01,3
1682374652.55877495,82881454,0.0,0.91,0.0,0.61,313.51,313.52,0.0,0.01,3
1682374652.65880394,82981483,0.0,0.91,0.0,0.61,313.5,313.51,0.0,0.01,3
1682374652.75889587,83081575,0.0,0.92,0.0,0.61,313.5,313.51,0.0,0.01,3
1682374652.85889292,83181572,0.0,0.92,0.0,0.61,313.49,313.5,0.0,0.01,3
1682374652.95891905,83281598,0.0,0.92,0.0,0.61,313.49,313.5,0.0,0.0,3
1682374653.05884004,83381519,0.0,0.93,0.0,0.6,313.49,313.5,0.0,0.01,3
1682374653.15895605,83481635,0.0,0.93,0.0,0.6,313.49,313.5,0.0,0.0,3
1682374653.25886202,83581541,0.0,0.93,0.0,0.61,313.49,313.5,0.0,0.0,3
1682374653.35891891,83681598,0.0,0.9400000000000001,0.0,0.61,313.5,313.51,0.0,0.0,3
1682374653.45877695,83781456,0.0,0.9400000000000001,0.0,0.61,313.49,313.5,0.0,0.0,3
1682374653.55879903,83881478,0.0,0.9400000000000001,0.0,0.61,313.49,313.5,0.0,0.0,3
1682374653.65886402,83981543,0.0,0.9400000000000001,0.0,0.61,313.49,313.5,0.0,0.0,3
1682374653.75888586,84081565,0.0,0.9400000000000001,0.0,0.61,313.49,313.5,0.0,0.0,3
1682374653.85891390,84181593,0.0,0.9400000000000001,0.0,0.61,313.48,313.49,0.0,0.0,3
1682374653.95884299,84281522,0.0,0.9400000000000001,0.0,0.61,313.49,313.5,0.0,0.01,3
1682374654.05893707,84381616,0.0,0.9500000000000001,0.0,0.61,313.49,313.5,0.0,0.01,3
1682374654.15883899,84481518,0.0,0.9500000000000001,0.0,0.61,313.49,313.5,0.0,0.01,3
1682374654.25876784,84581447,0.0,0.9500000000000001,0.0,0.61,313.5,313.51,0.0,0.0,3
1682374654.35905385,84681733,0.0,0.9500000000000001,0.0,0.61,313.5,313.51,0.0,0.0,3
1682374654.45879793,84781477,0.0,0.96,0.0,0.61,313.5,313.51,0.0,0.0,3
1682374654.55887198,84881551,0.0,0.96,0.0,0.61,313.51,313.52,0.0,0.0,3
1682374654.65868497,84981364,0.0,0.96,0.0,0.61,313.51,313.52,0.0,0.0,3
1682374654.75869894,85081378,0.0,0.96,0.0,0.6,313.51,313.52,0.0,0.0,3
1682374654.85865593,85181335,0.0,0.96,0.0,0.6,313.51,313.52,0.0,0.0,3
1682374654.95874786,85281427,0.0,0.96,0.0,0.61,313.51,313.52,0.0,0.0,3
1682374655.05859399,85381273,0.0,0.96,0.0,0.61,313.52,313.53000000000003,0.0,0.0,3
1682374655.15850091,85481180,0.0,0.96,0.0,0.61,313.52,313.53000000000003,0.0,0.0,3
1682374655.25854588,85581225,0.0,0.96,0.0,0.61,313.52,313.53000000000003,0.0,0.0,3
1682374655.35864091,85681320,0.0,0.96,0.0,0.61,313.52,313.53000000000003,0.0,0.01,3
1682374655.45866394,85781343,0.0,0.96,0.0,0.61,313.53000000000003,313.54,0.0,0.01,3
1682374655.55870700,85881386,0.0,0.96,0.0,0.61,313.52,313.53000000000003,0.0,0.01,3
1682374655.65867996,85981359,0.0,0.97,0.0,0.61,313.52,313.53000000000003,0.0,0.01,3
1682374655.75864601,86081325,0.0,0.97,0.0,0.62,313.52,313.53000000000003,0.0,0.01,3
1682374655.85872889,86181408,0.0,0.97,0.0,0.62,313.52,313.53000000000003,0.0,0.01,3
1682374655.95858788,86281267,0.0,0.97,0.0,0.62,313.53000000000003,313.54,0.0,0.0,3
1682374656.05849886,86381178,0.0,0.97,0.0,0.62,313.53000000000003,313.54,0.0,0.0,3
1682374656.15855598,86481235,0.0,0.97,0.0,0.62,313.53000000000003,313.54,0.0,0.0,3
1682374656.25859404,86581273,0.0,0.97,0.0,0.62,313.53000000000003,313.54,0.0,0.0,3
1682374656.35875392,86681433,0.0,0.97,0.0,0.62,313.53000000000003,313.54,0.0,0.0,3
1682374656.45875287,86781432,0.0,0.96,0.0,0.62,313.53000000000003,313.54,0.0,0.0,3
1682374656.55891204,86881591,0.0,0.96,0.0,0.62,313.54,313.55,0.0,0.0,3
1682374656.65884185,86981521,0.0,0.96,0.0,0.62,313.54,313.55,0.0,0.0,3
1682374656.75893903,87081618,0.0,0.96,0.0,0.63,313.54,313.55,0.0,0.0,3
1682374656.85857296,87181252,0.0,0.96,0.0,0.63,313.54,313.55,0.0,0.0,3
1682374656.95850897,87281188,0.0,0.97,0.0,0.62,313.54,313.55,0.0,0.0,3
1682374657.05856586,87381245,0.0,0.96,0.0,0.62,313.54,313.55,0.0,0.0,3
1682374657.15860605,87481285,0.0,0.97,0.0,0.63,313.55,313.56,0.0,0.0,3
1682374657.25866389,87581343,0.0,0.97,0.0,0.62,313.55,313.56,0.0,0.0,3
1682374657.35875607,87681435,0.0,0.97,0.0,0.62,313.55,313.56,0.0,0.0,3
1682374657.45869803,87781377,0.0,0.97,0.0,0.62,313.56,313.57,0.0,0.01,3
1682374657.55867696,87881356,0.0,0.97,0.0,0.61,313.55,313.56,0.0,0.01,3
1682374657.65872598,87981405,0.0,0.97,0.0,0.61,313.55,313.56,0.0,0.01,3
1682374657.75858593,88081265,0.0,0.96,0.0,0.61,313.56,313.57,0.0,0.01,3
1682374657.85849500,88181174,0.0,0.96,0.0,0.62,313.56,313.57,0.0,0.01,3
1682374657.95852995,88281209,0.0,0.96,0.0,0.62,313.56,313.57,0.0,0.01,3
1682374658.05859184,88381271,0.0,0.97,0.0,0.62,313.57,313.58,0.0,0.0,3
1682374658.15867591,88481355,0.0,0.97,0.0,0.61,313.57,313.58,0.0,0.0,3
1682374658.25871897,88581398,0.0,0.97,0.0,0.62,313.57,313.58,0.0,0.0,3
1682374658.35878706,88681466,0.0,0.97,0.0,0.61,313.58,313.59000000000003,0.0,0.0,3
1682374658.45865893,88781338,0.0,0.97,0.0,0.61,313.57,313.58,0.0,0.0,3
1682374658.55876994,88881449,0.0,0.98,0.0,0.61,313.57,313.58,0.0,0.0,3
1682374658.65858698,88981266,0.0,0.98,0.0,0.61,313.57,313.58,0.0,0.0,3
1682374658.75876093,89081440,0.0,0.97,0.0,0.61,313.56,313.57,0.0,0.01,3
1682374658.85878897,89181468,0.0,0.97,0.0,0.61,313.56,313.57,0.0,0.0,3
1682374658.95880795,89281487,0.0,0.97,0.0,0.61,313.56,313.57,0.0,0.01,3
1682374659.05886197,89381541,0.0,0.97,0.0,0.61,313.55,313.56,0.0,0.01,3
1682374659.15870190,89481381,0.0,0.96,0.0,0.6,313.54,313.55,0.0,0.01,3
1682374659.25884104,89581520,0.0,0.96,0.0,0.6,313.54,313.55,0.0,0.0,3
1682374659.35893607,89681615,0.0,0.96,0.0,0.6,313.54,313.55,0.0,0.0,3
1682374659.45892501,89781604,0.0,0.96,0.0,0.6,313.53000000000003,313.54,0.0,0.0,3
1682374659.55879807,89881477,0.0,0.96,0.0,0.6,313.53000000000003,313.54,0.0,0.0,3
1682374659.65873384,89981413,0.0,0.96,0.0,0.6,313.53000000000003,313.54,0.0,0.0,3
1682374659.75871086,90081390,0.0,0.96,0.0,0.59,313.53000000000003,313.54,0.0,0.0,3
1682374659.85876894,90181448,0.0,0.96,0.0,0.59,313.54,313.55,0.0,0.0,3
1682374659.95885205,90281531,0.0,0.96,0.0,0.59,313.54,313.55,0.0,0.0,3
1682374660.05884504,90381524,0.0,0.96,0.0,0.59,313.54,313.55,0.0,0.0,3
1682374660.15884995,90481529,0.0,0.96,0.0,0.59,313.54,313.55,0.0,0.0,3
1682374660.25902295,90581702,0.0,0.9500000000000001,0.0,0.59,313.55,313.56,0.0,0.0,3
1682374660.35923600,90681915,0.0,0.9500000000000001,0.0,0.59,313.55,313.56,0.0,0.0,3
1682374660.45883989,90781519,0.0,0.96,0.0,0.59,313.55,313.56,0.0,0.0,3
1682374660.55876899,90881448,0.0,0.96,0.0,0.6,313.55,313.56,0.0,0.0,3
1682374660.65884399,90981523,0.0,0.9500000000000001,0.0,0.6,313.55,313.56,0.0,0.01,3
1682374660.75879097,91081470,0.0,0.9500000000000001,0.0,0.6,313.56,313.57,0.0,0.0,3
1682374660.85888386,91181563,0.0,0.9500000000000001,0.0,0.6,313.56,313.57,0.0,0.0,3
1682374660.95890093,91281580,0.0,0.9500000000000001,0.0,0.6,313.56,313.57,0.0,0.0,3
1682374661.05890203,91381581,0.0,0.96,0.0,0.61,313.56,313.57,0.0,0.0,3
1682374661.15883803,91481517,0.0,0.9500000000000001,0.0,0.61,313.56,313.57,0.0,0.0,3
1682374661.25896692,91581646,0.0,0.96,0.0,0.6,313.56,313.57,0.0,0.0,3
1682374661.35896707,91681646,0.0,0.96,0.0,0.61,313.56,313.57,0.0,0.0,3
1682374661.45876789,91781447,0.0,0.96,0.0,0.6,313.56,313.57,0.0,0.01,3
1682374661.55875587,91881435,0.0,0.96,0.0,0.6,313.56,313.57,0.0,0.01,3
1682374661.65879488,91981474,0.0,0.96,0.0,0.6,313.56,313.57,0.0,0.01,3
1682374661.75885296,92081532,0.0,0.97,0.0,0.61,313.56,313.57,0.0,0.01,3
1682374661.85869288,92181372,0.0,0.96,0.0,0.61,313.55,313.56,0.0,0.01,3
1682374661.95869207,92281371,0.0,0.96,0.0,0.62,313.55,313.56,0.0,0.01,3
1682374662.05864096,92381320,0.0,0.97,0.0,0.62,313.55,313.56,0.0,0.01,3
1682374662.15873599,92481415,0.0,0.96,0.0,0.62,313.55,313.56,0.0,0.01,3
1682374662.25859094,92581270,0.0,0.97,0.0,0.63,313.55,313.56,0.0,0.01,3
1682374662.35854292,92681222,0.0,0.97,0.0,0.63,313.54,313.55,0.0,0.01,3
1682374662.45855999,92781239,0.0,0.97,0.0,0.63,313.53000000000003,313.54,0.0,0.0,3
1682374662.55857897,92881258,0.0,0.96,0.0,0.63,313.54,313.55,0.0,0.01,3
1682374662.65865993,92981339,0.0,0.96,0.0,0.63,313.54,313.55,0.0,0.0,3
1682374662.75875092,93081430,0.0,0.96,0.0,0.63,313.53000000000003,313.54,0.0,0.0,3
1682374662.85869193,93181371,0.0,0.96,0.0,0.63,313.54,313.55,0.0,0.0,3
1682374662.95863700,93281316,0.0,0.96,0.0,0.63,313.53000000000003,313.54,0.0,0.0,3
1682374663.05872297,93381402,0.0,0.96,0.0,0.63,313.53000000000003,313.54,0.0,0.0,3
1682374663.15859795,93481277,0.0,0.96,0.0,0.63,313.53000000000003,313.54,0.0,0.0,3
1682374663.25850105,93581180,0.0,0.96,0.0,0.63,313.52,313.53000000000003,0.0,0.0,3
1682374663.35861492,93681294,0.0,0.96,0.0,0.63,313.52,313.53000000000003,0.0,0.0,3
1682374663.45860887,93781288,0.0,0.96,0.0,0.63,313.52,313.53000000000003,0.0,0.0,3
1682374663.55865407,93881333,0.0,0.96,0.0,0.62,313.52,313.53000000000003,0.0,0.01,3
1682374663.65867686,93981356,0.0,0.97,0.0,0.62,313.52,313.53000000000003,0.0,0.0,3
1682374663.75869203,94081371,0.0,0.97,0.0,0.62,313.52,313.53000000000003,0.0,0.0,3
1682374663.85864687,94181326,0.0,0.97,0.0,0.62,313.52,313.53000000000003,0.0,0.0,3
1682374663.95872188,94281401,0.0,0.97,0.0,0.62,313.53000000000003,313.54,0.0,0.0,3
1682374664.05860400,94381283,0.0,0.96,0.0,0.62,313.54,313.55,0.0,0.0,3
1682374664.15850186,94481181,0.0,0.96,0.0,0.62,313.54,313.55,0.0,0.0,3
1682374664.25856400,94581243,0.0,0.96,0.0,0.62,313.54,313.55,0.0,0.0,3
1682374664.35895705,94681636,0.0,0.97,0.0,0.62,313.54,313.55,0.0,0.0,3
1682374664.45887089,94781550,0.0,0.97,0.0,0.62,313.54,313.55,0.0,0.0,3
1682374664.55888700,94881566,0.0,0.97,0.0,0.62,313.54,313.55,0.0,0.0,3
1682374664.65890694,94981586,0.0,0.97,0.0,0.63,313.54,313.55,0.0,0.0,3
1682374664.75865602,95081335,0.0,0.96,0.0,0.63,313.54,313.55,0.0,0.0,3
1682374664.85900903,95181688,0.0,0.96,0.0,0.63,313.54,313.55,0.0,0.0,3
1682374664.95889807,95281577,0.0,0.97,0.0,0.63,313.54,313.55,0.0,0.0,3
1682374665.05877495,95381454,0.0,0.96,0.0,0.63,313.55,313.56,0.0,0.0,3
1682374665.15879798,95481477,0.0,0.97,0.0,0.63,313.54,313.55,0.0,0.01,3
1682374665.25879002,95581469,0.0,0.97,0.0,0.63,313.54,313.55,0.0,0.01,3
1682374665.35930204,95681981,0.0,0.97,0.0,0.63,313.54,313.55,0.0,0.01,3
1682374665.45888996,95781569,0.0,0.97,0.0,0.63,313.53000000000003,313.54,0.0,0.01,3
1682374665.55889702,95881576,0.0,0.98,0.0,0.63,313.53000000000003,313.54,0.0,0.01,3
1682374665.65884089,95981520,0.0,0.98,0.0,0.63,313.53000000000003,313.54,0.0,0.01,3
1682374665.75901103,96081690,0.0,0.98,0.0,0.63,313.52,313.53000000000003,0.0,0.01,3
1682374665.85890388,96181583,0.0,0.98,0.0,0.63,313.52,313.53000000000003,0.0,0.01,3
1682374665.95877886,96281458,0.0,0.97,0.0,0.63,313.53000000000003,313.54,0.0,0.0,3
1682374666.05881500,96381494,0.0,0.97,0.0,0.63,313.52,313.53000000000003,0.0,0.0,3
1682374666.15878296,96481462,0.0,0.96,0.0,0.63,313.53000000000003,313.54,0.0,0.0,3
1682374666.25885797,96581537,0.0,0.96,0.0,0.62,313.52,313.53000000000003,0.0,0.0,3
1682374666.35893106,96681610,0.0,0.96,0.0,0.62,313.52,313.53000000000003,0.0,0.0,3
1682374666.45889807,96781577,0.0,0.96,0.0,0.62,313.53000000000003,313.54,0.0,0.0,3
1682374666.55883694,96881516,0.0,0.96,0.0,0.62,313.53000000000003,313.54,0.0,0.0,3
1682374666.65896297,96981642,0.0,0.96,0.0,0.62,313.53000000000003,313.54,0.0,0.01,3
1682374666.75886393,97081543,0.0,0.96,0.0,0.61,313.53000000000003,313.54,0.0,0.01,3
1682374666.85877991,97181459,0.0,0.97,0.0,0.61,313.53000000000003,313.54,0.0,0.01,3
1682374666.95884204,97281521,0.0,0.97,0.0,0.61,313.53000000000003,313.54,0.0,0.0,3
1682374667.05881000,97381489,0.0,0.97,0.0,0.62,313.53000000000003,313.54,0.0,0.0,3
1682374667.15885806,97481537,0.0,0.98,0.0,0.62,313.53000000000003,313.54,0.0,0.01,3
1682374667.25884891,97581528,0.0,0.98,0.0,0.62,313.53000000000003,313.54,0.0,0.0,3
1682374667.35895896,97681638,0.0,0.98,0.0,0.62,313.53000000000003,313.54,0.0,0.0,3
1682374667.45884895,97781528,0.0,0.98,0.0,0.62,313.53000000000003,313.54,0.0,0.0,3
1682374667.55894685,97881626,0.0,0.99,0.0,0.62,313.53000000000003,313.54,0.0,0.0,3
1682374667.65886188,97981541,0.0,0.99,0.0,0.62,313.53000000000003,313.54,0.0,0.0,3
1682374667.75878501,98081464,0.0,0.99,0.0,0.62,313.53000000000003,313.54,0.0,0.0,3
1682374667.85876989,98181449,0.0,1.0,0.0,0.62,313.53000000000003,313.54,0.0,0.0,3
1682374667.95878887,98281468,0.0,0.99,0.0,0.62,313.53000000000003,313.54,0.0,0.0,3
1682374668.05887389,98381553,0.0,1.0,0.0,0.62,313.53000000000003,313.54,0.0,0.01,3
1682374668.15868092,98481360,0.0,1.0,0.0,0.62,313.52,313.53000000000003,0.0,0.0,3
1682374668.25882506,98581504,0.0,1.0,0.0,0.62,313.52,313.53000000000003,0.0,0.0,3
1682374668.35893488,98681614,0.0,1.01,0.0,0.62,313.52,313.53000000000003,0.0,0.0,3
1682374668.45893788,98781617,0.0,1.01,0.0,0.62,313.52,313.53000000000003,0.0,0.0,3
1682374668.55889606,98881575,0.0,1.01,0.0,0.62,313.52,313.53000000000003,0.0,0.0,3
1682374668.65875292,98981432,0.0,1.01,0.0,0.62,313.52,313.53000000000003,0.0,0.0,3
1682374668.75872397,99081403,0.0,1.02,0.0,0.62,313.52,313.53000000000003,0.0,0.0,3
1682374668.85876799,99181447,0.0,1.01,0.0,0.63,313.52,313.53000000000003,0.0,0.0,3
1682374668.95883489,99281514,0.0,1.02,0.0,0.63,313.52,313.53000000000003,0.0,0.01,3
1682374669.05893707,99381616,0.0,1.01,0.0,0.64,313.52,313.53000000000003,0.0,0.0,3
1682374669.15882993,99481509,0.0,1.01,0.0,0.64,313.52,313.53000000000003,0.0,0.01,3
1682374669.25880504,99581484,0.0,1.01,0.0,0.64,313.52,313.53000000000003,0.0,0.01,3
1682374669.35899997,99681679,0.0,1.01,0.0,0.64,313.52,313.53000000000003,0.0,0.01,3
1682374669.45882797,99781507,0.0,1.01,0.0,0.64,313.52,313.53000000000003,0.0,0.01,3
1682374669.55873799,99881417,0.0,1.01,0.0,0.64,313.52,313.53000000000003,0.0,0.01,3
1682374669.65876198,99981441,0.0,1.01,0.0,0.64,313.52,313.53000000000003,0.0,0.01,3
1682374669.75878787,100081467,0.0,1.01,0.0,0.64,313.52,313.53000000000003,0.0,0.01,3
1682374669.85882306,100181502,0.0,1.01,0.0,0.64,313.52,313.53000000000003,0.0,0.01,3
1682374669.95882988,100281509,0.0,1.0,0.0,0.64,313.52,313.53000000000003,0.0,0.01,3
1682374670.05883694,100381516,0.0,1.01,0.0,0.65,313.52,313.53000000000003,0.0,0.01,3
1682374670.15880990,100481489,0.0,1.0,0.0,0.64,313.52,313.53000000000003,0.0,0.01,3
1682374670.25890803,100581587,0.0,1.01,0.0,0.64,313.52,313.53000000000003,0.0,0.01,3
1682374670.35895491,100681634,0.0,1.01,0.0,0.64,313.52,313.53000000000003,0.0,0.01,3
1682374670.45874691,100781426,0.0,1.01,0.0,0.64,313.53000000000003,313.54,0.0,0.01,3
1682374670.55870485,100881384,0.0,1.01,0.0,0.64,313.53000000000003,313.54,0.0,0.0,3
1682374670.65876698,100981446,0.0,1.01,0.0,0.64,313.53000000000003,313.54,0.0,0.0,3
1682374670.75882292,101081502,0.0,1.02,0.0,0.64,313.53000000000003,313.54,0.0,0.0,3
1682374670.85883594,101181515,0.0,1.02,0.0,0.64,313.53000000000003,313.54,0.0,0.0,3
1682374670.95884991,101281529,0.0,1.02,0.0,0.64,313.53000000000003,313.54,0.0,0.0,3
1682374671.05881405,101381493,0.0,1.02,0.0,0.64,313.53000000000003,313.54,0.0,0.01,3
1682374671.15899587,101481675,0.0,1.02,0.0,0.64,313.53000000000003,313.54,0.0,0.01,3
1682374671.25884604,101581525,0.0,1.02,0.0,0.64,313.52,313.53000000000003,0.0,0.01,3
1682374671.35890007,101681579,0.0,1.02,0.0,0.64,313.52,313.53000000000003,0.0,0.01,3
1682374671.45876884,101781448,0.0,1.02,0.0,0.64,313.51,313.52,0.0,0.01,3
1682374671.55876684,101881446,0.0,1.01,0.0,0.64,313.51,313.52,0.0,0.01,3
1682374671.65886497,101981544,0.0,1.02,0.0,0.64,313.51,313.52,0.0,0.0,3
1682374671.75889206,102081571,0.0,1.02,0.0,0.64,313.51,313.52,0.0,0.01,3
1682374671.85889006,102181569,0.0,1.02,0.0,0.64,313.51,313.52,0.0,0.0,3
1682374671.95884395,102281523,0.0,1.02,0.0,0.64,313.51,313.52,0.0,0.0,3
1682374672.05895996,102381639,0.0,1.02,0.0,0.64,313.51,313.52,0.0,0.0,3
1682374672.15860391,102481283,0.0,1.02,0.0,0.64,313.51,313.52,0.0,0.0,3
1682374672.25850105,102581180,0.0,1.02,0.0,0.64,313.51,313.52,0.0,0.0,3
1682374672.35859203,102681271,0.0,1.02,0.0,0.64,313.51,313.52,0.0,0.0,3
1682374672.45856595,102781245,0.0,1.02,0.0,0.64,313.5,313.51,0.0,0.01,3
1682374672.55864406,102881323,0.0,1.03,0.0,0.64,313.5,313.51,0.0,0.01,3
1682374672.65868497,102981364,0.0,1.03,0.0,0.64,313.5,313.51,0.0,0.01,3
1682374672.75867701,103081356,0.0,1.03,0.0,0.65,313.49,313.5,0.0,0.0,3
1682374672.85863495,103181314,0.0,1.03,0.0,0.65,313.49,313.5,0.0,0.01,3
1682374672.95873094,103281410,0.0,1.02,0.0,0.65,313.49,313.5,0.0,0.01,3
1682374673.05859494,103381274,0.0,1.02,0.0,0.64,313.48,313.49,0.0,0.01,3
1682374673.15850496,103481184,0.0,1.02,0.0,0.64,313.47,313.48,0.0,0.0,3
1682374673.25858307,103581262,0.0,1.02,0.0,0.65,313.47,313.48,0.0,0.01,3
1682374673.35862803,103681307,0.0,1.02,0.0,0.65,313.47,313.48,0.0,0.0,3
1682374673.45864797,103781327,0.0,1.02,0.0,0.65,313.47,313.48,0.0,0.0,3
1682374673.55868292,103881362,0.0,1.02,0.0,0.65,313.48,313.49,0.0,0.0,3
1682374673.65866804,103981347,0.0,1.02,0.0,0.65,313.47,313.48,0.0,0.0,3
1682374673.75863695,104081316,0.0,1.02,0.0,0.65,313.48,313.49,0.0,0.0,3
1682374673.85875297,104181432,0.0,1.02,0.0,0.66,313.48,313.49,0.0,0.0,3
1682374673.95860505,104281284,0.0,1.02,0.0,0.65,313.48,313.49,0.0,0.0,3
1682374674.05849695,104381176,0.0,1.01,0.0,0.65,313.47,313.48,0.0,0.0,3
1682374674.15850186,104481181,0.0,1.02,0.0,0.65,313.47,313.48,0.0,0.0,3
1682374674.25861001,104581289,0.0,1.02,0.0,0.65,313.47,313.48,0.0,0.0,3
1682374674.35874295,104681422,0.0,1.02,0.0,0.66,313.47,313.48,0.0,0.0,3
1682374674.45867085,104781350,0.0,1.02,0.0,0.66,313.48,313.49,0.0,0.0,3
1682374674.55867290,104881352,0.0,1.02,0.0,0.66,313.48,313.49,0.0,0.0,3
1682374674.65864086,104981320,0.0,1.03,0.0,0.66,313.48,313.49,0.0,0.0,3
1682374674.75872803,105081407,0.0,1.02,0.0,0.66,313.48,313.49,0.0,0.0,3
1682374674.85859299,105181272,0.0,1.03,0.0,0.66,313.48,313.49,0.0,0.0,3
1682374674.95877695,105281456,0.0,1.03,0.0,0.66,313.48,313.49,0.0,0.01,3
1682374675.05878901,105381468,0.0,1.03,0.0,0.66,313.49,313.5,0.0,0.01,3
1682374675.15881586,105481495,0.0,1.03,0.0,0.67,313.48,313.49,0.0,0.01,3
1682374675.25884891,105581528,0.0,1.03,0.0,0.67,313.48,313.49,0.0,0.0,3
1682374675.35914207,105681821,0.0,1.03,0.0,0.67,313.48,313.49,0.0,0.0,3
1682374675.45889306,105781572,0.0,1.03,0.0,0.67,313.47,313.48,0.0,0.0,3
1682374675.55884790,105881527,0.0,1.03,0.0,0.67,313.47,313.48,0.0,0.0,3
1682374675.65894103,105981620,0.0,1.03,0.0,0.67,313.47,313.48,0.0,0.0,3
1682374675.75888586,106081565,0.0,1.04,0.0,0.68,313.47,313.48,0.0,0.0,3
1682374675.85877585,106181455,0.0,1.04,0.0,0.68,313.47,313.48,0.0,0.0,3
1682374675.95878005,106281459,0.0,1.04,0.0,0.68,313.47,313.48,0.0,0.0,3
1682374676.05878901,106381468,0.0,1.04,0.0,0.68,313.47,313.48,0.0,0.0,3
1682374676.15887594,106481555,0.0,1.03,0.0,0.68,313.47,313.48,0.0,0.0,3
1682374676.25888801,106581567,0.0,1.04,0.0,0.68,313.48,313.49,0.0,0.01,3
1682374676.35899401,106681673,0.0,1.03,0.0,0.68,313.47,313.48,0.0,0.0,3
1682374676.45865607,106781335,0.0,1.03,0.0,0.68,313.48,313.49,0.0,0.0,3
1682374676.55876398,106881443,0.0,1.03,0.0,0.68,313.48,313.49,0.0,0.0,3
1682374676.65860200,106981281,0.0,1.03,0.0,0.68,313.47,313.48,0.0,0.01,3
1682374676.75850105,107081180,0.0,1.04,0.0,0.68,313.47,313.48,0.0,0.01,3
1682374676.85852695,107181206,0.0,1.03,0.0,0.68,313.47,313.48,0.0,0.0,3
1682374676.95859194,107281271,0.0,1.04,0.0,0.68,313.47,313.48,0.0,0.0,3
1682374677.05867195,107381351,0.0,1.03,0.0,0.68,313.47,313.48,0.0,0.0,3
1682374677.15868688,107481366,0.0,1.04,0.0,0.68,313.47,313.48,0.0,0.0,3
1682374677.25869703,107581376,0.0,1.04,0.0,0.67,313.46,313.47,0.0,0.0,3
1682374677.35875988,107681439,0.0,1.04,0.0,0.67,313.47,313.48,0.0,0.0,3
1682374677.45874190,107781421,0.0,1.04,0.0,0.67,313.47,313.48,0.0,0.01,3
1682374677.55861092,107881290,0.0,1.04,0.0,0.67,313.47,313.48,0.0,0.0,3
1682374677.65849805,107981177,0.0,1.05,0.0,0.67,313.47,313.48,0.0,0.0,3
1682374677.75849700,108081176,0.0,1.05,0.0,0.67,313.46,313.47,0.0,0.0,3
1682374677.85859394,108181273,0.0,1.05,0.0,0.67,313.46,313.47,0.0,0.0,3
1682374677.95885706,108281536,0.0,1.05,0.0,0.67,313.46,313.47,0.0,0.0,3
1682374678.05883288,108381512,0.0,1.05,0.0,0.67,313.46,313.47,0.0,0.0,3
1682374678.15890789,108481587,0.0,1.05,0.0,0.68,313.45,313.46,0.0,0.0,3
1682374678.25884295,108581522,0.0,1.05,0.0,0.68,313.46,313.47,0.0,0.0,3
1682374678.35902786,108681707,0.0,1.05,0.0,0.68,313.45,313.46,0.0,0.0,3
1682374678.45889497,108781574,0.0,1.05,0.0,0.68,313.45,313.46,0.0,0.0,3
1682374678.55877304,108881452,0.0,1.04,0.0,0.68,313.45,313.46,0.0,0.0,3
1682374678.65877199,108981451,0.0,1.05,0.0,0.6900000000000001,313.45,313.46,0.0,0.01,3
1682374678.75879693,109081476,0.0,1.04,0.0,0.6900000000000001,313.45,313.46,0.0,0.0,3
1682374678.85885787,109181537,0.0,1.04,0.0,0.6900000000000001,313.45,313.46,0.0,0.0,3
1682374678.95867896,109281358,0.0,1.04,0.0,0.6900000000000001,313.44,313.45,0.0,0.0,3
1682374679.05890584,109381585,0.0,1.04,0.0,0.6900000000000001,313.44,313.45,0.0,0.0,3
1682374679.15884686,109481526,0.0,1.04,0.0,0.6900000000000001,313.45,313.46,0.0,0.0,3
1682374679.25896502,109581644,0.0,1.04,0.0,0.6900000000000001,313.44,313.45,0.0,0.0,3
1682374679.35897493,109681654,0.0,1.04,0.0,0.7000000000000001,313.43,313.44,0.0,0.01,3
1682374679.45878100,109781460,0.0,1.04,0.0,0.7000000000000001,313.44,313.45,0.0,0.0,3
1682374679.55882502,109881504,0.0,1.04,0.0,0.7000000000000001,313.43,313.44,0.0,0.01,3
