timestamp,TimeUS,I,Status,GMS,GWk,NSats,HDop,Lat,Lng,Alt,Spd,GCrs,VZ,Yaw,U
1682374604.59899998,34921679,0,3,166622599,2259,15,0.75,42.689999199999995,-84.48877209999999,262.16,0.04640043154358864,127.11685943603516,0.08700000494718552,0.0,1
1682374604.79911494,35121794,0,3,166622799,2259,15,0.75,42.689999,-84.4887722,262.16,0.023345237597823143,189.86581420898438,0.017000000923871994,0.0,1
1682374604.99895406,35321633,0,3,166622999,2259,15,0.75,42.6899989,-84.4887722,262.18,0.010295630432665348,209.05459594726562,0.02500000037252903,0.0,1
1682374605.19895506,35521634,0,3,166623199,2259,15,0.75,42.6899987,-84.4887722,262.2,0.0430116280913353,144.46231079101562,0.10000000149011612,0.0,1
1682374605.39889598,35721575,0,3,166623399,2259,15,0.75,42.689998599999996,-84.4887723,262.24,0.07907591760158539,170.5376739501953,0.16300000250339508,0.0,1
1682374605.59895086,35921630,0,3,166623599,2259,15,0.75,42.6899984,-84.4887724,262.26,0.04609772562980652,183.7313995361328,0.024000000208616257,0.0,1
1682374605.79899597,36121675,0,3,166623799,2259,15,0.75,42.6899983,-84.4887724,262.27,0.04248529300093651,153.43495178222656,0.07400000095367432,0.0,1
1682374605.99832487,36321004,0,3,166623999,2259,15,0.75,42.6899983,-84.4887724,262.27,0.015264337882399559,211.60751342773438,0.08900000154972076,0.0,1
1682374606.19827485,36520954,0,3,166624199,2259,15,0.75,42.6899982,-84.4887724,262.29,0.030413813889026642,189.4623260498047,0.0690000057220459,0.0,1
1682374606.39836192,36721041,0,3,166624399,2259,15,0.75,42.6899981,-84.4887724,262.3,0.021095024421811104,185.4403533935547,0.05300000309944153,0.0,1
1682374606.59849787,36921177,0,3,166624599,2259,15,0.75,42.689997999999996,-84.4887724,262.31,0.04410215839743614,183.9005126953125,0.06400000303983688,0.0,1
1682374606.79834390,37121023,0,3,166624799,2259,15,0.75,42.689997999999996,-84.4887725,262.32,0.02024845778942108,147.09475708007812,0.1290000081062317,0.0,1
1682374606.99827504,37320954,0,3,166624999,2259,15,0.75,42.689997999999996,-84.4887724,262.35,0.023086795583367348,355.0302734375,0.08000000566244125,0.0,1
1682374607.19833302,37521012,0,3,166625199,2259,15,0.75,42.689997999999996,-84.4887724,262.37,0.02828427217900753,81.8698959350586,0.02800000086426735,0.0,1
1682374607.39839792,37721077,0,3,166625399,2259,15,0.75,42.6899979,-84.4887723,262.37,0.006403124425560236,308.6598205566406,0.03200000151991844,0.0,1
1682374607.59899306,37921672,0,3,166625599,2259,15,0.75,42.6899978,-84.4887723,262.38,0.029681645333766937,237.38076782226562,0.07100000232458115,0.0,1
1682374607.79907990,38121759,0,3,166625799,2259,15,0.75,42.6899976,-84.4887723,262.4,0.07430344074964523,151.02027893066406,0.07600000500679016,0.0,1
1682374608.01852798,38341207,0,3,166625999,2259,15,0.75,42.689997399999996,-84.4887722,262.39,0.04318564757704735,222.1844482421875,-0.02200000174343586,0.0,1
1682374608.19836903,38521048,0,3,166626199,2259,15,0.75,42.689997299999995,-84.4887722,262.4,0.022472206503152847,69.14553833007812,0.07100000232458115,0.0,1
1682374608.39845991,38721139,0,3,166626399,2259,15,0.75,42.689997299999995,-84.48877209999999,262.41,0.050566792488098145,155.46224975585938,0.10300000756978989,0.0,1
1682374608.59834194,38921021,0,3,166626599,2259,15,0.75,42.6899972,-84.488772,262.4,0.02418677508831024,240.255126953125,0.039000000804662704,0.0,1
1682374608.79825902,39120938,0,3,166626799,2259,15,0.75,42.6899971,-84.4887719,262.39,0.08469356596469879,157.06790161132812,0.15400001406669617,0.0,1
1682374608.99833798,39321017,0,3,166626999,2259,15,0.75,42.689997,-84.4887719,262.39,0.07749193906784058,340.3959045410156,0.10400000214576721,0.0,1
1682374609.19844604,39521125,0,3,166627199,2259,15,0.75,42.689997,-84.4887719,262.38,0.054037027060985565,218.99099731445312,0.0690000057220459,0.0,1
1682374609.39843607,39721115,0,3,166627399,2259,15,0.75,42.689996799999996,-84.4887718,262.38,0.10846197605133057,157.21759033203125,0.1210000067949295,0.0,1
1682374609.59832406,39921003,0,3,166627599,2259,15,0.75,42.689996699999995,-84.4887717,262.35,0.029966648668050766,64.2900390625,0.05900000408291817,0.0,1
1682374609.79892492,40121604,0,3,166627799,2259,15,0.75,42.6899966,-84.48877159999999,262.36,0.052354563027620316,208.52313232421875,0.1810000091791153,0.0,1
1682374609.99895406,40321633,0,3,166627999,2259,15,0.75,42.6899965,-84.48877159999999,262.37,0.03701351210474968,178.45184326171875,0.10100000351667404,0.0,1
1682374610.17857695,40501256,0,3,166628199,2259,15,0.75,42.6899964,-84.48877159999999,262.35,0.014142136089503765,278.1300964355469,0.06300000101327896,0.0,1
1682374610.39895296,40721632,0,3,166628399,2259,15,0.75,42.6899964,-84.4887715,262.35,0.03373425453901291,191.97613525390625,0.0990000069141388,0.0,1
1682374610.59828496,40920964,0,3,166628599,2259,15,0.75,42.6899964,-84.4887715,262.35,0.024331049993634224,189.4623260498047,0.11000000685453415,0.0,1
1682374610.79870892,41121388,0,3,166628799,2259,15,0.75,42.6899964,-84.4887715,262.32,0.05517246201634407,133.53118896484375,0.04100000113248825,0.0,1
1682374610.99890995,41321589,0,3,166628999,2259,15,0.75,42.6899964,-84.4887715,262.33,0.04850773513317108,165.67726135253906,0.0820000022649765,0.0,1
1682374611.19895697,41521636,0,3,166629199,2259,15,0.75,42.6899963,-84.4887715,262.31,0.010295630432665348,330.9454040527344,0.08300000429153442,0.0,1
1682374611.39898396,41721663,0,3,166629399,2259,15,0.75,42.6899963,-84.4887715,262.3,0.03405877575278282,176.63352966308594,0.13900001347064972,0.0,1
1682374611.59882402,41921503,0,3,166629599,2259,15,0.75,42.6899963,-84.4887715,262.3,0.02376972883939743,104.62086486816406,0.1210000067949295,0.0,1
1682374611.79893589,42121615,0,3,166629799,2259,15,0.75,42.6899963,-84.4887715,262.27,0.030413813889026642,207.4075927734375,0.05700000375509262,0.0,1
1682374611.99893594,42321615,0,3,166629999,2259,15,0.75,42.6899963,-84.48877159999999,262.27,0.030870698392391205,204.90476989746094,0.05400000140070915,0.0,1
1682374612.19893098,42521610,0,3,166630199,2259,15,0.75,42.6899963,-84.4887717,262.27,0.011045361869037151,185.19442749023438,0.09400000423192978,0.0,1
1682374612.39827704,42720956,0,3,166630399,2259,15,0.75,42.6899964,-84.4887717,262.26,0.01910497434437275,222.87890625,0.07400000095367432,0.0,1
1682374612.59833193,42921011,0,3,166630599,2259,15,0.75,42.6899963,-84.4887718,262.24,0.03026549331843853,172.4053497314453,0.03500000014901161,0.0,1
1682374612.79838300,43121062,0,3,166630799,2259,15,0.75,42.6899963,-84.4887718,262.23,0.03832753747701645,195.1240234375,0.10000000149011612,0.0,1
1682374612.99842787,43321107,0,3,166630999,2259,15,0.75,42.6899963,-84.4887718,262.22,0.0187882948666811,154.79885864257812,0.14600001275539398,0.0,1
1682374613.19832706,43521006,0,3,166631199,2259,15,0.75,42.6899963,-84.4887718,262.22,0.005099019967019558,11.309930801391602,0.1300000101327896,0.0,1
1682374613.39828897,43720968,0,3,166631399,2259,14,0.75,42.6899963,-84.4887718,262.21,0.015652475878596306,296.5650634765625,0.015000000596046448,0.0,1
1682374613.59837103,43921050,0,3,166631599,2259,14,0.75,42.6899963,-84.4887718,262.23,0.02154066041111946,201.80142211914062,0.04000000283122063,0.0,1
1682374613.79848385,44121163,0,3,166631799,2259,14,0.75,42.689996199999996,-84.4887719,262.22,0.053488317877054214,200.80679321289062,0.10500000417232513,0.0,1
1682374614.01855206,44341231,0,3,166631999,2259,15,0.75,42.689996199999996,-84.4887719,262.2,0.04609772190451622,12.528807640075684,0.014000000432133675,0.0,1
1682374614.19827700,44520956,0,3,166632199,2259,14,0.75,42.689996199999996,-84.488772,262.19,0.059033893048763275,181.94149780273438,0.07400000095367432,0.0,1
1682374614.39832687,44721006,0,3,166632399,2259,15,0.75,42.689996199999996,-84.488772,262.18,0.014000000432133675,270.0,0.09100000560283661,0.0,1
1682374614.59844804,44921127,0,3,166632599,2259,15,0.75,42.689996199999996,-84.488772,262.16,0.028071338310837746,175.91436767578125,0.08400000631809235,0.0,1
1682374614.81870294,45141382,0,3,166632799,2259,15,0.75,42.6899963,-84.488772,262.13,0.033837851136922836,161.0295867919922,0.09700000286102295,0.0,1
1682374614.99831390,45320993,0,3,166632999,2259,15,0.75,42.6899963,-84.488772,262.1,0.012041594833135605,131.63352966308594,0.05900000408291817,0.0,1
1682374615.19831991,45520999,0,3,166633199,2259,15,0.75,42.6899963,-84.48877209999999,262.08,0.014560219831764698,195.94540405273438,0.0690000057220459,0.0,1
1682374615.39835691,45721036,0,3,166633399,2259,15,0.75,42.6899963,-84.4887722,262.07,0.037121422588825226,175.36451721191406,0.14300000667572021,0.0,1
1682374615.59843302,45921112,0,3,166633599,2259,15,0.75,42.689996199999996,-84.4887722,262.06,0.027294687926769257,208.44293212890625,0.003000000026077032,0.0,1
1682374615.79834604,46121025,0,3,166633799,2259,15,0.75,42.689996199999996,-84.4887723,262.04,0.034234486520290375,173.2901611328125,0.055000003427267075,0.0,1
1682374615.99827695,46320956,0,3,166633999,2259,15,0.75,42.689996199999996,-84.4887724,262.03000000000003,0.014764823950827122,28.300756454467773,0.07500000298023224,0.0,1
1682374616.19829893,46520978,0,3,166634199,2259,15,0.75,42.689996199999996,-84.4887724,262.03000000000003,0.028442926704883575,100.12466430664062,0.07000000029802322,0.0,1
1682374616.39840698,46721086,0,3,166634399,2259,15,0.75,42.689996199999996,-84.4887724,262.02,0.046389658004045486,172.56858825683594,0.1120000034570694,0.0,1
1682374616.59839606,46921075,0,3,166634599,2259,15,0.75,42.689996199999996,-84.4887724,262.01,0.017000000923871994,118.07247924804688,0.09300000220537186,0.0,1
1682374616.79833102,47121010,0,3,166634799,2259,15,0.75,42.689996199999996,-84.4887725,261.98,0.03544009104371071,163.61045837402344,0.07400000095367432,0.0,1
1682374616.99827886,47320958,0,3,166634999,2259,15,0.75,42.689996199999996,-84.4887725,261.98,0.03101612627506256,178.15237426757812,0.11400000751018524,0.0,1
1682374617.19836688,47521046,0,3,166635199,2259,15,0.75,42.689996099999995,-84.48877259999999,261.97,0.03413209691643715,211.82745361328125,0.12000000476837158,0.0,1
1682374617.39841390,47721093,0,3,166635399,2259,15,0.75,42.689996099999995,-84.4887727,261.94,0.027784889563918114,239.74356079101562,0.09600000083446503,0.0,1
1682374617.59833694,47921016,0,3,166635599,2259,15,0.75,42.689996099999995,-84.48877279999999,261.93,0.01612451672554016,172.87496948242188,0.1120000034570694,0.0,1
1682374617.79828095,48120960,0,3,166635799,2259,15,0.75,42.689996099999995,-84.48877279999999,261.91,0.02692582458257675,111.80139923095703,0.05400000140070915,0.0,1
1682374617.99832487,48321004,0,3,166635999,2259,15,0.75,42.689996099999995,-84.4887729,261.89,0.01486606989055872,227.726318359375,0.0690000057220459,0.0,1
1682374618.19893289,48521612,0,3,166636199,2259,15,0.75,42.689996099999995,-84.488773,261.87,0.028861740604043007,194.0362548828125,0.10700000822544098,0.0,1
1682374618.39896703,48721646,0,3,166636399,2259,15,0.75,42.689996099999995,-84.4887732,261.85,0.03800000250339508,180.0,0.11700000613927841,0.0,1
1682374618.59901595,48921695,0,3,166636599,2259,15,0.75,42.689996099999995,-84.4887732,261.82,0.032893769443035126,160.4633331298828,0.10500000417232513,0.0,1
1682374618.79891300,49121592,0,3,166636799,2259,15,0.75,42.689996,-84.48877329999999,261.79,0.017464250326156616,346.7594909667969,0.00800000037997961,0.0,1
1682374618.99875593,49321435,0,3,166636999,2259,15,0.75,42.689996,-84.4887734,261.77,0.020024985074996948,177.13758850097656,0.05000000074505806,0.0,1
1682374619.19845104,49521130,0,3,166637199,2259,15,0.75,42.689996099999995,-84.4887735,261.76,0.01726267673075199,190.00799560546875,0.0690000057220459,0.0,1
1682374619.39834404,49721023,0,3,166637399,2259,15,0.75,42.689996099999995,-84.4887736,261.74,0.013152946718037128,171.2538299560547,0.08100000023841858,0.0,1
1682374619.59826899,49920948,0,3,166637599,2259,15,0.75,42.689996099999995,-84.4887737,261.71,0.025806976482272148,125.53766632080078,0.12800000607967377,0.0,1
1682374619.79832792,50121007,0,3,166637799,2259,15,0.75,42.689996,-84.4887737,261.68,0.031827662140131,133.7269744873047,0.04500000178813934,0.0,1
1682374620.01844287,50341122,0,3,166637999,2259,15,0.75,42.689996,-84.48877379999999,261.66,0.04368066415190697,195.94540405273438,0.03500000014901161,0.0,1
1682374620.19844985,50521129,0,3,166638199,2259,15,0.75,42.689996099999995,-84.4887739,261.65,0.03301514685153961,271.7357177734375,0.09200000762939453,0.0,1
1682374620.39891791,50721597,0,3,166638399,2259,15,0.75,42.689996099999995,-84.4887741,261.63,0.006403124891221523,218.65982055664062,-0.015000000596046448,0.0,1
1682374620.59873486,50921414,0,3,166638599,2259,15,0.75,42.689996,-84.4887742,261.61,0.02657066099345684,160.20111083984375,0.024000000208616257,0.0,1
1682374620.79876089,51121440,0,3,166638799,2259,15,0.75,42.689996,-84.4887742,261.59000000000003,0.010440307669341564,253.30076599121094,0.013000000268220901,0.0,1
1682374620.99883103,51321510,0,3,166638999,2259,15,0.75,42.689996,-84.4887743,261.57,0.03324154019355774,201.16127014160156,0.10000000149011612,0.0,1
1682374621.19881392,51521493,0,3,166639199,2259,15,0.75,42.689996,-84.4887744,261.54,0.02973213978111744,137.72630310058594,0.08900000154972076,0.0,1
1682374621.39827394,51720953,0,3,166639399,2259,15,0.75,42.6899959,-84.4887744,261.51,0.05787054821848869,161.8781280517578,0.05300000309944153,0.0,1
1682374621.59835100,51921030,0,3,166639599,2259,15,0.75,42.6899958,-84.48877449999999,261.48,0.018027756363153458,236.3099365234375,0.03100000135600567,0.0,1
1682374621.79878998,52121469,0,3,166639799,2259,15,0.75,42.6899958,-84.4887746,261.46,0.024041632190346718,253.07249450683594,0.032999999821186066,0.0,1
1682374621.99883604,52321515,0,3,166639999,2259,15,0.75,42.6899958,-84.4887747,261.43,0.05044799670577049,166.23919677734375,0.13300000131130219,0.0,1
1682374622.19890690,52521586,0,3,166640199,2259,15,0.75,42.6899957,-84.4887747,261.41,0.028635643422603607,167.9052276611328,0.08800000697374344,0.0,1
1682374622.37870693,52701386,0,3,166640399,2259,15,0.75,42.6899957,-84.4887747,261.39,0.03014962747693062,275.7106018066406,0.06700000166893005,0.0,1
1682374622.59877205,52921451,0,3,166640599,2259,15,0.75,42.6899957,-84.4887748,261.36,0.035227831453084946,173.4801788330078,0.15200001001358032,0.0,1
1682374622.79881787,53121497,0,3,166640799,2259,15,0.75,42.689995599999996,-84.4887748,261.34000000000003,0.013416407629847527,206.56504821777344,0.06000000238418579,0.0,1
1682374622.99880791,53321487,0,3,166640999,2259,15,0.75,42.689995499999995,-84.4887748,261.31,0.007810249924659729,39.805572509765625,0.07700000703334808,0.0,1
1682374623.19881201,53521491,0,3,166641199,2259,15,0.75,42.689995499999995,-84.4887748,261.29,0.030413813889026642,170.5376739501953,0.12700000405311584,0.0,1
1682374623.39872694,53721406,0,3,166641399,2259,15,0.75,42.6899954,-84.4887748,261.27,0.017464250326156616,203.62937927246094,0.06800000369548798,0.0,1
1682374623.59933805,53922017,0,3,166641599,2259,15,0.75,42.6899953,-84.4887748,261.24,0.026476405560970306,79.11446380615234,0.07000000029802322,0.0,1
1682374623.77841806,54101097,0,3,166641799,2259,15,0.75,42.6899953,-84.4887748,261.23,0.05333854258060455,186.4588165283203,0.18000000715255737,0.0,1
1682374623.99893689,54321616,0,3,166641999,2259,15,0.75,42.6899952,-84.4887748,261.21,0.03201562166213989,181.7899169921875,0.08100000023841858,0.0,1
1682374624.19875193,54521431,0,3,166642199,2259,15,0.75,42.6899951,-84.4887748,261.19,0.005099019967019558,348.6900634765625,0.06400000303983688,0.0,1
1682374624.39878392,54721463,0,3,166642399,2259,15,0.75,42.689994999999996,-84.4887748,261.17,0.02402082458138466,92.38594055175781,0.0820000022649765,0.0,1
1682374624.59884095,54921520,0,3,166642599,2259,15,0.75,42.689994999999996,-84.4887748,261.14,0.022360682487487793,259.6951599121094,0.055000003427267075,0.0,1
1682374624.79880095,55121480,0,3,166642799,2259,15,0.75,42.689994899999995,-84.4887748,261.11,0.01603122055530548,266.4236755371094,-0.00800000037997961,0.0,1
1682374624.99880791,55321487,0,3,166642999,2259,15,0.75,42.6899948,-84.4887749,261.09000000000003,0.05215362086892128,265.601318359375,0.049000002443790436,0.0,1
1682374625.19872785,55521407,0,3,166643199,2259,15,0.75,42.6899948,-84.48877499999999,261.08,0.019313208758831024,291.2505187988281,0.08300000429153442,0.0,1
1682374625.39883685,55721516,0,3,166643399,2259,15,0.75,42.6899948,-84.48877499999999,261.06,0.02280350960791111,195.255126953125,0.04800000041723251,0.0,1
1682374625.59932399,55922003,0,3,166643599,2259,15,0.75,42.6899947,-84.4887751,261.05,0.02418677508831024,209.74488830566406,0.08900000154972076,0.0,1
1682374625.79894090,56121620,0,3,166643799,2259,15,0.75,42.6899946,-84.4887751,261.03000000000003,0.008062257431447506,119.744873046875,0.01100000087171793,0.0,1
1682374626.01835394,56341033,0,3,166643999,2259,15,0.75,42.6899946,-84.48877499999999,261.01,0.007615773007273674,66.80140686035156,0.0860000029206276,0.0,1
1682374626.19872594,56521405,0,3,166644199,2259,15,0.75,42.6899946,-84.48877499999999,260.99,0.011180341243743896,190.3048553466797,0.05300000309944153,0.0,1
1682374626.39879489,56721474,0,3,166644399,2259,15,0.75,42.6899945,-84.48877499999999,260.97,0.008944272063672543,243.43496704101562,0.052000001072883606,0.0,1
1682374626.59878993,56921469,0,3,166644599,2259,15,0.75,42.6899945,-84.48877499999999,260.96,0.02927456423640251,187.85333251953125,0.11100000888109207,0.0,1
1682374626.79875994,57121439,0,3,166644799,2259,15,0.75,42.6899945,-84.48877499999999,260.96,0.01600000075995922,0.0,0.12800000607967377,0.0,1
1682374626.99868989,57321369,0,3,166644999,2259,15,0.75,42.6899945,-84.48877499999999,260.94,0.014764823950827122,331.6992492675781,-0.026000000536441803,0.0,1
1682374627.19876599,57521445,0,3,166645199,2259,15,0.75,42.6899945,-84.48877499999999,260.93,0.04876474291086197,195.4612274169922,0.1510000079870224,0.0,1
1682374627.39880204,57721481,0,3,166645399,2259,15,0.75,42.689994399999996,-84.48877499999999,260.9,0.03956008329987526,163.85565185546875,0.11900000274181366,0.0,1
1682374627.59883595,57921515,0,3,166645599,2259,15,0.75,42.689994299999995,-84.48877499999999,260.88,0.031906113028526306,237.8042755126953,0.06400000303983688,0.0,1
1682374627.77830195,58100981,0,3,166645799,2259,15,0.75,42.689994299999995,-84.48877499999999,260.86,0.015132746659219265,172.4053497314453,0.06100000441074371,0.0,1
1682374627.99875307,58321432,0,3,166645999,2259,15,0.75,42.689994299999995,-84.48877499999999,260.86,0.012369317002594471,194.0362548828125,0.04400000348687172,0.0,1
1682374628.19879007,58521469,0,3,166646199,2259,15,0.75,42.6899942,-84.48877499999999,260.84000000000003,0.02500000037252903,0.0,-0.029000001028180122,0.0,1
1682374628.39878297,58721462,0,3,166646399,2259,15,0.75,42.6899942,-84.48877499999999,260.83,0.01702938787639141,176.63352966308594,0.04100000113248825,0.0,1
1682374628.59876704,58921446,0,3,166646599,2259,15,0.75,42.6899942,-84.48877499999999,260.81,0.021189620718359947,70.70995330810547,0.09300000220537186,0.0,1
1682374628.79918504,59121864,0,3,166646799,2259,15,0.75,42.6899942,-84.48877499999999,260.8,0.039849720895290375,197.52557373046875,0.10600000619888306,0.0,1
1682374628.99842596,59321105,0,3,166646999,2259,15,0.75,42.6899942,-84.48877499999999,260.77,0.014142136089503765,225.0,0.04100000113248825,0.0,1
1682374629.19840288,59521082,0,3,166647199,2259,15,0.75,42.6899941,-84.48877499999999,260.75,0.03478505462408066,161.56504821777344,0.05100000277161598,0.0,1
1682374629.39831901,59720998,0,3,166647399,2259,15,0.75,42.6899941,-84.48877499999999,260.74,0.020396079868078232,191.3099365234375,0.0560000017285347,0.0,1
1682374629.59826303,59920942,0,3,166647599,2259,15,0.75,42.6899941,-84.48877499999999,260.72,0.008485281839966774,135.0,0.06300000101327896,0.0,1
1682374629.79836488,60121044,0,3,166647799,2259,15,0.75,42.689994,-84.48877499999999,260.71,0.05166236683726311,194.57421875,0.05700000375509262,0.0,1
1682374629.99842405,60321103,0,3,166647999,2259,15,0.75,42.689994,-84.4887751,260.69,0.04244997352361679,226.90914916992188,0.06200000271201134,0.0,1
1682374630.19833803,60521017,0,3,166648199,2259,15,0.75,42.6899939,-84.4887751,260.68,0.00806225836277008,172.87496948242188,0.0860000029206276,0.0,1
1682374630.39827204,60720951,0,3,166648399,2259,15,0.75,42.6899939,-84.4887751,260.66,0.044944413006305695,200.85447692871094,0.08700000494718552,0.0,1
1682374630.57854891,60901228,0,3,166648599,2259,15,0.75,42.689993799999996,-84.48877499999999,260.64,0.03544009104371071,73.6104507446289,0.0560000017285347,0.0,1
1682374630.79839897,61121078,0,3,166648799,2259,15,0.75,42.689993799999996,-84.48877499999999,260.63,0.02451530285179615,191.76829528808594,0.08300000429153442,0.0,1
1682374630.99846196,61321141,0,3,166648999,2259,15,0.75,42.689993799999996,-84.48877499999999,260.62,0.020024985074996948,272.8624267578125,0.052000001072883606,0.0,1
1682374631.19831800,61520997,0,3,166649199,2259,15,0.75,42.689993799999996,-84.48877499999999,260.59000000000003,0.012369317002594471,165.9637451171875,0.08100000023841858,0.0,1
1682374631.39826584,61720945,0,3,166649399,2259,15,0.75,42.689993699999995,-84.4887749,260.56,0.01984943449497223,139.08560180664062,0.07000000029802322,0.0,1
1682374631.59834385,61921023,0,3,166649599,2259,15,0.75,42.689993699999995,-84.4887749,260.55,0.04049691557884216,212.90524291992188,0.0650000050663948,0.0,1
1682374631.79842901,62121108,0,3,166649799,2259,15,0.75,42.6899936,-84.4887749,260.53000000000003,0.032557643949985504,169.38034057617188,0.0860000029206276,0.0,1
1682374631.99833584,62321015,0,3,166649999,2259,15,0.75,42.6899936,-84.4887748,260.53000000000003,0.0434165894985199,118.92642974853516,0.11000000685453415,0.0,1
1682374632.19827294,62520952,0,3,166650199,2259,15,0.75,42.6899935,-84.4887747,260.52,0.04876474291086197,151.85838317871094,0.09600000083446503,0.0,1
1682374632.39831305,62720992,0,3,166650399,2259,15,0.75,42.6899934,-84.4887746,260.49,0.02523886039853096,146.30992126464844,0.013000000268220901,0.0,1
1682374632.59877896,62921458,0,3,166650599,2259,15,0.75,42.6899934,-84.4887746,260.48,0.01702938787639141,183.36647033691406,0.15900000929832458,0.0,1
1682374632.79881096,63121490,0,3,166650799,2259,15,0.75,42.6899934,-84.48877449999999,260.46,0.006324555724859238,18.434947967529297,-0.003000000026077032,0.0,1
1682374632.99831605,63320995,0,3,166650999,2259,15,0.75,42.6899933,-84.48877449999999,260.46,0.035128336399793625,184.89910888671875,0.03700000047683716,0.0,1
1682374633.19876003,63521439,0,3,166651199,2259,15,0.75,42.689993199999996,-84.48877449999999,260.45,0.00824621133506298,165.9637451171875,0.08400000631809235,0.0,1
1682374633.39876485,63721444,0,3,166651399,2259,15,0.75,42.689993199999996,-84.4887744,260.44,0.04400000348687172,180.0,0.049000002443790436,0.0,1
1682374633.59881091,63921490,0,3,166651599,2259,15,0.75,42.689993099999995,-84.4887744,260.44,0.03649657592177391,189.4623260498047,0.05400000140070915,0.0,1
1682374633.79878497,64121464,0,3,166651799,2259,15,0.75,42.689993,-84.4887744,260.44,0.01615549437701702,248.1986083984375,0.021000001579523087,0.0,1
1682374633.99882388,64321503,0,3,166651999,2259,15,0.75,42.6899929,-84.4887743,260.43,0.014317821711301804,12.094756126403809,0.015000000596046448,0.0,1
1682374634.21864295,64541322,0,3,166652199,2259,15,0.75,42.6899929,-84.4887743,260.42,0.038052596151828766,266.9872131347656,0.0650000050663948,0.0,1
1682374634.39883399,64721513,0,3,166652399,2259,15,0.75,42.6899929,-84.4887743,260.42,0.00824621133506298,194.0362548828125,0.06100000441074371,0.0,1
1682374634.59884191,64921521,0,3,166652599,2259,15,0.75,42.6899929,-84.4887743,260.43,0.04648656025528908,161.17527770996094,0.10500000417232513,0.0,1
1682374634.79891205,65121591,0,3,166652799,2259,15,0.75,42.6899928,-84.4887742,260.43,0.02121320553123951,171.86988830566406,0.10000000149011612,0.0,1
1682374634.99873090,65321410,0,3,166652999,2259,15,0.75,42.6899927,-84.4887742,260.41,0.021095024421811104,211.4295654296875,-0.009000000543892384,0.0,1
1682374635.19877291,65521452,0,3,166653199,2259,15,0.75,42.6899927,-84.4887742,260.42,0.05108816176652908,220.23635864257812,0.10100000351667404,0.0,1
1682374635.39883590,65721515,0,3,166653399,2259,15,0.75,42.6899927,-84.4887742,260.42,0.009000000543892384,270.0,0.055000003427267075,0.0,1
1682374635.59880996,65921489,0,3,166653599,2259,15,0.75,42.6899927,-84.4887742,260.41,0.01486606989055872,227.726318359375,0.07600000500679016,0.0,1
1682374635.79922199,66121901,0,3,166653799,2259,15,0.75,42.6899926,-84.4887741,260.42,0.023345237597823143,189.86581420898438,0.020000001415610313,0.0,1
1682374635.99872804,66321407,0,3,166653999,2259,15,0.75,42.6899926,-84.4887741,260.42,0.013601471669971943,233.97262573242188,-0.0020000000949949026,0.0,1
1682374636.19881105,66521490,0,3,166654199,2259,15,0.75,42.6899926,-84.4887741,260.43,0.020124612376093864,333.4349365234375,-0.007000000216066837,0.0,1
1682374636.39888692,66721566,0,3,166654399,2259,15,0.75,42.6899926,-84.4887741,260.43,0.0022360680159181356,243.43496704101562,0.09300000220537186,0.0,1
1682374636.59891391,66921593,0,3,166654599,2259,15,0.75,42.6899926,-84.48877399999999,260.42,0.004999999888241291,306.8699035644531,-0.007000000216066837,0.0,1
1682374636.79826093,67120940,0,3,166654799,2259,15,0.75,42.689992499999995,-84.48877399999999,260.42,0.044598210602998734,199.65383911132812,0.10200000554323196,0.0,1
1682374636.99837494,67321054,0,3,166654999,2259,15,0.75,42.689992499999995,-84.48877399999999,260.42,0.0382099486887455,186.00901794433594,0.08800000697374344,0.0,1
1682374637.19847393,67521153,0,3,166655199,2259,15,0.75,42.6899924,-84.4887739,260.43,0.048373546451330185,187.12503051757812,0.05900000408291817,0.0,1
1682374637.39833689,67721016,0,3,166655399,2259,15,0.75,42.6899923,-84.4887739,260.43,0.022203605622053146,187.7651824951172,0.07800000160932541,0.0,1
1682374637.59826899,67920948,0,3,166655599,2259,14,0.79,42.6899923,-84.4887739,260.43,0.030463093891739845,336.8014221191406,0.12200000882148743,0.0,1
1682374637.79833293,68121012,0,3,166655799,2259,15,0.79,42.6899924,-84.4887739,260.44,0.016124514862895012,119.744873046875,0.09400000423192978,0.0,1
1682374638.01846290,68341142,0,3,166655999,2259,15,0.79,42.6899923,-84.48877379999999,260.42,0.033837851136922836,161.0295867919922,0.04800000041723251,0.0,1
1682374638.19844890,68521128,0,3,166656199,2259,15,0.79,42.6899922,-84.48877379999999,260.43,0.05830952152609825,185.90615844726562,0.12400000542402267,0.0,1
1682374638.39897704,68721656,0,3,166656399,2259,15,0.79,42.6899922,-84.48877379999999,260.42,0.008944272063672543,206.56504821777344,0.07300000637769699,0.0,1
1682374638.59873605,68921415,0,3,166656599,2259,15,0.79,42.6899922,-84.48877379999999,260.41,0.019313208758831024,291.2505187988281,0.07300000637769699,0.0,1
1682374638.79876089,69121440,0,3,166656799,2259,15,0.79,42.6899923,-84.48877379999999,260.41,0.027202941477298737,252.89727783203125,0.04400000348687172,0.0,1
1682374638.99882102,69321500,0,3,166656999,2259,15,0.79,42.6899923,-84.48877379999999,260.4,0.03420526534318924,105.25511169433594,0.0820000022649765,0.0,1
1682374639.19832897,69521008,0,3,166657199,2259,15,0.79,42.6899923,-84.4887737,260.38,0.024596750736236572,206.56504821777344,0.09600000083446503,0.0,1
1682374639.39877200,69721451,0,3,166657399,2259,15,0.79,42.6899923,-84.4887737,260.39,0.02408318966627121,175.23634338378906,0.07300000637769699,0.0,1
1682374639.59863496,69921314,0,3,166657599,2259,15,0.75,42.6899923,-84.4887737,260.39,0.034828152507543564,309.1736755371094,0.07800000160932541,0.0,1
1682374639.79879403,70121473,0,3,166657799,2259,15,0.75,42.6899924,-84.4887737,260.37,0.021260293200612068,48.8140754699707,0.006000000052154064,0.0,1
1682374639.99881101,70321490,0,3,166657999,2259,15,0.75,42.6899924,-84.4887737,260.38,0.03397057577967644,222.6140594482422,0.11100000888109207,0.0,1
1682374640.19885802,70521537,0,3,166658199,2259,15,0.75,42.6899924,-84.4887737,260.38,0.02140093594789505,127.40534210205078,0.0560000017285347,0.0,1
1682374640.39868093,70721360,0,3,166658399,2259,15,0.75,42.6899924,-84.4887737,260.37,0.037202153354883194,323.74615478515625,0.0020000000949949026,0.0,1
1682374640.59873796,70921417,0,3,166658599,2259,15,0.75,42.689992499999995,-84.4887737,260.37,0.03538361191749573,132.70938110351562,0.08100000023841858,0.0,1
1682374640.79881406,71121493,0,3,166658799,2259,15,0.75,42.689992499999995,-84.4887737,260.37,0.04134005308151245,212.1522979736328,0.03800000250339508,0.0,1
1682374640.99876499,71321444,0,3,166658999,2259,15,0.75,42.689992499999995,-84.4887737,260.37,0.044204071164131165,127.64762115478516,0.07600000500679016,0.0,1
1682374641.19879699,71521476,0,3,166659199,2259,15,0.75,42.689992499999995,-84.4887736,260.37,0.0072111026383936405,123.6900634765625,0.032999999821186066,0.0,1
1682374641.39875603,71721435,0,3,166659399,2259,15,0.75,42.689992499999995,-84.4887735,260.37,0.007000000216066837,270.0,0.0820000022649765,0.0,1
1682374641.59878492,71921464,0,3,166659599,2259,15,0.75,42.689992499999995,-84.4887735,260.37,0.02416609413921833,114.4439468383789,0.0690000057220459,0.0,1
1682374641.79882407,72121503,0,3,166659799,2259,15,0.75,42.689992499999995,-84.4887734,260.38,0.028792360797524452,159.67684936523438,0.05000000074505806,0.0,1
1682374641.99891090,72321590,0,3,166659999,2259,15,0.75,42.689992499999995,-84.48877329999999,260.39,0.02846050076186657,198.43495178222656,0.09200000762939453,0.0,1
1682374642.19873405,72521413,0,3,166660199,2259,15,0.75,42.6899924,-84.48877329999999,260.39,0.015652475878596306,63.4349479675293,0.1420000046491623,0.0,1
1682374642.39835787,72721037,0,3,166660399,2259,15,0.75,42.689992499999995,-84.4887732,260.38,0.03420526161789894,344.744873046875,0.09600000083446503,0.0,1
1682374642.59846687,72921146,0,3,166660599,2259,15,0.75,42.6899926,-84.4887731,260.38,0.04837355017662048,29.7448787689209,0.039000000804662704,0.0,1
1682374642.79834294,73121022,0,3,166660799,2259,15,0.75,42.6899926,-84.488773,260.38,0.04254409670829773,203.55227661132812,0.006000000052154064,0.0,1
1682374642.99828100,73320960,0,3,166660999,2259,14,0.75,42.6899926,-84.488773,260.4,0.0020000000949949026,90.0,0.07400000095367432,0.0,1
1682374643.19829702,73520976,0,3,166661199,2259,14,0.75,42.6899926,-84.488773,260.41,0.021587034687399864,193.3925018310547,0.09400000423192978,0.0,1
1682374643.39840198,73721081,0,3,166661399,2259,14,0.75,42.6899926,-84.488773,260.4,0.04308132082223892,201.80142211914062,0.08500000089406967,0.0,1
1682374643.59839392,73921073,0,3,166661599,2259,14,0.77,42.6899926,-84.4887729,260.4,0.022135945037007332,251.5650634765625,0.07400000095367432,0.0,1
1682374643.79831696,74120996,0,3,166661799,2259,14,0.77,42.6899926,-84.4887729,260.39,0.028844410553574562,33.690067291259766,0.012000000104308128,0.0,1
1682374644.01856589,74341245,0,3,166661999,2259,14,0.77,42.6899926,-84.48877279999999,260.39,0.003162277862429619,288.4349365234375,-0.005000000353902578,0.0,1
1682374644.19874692,74521426,0,3,166662199,2259,14,0.77,42.6899926,-84.48877279999999,260.41,0.017804494127631187,218.15724182128906,0.055000003427267075,0.0,1
1682374644.39881802,74721497,0,3,166662399,2259,14,0.77,42.6899926,-84.4887727,260.43,0.02325940877199173,25.463342666625977,0.03700000047683716,0.0,1
1682374644.59880185,74921481,0,3,166662599,2259,14,0.77,42.6899927,-84.4887727,260.45,0.01720465160906315,234.46234130859375,0.09700000286102295,0.0,1
1682374644.79826593,75120945,0,3,166662799,2259,14,0.77,42.6899927,-84.48877259999999,260.44,0.004999999888241291,126.8698959350586,0.030000001192092896,0.0,1
1682374644.99834085,75321020,0,3,166662999,2259,14,0.77,42.6899927,-84.48877259999999,260.44,0.01603122055530548,176.4236602783203,0.032999999821186066,0.0,1
1682374645.19840789,75521087,0,3,166663199,2259,14,0.77,42.6899927,-84.48877259999999,260.46,0.02475883811712265,223.36341857910156,0.0950000062584877,0.0,1
1682374645.39847207,75721151,0,3,166663399,2259,14,0.77,42.6899927,-84.48877259999999,260.47,0.02801785245537758,272.04541015625,0.003000000026077032,0.0,1
1682374645.59831190,75920991,0,3,166663599,2259,15,0.75,42.6899928,-84.4887725,260.48,0.01910497434437275,173.99098205566406,0.07200000435113907,0.0,1
1682374645.79825997,76120939,0,3,166663799,2259,15,0.75,42.6899928,-84.4887724,260.49,0.014212671667337418,309.2893981933594,0.03800000250339508,0.0,1
1682374645.99837589,76321055,0,3,166663999,2259,15,0.75,42.6899928,-84.4887723,260.51,0.035805027931928635,144.09027099609375,0.08400000631809235,0.0,1
1682374646.19848800,76521167,0,3,166664199,2259,15,0.75,42.6899929,-84.4887722,260.53000000000003,0.015000000596046448,143.13009643554688,0.07800000160932541,0.0,1
1682374646.39834595,76721025,0,3,166664399,2259,15,0.75,42.6899929,-84.48877209999999,260.54,0.019924860447645187,287.52557373046875,0.0560000017285347,0.0,1
1682374646.59827089,76920950,0,3,166664599,2259,15,0.75,42.689993,-84.488772,260.56,0.01603122055530548,176.4236602783203,0.10900000482797623,0.0,1
1682374646.79833984,77121019,0,3,166664799,2259,15,0.75,42.689993,-84.4887719,260.57,0.022472206503152847,110.85444641113281,0.06200000271201134,0.0,1
1682374646.99841905,77321098,0,3,166664999,2259,15,0.75,42.689993099999995,-84.4887717,260.58,0.026248810812830925,107.74466705322266,0.055000003427267075,0.0,1
1682374647.19845486,77521134,0,3,166665199,2259,15,0.75,42.689993099999995,-84.48877159999999,260.62,0.036124784499406815,138.366455078125,0.04500000178813934,0.0,1
1682374647.39833093,77721010,0,3,166665399,2259,15,0.75,42.689993099999995,-84.4887715,260.64,0.005000000353902578,180.0,0.07200000435113907,0.0,1
1682374647.59825706,77920936,0,3,166665599,2259,15,0.75,42.689993199999996,-84.48877139999999,260.65,0.02420743741095066,128.29014587402344,0.07500000298023224,0.0,1
1682374647.79834485,78121024,0,3,166665799,2259,15,0.75,42.6899933,-84.4887713,260.68,0.013341664336621761,192.99462890625,0.11500000208616257,0.0,1
1682374647.99839807,78321077,0,3,166665999,2259,15,0.75,42.6899933,-84.4887712,260.7,0.008944272063672543,63.4349479675293,0.036000002175569534,0.0,1
1682374648.19833899,78521018,0,3,166666199,2259,15,0.75,42.6899934,-84.4887711,260.71,0.018027756363153458,199.44004821777344,0.1290000081062317,0.0,1
1682374648.39827704,78720956,0,3,166666399,2259,15,0.75,42.6899935,-84.488771,260.74,0.008062257431447506,119.744873046875,0.07000000029802322,0.0,1
1682374648.59829903,78920978,0,3,166666599,2259,15,0.75,42.6899935,-84.48877089999999,260.75,0.02500000037252903,143.13009643554688,0.04800000041723251,0.0,1
1682374648.79877806,79121457,0,3,166666799,2259,15,0.75,42.6899935,-84.4887708,260.77,0.012000000104308128,180.0,0.0560000017285347,0.0,1
1682374649.01831794,79340997,0,3,166666999,2259,15,0.75,42.6899936,-84.48877069999999,260.78000000000003,0.019999999552965164,126.8698959350586,0.11800000816583633,0.0,1
1682374649.19888902,79521568,0,3,166667199,2259,15,0.75,42.6899936,-84.4887706,260.79,0.032756682485342026,167.66090393066406,0.10000000149011612,0.0,1
1682374649.39873290,79721412,0,3,166667399,2259,15,0.75,42.6899936,-84.4887705,260.8,0.028861740604043007,165.9637451171875,0.0820000022649765,0.0,1
1682374649.59833288,79921012,0,3,166667599,2259,15,0.75,42.689993699999995,-84.48877039999999,260.81,0.009899495169520378,225.0,0.0560000017285347,0.0,1
1682374649.79839206,80121071,0,3,166667799,2259,15,0.75,42.689993799999996,-84.4887703,260.83,0.01702938787639141,220.23635864257812,0.032999999821186066,0.0,1
1682374650.01826191,80340941,0,3,166667999,2259,15,0.75,42.689993799999996,-84.48877019999999,260.85,0.025495100766420364,115.55996704101562,0.13500000536441803,0.0,1
1682374650.19828296,80520962,0,3,166668199,2259,15,0.75,42.6899939,-84.4887701,260.85,0.009486833587288857,251.5650634765625,0.06599999964237213,0.0,1
1682374650.39832997,80721009,0,3,166668399,2259,15,0.75,42.689994,-84.48877,260.86,0.012041594833135605,138.366455078125,0.07000000029802322,0.0,1
1682374650.59841704,80921096,0,3,166668599,2259,15,0.75,42.689994,-84.48877,260.87,0.04242641106247902,188.13011169433594,0.0990000069141388,0.0,1
1682374650.79843688,81121116,0,3,166668799,2259,15,0.75,42.6899941,-84.4887699,260.89,0.025317978113889694,189.0902862548828,0.07400000095367432,0.0,1
1682374650.97846985,81301149,0,3,166668999,2259,15,0.75,42.6899941,-84.4887698,260.89,0.017117243260145187,173.2901611328125,0.05100000277161598,0.0,1
1682374651.19827795,81520957,0,3,166669199,2259,15,0.75,42.6899942,-84.48876969999999,260.9,0.011704700998961926,109.98310089111328,0.07400000095367432,0.0,1
1682374651.39860988,81721289,0,3,166669399,2259,15,0.75,42.689994299999995,-84.4887696,260.91,0.03420526534318924,142.12501525878906,0.1340000033378601,0.0,1
1682374651.59877896,81921458,0,3,166669599,2259,15,0.75,42.689994299999995,-84.48876949999999,260.92,0.016278820112347603,137.4895477294922,0.03400000184774399,0.0,1
1682374651.79878306,82121462,0,3,166669799,2259,15,0.75,42.689994399999996,-84.4887694,260.94,0.01835756003856659,119.35774230957031,0.0020000000949949026,0.0,1
1682374651.99877000,82321449,0,3,166669999,2259,15,0.75,42.6899945,-84.4887693,260.96,0.0036055513191968203,56.309932708740234,0.005000000353902578,0.0,1
1682374652.19868493,82521364,0,3,166670199,2259,15,0.75,42.6899945,-84.4887692,260.98,0.003162277862429619,251.5650634765625,0.09600000083446503,0.0,1
1682374652.37850189,82701181,0,3,166670399,2259,15,0.75,42.6899946,-84.4887691,260.99,0.021023796871304512,295.34619140625,0.06400000303983688,0.0,1
1682374652.59881997,82921499,0,3,166670599,2259,15,0.75,42.6899947,-84.4887691,261.0,0.011661904864013195,149.03623962402344,0.04000000283122063,0.0,1
1682374652.79886007,83121539,0,3,166670799,2259,15,0.75,42.6899948,-84.48876899999999,261.02,0.022671569138765335,48.57632827758789,0.03200000151991844,0.0,1
1682374652.99869204,83321371,0,3,166670999,2259,15,0.75,42.689994899999995,-84.4887688,261.03000000000003,0.0152970589697361,191.3099365234375,0.07900000363588333,0.0,1
1682374653.19875598,83521435,0,3,166671199,2259,15,0.75,42.689994899999995,-84.4887688,261.04,0.009055386297404766,186.34019470214844,0.11100000888109207,0.0,1
1682374653.39882088,83721500,0,3,166671399,2259,15,0.75,42.689994999999996,-84.4887687,261.05,0.0072111026383936405,146.30992126464844,0.09000000357627869,0.0,1
1682374653.59879684,83921476,0,3,166671599,2259,15,0.75,42.689994999999996,-84.4887686,261.05,0.007615773472934961,23.198589324951172,0.03200000151991844,0.0,1
1682374653.79879689,84121476,0,3,166671799,2259,15,0.75,42.6899951,-84.48876849999999,261.07,0.03036445379257202,197.24147033691406,0.0860000029206276,0.0,1
1682374653.99870086,84321380,0,3,166671999,2259,15,0.75,42.6899952,-84.48876849999999,261.09000000000003,0.007280109915882349,285.9454040527344,0.030000001192092896,0.0,1
1682374654.21839499,84541074,0,3,166672199,2259,15,0.75,42.6899952,-84.4887684,261.11,0.016970563679933548,45.0,0.10300000756978989,0.0,1
1682374654.39889288,84721572,0,3,166672399,2259,15,0.75,42.6899953,-84.48876829999999,261.12,0.02121320553123951,351.8699035644531,0.04200000315904617,0.0,1
1682374654.59889984,84921579,0,3,166672599,2259,15,0.75,42.6899954,-84.4887682,261.14,0.018601076677441597,233.7461700439453,0.07100000232458115,0.0,1
1682374654.79872894,85121408,0,3,166672799,2259,15,0.75,42.6899954,-84.4887682,261.15,0.00854400359094143,159.44393920898438,0.039000000804662704,0.0,1
1682374654.99875593,85321435,0,3,166672999,2259,15,0.75,42.6899954,-84.4887681,261.16,0.06802941113710403,204.3045654296875,0.10700000822544098,0.0,1
1682374655.19896293,85521642,0,3,166673199,2259,15,0.75,42.6899954,-84.4887681,261.19,0.033600594848394394,143.47113037109375,0.12700000405311584,0.0,1
1682374655.39883089,85721510,0,3,166673399,2259,15,0.75,42.6899954,-84.488768,261.19,0.016763055697083473,197.35403442382812,0.09200000762939453,0.0,1
1682374655.59879589,85921475,0,3,166673599,2259,15,0.75,42.6899954,-84.4887679,261.2,0.0070710680447518826,225.0,0.06700000166893005,0.0,1
1682374655.79869699,86121376,0,3,166673799,2259,15,0.75,42.6899954,-84.4887679,261.21,0.01720465160906315,144.46231079101562,0.14600001275539398,0.0,1
1682374655.99883795,86321517,0,3,166673999,2259,15,0.75,42.689995499999995,-84.48876779999999,261.22,0.02927456423640251,172.14666748046875,0.11100000888109207,0.0,1
1682374656.19882107,86521500,0,3,166674199,2259,15,0.75,42.689995499999995,-84.4887677,261.24,0.017000000923871994,151.927490234375,0.02500000037252903,0.0,1
1682374656.37864089,86701320,0,3,166674399,2259,15,0.75,42.689995499999995,-84.4887676,261.28000000000003,0.00806225836277008,187.12503051757812,0.09000000357627869,0.0,1
1682374656.59874701,86921426,0,3,166674599,2259,15,0.75,42.689995499999995,-84.4887676,261.3,0.032557643949985504,169.38034057617188,0.13300000131130219,0.0,1
1682374656.79876900,87121448,0,3,166674799,2259,15,0.75,42.6899954,-84.4887675,261.31,0.02617250569164753,133.4518280029297,0.11900000274181366,0.0,1
1682374656.99882293,87321502,0,3,166674999,2259,15,0.75,42.689995499999995,-84.4887674,261.34000000000003,0.015033296309411526,93.81407165527344,0.06100000441074371,0.0,1
1682374657.19881487,87521494,0,3,166675199,2259,15,0.75,42.689995499999995,-84.48876729999999,261.37,0.018601076677441597,143.74615478515625,0.14400000870227814,0.0,1
1682374657.39880395,87721483,0,3,166675399,2259,15,0.75,42.689995499999995,-84.4887672,261.38,0.04295346513390541,192.0947723388672,0.14400000870227814,0.0,1
1682374657.59869003,87921369,0,3,166675599,2259,15,0.75,42.689995499999995,-84.48876709999999,261.4,0.00800000037997961,0.0,0.0010000000474974513,0.0,1
1682374657.77830791,88100987,0,3,166675799,2259,15,0.75,42.689995599999996,-84.48876709999999,261.43,0.02080865204334259,144.78240966796875,0.13199999928474426,0.0,1
1682374657.99883604,88321515,0,3,166675999,2259,15,0.75,42.689995599999996,-84.488767,261.45,0.0022360680159181356,296.5650634765625,0.032999999821186066,0.0,1
1682374658.19891405,88521593,0,3,166676199,2259,15,0.75,42.6899957,-84.488767,261.47,0.018867963925004005,147.99461364746094,0.0990000069141388,0.0,1
1682374658.39873195,88721411,0,3,166676399,2259,15,0.75,42.6899957,-84.4887669,261.48,0.009999999776482582,53.13010025024414,0.021000001579523087,0.0,1
1682374658.59931993,88921999,0,3,166676599,2259,15,0.75,42.6899957,-84.4887668,261.51,0.04704253375530243,177.56333923339844,0.07800000160932541,0.0,1
1682374658.79845786,89121137,0,3,166676799,2259,15,0.75,42.6899957,-84.4887667,261.55,0.019026298075914383,183.01280212402344,0.10300000756978989,0.0,1
1682374658.99833107,89321010,0,3,166676999,2259,15,0.75,42.6899958,-84.4887667,261.57,0.03201562166213989,308.6598205566406,0.0,0.0,1
1682374659.19826508,89520944,0,3,166677199,2259,15,0.75,42.6899958,-84.4887667,261.6,0.012165524996817112,189.4623260498047,0.04100000113248825,0.0,1
1682374659.39834189,89721021,0,3,166677399,2259,15,0.75,42.6899958,-84.4887667,261.63,0.02800000086426735,270.0,0.021000001579523087,0.0,1
1682374659.59836197,89921041,0,3,166677599,2259,15,0.75,42.6899958,-84.4887667,261.66,0.021587034687399864,193.3925018310547,0.0950000062584877,0.0,1
1682374659.79845905,90121138,0,3,166677799,2259,15,0.75,42.6899958,-84.4887667,261.68,0.012083047069609165,245.55606079101562,0.036000002175569534,0.0,1
1682374659.99833584,90321015,0,3,166677999,2259,15,0.75,42.6899958,-84.48876659999999,261.72,0.016401220113039017,127.5685806274414,0.06100000441074371,0.0,1
1682374660.19873500,90521414,0,3,166678199,2259,15,0.75,42.6899958,-84.48876659999999,261.73,0.018439089879393578,139.39869689941406,0.03400000184774399,0.0,1
1682374660.39836597,90721045,0,3,166678399,2259,15,0.75,42.6899958,-84.4887665,261.76,0.011401754803955555,142.12501525878906,0.05900000408291817,0.0,1
1682374660.59881091,90921490,0,3,166678599,2259,15,0.75,42.6899958,-84.4887665,261.78000000000003,0.03544009104371071,196.38954162597656,0.055000003427267075,0.0,1
1682374660.79878306,91121462,0,3,166678799,2259,15,0.75,42.6899958,-84.4887664,261.81,0.011401754803955555,74.74488067626953,0.05300000309944153,0.0,1
1682374660.99877405,91321453,0,3,166678999,2259,15,0.75,42.6899958,-84.4887664,261.83,0.011313709430396557,45.0,0.014000000432133675,0.0,1
1682374661.19867706,91521356,0,3,166679199,2259,15,0.75,42.6899958,-84.4887663,261.87,0.021840332075953484,195.94540405273438,0.023000001907348633,0.0,1
1682374661.39877295,91721452,0,3,166679399,2259,15,0.75,42.6899958,-84.4887663,261.89,0.03640054911375046,105.94538879394531,0.08700000494718552,0.0,1
1682374661.59880495,91921484,0,3,166679599,2259,15,0.75,42.6899958,-84.4887662,261.92,0.02500000037252903,196.2602081298828,0.049000002443790436,0.0,1
1682374661.77867484,92101354,0,3,166679799,2259,15,0.75,42.6899957,-84.4887662,261.92,0.0688186064362526,144.46231079101562,0.10600000619888306,0.0,1
1682374662.01857400,92341253,0,3,166679999,2259,15,0.75,42.6899957,-84.48876609999999,261.94,0.019235385581851006,152.10272216796875,0.039000000804662704,0.0,1
1682374662.19873190,92521411,0,3,166680199,2259,15,0.75,42.6899957,-84.488766,261.97,0.03471311181783676,48.5035285949707,0.07400000095367432,0.0,1
1682374662.39878488,92721464,0,3,166680399,2259,15,0.75,42.6899957,-84.48876589999999,261.99,0.0430116280913353,197.59242248535156,0.08500000089406967,0.0,1
1682374662.59877205,92921451,0,3,166680599,2259,15,0.75,42.689995599999996,-84.4887658,262.02,0.06324555724859238,124.69515228271484,0.06300000101327896,0.0,1
1682374662.79876685,93121446,0,3,166680799,2259,15,0.75,42.689995599999996,-84.4887657,262.06,0.021095024421811104,328.5704345703125,0.00800000037997961,0.0,1
1682374662.99863386,93321313,0,3,166680999,2259,15,0.75,42.689995499999995,-84.4887657,262.1,0.007000000216066837,180.0,0.04800000041723251,0.0,1
1682374663.17882085,93501500,0,3,166681199,2259,15,0.75,42.689995499999995,-84.4887656,262.17,0.00824621133506298,104.0362319946289,0.03700000047683716,0.0,1
1682374663.39878798,93721467,0,3,166681399,2259,15,0.75,42.689995499999995,-84.4887655,262.19,0.026683328673243523,347.00537109375,0.013000000268220901,0.0,1
1682374663.59886384,93921543,0,3,166681599,2259,15,0.75,42.6899954,-84.4887655,262.22,0.055036354809999466,182.0825653076172,0.0430000014603138,0.0,1
1682374663.79869795,94121377,0,3,166681799,2259,15,0.75,42.6899952,-84.4887655,262.28000000000003,0.021095024421811104,185.4403533935547,0.009000000543892384,0.0,1
1682374663.99872994,94321409,0,3,166681999,2259,15,0.75,42.6899951,-84.4887655,262.32,0.0058309524320065975,210.96376037597656,0.058000002056360245,0.0,1
1682374664.21863103,94541310,0,3,166682199,2259,15,0.75,42.689994999999996,-84.4887655,262.36,0.03710795193910599,194.0362548828125,0.06599999964237213,0.0,1
1682374664.39832902,94721008,0,3,166682399,2259,15,0.75,42.689994899999995,-84.4887655,262.39,0.013000000268220901,157.380126953125,0.06200000271201134,0.0,1
1682374664.57833099,94901010,0,3,166682599,2259,15,0.75,42.689994899999995,-84.4887655,262.44,0.03178049996495247,192.724365234375,0.0650000050663948,0.0,1
1682374664.79833293,95121012,0,3,166682799,2259,15,0.75,42.6899948,-84.4887655,262.48,0.027018513530492783,141.00900268554688,0.009000000543892384,0.0,1
1682374664.99834085,95321020,0,3,166682999,2259,15,0.75,42.6899947,-84.48876539999999,262.51,0.024041632190346718,196.92752075195312,0.10100000351667404,0.0,1
1682374665.19883990,95521519,0,3,166683199,2259,15,0.75,42.6899947,-84.48876539999999,262.52,0.03807886689901352,76.32868194580078,0.015000000596046448,0.0,1
1682374665.39831901,95720998,0,3,166683399,2259,15,0.75,42.6899947,-84.48876539999999,262.59000000000003,0.03231098875403404,248.1986083984375,0.021000001579523087,0.0,1
1682374665.59826803,95920947,0,3,166683599,2259,15,0.75,42.6899946,-84.48876539999999,262.62,0.037589892745018005,208.61045837402344,0.032999999821186066,0.0,1
1682374665.79837394,96121053,0,3,166683799,2259,15,0.75,42.6899946,-84.48876539999999,262.64,0.015652475878596306,206.56504821777344,-0.029000001028180122,0.0,1
1682374665.99847603,96321155,0,3,166683999,2259,15,0.75,42.6899945,-84.48876539999999,262.68,0.012165524996817112,189.4623260498047,0.08500000089406967,0.0,1
1682374666.19833302,96521012,0,3,166684199,2259,15,0.75,42.6899945,-84.48876539999999,262.7,0.027018513530492783,182.12110900878906,0.0650000050663948,0.0,1
1682374666.39827394,96720953,0,3,166684399,2259,15,0.75,42.6899945,-84.4887655,262.74,0.03162277862429619,251.5650634765625,0.0560000017285347,0.0,1
1682374666.59830689,96920986,0,3,166684599,2259,15,0.75,42.6899945,-84.4887655,262.76,0.017691805958747864,47.29060745239258,-0.00800000037997961,0.0,1
1682374666.79845190,97121131,0,3,166684799,2259,15,0.75,42.6899945,-84.4887655,262.8,0.020000001415610313,180.0,0.029000001028180122,0.0,1
1682374666.99838686,97321066,0,3,166684999,2259,15,0.75,42.6899946,-84.48876539999999,262.81,0.03999999910593033,36.869895935058594,0.009000000543892384,0.0,1
1682374667.19893384,97521613,0,3,166685199,2259,14,0.75,42.6899947,-84.4887653,262.83,0.020396079868078232,78.6900634765625,0.06200000271201134,0.0,1
1682374667.39873886,97721418,0,3,166685399,2259,14,0.75,42.6899947,-84.4887653,262.85,0.019416488707065582,281.888671875,0.024000000208616257,0.0,1
1682374667.59874892,97921428,0,3,166685599,2259,15,0.75,42.6899948,-84.4887653,262.86,0.014866068959236145,19.653823852539062,0.052000001072883606,0.0,1
1682374667.79847789,98121157,0,3,166685799,2259,15,0.75,42.689994899999995,-84.4887653,262.87,0.009219544939696789,102.52880096435547,0.10500000417232513,0.0,1
1682374668.01845002,98341129,0,3,166685999,2259,15,0.75,42.689994999999996,-84.4887653,262.88,0.04365776106715202,290.0952453613281,-0.03100000135600567,0.0,1
1682374668.19882488,98521504,0,3,166686199,2259,15,0.75,42.689994999999996,-84.4887653,262.89,0.021023796871304512,64.65382385253906,0.06300000101327896,0.0,1
1682374668.39873886,98721418,0,3,166686399,2259,15,0.75,42.6899951,-84.4887652,262.89,0.02385372295975685,146.97613525390625,0.05400000140070915,0.0,1
1682374668.59884596,98921525,0,3,166686599,2259,15,0.75,42.6899951,-84.4887652,262.88,0.021931713446974754,136.84759521484375,0.10300000756978989,0.0,1
1682374668.79883790,99121517,0,3,166686799,2259,15,0.75,42.6899951,-84.4887651,262.89,0.0361386239528656,165.57920837402344,0.12300000339746475,0.0,1
1682374668.99891996,99321599,0,3,166686999,2259,15,0.75,42.6899951,-84.4887651,262.91,0.02941088192164898,215.31121826171875,0.10200000554323196,0.0,1
1682374669.19874501,99521424,0,3,166687199,2259,14,0.75,42.6899951,-84.4887651,262.91,0.018027756363153458,176.82015991210938,0.1290000081062317,0.0,1
1682374669.39876890,99721448,0,3,166687399,2259,15,0.75,42.6899951,-84.488765,262.91,0.019646884873509407,104.7435531616211,0.09800000488758087,0.0,1
1682374669.59881401,99921493,0,3,166687599,2259,15,0.75,42.6899951,-84.488765,262.92,0.029154760763049126,275.9061584472656,0.029000001028180122,0.0,1
1682374669.79879904,100121478,0,3,166687799,2259,15,0.75,42.6899951,-84.4887651,262.92,0.032280027866363525,253.810791015625,0.0820000022649765,0.0,1
1682374669.97862506,100301304,0,3,166687999,2259,15,0.75,42.6899951,-84.4887651,262.93,0.010816654190421104,236.3099365234375,0.03100000135600567,0.0,1
1682374670.19869494,100521374,0,3,166688199,2259,15,0.75,42.6899952,-84.4887651,262.94,0.014764823950827122,28.300756454467773,0.10200000554323196,0.0,1
1682374670.39878297,100721462,0,3,166688399,2259,15,0.75,42.6899952,-84.4887651,262.95,0.03492850065231323,256.7594909667969,0.14300000667572021,0.0,1
1682374670.59882307,100921502,0,3,166688599,2259,15,0.75,42.6899953,-84.4887652,262.98,0.021023796871304512,64.65382385253906,0.004000000189989805,0.0,1
1682374670.79889393,101121573,0,3,166688799,2259,15,0.75,42.6899953,-84.4887651,262.97,0.06300000101327896,180.0,0.09800000488758087,0.0,1
1682374670.99874306,101321422,0,3,166688999,2259,15,0.75,42.6899953,-84.4887652,262.98,0.024698181077837944,301.7594909667969,0.06100000441074371,0.0,1
1682374671.19930887,101521988,0,3,166689199,2259,15,0.75,42.6899954,-84.4887652,262.98,0.020223749801516533,261.46923828125,0.030000001192092896,0.0,1
1682374671.37838197,101701061,0,3,166689399,2259,15,0.75,42.6899954,-84.4887652,262.99,0.02500000037252903,163.7397918701172,0.03200000151991844,0.0,1
1682374671.59832692,101921006,0,3,166689599,2259,15,0.75,42.6899954,-84.4887652,262.99,0.04328972473740578,353.36749267578125,0.026000000536441803,0.0,1
1682374671.79877996,102121459,0,3,166689799,2259,15,0.75,42.689995499999995,-84.4887652,263.0,0.02140093594789505,217.4053497314453,0.020000001415610313,0.0,1
1682374671.99879789,102321477,0,3,166689999,2259,15,0.75,42.689995599999996,-84.4887653,263.01,0.02745906263589859,236.888671875,0.09400000423192978,0.0,1
1682374672.19876504,102521444,0,3,166690199,2259,15,0.75,42.689995599999996,-84.4887653,263.01,0.021189622581005096,160.70994567871094,0.09400000423192978,0.0,1
1682374672.39878106,102721460,0,3,166690399,2259,15,0.75,42.689995599999996,-84.4887652,263.0,0.014560219831764698,164.05459594726562,0.06599999964237213,0.0,1
1682374672.59886384,102921543,0,3,166690599,2259,15,0.75,42.6899957,-84.4887652,262.99,0.018973667174577713,341.5650634765625,0.06800000369548798,0.0,1
1682374672.77830791,103100987,0,3,166690799,2259,15,0.75,42.6899957,-84.4887653,262.99,0.03080584481358528,256.8659973144531,0.052000001072883606,0.0,1
1682374672.99870992,103321389,0,3,166690999,2259,15,0.75,42.6899958,-84.4887653,262.99,0.05307542160153389,227.2906036376953,0.05100000277161598,0.0,1
1682374673.19879794,103521477,0,3,166691199,2259,15,0.75,42.6899958,-84.48876539999999,262.98,0.021023796871304512,154.65382385253906,0.12000000476837158,0.0,1
1682374673.39878488,103721464,0,3,166691399,2259,15,0.75,42.6899959,-84.48876539999999,262.96,0.025495097041130066,191.3099365234375,0.10000000149011612,0.0,1
1682374673.59877086,103921450,0,3,166691599,2259,15,0.75,42.689996,-84.4887655,262.95,0.010295630432665348,29.054601669311523,0.003000000026077032,0.0,1
1682374673.79863906,104121318,0,3,166691799,2259,15,0.75,42.689996099999995,-84.4887655,262.91,0.0353553406894207,331.26019287109375,0.032999999821186066,0.0,1
1682374673.99879193,104321471,0,3,166691999,2259,15,0.75,42.6899963,-84.4887655,262.93,0.03584689646959305,67.01127624511719,-0.007000000216066837,0.0,1
1682374674.21832299,104541002,0,3,166692199,2259,15,0.75,42.6899964,-84.4887655,262.92,0.029017237946391106,181.97494506835938,0.018000001087784767,0.0,1
1682374674.39884996,104721529,0,3,166692399,2259,15,0.75,42.6899965,-84.4887656,262.92,0.006082762498408556,350.5376892089844,0.06800000369548798,0.0,1
1682374674.59871006,104921389,0,3,166692599,2259,15,0.75,42.6899965,-84.4887656,262.92,0.025495100766420364,115.55996704101562,0.021000001579523087,0.0,1
1682374674.79928684,105121966,0,3,166692799,2259,15,0.75,42.6899966,-84.4887656,262.91,0.012083047069609165,245.55606079101562,-0.027000000700354576,0.0,1
1682374674.99841785,105321097,0,3,166692999,2259,15,0.75,42.689996699999995,-84.4887656,262.9,0.021095024421811104,185.4403533935547,0.07500000298023224,0.0,1
1682374675.19834900,105521028,0,3,166693199,2259,15,0.75,42.689996799999996,-84.4887656,262.89,0.018027756363153458,326.3099365234375,0.07800000160932541,0.0,1
1682374675.39827991,105720959,0,3,166693399,2259,15,0.75,42.6899969,-84.4887656,262.88,0.03189043700695038,131.1859130859375,0.02500000037252903,0.0,1
1682374675.59830594,105920985,0,3,166693599,2259,15,0.75,42.689997,-84.4887656,262.87,0.01077033020555973,68.1985855102539,0.023000001907348633,0.0,1
1682374675.79840398,106121083,0,3,166693799,2259,15,0.75,42.6899971,-84.4887656,262.87,0.031240999698638916,230.19442749023438,0.04500000178813934,0.0,1
1682374675.99844790,106321127,0,3,166693999,2259,15,0.75,42.6899971,-84.4887657,262.88,0.05721888318657875,174.98687744140625,0.0990000069141388,0.0,1
1682374676.19832301,106521002,0,3,166694199,2259,15,0.75,42.6899972,-84.4887657,262.86,0.022561030462384224,347.19573974609375,-0.036000002175569534,0.0,1
1682374676.39826298,106720942,0,3,166694399,2259,15,0.75,42.6899972,-84.4887657,262.86,0.01702938787639141,86.63353729248047,0.06100000441074371,0.0,1
1682374676.59836698,106921046,0,3,166694599,2259,15,0.75,42.689997299999995,-84.4887657,262.85,0.006082762498408556,260.5376892089844,-0.01100000087171793,0.0,1
1682374676.77858901,107101268,0,3,166694799,2259,14,0.75,42.689997399999996,-84.4887657,262.85,0.03354102000594139,280.30487060546875,0.032999999821186066,0.0,1
1682374676.99832797,107321007,0,3,166694999,2259,15,0.75,42.6899975,-84.4887658,262.82,0.017464250326156616,336.3706359863281,-0.04200000315904617,0.0,1
1682374677.19827795,107520957,0,3,166695199,2259,15,0.75,42.6899976,-84.48876589999999,262.81,0.014317820779979229,257.9052734375,0.07000000029802322,0.0,1
1682374677.39830804,107720987,0,3,166695399,2259,15,0.75,42.6899977,-84.488766,262.79,0.005385165102779865,111.80139923095703,0.015000000596046448,0.0,1
1682374677.59879088,107921470,0,3,166695599,2259,15,0.75,42.6899978,-84.488766,262.8,0.016552945598959923,205.0168914794922,0.10100000351667404,0.0,1
1682374677.79883599,108121515,0,3,166695799,2259,15,0.75,42.6899979,-84.488766,262.78000000000003,0.014142136089503765,45.0,0.05300000309944153,0.0,1
1682374677.99830985,108320989,0,3,166695999,2259,15,0.75,42.6899979,-84.48876609999999,262.78000000000003,0.020615529268980026,194.0362548828125,0.07300000637769699,0.0,1
1682374678.19828200,108520961,0,3,166696199,2259,15,0.75,42.689997999999996,-84.48876609999999,262.78000000000003,0.017000000923871994,180.0,0.06700000166893005,0.0,1
1682374678.39838696,108721066,0,3,166696399,2259,15,0.75,42.689997999999996,-84.4887662,262.78000000000003,0.019235385581851006,278.9726257324219,0.0010000000474974513,0.0,1
1682374678.59845996,108921139,0,3,166696599,2259,15,0.75,42.689997999999996,-84.4887662,262.79,0.04916299507021904,175.3331298828125,0.039000000804662704,0.0,1
1682374678.79834485,109121024,0,3,166696799,2259,15,0.75,42.689997999999996,-84.4887662,262.78000000000003,0.016552945598959923,205.0168914794922,0.03800000250339508,0.0,1
1682374678.99825788,109320937,0,3,166696999,2259,15,0.75,42.689997999999996,-84.4887663,262.77,0.02500000037252903,196.2602081298828,0.08100000023841858,0.0,1
1682374679.19831705,109520996,0,3,166697199,2259,15,0.75,42.689997999999996,-84.4887663,262.76,0.0375765897333622,205.20114135742188,0.06400000303983688,0.0,1
1682374679.39844394,109721123,0,3,166697399,2259,15,0.75,42.689997999999996,-84.4887664,262.76,0.009219544939696789,12.528807640075684,0.07100000232458115,0.0,1
1682374679.59844804,109921127,0,3,166697599,2259,14,0.77,42.689997999999996,-84.4887664,262.74,0.012369317002594471,14.036242485046387,-0.012000000104308128,0.0,1
1682374679.79832387,110121003,0,3,166697799,2259,15,0.77,42.6899981,-84.4887664,262.75,0.020223749801516533,171.46922302246094,0.09700000286102295,0.0,1
1682374680.01837802,110341057,0,3,166697999,2259,15,0.77,42.6899981,-84.4887664,262.73,0.012083047069609165,294.4439697265625,0.01100000087171793,0.0,1
1682374680.19874406,110521423,0,3,166698199,2259,15,0.77,42.6899981,-84.4887664,262.74,0.02370654046535492,27.64597511291504,0.02800000086426735,0.0,1
1682374680.39839101,110721070,0,3,166698399,2259,15,0.77,42.6899982,-84.4887664,262.74,0.012041594833135605,138.366455078125,0.07600000500679016,0.0,1
1682374680.59880304,110921482,0,3,166698599,2259,15,0.75,42.6899981,-84.4887664,262.73,0.054129477590322495,168.27488708496094,0.03400000184774399,0.0,1
1682374680.79881501,111121494,0,3,166698799,2259,15,0.75,42.6899981,-84.4887665,262.73,0.020591260865330696,240.94540405273438,0.02500000037252903,0.0,1
1682374680.99872994,111321409,0,3,166698999,2259,15,0.75,42.6899981,-84.4887665,262.7,0.04272002354264259,339.4439697265625,-0.06599999964237213,0.0,1
1682374681.19878197,111521461,0,3,166699199,2259,15,0.75,42.6899981,-84.48876659999999,262.7,0.023021729663014412,214.38034057617188,0.10200000554323196,0.0,1
1682374681.39882302,111721502,0,3,166699399,2259,15,0.75,42.6899981,-84.48876659999999,262.68,0.012041594833135605,175.23634338378906,0.03800000250339508,0.0,1
1682374681.59889984,111921579,0,3,166699599,2259,15,0.75,42.6899981,-84.4887667,262.68,0.004999999888241291,233.13009643554688,0.032999999821186066,0.0,1
