timestamp,TimeUS,Lat,Lng,Alt,RelHomeAlt,RelOriginAlt
1682374604.45881701,34781496,42.6899993,-84.48877209999999,262.1300048828125,-0.47263607382774353,-0.47263607382774353
1682374604.55887389,34881553,42.6899993,-84.48877209999999,262.1300048828125,-0.47492989897727966,-0.47492989897727966
1682374604.65879297,34981472,42.689999199999995,-84.48877209999999,262.1600036621094,-0.47558483481407166,-0.47558483481407166
1682374604.75872707,35081406,42.689999199999995,-84.48877209999999,262.1600036621094,-0.47479161620140076,-0.47479161620140076
1682374604.85866404,35181343,42.689999,-84.4887722,262.1600036621094,-0.4714735448360443,-0.4714735448360443
1682374604.95875001,35281429,42.689999,-84.4887722,262.1600036621094,-0.46722397208213806,-0.46722397208213806
1682374605.05876493,35381444,42.6899989,-84.4887722,262.17999267578125,-0.4630318582057953,-0.4630318582057953
1682374605.15879393,35481473,42.6899989,-84.4887722,262.17999267578125,-0.46181949973106384,-0.46181949973106384
1682374605.25881195,35581491,42.6899987,-84.4887722,262.1999816894531,-0.46076688170433044,-0.46076688170433044
1682374605.35890698,35681586,42.6899987,-84.4887722,262.1999816894531,-0.46038350462913513,-0.46038350462913513
1682374605.45886302,35781542,42.689998599999996,-84.4887723,262.239990234375,-0.4613586366176605,-0.4613586366176605
1682374605.55878401,35881463,42.689998599999996,-84.4887723,262.239990234375,-0.4649122655391693,-0.4649122655391693
1682374605.65871906,35981398,42.6899984,-84.4887724,262.2599792480469,-0.46868404746055603,-0.46868404746055603
1682374605.75870991,36081389,42.6899984,-84.4887724,262.2599792480469,-0.47117552161216736,-0.47117552161216736
1682374605.85875607,36181435,42.6899983,-84.4887724,262.2699890136719,-0.471367210149765,-0.471367210149765
1682374605.95912099,36281800,42.6899983,-84.4887724,262.2699890136719,-0.4697035253047943,-0.4697035253047943
1682374606.05922103,36381900,42.6899983,-84.4887724,262.2699890136719,-0.4706796109676361,-0.4706796109676361
1682374606.15901995,36481699,42.6899983,-84.4887724,262.2699890136719,-0.4721425473690033,-0.4721425473690033
1682374606.25879192,36581471,42.6899982,-84.4887724,262.2900085449219,-0.47370943427085876,-0.47370943427085876
1682374606.35894299,36681622,42.6899982,-84.4887724,262.2900085449219,-0.4742339551448822,-0.4742339551448822
1682374606.45879698,36781476,42.6899981,-84.4887724,262.29998779296875,-0.47285303473472595,-0.47285303473472595
1682374606.55870104,36881380,42.6899981,-84.4887724,262.29998779296875,-0.4729059636592865,-0.4729059636592865
1682374606.65867901,36981358,42.689997999999996,-84.4887724,262.30999755859375,-0.4747830331325531,-0.4747830331325531
1682374606.75874186,37081421,42.689997999999996,-84.4887724,262.30999755859375,-0.4775303304195404,-0.4775303304195404
1682374606.85883307,37181512,42.689997999999996,-84.4887725,262.32000732421875,-0.48144254088401794,-0.48144254088401794
1682374606.95881891,37281498,42.689997999999996,-84.4887725,262.32000732421875,-0.48679623007774353,-0.48679623007774353
1682374607.05884099,37381520,42.689997999999996,-84.4887724,262.3500061035156,-0.4909459054470062,-0.4909459054470062
1682374607.15879798,37481477,42.689997999999996,-84.4887724,262.3500061035156,-0.49372991919517517,-0.49372991919517517
1682374607.25889397,37581573,42.689997999999996,-84.4887724,262.3699951171875,-0.49714145064353943,-0.49714145064353943
1682374607.35890889,37681588,42.689997999999996,-84.4887724,262.3699951171875,-0.49911531805992126,-0.49911531805992126
1682374607.45871806,37781397,42.6899979,-84.4887723,262.3699951171875,-0.4994860589504242,-0.4994860589504242
1682374607.55870295,37881382,42.6899979,-84.4887723,262.3699951171875,-0.4993337094783783,-0.4993337094783783
1682374607.65872097,37981400,42.6899978,-84.4887723,262.3800048828125,-0.49867352843284607,-0.49867352843284607
1682374607.75876904,38081448,42.6899978,-84.4887723,262.3800048828125,-0.4982028901576996,-0.4982028901576996
1682374607.85882306,38181502,42.6899976,-84.4887723,262.3999938964844,-0.49737176299095154,-0.49737176299095154
1682374607.95883894,38281518,42.6899976,-84.4887723,262.3999938964844,-0.5000978708267212,-0.5000978708267212
1682374608.05879498,38381474,42.689997399999996,-84.4887722,262.3899841308594,-0.5035601854324341,-0.5035601854324341
1682374608.15917706,38481856,42.689997399999996,-84.4887722,262.3899841308594,-0.5057257413864136,-0.5057257413864136
1682374608.25901699,38581696,42.689997299999995,-84.4887722,262.3999938964844,-0.5062402486801147,-0.5062402486801147
1682374608.35907602,38681755,42.689997299999995,-84.4887722,262.3999938964844,-0.5074368715286255,-0.5074368715286255
1682374608.45901704,38781696,42.689997299999995,-84.48877209999999,262.4100036621094,-0.5081237554550171,-0.5081237554550171
1682374608.55902600,38881705,42.689997299999995,-84.48877209999999,262.4100036621094,-0.5088082551956177,-0.5088082551956177
1682374608.65907502,38981754,42.6899972,-84.488772,262.3999938964844,-0.5112963914871216,-0.5112963914871216
1682374608.75903893,39081718,42.6899972,-84.488772,262.3999938964844,-0.5143834352493286,-0.5143834352493286
1682374608.85902500,39181704,42.6899971,-84.4887719,262.3899841308594,-0.5166362524032593,-0.5166362524032593
1682374608.95881104,39281490,42.6899971,-84.4887719,262.3899841308594,-0.5165156126022339,-0.5165156126022339
1682374609.05890703,39381586,42.689997,-84.4887719,262.3899841308594,-0.5143681764602661,-0.5143681764602661
1682374609.15880084,39481480,42.689997,-84.4887719,262.3899841308594,-0.511919379234314,-0.511919379234314
1682374609.25898600,39581665,42.689997,-84.4887719,262.3800048828125,-0.5100289583206177,-0.5100289583206177
1682374609.35910296,39681782,42.689997,-84.4887719,262.3800048828125,-0.5089424848556519,-0.5089424848556519
1682374609.45899200,39781671,42.689996799999996,-84.4887718,262.3800048828125,-0.5079365968704224,-0.5079365968704224
1682374609.55895805,39881637,42.689996799999996,-84.4887718,262.3800048828125,-0.508881688117981,-0.508881688117981
1682374609.65900993,39981689,42.689996699999995,-84.4887717,262.3500061035156,-0.5097039937973022,-0.5097039937973022
1682374609.75897408,40081653,42.689996699999995,-84.4887717,262.3500061035156,-0.5098599195480347,-0.5098599195480347
1682374609.85897207,40181651,42.6899966,-84.48877159999999,262.3599853515625,-0.5104223489761353,-0.5104223489761353
1682374609.95909691,40281776,42.6899966,-84.48877159999999,262.3599853515625,-0.5102905035018921,-0.5102905035018921
1682374610.05898690,40381666,42.6899965,-84.48877159999999,262.3699951171875,-0.5100821256637573,-0.5100821256637573
1682374610.15898800,40481667,42.6899965,-84.48877159999999,262.3699951171875,-0.5089126825332642,-0.5089126825332642
1682374610.25907087,40581750,42.6899964,-84.48877159999999,262.3500061035156,-0.5075846910476685,-0.5075846910476685
1682374610.35908008,40681759,42.6899964,-84.48877159999999,262.3500061035156,-0.5067216157913208,-0.5067216157913208
1682374610.45904088,40781720,42.6899964,-84.4887715,262.3500061035156,-0.5044203996658325,-0.5044203996658325
1682374610.55898404,40881663,42.6899964,-84.4887715,262.3500061035156,-0.5012820959091187,-0.5012820959091187
1682374610.65926003,40981939,42.6899964,-84.4887715,262.3500061035156,-0.4988289773464203,-0.4988289773464203
1682374610.75878596,41081465,42.6899964,-84.4887715,262.3500061035156,-0.4991970956325531,-0.4991970956325531
1682374610.85889792,41181577,42.6899964,-84.4887715,262.32000732421875,-0.5012539625167847,-0.5012539625167847
1682374610.95879102,41281470,42.6899964,-84.4887715,262.32000732421875,-0.5035134553909302,-0.5035134553909302
1682374611.05873084,41381410,42.6899964,-84.4887715,262.3299865722656,-0.5051428079605103,-0.5051428079605103
1682374611.15869594,41481375,42.6899964,-84.4887715,262.3299865722656,-0.5048202276229858,-0.5048202276229858
1682374611.25874305,41581422,42.6899963,-84.4887715,262.30999755859375,-0.5036813020706177,-0.5036813020706177
1682374611.35886788,41681547,42.6899963,-84.4887715,262.30999755859375,-0.5001593828201294,-0.5001593828201294
1682374611.45881891,41781498,42.6899963,-84.4887715,262.29998779296875,-0.49540528655052185,-0.49540528655052185
1682374611.55882907,41881508,42.6899963,-84.4887715,262.29998779296875,-0.4907279908657074,-0.4907279908657074
1682374611.65878987,41981469,42.6899963,-84.4887715,262.29998779296875,-0.48724564909935,-0.48724564909935
1682374611.75891304,42081592,42.6899963,-84.4887715,262.29998779296875,-0.4842608869075775,-0.4842608869075775
1682374611.85878897,42181468,42.6899963,-84.4887715,262.2699890136719,-0.48085054755210876,-0.48085054755210876
1682374611.95872688,42281406,42.6899963,-84.4887715,262.2699890136719,-0.47866377234458923,-0.47866377234458923
1682374612.05870605,42381385,42.6899963,-84.48877159999999,262.2699890136719,-0.4790059030056,-0.4790059030056
1682374612.15875506,42481434,42.6899963,-84.48877159999999,262.2699890136719,-0.48121604323387146,-0.48121604323387146
1682374612.25878000,42581459,42.6899963,-84.4887717,262.2699890136719,-0.4836941659450531,-0.4836941659450531
1682374612.35923100,42681910,42.6899963,-84.4887717,262.2699890136719,-0.4857719838619232,-0.4857719838619232
1682374612.45909190,42781771,42.6899964,-84.4887717,262.2599792480469,-0.4882894456386566,-0.4882894456386566
1682374612.55901790,42881697,42.6899964,-84.4887717,262.2599792480469,-0.4927731454372406,-0.4927731454372406
1682374612.65916395,42981843,42.6899963,-84.4887718,262.239990234375,-0.4957364499568939,-0.4957364499568939
1682374612.75900602,43081685,42.6899963,-84.4887718,262.239990234375,-0.4985447824001312,-0.4985447824001312
1682374612.85900807,43181687,42.6899963,-84.4887718,262.22998046875,-0.501264214515686,-0.501264214515686
1682374612.95901299,43281692,42.6899963,-84.4887718,262.22998046875,-0.5024760961532593,-0.5024760961532593
1682374613.05874586,43381425,42.6899963,-84.4887718,262.2200012207031,-0.5019513368606567,-0.5019513368606567
1682374613.15878296,43481462,42.6899963,-84.4887718,262.2200012207031,-0.4995509088039398,-0.4995509088039398
1682374613.25881290,43581492,42.6899963,-84.4887718,262.2200012207031,-0.4974766671657562,-0.4974766671657562
1682374613.35889602,43681575,42.6899963,-84.4887718,262.2200012207031,-0.4960528314113617,-0.4960528314113617
1682374613.45880604,43781485,42.6899963,-84.4887718,262.2099914550781,-0.49351319670677185,-0.49351319670677185
1682374613.55890203,43881581,42.6899963,-84.4887718,262.2099914550781,-0.49090322852134705,-0.49090322852134705
1682374613.65879393,43981473,42.6899963,-84.4887718,262.22998046875,-0.4885145127773285,-0.4885145127773285
1682374613.75872087,44081400,42.6899963,-84.4887718,262.22998046875,-0.4890666902065277,-0.4890666902065277
1682374613.85869884,44181378,42.689996199999996,-84.4887719,262.2200012207031,-0.49053511023521423,-0.49053511023521423
1682374613.95873690,44281416,42.689996199999996,-84.4887719,262.2200012207031,-0.49258551001548767,-0.49258551001548767
1682374614.05878592,44381465,42.689996199999996,-84.4887719,262.1999816894531,-0.49760183691978455,-0.49760183691978455
1682374614.15881801,44481497,42.689996199999996,-84.4887719,262.1999816894531,-0.5035980939865112,-0.5035980939865112
1682374614.25882602,44581505,42.689996199999996,-84.488772,262.19000244140625,-0.5077999830245972,-0.5077999830245972
1682374614.35892105,44681600,42.689996199999996,-84.488772,262.19000244140625,-0.5102747678756714,-0.5102747678756714
1682374614.45898700,44781666,42.689996199999996,-84.488772,262.17999267578125,-0.5114189386367798,-0.5114189386367798
1682374614.55878997,44881469,42.689996199999996,-84.488772,262.17999267578125,-0.5103741884231567,-0.5103741884231567
1682374614.65900493,44981684,42.689996199999996,-84.488772,262.1600036621094,-0.5093327760696411,-0.5093327760696411
1682374614.75902700,45081706,42.689996199999996,-84.488772,262.1600036621094,-0.5080341100692749,-0.5080341100692749
1682374614.85903502,45181714,42.6899963,-84.488772,262.1300048828125,-0.5069783926010132,-0.5069783926010132
1682374614.95910096,45281780,42.6899963,-84.488772,262.1300048828125,-0.505886435508728,-0.505886435508728
1682374615.05906487,45381744,42.6899963,-84.488772,262.1000061035156,-0.505384087562561,-0.505384087562561
1682374615.15902686,45481706,42.6899963,-84.488772,262.1000061035156,-0.5035487413406372,-0.5035487413406372
1682374615.25880003,45581479,42.6899963,-84.48877209999999,262.0799865722656,-0.49990972876548767,-0.49990972876548767
1682374615.35896087,45681640,42.6899963,-84.48877209999999,262.0799865722656,-0.49616941809654236,-0.49616941809654236
1682374615.45881796,45781497,42.6899963,-84.4887722,262.07000732421875,-0.49317583441734314,-0.49317583441734314
1682374615.55872893,45881408,42.6899963,-84.4887722,262.07000732421875,-0.49247655272483826,-0.49247655272483826
1682374615.65872598,45981405,42.689996199999996,-84.4887722,262.05999755859375,-0.49320587515830994,-0.49320587515830994
1682374615.75873089,46081410,42.689996199999996,-84.4887722,262.05999755859375,-0.4953220784664154,-0.4953220784664154
1682374615.85877895,46181458,42.689996199999996,-84.4887723,262.0400085449219,-0.49801167845726013,-0.49801167845726013
1682374615.95881891,46281498,42.689996199999996,-84.4887723,262.0400085449219,-0.4987986981868744,-0.4987986981868744
1682374616.05883288,46381512,42.689996199999996,-84.4887724,262.0299987792969,-0.5000079870223999,-0.5000079870223999
1682374616.15881395,46481493,42.689996199999996,-84.4887724,262.0299987792969,-0.5005966424942017,-0.5005966424942017
1682374616.25889492,46581574,42.689996199999996,-84.4887724,262.0299987792969,-0.5007239580154419,-0.5007239580154419
1682374616.35888886,46681568,42.689996199999996,-84.4887724,262.0299987792969,-0.49987706542015076,-0.49987706542015076
1682374616.45874405,46781423,42.689996199999996,-84.4887724,262.0199890136719,-0.49918922781944275,-0.49918922781944275
1682374616.55876803,46881447,42.689996199999996,-84.4887724,262.0199890136719,-0.500285267829895,-0.500285267829895
1682374616.65875793,46981437,42.689996199999996,-84.4887724,262.0099792480469,-0.5038052797317505,-0.5038052797317505
1682374616.75878406,47081463,42.689996199999996,-84.4887724,262.0099792480469,-0.508762001991272,-0.508762001991272
1682374616.85881996,47181499,42.689996199999996,-84.4887725,261.97998046875,-0.5124462842941284,-0.5124462842941284
1682374616.95884991,47281529,42.689996199999996,-84.4887725,261.97998046875,-0.5178347826004028,-0.5178347826004028
1682374617.05881095,47381490,42.689996199999996,-84.4887725,261.97998046875,-0.5227760076522827,-0.5227760076522827
1682374617.15887904,47481558,42.689996199999996,-84.4887725,261.97998046875,-0.5271838903427124,-0.5271838903427124
1682374617.25879908,47581478,42.689996099999995,-84.48877259999999,261.9700012207031,-0.5315943956375122,-0.5315943956375122
1682374617.35877085,47681450,42.689996099999995,-84.48877259999999,261.9700012207031,-0.5366090536117554,-0.5366090536117554
1682374617.45875907,47781438,42.689996099999995,-84.4887727,261.94000244140625,-0.5390032529830933,-0.5390032529830933
1682374617.55876207,47881441,42.689996099999995,-84.4887727,261.94000244140625,-0.5415726900100708,-0.5415726900100708
1682374617.65880799,47981487,42.689996099999995,-84.48877279999999,261.92999267578125,-0.5434921979904175,-0.5434921979904175
1682374617.75882006,48081499,42.689996099999995,-84.48877279999999,261.92999267578125,-0.5427600145339966,-0.5427600145339966
1682374617.85882688,48181506,42.689996099999995,-84.48877279999999,261.9100036621094,-0.5406407117843628,-0.5406407117843628
1682374617.95880198,48281481,42.689996099999995,-84.48877279999999,261.9100036621094,-0.5391916036605835,-0.5391916036605835
1682374618.05891800,48381597,42.689996099999995,-84.4887729,261.8899841308594,-0.5390759706497192,-0.5390759706497192
1682374618.15878797,48481467,42.689996099999995,-84.4887729,261.8899841308594,-0.540507435798645,-0.540507435798645
1682374618.25870705,48581386,42.689996099999995,-84.488773,261.8699951171875,-0.543105959892273,-0.543105959892273
1682374618.35879207,48681471,42.689996099999995,-84.488773,261.8699951171875,-0.545354962348938,-0.545354962348938
1682374618.45875907,48781438,42.689996099999995,-84.4887732,261.8500061035156,-0.5473471879959106,-0.5473471879959106
1682374618.55877805,48881457,42.689996099999995,-84.4887732,261.8500061035156,-0.5473216772079468,-0.5473216772079468
1682374618.65894604,48981625,42.689996099999995,-84.4887732,261.82000732421875,-0.5460003614425659,-0.5460003614425659
1682374618.75883007,49081509,42.689996099999995,-84.4887732,261.82000732421875,-0.5440241098403931,-0.5440241098403931
1682374618.85881686,49181496,42.6899966,-84.4887744,261.4100036621094,-0.5428675413131714,-0.5428675413131714
1682374618.95890594,49281585,42.6899966,-84.4887744,261.4100036621094,-0.5412613153457642,-0.5412613153457642
1682374619.05878687,49381466,42.6899966,-84.4887744,261.4100036621094,-0.5423699617385864,-0.5423699617385864
1682374619.15901303,49481692,42.6899966,-84.4887744,261.4100036621094,-0.5454369783401489,-0.5454369783401489
1682374619.25908303,49581762,42.6899966,-84.4887744,261.3999938964844,-0.5512391328811646,-0.5512391328811646
1682374619.35915995,49681839,42.6899966,-84.48877449999999,261.3999938964844,-0.5579115152359009,-0.5579115152359009
1682374619.45912695,49781806,42.689996699999995,-84.4887744,261.3899841308594,-0.567052960395813,-0.567052960395813
1682374619.55907798,49881757,42.689996699999995,-84.4887744,261.3800048828125,-0.5765801668167114,-0.5765801668167114
1682374619.65909886,49981778,42.689996699999995,-84.4887744,261.3699951171875,-0.5867005586624146,-0.5867005586624146
1682374619.75882888,50081508,42.689996699999995,-84.4887744,261.3599853515625,-0.5952261686325073,-0.5952261686325073
1682374619.85914302,50181822,42.689996699999995,-84.4887744,261.3500061035156,-0.6010392904281616,-0.6010392904281616
1682374619.95906591,50281745,42.689996699999995,-84.4887744,261.3500061035156,-0.6078974008560181,-0.6078974008560181
1682374620.05902100,50381700,42.689996699999995,-84.4887744,261.3399963378906,-0.6154814958572388,-0.6154814958572388
1682374620.15900087,50481680,42.689996699999995,-84.4887744,261.3299865722656,-0.6214185953140259,-0.6214185953140259
1682374620.25899887,50581678,42.689996699999995,-84.4887744,261.3299865722656,-0.6264015436172485,-0.6264015436172485
1682374620.35928488,50681964,42.689996699999995,-84.4887744,261.32000732421875,-0.6313604116439819,-0.6313604116439819
1682374620.45915985,50781839,42.689996699999995,-84.48877449999999,261.32000732421875,-0.6315418481826782,-0.6315418481826782
1682374620.55909705,50881776,42.689996699999995,-84.48877449999999,261.3299865722656,-0.6299949884414673,-0.6299949884414673
1682374620.65901494,50981694,42.689996699999995,-84.48877449999999,261.3299865722656,-0.6290439367294312,-0.6290439367294312
1682374620.75921106,51081890,42.689996699999995,-84.48877449999999,261.3299865722656,-0.6286050081253052,-0.6286050081253052
1682374620.85902500,51181704,42.689996699999995,-84.4887746,261.3299865722656,-0.6281043291091919,-0.6281043291091919
1682374620.95903206,51281711,42.689996699999995,-84.4887746,261.3299865722656,-0.6278399229049683,-0.6278399229049683
1682374621.05901194,51381691,42.689996699999995,-84.4887746,261.32000732421875,-0.6315621137619019,-0.6315621137619019
1682374621.15902305,51481702,42.689996699999995,-84.4887747,261.32000732421875,-0.6360141038894653,-0.6360141038894653
1682374621.25910497,51581784,42.689996699999995,-84.4887747,261.30999755859375,-0.6401675939559937,-0.6401675939559937
1682374621.35952687,51682206,42.689996699999995,-84.4887747,261.30999755859375,-0.643628716468811,-0.643628716468811
1682374621.45934987,51782029,42.689996699999995,-84.4887747,261.30999755859375,-0.6459437608718872,-0.6459437608718872
1682374621.55928302,51881962,42.689996699999995,-84.4887747,261.30999755859375,-0.6484357118606567,-0.6484357118606567
1682374621.65913701,51981816,42.689996699999995,-84.4887747,261.29998779296875,-0.6500910520553589,-0.6500910520553589
1682374621.75902104,52081700,42.689996699999995,-84.4887747,261.30999755859375,-0.6493343114852905,-0.6493343114852905
1682374621.85902596,52181705,42.689996699999995,-84.4887748,261.30999755859375,-0.6488364934921265,-0.6488364934921265
1682374621.95901084,52281690,42.689996699999995,-84.4887748,261.30999755859375,-0.6492165327072144,-0.6492165327072144
1682374622.05900502,52381684,42.689996699999995,-84.4887748,261.29998779296875,-0.6504968404769897,-0.6504968404769897
1682374622.15909100,52481770,42.689996699999995,-84.4887749,261.29998779296875,-0.6520434617996216,-0.6520434617996216
1682374622.25905991,52581739,42.689996699999995,-84.4887749,261.29998779296875,-0.6536298990249634,-0.6536298990249634
1682374622.35917091,52681850,42.6899966,-84.4887749,261.29998779296875,-0.655136227607727,-0.655136227607727
1682374622.45900393,52781683,42.6899966,-84.48877499999999,261.29998779296875,-0.6577688455581665,-0.6577688455581665
1682374622.55913591,52881815,42.6899966,-84.4887751,261.2900085449219,-0.6617406606674194,-0.6617406606674194
1682374622.65879798,52981477,42.6899966,-84.4887751,261.2900085449219,-0.6651977300643921,-0.6651977300643921
1682374622.75872588,53081405,42.6899966,-84.4887751,261.2900085449219,-0.6689964532852173,-0.6689964532852173
1682374622.85878396,53181463,42.6899966,-84.4887751,261.2799987792969,-0.6722613573074341,-0.6722613573074341
1682374622.95876884,53281448,42.6899966,-84.4887751,261.2799987792969,-0.6758781671524048,-0.6758781671524048
1682374623.05878091,53381460,42.6899966,-84.4887751,261.2799987792969,-0.6785298585891724,-0.6785298585891724
1682374623.15879297,53481472,42.6899965,-84.4887751,261.2799987792969,-0.679902195930481,-0.679902195930481
1682374623.25880694,53581486,42.6899965,-84.48877519999999,261.2699890136719,-0.6832817792892456,-0.6832817792892456
1682374623.35892701,53681606,42.6899965,-84.48877519999999,261.2699890136719,-0.6890395879745483,-0.6890395879745483
1682374623.45892692,53781606,42.6899965,-84.48877519999999,261.2599792480469,-0.694848895072937,-0.694848895072937
1682374623.55879092,53881470,42.6899965,-84.48877519999999,261.2599792480469,-0.6989666223526001,-0.6989666223526001
1682374623.65901089,53981690,42.6899965,-84.48877519999999,261.25,-0.7018593549728394,-0.7018593549728394
1682374623.75904107,54081720,42.6899965,-84.48877519999999,261.25,-0.7038556337356567,-0.7038556337356567
1682374623.85897684,54181656,42.6899964,-84.4887753,261.25,-0.7093745470046997,-0.7093745470046997
1682374623.95895791,54281637,42.6899964,-84.4887753,261.239990234375,-0.7147964239120483,-0.7147964239120483
1682374624.05898499,54381664,42.6899964,-84.4887753,261.239990234375,-0.71880042552948,-0.71880042552948
1682374624.15899396,54481673,42.6899963,-84.4887753,261.22998046875,-0.7227329015731812,-0.7227329015731812
1682374624.25897694,54581656,42.6899963,-84.4887753,261.22998046875,-0.7262150049209595,-0.7262150049209595
1682374624.35917306,54681852,42.6899963,-84.4887753,261.22998046875,-0.7278648614883423,-0.7278648614883423
1682374624.45899796,54781677,42.6899963,-84.4887753,261.22998046875,-0.7280837297439575,-0.7280837297439575
1682374624.55894685,54881626,42.689996199999996,-84.4887753,261.22998046875,-0.7292166948318481,-0.7292166948318481
1682374624.65899205,54981671,42.689996199999996,-84.4887754,261.22998046875,-0.729023814201355,-0.729023814201355
1682374624.75899386,55081673,42.689996199999996,-84.4887754,261.22998046875,-0.7278045415878296,-0.7278045415878296
1682374624.85904789,55181727,42.689996199999996,-84.4887754,261.22998046875,-0.7257224321365356,-0.7257224321365356
1682374624.95917797,55281857,42.689996199999996,-84.4887754,261.22998046875,-0.7229264974594116,-0.7229264974594116
1682374625.05899286,55381672,42.689996199999996,-84.4887755,261.22998046875,-0.720154881477356,-0.720154881477356
1682374625.15897489,55481654,42.689996099999995,-84.4887755,261.239990234375,-0.7187000513076782,-0.7187000513076782
1682374625.25909996,55581779,42.689996099999995,-84.4887756,261.239990234375,-0.7186824083328247,-0.7186824083328247
1682374625.35911107,55681790,42.689996099999995,-84.48877569999999,261.239990234375,-0.7186294794082642,-0.7186294794082642
1682374625.45899606,55781675,42.689996099999995,-84.48877569999999,261.239990234375,-0.7186423540115356,-0.7186423540115356
1682374625.55891085,55881590,42.689996099999995,-84.48877569999999,261.239990234375,-0.717809796333313,-0.717809796333313
1682374625.65897393,55981653,42.689996099999995,-84.4887758,261.239990234375,-0.7177377939224243,-0.7177377939224243
1682374625.75897598,56081655,42.689996,-84.4887758,261.239990234375,-0.718281626701355,-0.718281626701355
1682374625.85899186,56181671,42.689996,-84.4887759,261.239990234375,-0.7181433439254761,-0.7181433439254761
1682374625.95930290,56281982,42.689996,-84.4887759,261.239990234375,-0.7178574800491333,-0.7178574800491333
1682374626.05900002,56381679,42.6899959,-84.4887759,261.239990234375,-0.7187520265579224,-0.7187520265579224
1682374626.15889096,56481570,42.6899959,-84.4887759,261.239990234375,-0.7196148633956909,-0.7196148633956909
1682374626.25878906,56581468,42.6899959,-84.4887759,261.22998046875,-0.7201708555221558,-0.7201708555221558
1682374626.35879207,56681471,42.6899959,-84.4887759,261.22998046875,-0.7209070920944214,-0.7209070920944214
1682374626.45870090,56781380,42.6899958,-84.4887759,261.22998046875,-0.7227393388748169,-0.7227393388748169
1682374626.55875802,56881437,42.6899958,-84.488776,261.22998046875,-0.7254651784896851,-0.7254651784896851
1682374626.65877986,56981459,42.6899958,-84.488776,261.22998046875,-0.7290931940078735,-0.7290931940078735
1682374626.75881290,57081492,42.6899958,-84.488776,261.2200012207031,-0.7321518659591675,-0.7321518659591675
1682374626.85883594,57181515,42.6899958,-84.488776,261.2200012207031,-0.736385703086853,-0.736385703086853
1682374626.95881200,57281491,42.6899957,-84.488776,261.2200012207031,-0.740005612373352,-0.740005612373352
1682374627.05890894,57381588,42.6899957,-84.488776,261.2099914550781,-0.7414747476577759,-0.7414747476577759
1682374627.15878391,57481463,42.6899957,-84.488776,261.2099914550781,-0.741324782371521,-0.741324782371521
1682374627.25873089,57581410,42.6899957,-84.488776,261.2099914550781,-0.7420705556869507,-0.7420705556869507
1682374627.35887885,57681558,42.6899957,-84.488776,261.2099914550781,-0.7418667078018188,-0.7418667078018188
1682374627.45874190,57781421,42.689995599999996,-84.488776,261.2099914550781,-0.741958737373352,-0.741958737373352
1682374627.55878592,57881465,42.689995599999996,-84.488776,261.2099914550781,-0.7424770593643188,-0.7424770593643188
1682374627.65881705,57981496,42.689995599999996,-84.488776,261.2099914550781,-0.743881344795227,-0.743881344795227
1682374627.75881100,58081490,42.689995499999995,-84.4887761,261.2099914550781,-0.7460473775863647,-0.7460473775863647
1682374627.85880089,58181480,42.689995499999995,-84.4887761,261.2099914550781,-0.7491480112075806,-0.7491480112075806
1682374627.95913291,58281812,42.689995499999995,-84.4887761,261.1999816894531,-0.7522913217544556,-0.7522913217544556
1682374628.05900407,58381683,42.6899954,-84.4887761,261.1999816894531,-0.7541443109512329,-0.7541443109512329
1682374628.15872097,58481400,42.6899954,-84.4887761,261.1999816894531,-0.7552448511123657,-0.7552448511123657
1682374628.25867987,58581359,42.6899954,-84.4887761,261.1999816894531,-0.7524715662002563,-0.7524715662002563
1682374628.35891795,58681597,42.6899954,-84.4887761,261.2099914550781,-0.7477668523788452,-0.7477668523788452
1682374628.45883489,58781514,42.6899954,-84.4887761,261.2099914550781,-0.7418776750564575,-0.7418776750564575
1682374628.55881190,58881491,42.6899954,-84.4887761,261.2200012207031,-0.7356606721878052,-0.7356606721878052
1682374628.65880394,58981483,42.6899954,-84.4887761,261.2200012207031,-0.7315198183059692,-0.7315198183059692
1682374628.75880599,59081485,42.6899954,-84.488776,261.22998046875,-0.7289091348648071,-0.7289091348648071
1682374628.85915804,59181837,42.6899953,-84.488776,261.22998046875,-0.7265466451644897,-0.7265466451644897
1682374628.95907593,59281755,42.6899953,-84.488776,261.22998046875,-0.7241290807723999,-0.7241290807723999
1682374629.05897903,59381658,42.6899953,-84.488776,261.22998046875,-0.7218834161758423,-0.7218834161758423
1682374629.15913296,59481812,42.6899953,-84.488776,261.22998046875,-0.7207404375076294,-0.7207404375076294
1682374629.25902605,59581705,42.6899952,-84.488776,261.22998046875,-0.721603512763977,-0.721603512763977
1682374629.35917687,59681856,42.6899952,-84.488776,261.22998046875,-0.724321722984314,-0.724321722984314
1682374629.45907903,59781758,42.6899951,-84.488776,261.22998046875,-0.7270959615707397,-0.7270959615707397
1682374629.55907989,59881759,42.6899951,-84.488776,261.2200012207031,-0.7301079034805298,-0.7301079034805298
1682374629.65880203,59981481,42.6899951,-84.488776,261.2200012207031,-0.7342764139175415,-0.7342764139175415
1682374629.75889492,60081574,42.6899951,-84.488776,261.2200012207031,-0.7368968725204468,-0.7368968725204468
1682374629.85879397,60181473,42.6899951,-84.488776,261.2200012207031,-0.739364504814148,-0.739364504814148
1682374629.95872808,60281407,42.6899951,-84.488776,261.2099914550781,-0.7405377626419067,-0.7405377626419067
1682374630.05875087,60381430,42.689994999999996,-84.488776,261.2099914550781,-0.7420419454574585,-0.7420419454574585
1682374630.15875697,60481436,42.689994999999996,-84.488776,261.2099914550781,-0.7422701120376587,-0.7422701120376587
1682374630.25879598,60581475,42.689994999999996,-84.488776,261.2099914550781,-0.7423650026321411,-0.7423650026321411
1682374630.35889602,60681575,42.689994899999995,-84.488776,261.2099914550781,-0.7428611516952515,-0.7428611516952515
1682374630.45909286,60781772,42.689994899999995,-84.4887761,261.2099914550781,-0.7443042993545532,-0.7443042993545532
1682374630.55901289,60881692,42.689994899999995,-84.4887761,261.2099914550781,-0.7450729608535767,-0.7450729608535767
1682374630.65915895,60981838,42.6899948,-84.4887761,261.2099914550781,-0.7483359575271606,-0.7483359575271606
1682374630.75900793,61081687,42.6899948,-84.4887761,261.1999816894531,-0.7523382902145386,-0.7523382902145386
1682374630.85902095,61181700,42.6899948,-84.4887761,261.1999816894531,-0.7571989297866821,-0.7571989297866821
1682374630.95870996,61281389,42.6899948,-84.4887761,261.19000244140625,-0.7628270387649536,-0.7628270387649536
1682374631.05905795,61381737,42.6899948,-84.4887761,261.19000244140625,-0.7675000429153442,-0.7675000429153442
1682374631.15908599,61481765,42.6899948,-84.4887761,261.19000244140625,-0.7696496248245239,-0.7696496248245239
1682374631.25920105,61581880,42.6899947,-84.4887761,261.17999267578125,-0.7728041410446167,-0.7728041410446167
1682374631.35914397,61681823,42.6899947,-84.4887761,261.17999267578125,-0.7759097814559937,-0.7759097814559937
1682374631.45902801,61781707,42.6899947,-84.4887761,261.16998291015625,-0.7810343503952026,-0.7810343503952026
1682374631.55916095,61881840,42.6899947,-84.4887761,261.16998291015625,-0.7853032350540161,-0.7853032350540161
1682374631.65902185,61981701,42.6899947,-84.4887761,261.16998291015625,-0.7881630659103394,-0.7881630659103394
1682374631.75903392,62081713,42.6899947,-84.4887761,261.1600036621094,-0.7900418043136597,-0.7900418043136597
1682374631.85903406,62181713,42.6899946,-84.4887761,261.1600036621094,-0.7932342290878296,-0.7932342290878296
1682374631.95902085,62281700,42.6899946,-84.4887761,261.1600036621094,-0.7955373525619507,-0.7955373525619507
1682374632.05906105,62381740,42.6899946,-84.488776,261.1600036621094,-0.7997835874557495,-0.7997835874557495
1682374632.15905499,62481734,42.6899946,-84.488776,261.1499938964844,-0.8030833005905151,-0.8030833005905151
1682374632.25908089,62581760,42.6899945,-84.488776,261.1499938964844,-0.8063663244247437,-0.8063663244247437
1682374632.35914707,62681826,42.6899945,-84.4887759,261.1499938964844,-0.8096204996109009,-0.8096204996109009
1682374632.45912504,62781804,42.689994399999996,-84.4887759,261.1399841308594,-0.8114956617355347,-0.8114956617355347
1682374632.55903101,62881710,42.689994399999996,-84.4887758,261.1399841308594,-0.8136836290359497,-0.8136836290359497
1682374632.65899801,62981677,42.689994399999996,-84.4887758,261.1399841308594,-0.8188914060592651,-0.8188914060592651
1682374632.75909591,63081775,42.689994399999996,-84.4887758,261.1300048828125,-0.8241294622421265,-0.8241294622421265
1682374632.85934901,63182028,42.689994399999996,-84.4887758,261.1300048828125,-0.8260940313339233,-0.8260940313339233
1682374632.95940399,63282083,42.689994299999995,-84.48877569999999,261.1300048828125,-0.8268948793411255,-0.8268948793411255
1682374633.05907202,63381751,42.689994299999995,-84.48877569999999,261.1300048828125,-0.8272255659103394,-0.8272255659103394
1682374633.15902495,63481704,42.689994299999995,-84.48877569999999,261.1300048828125,-0.8253985643386841,-0.8253985643386841
1682374633.25901890,63581698,42.689994299999995,-84.48877569999999,261.1300048828125,-0.8227137327194214,-0.8227137327194214
1682374633.35935402,63682033,42.689994299999995,-84.48877569999999,261.1300048828125,-0.8204950094223022,-0.8204950094223022
1682374633.45907998,63781759,42.6899942,-84.4887756,261.1399841308594,-0.8191548585891724,-0.8191548585891724
1682374633.55873203,63881411,42.6899942,-84.4887756,261.1399841308594,-0.8165255784988403,-0.8165255784988403
1682374633.65870094,63981380,42.6899942,-84.4887756,261.1399841308594,-0.8142849206924438,-0.8142849206924438
1682374633.75876689,64081446,42.6899941,-84.4887756,261.1399841308594,-0.813313364982605,-0.813313364982605
1682374633.85879207,64181471,42.6899941,-84.4887756,261.1399841308594,-0.8131886720657349,-0.8131886720657349
1682374633.95881987,64281499,42.6899941,-84.4887756,261.1399841308594,-0.8132237195968628,-0.8132237195968628
1682374634.05884194,64381521,42.689994,-84.4887756,261.1399841308594,-0.8131798505783081,-0.8131798505783081
1682374634.15883303,64481512,42.689994,-84.4887756,261.1399841308594,-0.8117612600326538,-0.8117612600326538
1682374634.25893188,64581611,42.689994,-84.4887756,261.1499938964844,-0.8096984624862671,-0.8096984624862671
1682374634.35893106,64681610,42.689994,-84.4887756,261.1499938964844,-0.8082612752914429,-0.8082612752914429
1682374634.45873594,64781415,42.689994,-84.4887756,261.1499938964844,-0.8081561326980591,-0.8081561326980591
1682374634.55872607,64881405,42.689994,-84.4887756,261.1499938964844,-0.8099187612533569,-0.8099187612533569
1682374634.65873599,64981415,42.689994,-84.4887755,261.1399841308594,-0.8122154474258423,-0.8122154474258423
1682374634.75877595,65081455,42.6899939,-84.4887755,261.1399841308594,-0.8139303922653198,-0.8139303922653198
1682374634.85882401,65181503,42.6899939,-84.4887755,261.1399841308594,-0.8152917623519897,-0.8152917623519897
1682374634.95884085,65281520,42.6899939,-84.4887755,261.1399841308594,-0.817280650138855,-0.817280650138855
1682374635.05880094,65381480,42.689993799999996,-84.4887755,261.1399841308594,-0.8176919221878052,-0.8176919221878052
1682374635.15891099,65481590,42.689993799999996,-84.4887755,261.1399841308594,-0.816766619682312,-0.816766619682312
1682374635.25878906,65581468,42.689993799999996,-84.4887755,261.1399841308594,-0.8154624700546265,-0.8154624700546265
1682374635.35881591,65681495,42.689993799999996,-84.4887755,261.1399841308594,-0.8148406744003296,-0.8148406744003296
1682374635.45879507,65781474,42.689993699999995,-84.4887755,261.1399841308594,-0.8153003454208374,-0.8153003454208374
1682374635.55875087,65881430,42.689993699999995,-84.4887755,261.1399841308594,-0.8154920339584351,-0.8154920339584351
1682374635.65878987,65981469,42.689993699999995,-84.4887755,261.1399841308594,-0.8154195547103882,-0.8154195547103882
1682374635.75883198,66081511,42.689993699999995,-84.4887754,261.1399841308594,-0.8151601552963257,-0.8151601552963257
1682374635.85882187,66181501,42.6899936,-84.4887754,261.1399841308594,-0.814867377281189,-0.814867377281189
1682374635.95879793,66281477,42.6899936,-84.4887754,261.1399841308594,-0.8151184320449829,-0.8151184320449829
1682374636.05890107,66381580,42.6899936,-84.4887754,261.1399841308594,-0.8154550790786743,-0.8154550790786743
1682374636.15878987,66481469,42.6899936,-84.4887754,261.1399841308594,-0.8159633874893188,-0.8159633874893188
1682374636.25871897,66581398,42.6899936,-84.4887754,261.1399841308594,-0.8155165910720825,-0.8155165910720825
1682374636.35879397,66681473,42.6899936,-84.4887754,261.1399841308594,-0.8145507574081421,-0.8145507574081421
1682374636.45876408,66781443,42.6899936,-84.4887754,261.1399841308594,-0.8162397146224976,-0.8162397146224976
1682374636.55878901,66881468,42.6899936,-84.4887754,261.1399841308594,-0.8192611932754517,-0.8192611932754517
1682374636.65908504,66981764,42.6899936,-84.4887754,261.1300048828125,-0.8201292753219604,-0.8201292753219604
1682374636.75909805,67081777,42.6899936,-84.4887754,261.1300048828125,-0.8203209638595581,-0.8203209638595581
1682374636.85880899,67181488,42.6899936,-84.4887753,261.1300048828125,-0.8225971460342407,-0.8225971460342407
1682374636.95892000,67281599,42.6899935,-84.4887753,261.1300048828125,-0.8251842260360718,-0.8251842260360718
1682374637.05898285,67381662,42.6899935,-84.4887753,261.1300048828125,-0.8275784254074097,-0.8275784254074097
1682374637.15897489,67481654,42.6899935,-84.4887753,261.1300048828125,-0.8299192190170288,-0.8299192190170288
1682374637.25891399,67581593,42.6899934,-84.4887753,261.1199951171875,-0.8325127363204956,-0.8325127363204956
1682374637.35902905,67681708,42.6899934,-84.4887753,261.1199951171875,-0.8348647356033325,-0.8348647356033325
1682374637.45897388,67781653,42.6899933,-84.4887753,261.1199951171875,-0.8382989168167114,-0.8382989168167114
1682374637.55913806,67881817,42.6899933,-84.48877519999999,261.1099853515625,-0.8418315649032593,-0.8418315649032593
1682374637.65899897,67981678,42.6899933,-84.48877519999999,261.1099853515625,-0.845070481300354,-0.845070481300354
1682374637.75898004,68081659,42.6899933,-84.48877519999999,261.1099853515625,-0.8476144075393677,-0.8476144075393677
1682374637.85902286,68181702,42.6899933,-84.48877519999999,261.1000061035156,-0.8510719537734985,-0.8510719537734985
1682374637.95898485,68281664,42.6899933,-84.48877519999999,261.1000061035156,-0.8548489809036255,-0.8548489809036255
1682374638.05893302,68381612,42.6899933,-84.4887751,261.1000061035156,-0.8578296899795532,-0.8578296899795532
1682374638.15891695,68481596,42.6899933,-84.4887751,261.1000061035156,-0.8598729372024536,-0.8598729372024536
1682374638.25898504,68581664,42.689993199999996,-84.4887751,261.0899963378906,-0.8636173009872437,-0.8636173009872437
1682374638.35916400,68681843,42.689993199999996,-84.4887751,261.0899963378906,-0.8672124147415161,-0.8672124147415161
1682374638.45904303,68781722,42.689993099999995,-84.48877499999999,261.0799865722656,-0.8705605268478394,-0.8705605268478394
1682374638.55899000,68881669,42.689993099999995,-84.48877499999999,261.0799865722656,-0.873818039894104,-0.873818039894104
1682374638.65898204,68981661,42.689993099999995,-84.48877499999999,261.0799865722656,-0.8774546384811401,-0.8774546384811401
1682374638.75905204,69081731,42.689993099999995,-84.48877499999999,261.0799865722656,-0.8793398141860962,-0.8793398141860962
1682374638.85897803,69181657,42.689993099999995,-84.48877499999999,261.07000732421875,-0.8810416460037231,-0.8810416460037231
1682374638.95895004,69281629,42.689993099999995,-84.48877499999999,261.07000732421875,-0.8839162588119507,-0.8839162588119507
1682374639.05890989,69381589,42.689993099999995,-84.48877499999999,261.07000732421875,-0.8866487741470337,-0.8866487741470337
1682374639.15899205,69481671,42.689993099999995,-84.48877499999999,261.07000732421875,-0.8878656625747681,-0.8878656625747681
1682374639.25909591,69581775,42.689993099999995,-84.48877499999999,261.07000732421875,-0.889886736869812,-0.889886736869812
1682374639.35923100,69681910,42.689993099999995,-84.4887749,261.05999755859375,-0.890670657157898,-0.890670657157898
1682374639.45908594,69781765,42.689993,-84.4887749,261.05999755859375,-0.8911834955215454,-0.8911834955215454
1682374639.55880904,69881488,42.689993,-84.4887749,261.05999755859375,-0.8925734758377075,-0.8925734758377075
1682374639.65893292,69981612,42.689993,-84.4887749,261.05999755859375,-0.894600510597229,-0.894600510597229
1682374639.75882888,70081508,42.689993,-84.4887749,261.05999755859375,-0.896048903465271,-0.896048903465271
1682374639.85872507,70181404,42.689993,-84.4887749,261.05999755859375,-0.8958691358566284,-0.8958691358566284
1682374639.95870185,70281381,42.689993,-84.4887748,261.05999755859375,-0.8953770399093628,-0.8953770399093628
1682374640.05873585,70381415,42.689993,-84.4887748,261.05999755859375,-0.8965250253677368,-0.8965250253677368
1682374640.15879202,70481471,42.689993,-84.4887748,261.05999755859375,-0.8985151052474976,-0.8985151052474976
1682374640.25881696,70581496,42.689993,-84.4887748,261.04998779296875,-0.9019743204116821,-0.9019743204116821
1682374640.35894990,70681629,42.689993,-84.4887748,261.04998779296875,-0.9053834676742554,-0.9053834676742554
1682374640.45881104,70781490,42.689993,-84.4887748,261.04998779296875,-0.9062048196792603,-0.9062048196792603
1682374640.55889988,70881579,42.689993,-84.4887748,261.04998779296875,-0.9031683206558228,-0.9031683206558228
1682374640.65878987,70981469,42.689993099999995,-84.4887748,261.04998779296875,-0.9001435041427612,-0.9001435041427612
1682374640.75871587,71081395,42.689993099999995,-84.4887747,261.05999755859375,-0.8981448411941528,-0.8981448411941528
1682374640.85870194,71181381,42.689993099999995,-84.4887747,261.05999755859375,-0.8976081609725952,-0.8976081609725952
1682374640.95875001,71281429,42.689993099999995,-84.4887747,261.05999755859375,-0.8980709314346313,-0.8980709314346313
1682374641.05881000,71381489,42.689993,-84.4887747,261.05999755859375,-0.898910403251648,-0.898910403251648
1682374641.15882301,71481502,42.689993,-84.4887747,261.04998779296875,-0.9007426500320435,-0.9007426500320435
1682374641.25883794,71581517,42.689993,-84.4887747,261.04998779296875,-0.9017108678817749,-0.9017108678817749
1682374641.35890198,71681581,42.689993,-84.4887746,261.04998779296875,-0.9005638360977173,-0.9005638360977173
1682374641.45893598,71781615,42.689993,-84.4887746,261.05999755859375,-0.8992089033126831,-0.8992089033126831
1682374641.55878997,71881469,42.689993,-84.4887746,261.05999755859375,-0.8975163698196411,-0.8975163698196411
1682374641.65873885,71981418,42.689993,-84.4887746,261.05999755859375,-0.8965679407119751,-0.8965679407119751
1682374641.75878906,72081468,42.689993,-84.48877449999999,261.05999755859375,-0.8970991373062134,-0.8970991373062134
1682374641.85875893,72181438,42.689993,-84.48877449999999,261.05999755859375,-0.898635745048523,-0.898635745048523
1682374641.95880985,72281489,42.689993,-84.48877449999999,261.05999755859375,-0.8996740579605103,-0.8996740579605103
1682374642.05888486,72381564,42.689993,-84.48877449999999,261.04998779296875,-0.9000238180160522,-0.9000238180160522
1682374642.15883589,72481515,42.689993,-84.4887744,261.05999755859375,-0.899445652961731,-0.899445652961731
1682374642.25881386,72581493,42.689993,-84.4887744,261.04998779296875,-0.9016071557998657,-0.9016071557998657
1682374642.35922885,72681908,42.689993,-84.4887744,261.04998779296875,-0.9036489725112915,-0.9036489725112915
1682374642.45902586,72781705,42.689993,-84.4887744,261.04998779296875,-0.9055174589157104,-0.9055174589157104
1682374642.55902004,72881699,42.689993099999995,-84.4887744,261.04998779296875,-0.9078670740127563,-0.9078670740127563
1682374642.65899801,72981677,42.689993099999995,-84.4887743,261.04998779296875,-0.9098798036575317,-0.9098798036575317
1682374642.75904202,73081721,42.689993099999995,-84.4887743,261.0400085449219,-0.911666750907898,-0.911666750907898
1682374642.85906386,73181743,42.689993199999996,-84.4887743,261.0400085449219,-0.9140692949295044,-0.9140692949295044
1682374642.95906305,73281742,42.689993199999996,-84.4887742,261.0400085449219,-0.9153686761856079,-0.9153686761856079
1682374643.05909204,73381771,42.689993199999996,-84.4887742,261.0400085449219,-0.9150844812393188,-0.9150844812393188
1682374643.15880895,73481488,42.689993199999996,-84.4887742,261.0400085449219,-0.9143892526626587,-0.9143892526626587
1682374643.25890303,73581582,42.689993199999996,-84.4887742,261.0400085449219,-0.9136871099472046,-0.9136871099472046
1682374643.35894394,73681623,42.689993199999996,-84.4887741,261.0400085449219,-0.9120961427688599,-0.9120961427688599
1682374643.45872688,73781406,42.689993199999996,-84.4887741,261.0400085449219,-0.9105266332626343,-0.9105266332626343
1682374643.55872703,73881406,42.689993199999996,-84.4887741,261.04998779296875,-0.9081138372421265,-0.9081138372421265
1682374643.65873790,73981417,42.689993199999996,-84.4887741,261.04998779296875,-0.9061039686203003,-0.9061039686203003
1682374643.75879407,74081473,42.689993199999996,-84.4887741,261.04998779296875,-0.9043852090835571,-0.9043852090835571
1682374643.85893202,74181611,42.689993199999996,-84.4887741,261.04998779296875,-0.902319073677063,-0.902319073677063
1682374643.95882607,74281505,42.689993199999996,-84.4887741,261.05999755859375,-0.8988965749740601,-0.8988965749740601
1682374644.05880499,74381484,42.689993199999996,-84.4887741,261.05999755859375,-0.894513726234436,-0.894513726234436
1682374644.15891790,74481597,42.689993199999996,-84.48877399999999,261.07000732421875,-0.8898245096206665,-0.8898245096206665
1682374644.25880694,74581486,42.689993199999996,-84.48877399999999,261.07000732421875,-0.8856393098831177,-0.8856393098831177
1682374644.35878205,74681461,42.689993199999996,-84.48877399999999,261.0799865722656,-0.8797999620437622,-0.8797999620437622
1682374644.45870996,74781389,42.6899933,-84.48877399999999,261.0799865722656,-0.8746308088302612,-0.8746308088302612
1682374644.55872893,74881408,42.6899933,-84.48877399999999,261.0799865722656,-0.8708866834640503,-0.8708866834640503
1682374644.65878701,74981466,42.6899933,-84.48877399999999,261.0799865722656,-0.870043158531189,-0.870043158531189
1682374644.75881505,75081494,42.6899933,-84.48877399999999,261.0899963378906,-0.8688606023788452,-0.8688606023788452
1682374644.85901785,75181697,42.6899933,-84.48877399999999,261.0899963378906,-0.8675395250320435,-0.8675395250320435
1682374644.95884490,75281524,42.6899933,-84.4887739,261.0899963378906,-0.8655766248703003,-0.8655766248703003
1682374645.05913997,75381819,42.6899933,-84.4887739,261.0899963378906,-0.8642197847366333,-0.8642197847366333
1682374645.15903187,75481711,42.6899933,-84.4887739,261.0899963378906,-0.8624173402786255,-0.8624173402786255
1682374645.25903893,75581718,42.6899933,-84.4887739,261.0899963378906,-0.8619593381881714,-0.8619593381881714
1682374645.35914803,75681827,42.6899933,-84.4887739,261.0899963378906,-0.861479640007019,-0.861479640007019
1682374645.45904493,75781724,42.6899933,-84.4887739,261.1000061035156,-0.8588927984237671,-0.8588927984237671
1682374645.55906296,75881742,42.6899933,-84.4887739,261.1000061035156,-0.8576153516769409,-0.8576153516769409
1682374645.65905905,75981738,42.6899933,-84.4887739,261.1000061035156,-0.857599139213562,-0.857599139213562
1682374645.75901699,76081696,42.6899933,-84.4887739,261.1000061035156,-0.8580144643783569,-0.8580144643783569
1682374645.85900688,76181686,42.6899934,-84.4887739,261.1000061035156,-0.8586727380752563,-0.8586727380752563
1682374645.95918489,76281864,42.6899934,-84.4887739,261.1000061035156,-0.8588038682937622,-0.8588038682937622
1682374646.05901885,76381698,42.6899934,-84.48877379999999,261.0899963378906,-0.8609796762466431,-0.8609796762466431
1682374646.15902805,76481707,42.6899934,-84.48877379999999,261.0899963378906,-0.8630791902542114,-0.8630791902542114
1682374646.25902295,76581702,42.6899934,-84.48877379999999,261.0899963378906,-0.8655744791030884,-0.8655744791030884
1682374646.35919785,76681877,42.6899934,-84.4887737,261.0899963378906,-0.8666659593582153,-0.8666659593582153
1682374646.45912004,76781799,42.6899934,-84.4887737,261.0899963378906,-0.8667365312576294,-0.8667365312576294
1682374646.55905485,76881734,42.6899934,-84.4887737,261.0899963378906,-0.8655925989151001,-0.8655925989151001
1682374646.65907788,76981757,42.6899934,-84.4887737,261.0899963378906,-0.8645440340042114,-0.8645440340042114
1682374646.75900602,77081685,42.6899934,-84.4887736,261.0899963378906,-0.8648999929428101,-0.8648999929428101
1682374646.85912991,77181809,42.6899934,-84.4887736,261.0899963378906,-0.865291953086853,-0.865291953086853
1682374646.95902586,77281705,42.6899934,-84.4887736,261.0899963378906,-0.866684079170227,-0.866684079170227
1682374647.05901885,77381698,42.6899934,-84.4887735,261.0899963378906,-0.8671478033065796,-0.8671478033065796
1682374647.15902495,77481704,42.6899934,-84.4887735,261.0899963378906,-0.8669918775558472,-0.8669918775558472
1682374647.25904799,77581727,42.6899934,-84.4887734,261.0899963378906,-0.867547869682312,-0.867547869682312
1682374647.35919285,77681872,42.6899934,-84.48877329999999,261.0899963378906,-0.8683303594589233,-0.8683303594589233
1682374647.45907593,77781755,42.6899935,-84.48877329999999,261.0899963378906,-0.8687068223953247,-0.8687068223953247
1682374647.55902696,77881706,42.6899935,-84.4887732,261.0899963378906,-0.8670986890792847,-0.8670986890792847
1682374647.65901184,77981691,42.6899935,-84.4887732,261.0899963378906,-0.8647323846817017,-0.8647323846817017
1682374647.75912786,78081807,42.6899935,-84.4887731,261.0899963378906,-0.8637458086013794,-0.8637458086013794
1682374647.85900497,78181684,42.6899935,-84.4887731,261.0899963378906,-0.8650895357131958,-0.8650895357131958
1682374647.95902991,78281709,42.6899935,-84.488773,261.0899963378906,-0.8670769929885864,-0.8670769929885864
1682374648.05910587,78381785,42.6899935,-84.488773,261.0899963378906,-0.8685551881790161,-0.8685551881790161
1682374648.15903187,78481711,42.6899935,-84.4887729,261.0899963378906,-0.8672207593917847,-0.8672207593917847
1682374648.25906706,78581746,42.6899936,-84.4887729,261.0899963378906,-0.867594838142395,-0.867594838142395
1682374648.35919690,78681876,42.6899936,-84.4887729,261.0899963378906,-0.8684147596359253,-0.8684147596359253
1682374648.45908999,78781769,42.6899936,-84.48877279999999,261.0899963378906,-0.8686493635177612,-0.8686493635177612
1682374648.55900002,78881679,42.6899936,-84.48877279999999,261.0899963378906,-0.8686650991439819,-0.8686650991439819
1682374648.65911508,78981794,42.6899936,-84.4887727,261.0899963378906,-0.8689273595809937,-0.8689273595809937
1682374648.75899792,79081677,42.689993699999995,-84.4887727,261.0899963378906,-0.8672031164169312,-0.8672031164169312
1682374648.85900998,79181689,42.689993699999995,-84.48877259999999,261.0899963378906,-0.8634825944900513,-0.8634825944900513
1682374648.95907903,79281758,42.689993699999995,-84.48877259999999,261.1000061035156,-0.8589416742324829,-0.8589416742324829
1682374649.05903792,79381717,42.689993699999995,-84.4887725,261.1000061035156,-0.8551262617111206,-0.8551262617111206
1682374649.15909886,79481778,42.689993699999995,-84.4887725,261.1000061035156,-0.8529282808303833,-0.8529282808303833
1682374649.25904703,79581726,42.689993699999995,-84.4887724,261.1000061035156,-0.8520182371139526,-0.8520182371139526
1682374649.35918784,79681867,42.689993799999996,-84.4887724,261.1000061035156,-0.8510304689407349,-0.8510304689407349
1682374649.45901799,79781697,42.689993799999996,-84.4887723,261.1000061035156,-0.8522590398788452,-0.8522590398788452
1682374649.55929589,79881975,42.689993799999996,-84.4887723,261.1000061035156,-0.8541392087936401,-0.8541392087936401
1682374649.65901399,79981693,42.689993799999996,-84.4887723,261.1000061035156,-0.8553744554519653,-0.8553744554519653
1682374649.75902104,80081700,42.689993799999996,-84.4887722,261.1000061035156,-0.8570107221603394,-0.8570107221603394
1682374649.85905004,80181729,42.689993799999996,-84.4887722,261.1000061035156,-0.858770489692688,-0.858770489692688
1682374649.95904899,80281728,42.689993799999996,-84.48877209999999,261.0899963378906,-0.8608237504959106,-0.8608237504959106
1682374650.05911207,80381791,42.689993799999996,-84.48877209999999,261.0899963378906,-0.8641787767410278,-0.8641787767410278
1682374650.15921307,80481892,42.6899939,-84.48877209999999,261.0899963378906,-0.8677119016647339,-0.8677119016647339
1682374650.25909805,80581777,42.6899939,-84.488772,261.0799865722656,-0.8716095685958862,-0.8716095685958862
1682374650.35913801,80681817,42.6899939,-84.488772,261.0799865722656,-0.8755005598068237,-0.8755005598068237
1682374650.45916605,80781845,42.6899939,-84.4887719,261.0799865722656,-0.878775954246521,-0.878775954246521
1682374650.55902195,80881701,42.689994,-84.4887719,261.07000732421875,-0.8810111284255981,-0.8810111284255981
1682374650.65903497,80981714,42.689994,-84.4887719,261.07000732421875,-0.8816622495651245,-0.8816622495651245
1682374650.75907707,81081756,42.689994,-84.4887718,261.07000732421875,-0.8829034566879272,-0.8829034566879272
1682374650.85900903,81181688,42.689994,-84.4887718,261.07000732421875,-0.8834525346755981,-0.8834525346755981
1682374650.95910501,81281784,42.689994,-84.4887717,261.07000732421875,-0.8832675218582153,-0.8832675218582153
1682374651.05907393,81381753,42.689994,-84.4887717,261.07000732421875,-0.8827587366104126,-0.8827587366104126
1682374651.15909290,81481772,42.689994,-84.4887717,261.07000732421875,-0.8815149068832397,-0.8815149068832397
1682374651.25907397,81581753,42.6899941,-84.48877159999999,261.07000732421875,-0.8816186189651489,-0.8816186189651489
1682374651.35921502,81681894,42.6899941,-84.48877159999999,261.07000732421875,-0.8824747800827026,-0.8824747800827026
1682374651.45902991,81781709,42.6899941,-84.4887715,261.07000732421875,-0.8864074945449829,-0.8864074945449829
1682374651.55904007,81881719,42.6899941,-84.4887715,261.05999755859375,-0.891250729560852,-0.891250729560852
1682374651.65902495,81981704,42.6899942,-84.48877139999999,261.05999755859375,-0.8946939706802368,-0.8946939706802368
1682374651.75902390,82081703,42.6899942,-84.48877139999999,261.05999755859375,-0.8966282606124878,-0.8966282606124878
1682374651.85913992,82181819,42.6899942,-84.4887713,261.05999755859375,-0.8968297243118286,-0.8968297243118286
1682374651.95907903,82281758,42.6899942,-84.4887713,261.05999755859375,-0.8960262537002563,-0.8960262537002563
1682374652.05908489,82381764,42.689994299999995,-84.4887712,261.05999755859375,-0.893715500831604,-0.893715500831604
1682374652.15900803,82481687,42.689994299999995,-84.4887712,261.05999755859375,-0.8919154405593872,-0.8919154405593872
1682374652.25919294,82581872,42.689994299999995,-84.4887711,261.05999755859375,-0.8911570310592651,-0.8911570310592651
1682374652.35914993,82681829,42.689994399999996,-84.4887711,261.05999755859375,-0.8906944990158081,-0.8906944990158081
1682374652.45903993,82781719,42.689994399999996,-84.4887711,261.05999755859375,-0.8900822401046753,-0.8900822401046753
1682374652.55900788,82881687,42.6899945,-84.488771,261.07000732421875,-0.889647364616394,-0.889647364616394
1682374652.65902185,82981701,42.6899945,-84.488771,261.07000732421875,-0.8887895345687866,-0.8887895345687866
1682374652.75912404,83081803,42.6899945,-84.488771,261.07000732421875,-0.8881639242172241,-0.8881639242172241
1682374652.85907507,83181754,42.6899946,-84.48877089999999,261.07000732421875,-0.8867019414901733,-0.8867019414901733
1682374652.95910692,83281786,42.6899946,-84.48877089999999,261.07000732421875,-0.8872390985488892,-0.8872390985488892
1682374653.05900192,83381681,42.6899947,-84.4887708,261.07000732421875,-0.8894475698471069,-0.8894475698471069
1682374653.15912795,83481807,42.6899947,-84.4887708,261.05999755859375,-0.8924607038497925,-0.8924607038497925
1682374653.25901699,83581696,42.6899948,-84.4887708,261.05999755859375,-0.8973244428634644,-0.8973244428634644
1682374653.35910106,83681780,42.6899948,-84.48877069999999,261.04998779296875,-0.9027343988418579,-0.9027343988418579
1682374653.45901990,83781699,42.6899948,-84.48877069999999,261.04998779296875,-0.9077078104019165,-0.9077078104019165
1682374653.55902100,83881700,42.689994899999995,-84.4887706,261.0400085449219,-0.912380576133728,-0.912380576133728
1682374653.65909100,83981770,42.689994899999995,-84.4887706,261.0400085449219,-0.9162336587905884,-0.9162336587905884
1682374653.75905800,84081737,42.689994999999996,-84.4887706,261.0400085449219,-0.9185150861740112,-0.9185150861740112
1682374653.85908985,84181769,42.689994999999996,-84.4887705,261.0299987792969,-0.9201747179031372,-0.9201747179031372
1682374653.95901990,84281699,42.689994999999996,-84.4887705,261.0299987792969,-0.9211903810501099,-0.9211903810501099
1682374654.05911303,84381792,42.6899951,-84.48877039999999,261.0299987792969,-0.9202836751937866,-0.9202836751937866
1682374654.15900087,84481680,42.6899951,-84.48877039999999,261.0400085449219,-0.9187227487564087,-0.9187227487564087
1682374654.25901604,84581695,42.6899951,-84.48877039999999,261.0400085449219,-0.9170275926589966,-0.9170275926589966
1682374654.35921502,84681894,42.6899952,-84.4887703,261.0400085449219,-0.9182103872299194,-0.9182103872299194
1682374654.45902300,84781702,42.6899952,-84.4887703,261.0400085449219,-0.9192792177200317,-0.9192792177200317
1682374654.55909491,84881774,42.6899953,-84.48877019999999,261.0299987792969,-0.9202736616134644,-0.9202736616134644
1682374654.65881491,84981494,42.6899953,-84.48877019999999,261.0299987792969,-0.9224499464035034,-0.9224499464035034
1682374654.75883007,85081509,42.6899954,-84.4887701,261.0299987792969,-0.9253383874893188,-0.9253383874893188
1682374654.85880804,85181487,42.6899954,-84.4887701,261.0299987792969,-0.9271179437637329,-0.9271179437637329
1682374654.95891595,85281595,42.689995499999995,-84.4887701,261.0299987792969,-0.9289623498916626,-0.9289623498916626
1682374655.05879998,85381479,42.689995499999995,-84.48877,261.0199890136719,-0.9322351217269897,-0.9322351217269897
1682374655.15872288,85481402,42.689995499999995,-84.48877,261.0199890136719,-0.9350448846817017,-0.9350448846817017
1682374655.25871205,85581391,42.689995499999995,-84.48877,261.0199890136719,-0.9380201101303101,-0.9380201101303101
1682374655.35880494,85681484,42.689995499999995,-84.4887699,261.0099792480469,-0.9404407739639282,-0.9404407739639282
1682374655.45884299,85781522,42.689995499999995,-84.4887699,261.0099792480469,-0.9435526132583618,-0.9435526132583618
1682374655.55883288,85881512,42.689995499999995,-84.4887699,261.0099792480469,-0.9460781812667847,-0.9460781812667847
1682374655.65882993,85981509,42.689995499999995,-84.4887698,261.0099792480469,-0.947445273399353,-0.947445273399353
1682374655.75881004,86081489,42.689995599999996,-84.4887698,261.0099792480469,-0.9485143423080444,-0.9485143423080444
1682374655.85891390,86181593,42.689995599999996,-84.48876969999999,261.0,-0.9507380723953247,-0.9507380723953247
1682374655.95879197,86281471,42.689995599999996,-84.48876969999999,261.0,-0.9541360139846802,-0.9541360139846802
1682374656.05871797,86381397,42.689995599999996,-84.48876969999999,261.0,-0.9582058191299438,-0.9582058191299438
1682374656.15871596,86481395,42.689995599999996,-84.4887696,260.989990234375,-0.9605005979537964,-0.9605005979537964
1682374656.25875807,86581437,42.689995599999996,-84.4887696,260.989990234375,-0.9603334665298462,-0.9603334665298462
1682374656.35891485,86681594,42.6899957,-84.48876949999999,261.0,-0.9590543508529663,-0.9590543508529663
1682374656.45895791,86781637,42.6899957,-84.48876949999999,261.0,-0.9596184492111206,-0.9596184492111206
1682374656.55908990,86881769,42.6899957,-84.4887694,261.0,-0.9595693349838257,-0.9595693349838257
1682374656.65900397,86981683,42.6899957,-84.4887694,260.989990234375,-0.9606097936630249,-0.9606097936630249
1682374656.75911689,87081796,42.6899957,-84.4887693,260.989990234375,-0.964044451713562,-0.964044451713562
1682374656.85877991,87181459,42.6899957,-84.4887693,260.989990234375,-0.9681237936019897,-0.9681237936019897
