timestamp,TimeUS,C,Roll,Pitch,Yaw,VN,VE,VD,dPD,PN,PE,PD,GX,GY,GZ,OH
1682374604.45801306,34780692,2,-0.97,1.23,313.26,-1.0935518741607666,-0.7658926248550415,0.052800316363573074,0.015106139704585075,0.3005608916282654,0.2372867614030838,0.5666338205337524,-0.16,0.04,0.41000000000000003,264.16
1682374604.55800986,34880689,2,-0.89,1.22,313.22,-1.0734659433364868,-0.7502925395965576,0.05135156586766243,0.0030558661092072725,0.3005608916282654,0.2372867614030838,0.5665963888168335,-0.16,0.04,0.41000000000000003,264.16
1682374604.65800905,34980688,2,-0.8,1.2,313.16,-1.0505428314208984,-0.735430121421814,0.048270951956510544,-0.01825234666466713,0.2894290089607239,0.2372867614030838,0.5647498369216919,-0.17,0.04,0.42,264.16
1682374604.75801396,35080693,2,-0.72,1.18,313.1,-1.0264989137649536,-0.719965398311615,0.04549818113446236,-0.03996012732386589,0.2894290089607239,0.2372867614030838,0.5613192319869995,-0.17,0.04,0.42,264.16
1682374604.85803890,35180718,2,-0.64,1.17,313.06,-1.0015002489089966,-0.7026885151863098,0.042502231895923615,-0.06572618335485458,0.26716524362564087,0.22910445928573608,0.5552490949630737,-0.17,0.05,0.42,264.16
1682374604.95806694,35280746,2,-0.55,1.16,313.0,-0.9751998782157898,-0.6859764456748962,0.039696741849184036,-0.0844532698392868,0.26716524362564087,0.22910445928573608,0.5481218099594116,-0.18,0.05,0.42,264.16
1682374605.05803490,35380714,2,-0.47000000000000003,1.1400000000000001,312.95,-0.9497017860412598,-0.6678718328475952,0.03775976225733757,-0.08270198851823807,0.256033331155777,0.22910445928573608,0.5410786867141724,-0.18,0.05,0.42,264.16
1682374605.15807104,35480750,2,-0.39,1.1300000000000001,312.91,-0.9216043949127197,-0.6494709253311157,0.03596419095993042,-0.05563173443078995,0.256033331155777,0.22910445928573608,0.5370296239852905,-0.19,0.05,0.42,264.16
1682374605.25800085,35580680,2,-0.3,1.1,312.85,-0.8946092128753662,-0.6299822926521301,0.03352884575724602,-0.0339026153087616,0.23376958072185516,0.22910445928573608,0.5330971479415894,-0.19,0.05,0.42,264.16
1682374605.35801005,35680689,2,-0.22,1.09,312.8,-0.8658581972122192,-0.6105284094810486,0.0315704382956028,-0.03221117705106735,0.23376958072185516,0.22910445928573608,0.5297673940658569,-0.2,0.05,0.43,264.16
1682374605.45801401,35780693,2,-0.14,1.08,312.77,-0.8371570110321045,-0.5907591581344604,0.030099160969257355,-0.01843232475221157,0.22263768315315247,0.22092215716838837,0.5277525186538696,-0.2,0.05,0.43,264.16
1682374605.55800986,35880689,2,-0.06,1.06,312.73,-0.8075664639472961,-0.5709088444709778,0.029197294265031815,0.005866201128810644,0.22263768315315247,0.22092215716838837,0.5282777547836304,-0.2,0.05,0.43,264.16
1682374605.65801096,35980690,2,0.02,1.05,312.69,-0.7770927548408508,-0.5507965087890625,0.028664948418736458,0.019648341462016106,0.20037391781806946,0.21273985505104065,0.5290509462356567,-0.21,0.05,0.43,264.16
1682374605.75803804,36080717,2,0.09,1.04,312.66,-0.7463718056678772,-0.5317420363426208,0.026747681200504303,0.00401715561747551,0.20037391781806946,0.21273985505104065,0.5284768342971802,-0.21,0.05,0.43,264.16
1682374605.85807395,36180753,2,0.17,1.03,312.61,-0.7144449949264526,-0.5109601020812988,0.02530362643301487,-0.023410474881529808,0.18924203515052795,0.21273985505104065,0.5255540609359741,-0.21,0.05,0.43,264.16
1682374605.95803499,36280714,2,0.25,1.01,312.57,-0.6838127374649048,-0.4895699620246887,0.02317909710109234,-0.05185792222619057,0.18924203515052795,0.21273985505104065,0.5208748579025269,-0.22,0.05,0.43,264.16
1682374606.05807996,36380759,2,0.33,1.0,312.54,-0.6511507630348206,-0.4691661596298218,0.021308131515979767,-0.039381999522447586,0.18924203515052795,0.21273985505104065,0.5188213586807251,-0.22,0.05,0.43,264.16
1682374606.15800905,36480688,2,0.4,0.99,312.49,-0.619486391544342,-0.44679272174835205,0.019895389676094055,-0.015082575380802155,0.18924203515052795,0.21273985505104065,0.5172644853591919,-0.22,0.05,0.43,264.16
1682374606.25799990,36580679,2,0.48,0.99,312.46,-0.587079644203186,-0.4256124794483185,0.019118838012218475,-0.012103110551834106,0.17811015248298645,0.21273985505104065,0.5159076452255249,-0.23,0.05,0.43,264.16
1682374606.35799789,36680677,2,0.55,0.98,312.45,-0.5554823279380798,-0.40303274989128113,0.01880311779677868,-0.017104867845773697,0.17811015248298645,0.21273985505104065,0.5136157274246216,-0.23,0.05,0.43,264.16
1682374606.45800304,36780682,2,0.63,0.97,312.41,-0.5235002636909485,-0.38065025210380554,0.017904581502079964,-0.03810582309961319,0.16697826981544495,0.21273985505104065,0.509585976600647,-0.23,0.05,0.42,264.16
1682374606.55799603,36880675,2,0.7000000000000001,0.96,312.39,-0.4914098381996155,-0.35809624195098877,0.017029954120516777,-0.035919465124607086,0.16697826981544495,0.21273985505104065,0.5071119070053101,-0.24,0.05,0.42,264.16
1682374606.65802002,36980699,2,0.76,0.9500000000000001,312.38,-0.4594610631465912,-0.3355883061885834,0.017396114766597748,-0.008600102737545967,0.15584638714790344,0.21273985505104065,0.5065983533859253,-0.24,0.06,0.42,264.16
1682374606.75807190,37080751,2,0.8300000000000001,0.9400000000000001,312.36,-0.4281983971595764,-0.3125527799129486,0.01775588095188141,0.009453851729631424,0.15584638714790344,0.21273985505104065,0.5071090459823608,-0.24,0.06,0.42,264.16
1682374606.85806704,37180746,2,0.9,0.9400000000000001,312.34000000000003,-0.3970983326435089,-0.2902558147907257,0.018062040209770203,0.023319220170378685,0.15584638714790344,0.20455755293369293,0.509034276008606,-0.24,0.06,0.42,264.16
1682374606.95806003,37280739,2,0.97,0.93,312.33,-0.3655591309070587,-0.2678104043006897,0.01848592236638069,0.039548516273498535,0.15584638714790344,0.20455755293369293,0.5124825239181519,-0.25,0.06,0.42,264.16
1682374607.05800200,37380681,2,1.03,0.92,312.31,-0.3357159197330475,-0.2463052123785019,0.0186614952981472,0.03686730936169624,0.15584638714790344,0.21273985505104065,0.5148025751113892,-0.25,0.06,0.42,264.16
1682374607.15799689,37480676,2,1.1,0.91,312.29,-0.30418527126312256,-0.2253168821334839,0.017619695514440536,0.01372411660850048,0.15584638714790344,0.21273985505104065,0.5157381296157837,-0.25,0.06,0.41000000000000003,264.16
1682374607.25800085,37580680,2,1.16,0.9,312.28000000000003,-0.2731802463531494,-0.20376312732696533,0.01692047528922558,0.01235116459429264,0.15584638714790344,0.21273985505104065,0.5175734758377075,-0.25,0.06,0.41000000000000003,264.16
1682374607.35799789,37680677,2,1.23,0.89,312.26,-0.243063285946846,-0.18274936079978943,0.01656675897538662,0.003321936586871743,0.15584638714790344,0.21273985505104065,0.517513632774353,-0.26,0.06,0.41000000000000003,264.16
1682374607.45799994,37780679,2,1.3,0.88,312.25,-0.21275682747364044,-0.16102983057498932,0.01659751497209072,-0.015793628990650177,0.14471450448036194,0.22092215716838837,0.5161508321762085,-0.26,0.06,0.41000000000000003,264.16
1682374607.55802488,37880704,2,1.36,0.87,312.25,-0.1832410842180252,-0.14151741564273834,0.016149194911122322,-0.023629914969205856,0.14471450448036194,0.22092215716838837,0.5145081281661987,-0.26,0.06,0.41000000000000003,264.16
1682374607.65806007,37980739,2,1.41,0.86,312.24,-0.1543658971786499,-0.12097533792257309,0.014341152273118496,-0.0275894645601511,0.13358262181282043,0.22092215716838837,0.5123635530471802,-0.26,0.06,0.4,264.16
1682374607.75803399,38080713,2,1.47,0.86,312.23,-0.1270597130060196,-0.10045257210731506,0.01337727252393961,-0.025028938427567482,0.13358262181282043,0.22092215716838837,0.5105317831039429,-0.26,0.06,0.4,264.16
1682374607.85806799,38180747,2,1.52,0.85,312.23,-0.0998167023062706,-0.08143071085214615,0.013713819906115532,-0.02349746972322464,0.11131884157657623,0.22092215716838837,0.5082448720932007,-0.27,0.06,0.4,264.16
1682374607.95799494,38280674,2,1.58,0.85,312.22,-0.07241278141736984,-0.06185164675116539,0.014064238406717777,0.008868757635354996,0.11131884157657623,0.22092215716838837,0.5103849172592163,-0.27,0.06,0.4,264.16
1682374608.05800486,38380684,2,1.6300000000000001,0.85,312.22,-0.0457351878285408,-0.04368642345070839,0.013584828935563564,0.03157973289489746,0.08905507624149323,0.22910445928573608,0.512403130531311,-0.27,0.06,0.4,264.16
1682374608.15799904,38480678,2,1.68,0.85,312.23,-0.0192823838442564,-0.023119144141674042,0.013679039664566517,0.01966043934226036,0.08905507624149323,0.22910445928573608,0.5132793188095093,-0.27,0.06,0.39,264.16
1682374608.25799990,38580679,2,1.73,0.85,312.23,0.006429433822631836,-0.004181471187621355,0.013924374245107174,-0.0019452638225629926,0.07792319357395172,0.22910445928573608,0.5125309228897095,-0.27,0.06,0.39,264.16
1682374608.35799885,38680678,2,1.78,0.84,312.24,0.03208614140748978,0.014638696797192097,0.013225634582340717,-0.0033972333185374737,0.07792319357395172,0.22910445928573608,0.5130311250686646,-0.27,0.06,0.39,264.16
1682374608.45803285,38780712,2,1.83,0.85,312.24,0.05713656544685364,0.03328557312488556,0.013052910566329956,-0.002955595264211297,0.07792319357395172,0.2372867614030838,0.5125702619552612,-0.27,0.06,0.39,264.16
1682374608.55807304,38880752,2,1.8800000000000001,0.84,312.23,0.08112508058547974,0.0517408661544323,0.012699799612164497,-0.004377478267997503,0.07792319357395172,0.2372867614030838,0.5124951601028442,-0.28,0.06,0.38,264.16
1682374608.65804505,38980724,2,1.92,0.8300000000000001,312.23,0.1047743707895279,0.07018285989761353,0.014078320935368538,0.014842402189970016,0.06679131090641022,0.24546906352043152,0.5144366025924683,-0.28,0.06,0.38,264.16
1682374608.75807405,39080753,2,1.97,0.8300000000000001,312.23,0.12782536447048187,0.08752311021089554,0.014446059241890907,0.028337789699435234,0.06679131090641022,0.24546906352043152,0.5168043375015259,-0.28,0.06,0.38,264.16
1682374608.85799384,39180673,2,2.0100000000000002,0.8300000000000001,312.24,0.14965012669563293,0.10503608733415604,0.0155562162399292,0.02307863160967827,0.055659420788288116,0.25365138053894043,0.518330454826355,-0.28,0.06,0.38,264.16
1682374608.95799685,39280676,2,2.05,0.8300000000000001,312.25,0.1710824817419052,0.1215190589427948,0.014849064871668816,-0.0032463313546031713,0.055659420788288116,0.25365138053894043,0.5173496007919312,-0.28,0.06,0.37,264.16
1682374609.05800295,39380682,2,2.08,0.8300000000000001,312.26,0.19280962646007538,0.13750241696834564,0.014907442964613438,-0.030079618096351624,0.04452753812074661,0.25365138053894043,0.514680027961731,-0.28,0.06,0.37,264.16
1682374609.15799785,39480677,2,2.12,0.8300000000000001,312.27,0.21308928728103638,0.15262356400489807,0.014514350332319736,-0.037132129073143005,0.04452753812074661,0.25365138053894043,0.512046217918396,-0.28,0.06,0.37,264.16
1682374609.25799990,39580679,2,2.15,0.8200000000000001,312.27,0.23350906372070312,0.16758562624454498,0.01353230606764555,-0.027451885864138603,0.04452753812074661,0.25365138053894043,0.5101364850997925,-0.28,0.06,0.37,264.16
1682374609.35802984,39680709,2,2.19,0.8200000000000001,312.28000000000003,0.25214096903800964,0.18208539485931396,0.013976526446640491,-0.013668865896761417,0.04452753812074661,0.25365138053894043,0.5091222524642944,-0.28,0.06,0.36,264.16
1682374609.45806694,39780746,2,2.22,0.8200000000000001,312.29,0.2700628638267517,0.19623947143554688,0.014032727107405663,-0.006811062339693308,0.022263769060373306,0.26183366775512695,0.5082193613052368,-0.28,0.06,0.36,264.16
1682374609.55804706,39880726,2,2.25,0.8200000000000001,312.31,0.28749099373817444,0.21012119948863983,0.015082146972417831,0.012332587502896786,0.022263769060373306,0.26183366775512695,0.5098868608474731,-0.28,0.06,0.36,264.16
1682374609.65806699,39980746,2,2.27,0.8200000000000001,312.33,0.30367740988731384,0.22391082346439362,0.015486374497413635,0.02121220901608467,0.011131884530186653,0.27001598477363586,0.5109525918960571,-0.28,0.06,0.35000000000000003,264.16
1682374609.75799704,40080676,2,2.3000000000000003,0.8200000000000001,312.34000000000003,0.32042235136032104,0.23678408563137054,0.01660565845668316,0.012672558426856995,0.011131884530186653,0.27001598477363586,0.5116313695907593,-0.28,0.06,0.35000000000000003,264.16
1682374609.85801387,40180693,2,2.32,0.8200000000000001,312.37,0.3358202874660492,0.2490488886833191,0.015930186957120895,0.011351844295859337,0.0,0.2781982719898224,0.5128682851791382,-0.28,0.06,0.35000000000000003,264.16
1682374609.95800686,40280686,2,2.34,0.8200000000000001,312.39,0.3503458797931671,0.2616872191429138,0.015988187864422798,0.006671989802271128,0.0,0.2781982719898224,0.5131324529647827,-0.28,0.06,0.35000000000000003,264.16
1682374610.05800796,40380687,2,2.36,0.8200000000000001,312.41,0.364431768655777,0.272405743598938,0.01620020717382431,0.002594579942524433,-0.011131884530186653,0.2781982719898224,0.5136317014694214,-0.28,0.06,0.34,264.16
1682374610.15801096,40480690,2,2.38,0.8200000000000001,312.43,0.3778330087661743,0.2837013900279999,0.01580764539539814,-0.004448162391781807,-0.011131884530186653,0.2781982719898224,0.5129786729812622,-0.28,0.06,0.34,264.16
1682374610.25803685,40580716,2,2.4,0.8200000000000001,312.46,0.3916800916194916,0.29305320978164673,0.01657595857977867,-0.007747889496386051,-0.022263769060373306,0.2781982719898224,0.5126205682754517,-0.28,0.06,0.33,264.16
1682374610.35806799,40680747,2,2.42,0.8200000000000001,312.48,0.4039599299430847,0.3043184280395508,0.0178915336728096,-8.772801811574027e-05,-0.022263769060373306,0.2781982719898224,0.512863039970398,-0.28,0.06,0.33,264.16
1682374610.45803499,40780714,2,2.44,0.8200000000000001,312.51,0.4160292446613312,0.31437695026397705,0.017518185079097748,-0.009332908317446709,-0.022263769060373306,0.2863805890083313,0.5114623308181763,-0.28,0.06,0.33,264.16
1682374610.55807304,40880752,2,2.46,0.8200000000000001,312.54,0.42679256200790405,0.32316792011260986,0.017522962763905525,-0.022017857059836388,-0.022263769060373306,0.2863805890083313,0.5095890760421753,-0.28,0.06,0.33,264.16
1682374610.65799403,40980673,2,2.48,0.8200000000000001,312.56,0.43746843934059143,0.33162134885787964,0.017708102241158485,-0.01677769050002098,-0.022263769060373306,0.2863805890083313,0.5085767507553101,-0.28,0.06,0.32,264.16
1682374610.75800300,41080682,2,2.5,0.8200000000000001,312.58,0.4488137364387512,0.34100717306137085,0.018754541873931885,0.013262069784104824,-0.022263769060373306,0.2863805890083313,0.5106650590896606,-0.27,0.06,0.32,264.16
1682374610.85800004,41180679,2,2.5100000000000002,0.81,312.59000000000003,0.45828574895858765,0.3496273159980774,0.01913215033710003,0.041622456163167953,-0.022263769060373306,0.2863805890083313,0.5142015218734741,-0.27,0.06,0.32,264.16
1682374610.95799685,41280676,2,2.5300000000000002,0.8200000000000001,312.59000000000003,0.4673449993133545,0.357170432806015,0.020595697686076164,0.04866556450724602,-0.022263769060373306,0.2863805890083313,0.517959475517273,-0.27,0.06,0.32,264.16
1682374611.05800104,41380680,2,2.54,0.81,312.6,0.47560450434684753,0.3661472201347351,0.022666269913315773,0.04176203906536102,-0.022263769060373306,0.2863805890083313,0.521194577217102,-0.27,0.06,0.32,264.16
1682374611.15802193,41480701,2,2.54,0.8200000000000001,312.61,0.4839426279067993,0.37271082401275635,0.023844022303819656,0.019935041666030884,-0.022263769060373306,0.2863805890083313,0.5226465463638306,-0.27,0.06,0.31,264.16
1682374611.25806499,41580744,2,2.5500000000000003,0.8200000000000001,312.62,0.49045130610466003,0.3791224956512451,0.02411976084113121,0.0027463382575660944,-0.03339565545320511,0.2863805890083313,0.5233179330825806,-0.27,0.06,0.31,264.16
1682374611.35805392,41680733,2,2.56,0.8200000000000001,312.64,0.49823862314224243,0.3841572403907776,0.023683059960603714,-0.018758781254291534,-0.03339565545320511,0.2863805890083313,0.5216876268386841,-0.27,0.06,0.31,264.16
1682374611.45806503,41780744,2,2.57,0.8300000000000001,312.67,0.5040916800498962,0.3896361291408539,0.023465629667043686,-0.03794143721461296,-0.03339565545320511,0.2863805890083313,0.518903374671936,-0.27,0.06,0.3,264.16
1682374611.55800200,41880681,2,2.56,0.8300000000000001,312.69,0.5096171498298645,0.3942815959453583,0.023897023871541023,-0.036776140332221985,-0.03339565545320511,0.2863805890083313,0.5162779092788696,-0.27,0.06,0.3,264.16
1682374611.65799594,41980675,2,2.57,0.8300000000000001,312.71,0.5140877962112427,0.39971891045570374,0.02409709058701992,-0.022573238238692284,-0.03339565545320511,0.2863805890083313,0.514823317527771,-0.27,0.05,0.3,264.16
1682374611.75799894,42080678,2,2.58,0.8300000000000001,312.72,0.5181515216827393,0.4042852222919464,0.02338397689163685,-0.009506763890385628,-0.03339565545320511,0.2863805890083313,0.5139583349227905,-0.27,0.05,0.3,264.16
1682374611.85800505,42180684,2,2.58,0.8300000000000001,312.74,0.5221509337425232,0.40863898396492004,0.023386171087622643,-0.009245624765753746,-0.03339565545320511,0.2863805890083313,0.5127459764480591,-0.26,0.05,0.29,264.16
1682374611.95799494,42280674,2,2.58,0.8300000000000001,312.75,0.5255853533744812,0.4126623868942261,0.02355419099330902,-0.00319769699126482,-0.03339565545320511,0.2863805890083313,0.5125089883804321,-0.26,0.05,0.29,264.16
1682374612.05803895,42380718,2,2.59,0.8300000000000001,312.77,0.5293721556663513,0.416119784116745,0.024185864254832268,0.021991390734910965,-0.03339565545320511,0.2781982719898224,0.5147396326065063,-0.26,0.05,0.29,264.16
1682374612.15807390,42480753,2,2.59,0.8300000000000001,312.78000000000003,0.5318511724472046,0.4185686409473419,0.025253750383853912,0.048653729259967804,-0.03339565545320511,0.2781982719898224,0.5189429521560669,-0.26,0.05,0.29,264.16
1682374612.25804687,42580726,2,2.59,0.8300000000000001,312.81,0.5339352488517761,0.42094886302948,0.026302868500351906,0.05777670443058014,-0.03339565545320511,0.27001598477363586,0.5235241651535034,-0.26,0.05,0.29,264.16
1682374612.35806298,42680742,2,2.59,0.84,312.83,0.5360887050628662,0.4234149754047394,0.02705671824514866,0.05057681351900101,-0.03339565545320511,0.27001598477363586,0.5276693105697632,-0.26,0.05,0.28,264.16
1682374612.45800591,42780685,2,2.59,0.84,312.85,0.5388419032096863,0.4252958297729492,0.0285276360809803,0.04736294224858284,-0.022263769060373306,0.27001598477363586,0.5320936441421509,-0.26,0.05,0.28,264.16
1682374612.55799699,42880676,2,2.59,0.85,312.87,0.5402398109436035,0.42833495140075684,0.03005245514214039,0.0613396130502224,-0.022263769060373306,0.27001598477363586,0.5383106470108032,-0.26,0.05,0.28,264.16
1682374612.65799594,42980675,2,2.58,0.85,312.89,0.5412828922271729,0.4308411777019501,0.031938958913087845,0.0618850514292717,-0.03339565545320511,0.26183366775512695,0.5435606241226196,-0.25,0.05,0.27,264.16
1682374612.75800300,43080682,2,2.59,0.85,312.91,0.541873037815094,0.43247875571250916,0.03217058628797531,0.0473552830517292,-0.03339565545320511,0.26183366775512695,0.5481616258621216,-0.25,0.05,0.27,264.16
1682374612.85799503,43180674,2,2.58,0.85,312.93,0.5417039394378662,0.4339236617088318,0.03260607272386551,0.0429857112467289,-0.03339565545320511,0.26183366775512695,0.5525845289230347,-0.25,0.05,0.27,264.16
1682374612.95802593,43280705,2,2.58,0.85,312.96,0.541713297367096,0.43378281593322754,0.033006563782691956,0.03033832274377346,-0.03339565545320511,0.26183366775512695,0.5555652379989624,-0.25,0.05,0.27,264.16
1682374613.05806184,43380741,2,2.57,0.84,312.99,0.5406407117843628,0.43472641706466675,0.03360311686992645,0.009476354345679283,-0.03339565545320511,0.26183366775512695,0.5566807985305786,-0.25,0.05,0.27,264.16
1682374613.15803385,43480713,2,2.56,0.84,313.02,0.5408041477203369,0.43480831384658813,0.03326275944709778,-0.013201904483139515,-0.03339565545320511,0.26183366775512695,0.5559679269790649,-0.25,0.05,0.26,264.16
1682374613.25806499,43580744,2,2.5500000000000003,0.84,313.04,0.5398316383361816,0.4355928599834442,0.03267938643693924,-0.020744340494275093,-0.03339565545320511,0.26183366775512695,0.55512535572052,-0.25,0.05,0.26,264.16
1682374613.35799694,43680676,2,2.54,0.84,313.06,0.537622332572937,0.4351518750190735,0.03324882313609123,-0.010712625458836555,-0.03339565545320511,0.26183366775512695,0.5549064874649048,-0.24,0.05,0.26,264.16
1682374613.45800185,43780681,2,2.5300000000000002,0.8300000000000001,313.07,0.5368171334266663,0.4358891546726227,0.033014386892318726,-0.012468942441046238,-0.03339565545320511,0.26183366775512695,0.5537317991256714,-0.24,0.05,0.26,264.16
1682374613.55800104,43880680,2,2.5300000000000002,0.84,313.08,0.534697413444519,0.43416744470596313,0.03265535086393356,-0.019312774762511253,-0.03339565545320511,0.26183366775512695,0.5521966218948364,-0.24,0.05,0.26,264.16
1682374613.65799594,43980675,2,2.5300000000000002,0.84,313.09000000000003,0.5327027440071106,0.4337575137615204,0.032725803554058075,-0.017791541293263435,-0.03339565545320511,0.26183366775512695,0.550775408744812,-0.24,0.05,0.25,264.16
1682374613.75800085,44080680,2,2.52,0.85,313.11,0.5297776460647583,0.4324120283126831,0.03248254582285881,0.0032218650449067354,-0.03339565545320511,0.26183366775512695,0.5517853498458862,-0.24,0.05,0.25,264.16
1682374613.85802889,44180708,2,2.52,0.85,313.12,0.5267278552055359,0.4308924376964569,0.03239930421113968,0.02627202868461609,-0.04452753812074661,0.25365138053894043,0.5539511442184448,-0.24,0.05,0.25,264.16
1682374613.95806694,44280746,2,2.5100000000000002,0.84,313.13,0.5231766104698181,0.42928582429885864,0.033989060670137405,0.03311298042535782,-0.04452753812074661,0.25365138053894043,0.5564638376235962,-0.24,0.05,0.25,264.16
1682374614.05805898,44380738,2,2.5,0.85,313.15000000000003,0.5201660990715027,0.4269447326660156,0.034743983298540115,0.051747020334005356,-0.04452753812074661,0.25365138053894043,0.5616284608840942,-0.23,0.05,0.25,264.16
1682374614.15807104,44480750,2,2.49,0.85,313.15000000000003,0.5165597796440125,0.425685852766037,0.036699771881103516,0.07463366538286209,-0.04452753812074661,0.25365138053894043,0.5681396722793579,-0.23,0.05,0.25,264.16
1682374614.25799704,44580676,2,2.48,0.85,313.16,0.5132525563240051,0.4228522777557373,0.0376775749027729,0.06446278840303421,-0.04452753812074661,0.24546906352043152,0.5730870962142944,-0.23,0.05,0.24,264.16
1682374614.35799885,44680678,2,2.47,0.85,313.17,0.5086181163787842,0.4209510087966919,0.03704474866390228,0.034963566809892654,-0.04452753812074661,0.24546906352043152,0.5760442018508911,-0.23,0.05,0.24,264.16
1682374614.45800304,44780682,2,2.46,0.85,313.19,0.5038208365440369,0.41888678073883057,0.03716300055384636,0.011758426204323769,-0.04452753812074661,0.24546906352043152,0.5775336027145386,-0.23,0.05,0.24,264.16
1682374614.55799699,44880676,2,2.46,0.85,313.2,0.5005963444709778,0.41698020696640015,0.03667665272951126,-0.011080029420554638,-0.04452753812074661,0.24546906352043152,0.5769268274307251,-0.23,0.05,0.24,264.16
1682374614.65799594,44980675,2,2.45,0.86,313.21,0.4963509440422058,0.413811057806015,0.036157071590423584,-0.022936798632144928,-0.04452753812074661,0.24546906352043152,0.5759111642837524,-0.22,0.05,0.24,264.16
1682374614.75804186,45080721,2,2.44,0.85,313.22,0.49184486269950867,0.4105689227581024,0.035030167549848557,-0.022058608010411263,-0.04452753812074661,0.24546906352043152,0.5745633840560913,-0.22,0.05,0.24,264.16
1682374614.85806203,45180741,2,2.43,0.86,313.23,0.48789024353027344,0.40770113468170166,0.03464057669043541,-0.01992803066968918,-0.03339565545320511,0.24546906352043152,0.5732043981552124,-0.22,0.05,0.23,264.16
1682374614.95804596,45280725,2,2.42,0.86,313.24,0.4837215542793274,0.4047061800956726,0.0350894071161747,-0.01582113653421402,-0.03339565545320511,0.24546906352043152,0.5719250440597534,-0.22,0.05,0.23,264.16
1682374615.05806589,45380745,2,2.41,0.86,313.25,0.4795133173465729,0.40167900919914246,0.03469688072800636,-0.011309366673231125,-0.03339565545320511,0.24546906352043152,0.5711220502853394,-0.22,0.05,0.23,264.16
1682374615.15799284,45480672,2,2.4,0.86,313.26,0.4754304885864258,0.39818957448005676,0.032642435282468796,-0.01736004836857319,-0.03339565545320511,0.24546906352043152,0.5691887140274048,-0.22,0.05,0.23,264.16
1682374615.25799799,45580677,2,2.39,0.87,313.26,0.4704280495643616,0.39488011598587036,0.031200123950839043,-0.039183396846055984,-0.03339565545320511,0.2372867614030838,0.5652714967727661,-0.22,0.05,0.23,264.16
1682374615.35800099,45680680,2,2.38,0.87,313.27,0.466187059879303,0.39122796058654785,0.029411427676677704,-0.05267811194062233,-0.03339565545320511,0.2372867614030838,0.5608557462692261,-0.21,0.05,0.23,264.16
1682374615.45800495,45780684,2,2.37,0.88,313.28000000000003,0.4618901014328003,0.38907870650291443,0.028373051434755325,-0.04723295941948891,-0.03339565545320511,0.22910445928573608,0.5570138692855835,-0.21,0.05,0.23,264.16
1682374615.55800104,45880680,2,2.36,0.89,313.3,0.4572218656539917,0.3858295977115631,0.02771889604628086,-0.025927817448973656,-0.03339565545320511,0.22910445928573608,0.5551973581314087,-0.21,0.05,0.22,264.16
1682374615.65802503,45980704,2,2.34,0.88,313.32,0.4520477056503296,0.38259953260421753,0.02778739668428898,-0.000865630863700062,-0.04452753812074661,0.22910445928573608,0.5548995733261108,-0.21,0.05,0.22,264.16
1682374615.75806594,46080745,2,2.32,0.88,313.33,0.4469805359840393,0.37883469462394714,0.028357086703181267,0.016247833147644997,-0.04452753812074661,0.22910445928573608,0.5559490919113159,-0.21,0.05,0.22,264.16
1682374615.85804486,46180724,2,2.32,0.88,313.35,0.442387193441391,0.3738056421279907,0.02852063812315464,0.025848012417554855,-0.04452753812074661,0.22092215716838837,0.5577191114425659,-0.21,0.05,0.22,264.16
1682374615.95806289,46280742,2,2.31,0.89,313.37,0.4379538595676422,0.3704933524131775,0.028483852744102478,0.013063311576843262,-0.04452753812074661,0.22092215716838837,0.5578075647354126,-0.21,0.05,0.22,264.16
1682374616.05799890,46380678,2,2.3000000000000003,0.89,313.38,0.4326707720756531,0.36649462580680847,0.02848188765347004,-0.0008925603469833732,-0.04452753812074661,0.21273985505104065,0.5578840970993042,-0.2,0.05,0.21,264.16
1682374616.15800595,46480685,2,2.2800000000000002,0.9,313.39,0.42711278796195984,0.36288994550704956,0.02790425531566143,-0.0036988097708672285,-0.04452753812074661,0.21273985505104065,0.5576106309890747,-0.2,0.05,0.21,264.16
1682374616.25799990,46580679,2,2.27,0.9,313.41,0.4217591881752014,0.358428955078125,0.027152517810463905,-0.011222422122955322,-0.04452753812074661,0.21273985505104065,0.5567296743392944,-0.2,0.05,0.21,264.16
1682374616.35800004,46680679,2,2.25,0.9,313.43,0.4166674315929413,0.3562734127044678,0.02759687229990959,-0.018556678667664528,-0.04452753812074661,0.21273985505104065,0.5550061464309692,-0.2,0.05,0.21,264.16
1682374616.45800996,46780689,2,2.24,0.91,313.44,0.4118289649486542,0.35275545716285706,0.027020128443837166,-0.022667275741696358,-0.04452753812074661,0.21273985505104065,0.5532933473587036,-0.2,0.05,0.21,264.16
1682374616.55801988,46880699,2,2.22,0.91,313.45,0.4063038229942322,0.34917470812797546,0.027106238529086113,-0.007802610285580158,-0.04452753812074661,0.21273985505104065,0.5531960725784302,-0.2,0.05,0.21,264.16
1682374616.65806007,46980739,2,2.21,0.92,313.47,0.40138939023017883,0.34555986523628235,0.027590565383434296,0.02109147049486637,-0.04452753812074661,0.21273985505104065,0.5555065870285034,-0.2,0.05,0.21,264.16
1682374616.75805306,47080732,2,2.2,0.92,313.47,0.39652329683303833,0.3426068127155304,0.02848717011511326,0.04692275449633598,-0.04452753812074661,0.21273985505104065,0.5595959424972534,-0.19,0.05,0.21,264.16
1682374616.85806489,47180744,2,2.19,0.92,313.49,0.39035677909851074,0.33873969316482544,0.030156446620821953,0.04761066660284996,-0.04452753812074661,0.20455755293369293,0.5628529787063599,-0.19,0.05,0.2,264.16
1682374616.95799804,47280677,2,2.18,0.91,313.5,0.38527098298072815,0.33587369322776794,0.03146938234567642,0.046817995607852936,-0.04452753812074661,0.20455755293369293,0.5673962831497192,-0.19,0.05,0.2,264.16
1682374617.05801487,47380694,2,2.17,0.92,313.51,0.3797062635421753,0.3322999179363251,0.032474614679813385,0.053326062858104706,-0.04452753812074661,0.20455755293369293,0.5720640420913696,-0.19,0.05,0.2,264.16
1682374617.15800190,47480681,2,2.16,0.92,313.52,0.3743884861469269,0.32823193073272705,0.033441245555877686,0.04503177851438522,-0.04452753812074661,0.20455755293369293,0.5761734247207642,-0.19,0.05,0.2,264.16
1682374617.25799704,47580676,2,2.15,0.92,313.52,0.3690524101257324,0.3256727159023285,0.03505205735564232,0.04140150174498558,-0.055659420788288116,0.19637525081634521,0.5802508592605591,-0.19,0.05,0.2,264.16
1682374617.35799885,47680678,2,2.14,0.92,313.53000000000003,0.3644576966762543,0.3219362199306488,0.036872588098049164,0.04586179926991463,-0.055659420788288116,0.19637525081634521,0.5849579572677612,-0.19,0.05,0.2,264.16
1682374617.45804691,47780726,2,2.13,0.91,313.54,0.3583202362060547,0.3182796537876129,0.03680994361639023,0.03276325762271881,-0.055659420788288116,0.1881929486989975,0.5875784158706665,-0.18,0.05,0.2,264.16
1682374617.55807304,47880752,2,2.12,0.91,313.54,0.35293182730674744,0.315694659948349,0.03759404644370079,0.017563477158546448,-0.055659420788288116,0.1881929486989975,0.5898796319961548,-0.18,0.05,0.2,264.16
1682374617.65804386,47980723,2,2.11,0.92,313.54,0.34808120131492615,0.3121145963668823,0.03794458135962486,0.016509616747498512,-0.055659420788288116,0.18001064658164978,0.591884970664978,-0.18,0.05,0.2,264.16
1682374617.75806403,48080743,2,2.1,0.91,313.54,0.3427753150463104,0.3084116280078888,0.03704313561320305,-0.0033962037414312363,-0.055659420788288116,0.18001064658164978,0.591476321220398,-0.18,0.05,0.19,264.16
1682374617.85799789,48180677,2,2.08,0.91,313.55,0.33723634481430054,0.30514028668403625,0.03569814935326576,-0.027964428067207336,-0.055659420788288116,0.18001064658164978,0.5894030332565308,-0.18,0.05,0.19,264.16
1682374617.95799804,48280677,2,2.07,0.92,313.55,0.332051157951355,0.30172592401504517,0.03518690913915634,-0.029519900679588318,-0.055659420788288116,0.18001064658164978,0.5877567529678345,-0.18,0.05,0.19,264.16
1682374618.05799985,48380679,2,2.07,0.92,313.56,0.32786285877227783,0.29750972986221313,0.03398362919688225,-0.013585845939815044,-0.055659420788288116,0.17182834446430206,0.587375283241272,-0.18,0.05,0.19,264.16
1682374618.15800595,48480685,2,2.06,0.92,313.57,0.32360363006591797,0.2936114966869354,0.033768873661756516,0.007129209116101265,-0.055659420788288116,0.17182834446430206,0.588330864906311,-0.18,0.05,0.19,264.16
1682374618.25799584,48580675,2,2.05,0.92,313.56,0.31925249099731445,0.2892953157424927,0.03326534852385521,0.023952413350343704,-0.055659420788288116,0.16364604234695435,0.5904606580734253,-0.17,0.05,0.19,264.16
1682374618.35804486,48680724,2,2.04,0.92,313.57,0.3145432472229004,0.28625503182411194,0.033087849617004395,0.026418065652251244,-0.055659420788288116,0.16364604234695435,0.5922530889511108,-0.17,0.05,0.19,264.16
1682374618.45806694,48780746,2,2.0300000000000002,0.92,313.59000000000003,0.3099570870399475,0.2814940810203552,0.03274447098374367,0.018499044701457024,-0.055659420788288116,0.1472814381122589,0.5936368703842163,-0.17,0.05,0.19,264.16
1682374618.55802703,48880706,2,2.02,0.92,313.6,0.3060064911842346,0.27869001030921936,0.032152172178030014,0.00115680368617177,-0.055659420788288116,0.1472814381122589,0.5932906866073608,-0.17,0.05,0.19,264.16
1682374618.65806699,48980746,2,2.0100000000000002,0.92,313.62,0.3016173541545868,0.27517786622047424,0.03144674748182297,-0.02197350561618805,-0.055659420788288116,0.1472814381122589,0.5913866758346558,-0.17,0.05,0.18,264.16
1682374618.75799894,49080678,2,2.0,0.93,313.64,0.297791063785553,0.272411972284317,0.030230162665247917,-0.03424545004963875,-0.055659420788288116,0.1472814381122589,0.5887469053268433,-0.17,0.05,0.18,264.16
1682374618.85800099,49180680,2,2.0,0.93,313.64,0.29378244280815125,0.269502729177475,0.030527839437127113,-0.02992507442831993,-0.06679131090641022,0.1390991359949112,0.5866926908493042,-0.17,0.05,0.18,264.16
1682374618.95799589,49280675,2,1.99,0.9400000000000001,313.64,0.28931987285614014,0.26651155948638916,0.030410733073949814,-0.023963158950209618,-0.06679131090641022,0.1390991359949112,0.5845364332199097,-0.17,0.05,0.18,264.16
1682374619.05800390,49380683,2,1.98,0.93,313.65000000000003,0.2852414846420288,0.2650061547756195,0.029730692505836487,-0.017739461734890938,-0.06679131090641022,0.13091683387756348,0.5832473039627075,-0.17,0.05,0.18,264.16
1682374619.15799999,49480679,2,1.97,0.93,313.65000000000003,0.28184807300567627,0.2615106403827667,0.03049399144947529,0.0024299221113324165,-0.06679131090641022,0.13091683387756348,0.5836514234542847,-0.16,0.05,0.18,264.16
1682374619.25803995,49580719,2,1.96,0.93,313.65000000000003,0.27847909927368164,0.25919559597969055,0.03148312866687775,0.021675828844308853,-0.055659420788288116,0.12273453176021576,0.585455060005188,-0.16,0.05,0.18,264.16
1682374619.35806394,49680743,2,1.95,0.93,313.65000000000003,0.2752631902694702,0.25636157393455505,0.03150898963212967,0.033203594386577606,-0.055659420788288116,0.12273453176021576,0.5881491899490356,-0.16,0.05,0.18,264.16
1682374619.45805192,49780731,2,1.94,0.92,313.64,0.27209579944610596,0.2546888589859009,0.03187685087323189,0.04465975612401962,-0.055659420788288116,0.11455222964286804,0.592154860496521,-0.16,0.05,0.18,264.16
1682374619.55806804,49880747,2,1.94,0.92,313.65000000000003,0.26798707246780396,0.25253158807754517,0.03331482782959938,0.055526942014694214,-0.055659420788288116,0.11455222964286804,0.5969284772872925,-0.16,0.05,0.18,264.16
1682374619.65800405,49980683,2,1.93,0.93,313.64,0.26371148228645325,0.251051127910614,0.03477393090724945,0.04511861130595207,-0.055659420788288116,0.10636992752552032,0.6002870798110962,-0.16,0.05,0.18,264.16
1682374619.75800395,50080683,2,1.92,0.93,313.64,0.2606622576713562,0.2481638342142105,0.034406628459692,0.01858779788017273,-0.055659420788288116,0.10636992752552032,0.6018427610397339,-0.16,0.05,0.18,264.16
1682374619.85800600,50180685,2,1.9100000000000001,0.93,313.64,0.2565426826477051,0.24546979367733002,0.03343340381979942,-0.004378743935376406,-0.06679131090641022,0.10636992752552032,0.6018027067184448,-0.16,0.05,0.18,264.16
1682374619.95799589,50280675,2,1.9100000000000001,0.93,313.64,0.2535359859466553,0.24288246035575867,0.0335104763507843,0.003920977469533682,-0.06679131090641022,0.10636992752552032,0.6037153005599976,-0.16,0.05,0.18,264.16
1682374620.05801105,50380690,2,1.9000000000000001,0.93,313.64,0.2501828968524933,0.24064727127552032,0.034683533012866974,0.03869982436299324,-0.06679131090641022,0.09818762540817261,0.6080187559127808,-0.16,0.05,0.17,264.16
1682374620.15804386,50480723,2,1.8900000000000001,0.93,313.65000000000003,0.24715541303157806,0.23761314153671265,0.03649013116955757,0.04899450019001961,-0.06679131090641022,0.09818762540817261,0.6119018793106079,-0.15,0.05,0.17,264.16
1682374620.25806785,50580747,2,1.8900000000000001,0.92,313.64,0.24463853240013123,0.23509953916072845,0.036501530557870865,0.026838082820177078,-0.055659420788288116,0.09000532329082489,0.6136220693588257,-0.15,0.05,0.17,264.16
1682374620.35807395,50680753,2,1.8900000000000001,0.92,313.65000000000003,0.24198731780052185,0.23301130533218384,0.03608874976634979,0.009932305663824081,-0.055659420788288116,0.09000532329082489,0.6150614023208618,-0.15,0.05,0.17,264.16
1682374620.45807600,50780755,2,1.8800000000000001,0.93,313.65000000000003,0.23935246467590332,0.22990980744361877,0.03514264151453972,-0.008836092427372932,-0.055659420788288116,0.07364071905612946,0.6140285730361938,-0.15,0.05,0.17,264.16
1682374620.55800200,50880681,2,1.8800000000000001,0.92,313.65000000000003,0.23749445378780365,0.22805514931678772,0.034422099590301514,-0.03367249667644501,-0.055659420788288116,0.07364071905612946,0.6115306615829468,-0.15,0.05,0.17,264.16
1682374620.65800786,50980687,2,1.87,0.93,313.66,0.235577791929245,0.22636747360229492,0.03380247578024864,-0.02964838407933712,-0.06679131090641022,0.06545841693878174,0.6099697351455688,-0.15,0.05,0.17,264.16
1682374620.75801206,51080691,2,1.87,0.93,313.67,0.23336432874202728,0.22441089153289795,0.03386909142136574,-0.013430122286081314,-0.06679131090641022,0.06545841693878174,0.6092566251754761,-0.15,0.05,0.17,264.16
1682374620.85800695,51180686,2,1.85,0.9400000000000001,313.67,0.230731800198555,0.2225610762834549,0.03383456915616989,-0.001920572598464787,-0.06679131090641022,0.06545841693878174,0.6091498136520386,-0.15,0.05,0.17,264.16
1682374620.95800400,51280683,2,1.85,0.9400000000000001,313.67,0.22838561236858368,0.22006551921367645,0.03337811306118965,0.005001855082809925,-0.06679131090641022,0.06545841693878174,0.6095181703567505,-0.15,0.05,0.17,264.16
1682374621.05803204,51380711,2,1.84,0.9400000000000001,313.68,0.22650250792503357,0.2182697355747223,0.034467991441488266,0.02490812912583351,-0.06679131090641022,0.05727611482143402,0.6122039556503296,-0.15,0.05,0.17,264.16
1682374621.15806603,51480745,2,1.83,0.9400000000000001,313.69,0.2242344170808792,0.2161739468574524,0.034560222178697586,0.04119710251688957,-0.06679131090641022,0.05727611482143402,0.6154669523239136,-0.15,0.05,0.17,264.16
1682374621.25804591,51580725,2,1.82,0.93,313.7,0.22193104028701782,0.2146044224500656,0.034020911902189255,0.028389092534780502,-0.06679131090641022,0.049093812704086304,0.617270827293396,-0.14,0.05,0.17,264.16
1682374621.35807300,51680752,2,1.82,0.9500000000000001,313.7,0.22023345530033112,0.2115437239408493,0.03407639265060425,0.008578966371715069,-0.06679131090641022,0.049093812704086304,0.6178854703903198,-0.14,0.05,0.17,264.16
1682374621.45799804,51780677,2,1.81,0.9400000000000001,313.71,0.21826912462711334,0.20977582037448883,0.03329797089099884,-0.0077384770847857,-0.07792319357395172,0.049093812704086304,0.6173285245895386,-0.14,0.05,0.16,264.16
1682374621.55801606,51880695,2,1.8,0.9500000000000001,313.72,0.2158375084400177,0.20691493153572083,0.03258967772126198,-0.010588457807898521,-0.07792319357395172,0.049093812704086304,0.6171649694442749,-0.14,0.05,0.16,264.16
1682374621.65801096,51980690,2,1.79,0.9500000000000001,313.72,0.21333396434783936,0.20613692700862885,0.03301595151424408,-0.008095948956906796,-0.08905507624149323,0.040911510586738586,0.616507887840271,-0.14,0.05,0.16,264.16
1682374621.75800896,52080688,2,1.79,0.9500000000000001,313.72,0.21119673550128937,0.2037995308637619,0.03212427720427513,-0.028690215200185776,-0.08905507624149323,0.040911510586738586,0.6134957075119019,-0.14,0.05,0.16,264.16
1682374621.85800886,52180688,2,1.78,0.96,313.72,0.20910078287124634,0.204166442155838,0.03234010934829712,-0.03384605050086975,-0.08905507624149323,0.03272920846939087,0.6112853288650513,-0.14,0.05,0.16,264.16
1682374621.95803404,52280713,2,1.77,0.96,313.71,0.20656192302703857,0.20275452733039856,0.0321136899292469,-0.013347298838198185,-0.08905507624149323,0.03272920846939087,0.6106280088424683,-0.14,0.05,0.16,264.16
1682374622.05806804,52380747,2,1.77,0.96,313.71,0.20449569821357727,0.20225343108177185,0.03116157278418541,-0.013818653300404549,-0.08905507624149323,0.024546906352043152,0.6087032556533813,-0.14,0.05,0.16,264.16
1682374622.15804696,52480726,2,1.77,0.96,313.7,0.20293764770030975,0.20248107612133026,0.029904300346970558,-0.03105022758245468,-0.08905507624149323,0.024546906352043152,0.6056030988693237,-0.14,0.05,0.16,264.16
1682374622.25807190,52580751,2,1.76,0.96,313.7,0.20134450495243073,0.20101520419120789,0.029707878828048706,-0.03683256357908249,-0.10018695890903473,0.024546906352043152,0.6023668050765991,-0.14,0.05,0.16,264.16
1682374622.35799694,52680676,2,1.76,0.97,313.7,0.19834892451763153,0.20132935047149658,0.02967865578830242,-0.03724178671836853,-0.10018695890903473,0.024546906352043152,0.5990067720413208,-0.14,0.05,0.16,264.16
1682374622.45801091,52780690,2,1.75,0.97,313.7,0.0019017943413928151,-0.029732245951890945,0.029616303741931915,-0.022890903055667877,-0.03903273865580559,-0.07493317872285843,0.597530722618103,-0.14,0.05,0.16,264.16
1682374622.55800700,52880686,2,1.75,0.96,313.7,0.0034671190660446882,-0.02445768378674984,0.03016354888677597,0.012400759384036064,-0.05784536153078079,-0.09618869423866272,0.5989998579025269,-0.14,0.05,0.16,264.16
1682374622.65800095,52980680,2,1.76,0.97,313.7,0.0035779946483671665,-0.013340504840016365,0.03248120844364166,0.043602779507637024,-0.07004577666521072,-0.11043932288885117,0.6025642156600952,-0.14,0.05,0.16,264.16
1682374622.75800204,53080681,2,1.76,0.97,313.7,0.003220419865101576,-0.001548880129121244,0.035225123167037964,0.05667763575911522,-0.0780973732471466,-0.11793109774589539,0.6068893671035767,-0.14,0.05,0.16,264.16
1682374622.85802293,53180702,2,1.78,0.97,313.7,0.004338154103606939,0.00739574758335948,0.03734961897134781,0.05471055582165718,-0.08364072442054749,-0.1209220141172409,0.6113063097000122,-0.14,0.05,0.16,264.16
1682374622.95806694,53280746,2,1.79,0.97,313.71,0.006484897341579199,0.016613159328699112,0.040331389755010605,0.056048206984996796,-0.0867677628993988,-0.12055250257253647,0.6164067983627319,-0.14,0.05,0.16,264.16
1682374623.05804396,53380723,2,1.8,0.97,313.71,0.010936010628938675,0.023889927193522453,0.042267244309186935,0.052076421678066254,-0.08775001764297485,-0.11804820597171783,0.6208561658859253,-0.14,0.05,0.16,264.16
1682374623.15806389,53480743,2,1.81,0.97,313.72,0.016539854928851128,0.03229113668203354,0.04337974265217781,0.029126984998583794,-0.08658048510551453,-0.11381354182958603,0.6233144998550415,-0.14,0.05,0.16,264.16
1682374623.25799584,53580675,2,1.82,0.97,313.72,0.020573923364281654,0.040372394025325775,0.04597604274749756,0.0459982194006443,-0.08486846089363098,-0.10879955440759659,0.6295095682144165,-0.14,0.05,0.16,264.16
1682374623.35800099,53680680,2,1.83,0.97,313.73,0.02537923865020275,0.04838132858276367,0.04892668128013611,0.08877480030059814,-0.08228199928998947,-0.10276636481285095,0.6382149457931519,-0.14,0.05,0.15,264.16
1682374623.45800090,53780680,2,1.83,0.98,313.73,0.028869060799479485,0.05552072823047638,0.05120622739195824,0.0964246392250061,-0.07986083626747131,-0.0968882292509079,0.6466063261032104,-0.14,0.05,0.15,264.16
1682374623.55799985,53880679,2,1.84,0.98,313.74,0.034703221172094345,0.061301883310079575,0.0532500334084034,0.0727282389998436,-0.07672502100467682,-0.0905093103647232,0.6524103879928589,-0.14,0.05,0.15,264.16
1682374623.65799689,53980676,2,1.84,0.98,313.75,0.04003402590751648,0.06856480240821838,0.05531653016805649,0.04446924105286598,-0.0735975131392479,-0.08397497236728668,0.6568711996078491,-0.14,0.05,0.15,264.16
1682374623.75802994,54080709,2,1.85,0.98,313.75,0.04654346778988838,0.07548309117555618,0.05601681023836136,0.02681427262723446,-0.0695476159453392,-0.07656809687614441,0.6600607633590698,-0.14,0.05,0.15,264.16
1682374623.85806584,54180745,2,1.86,0.99,313.76,0.04851174354553223,0.08087677508592606,0.05874277278780937,0.06339851766824722,-0.06796123832464218,-0.07087276875972748,0.6685425043106079,-0.13,0.05,0.15,264.16
1682374623.95803595,54280715,2,1.86,0.99,313.76,0.05232302471995354,0.08631817996501923,0.061732854694128036,0.08376181870698929,-0.06489937007427216,-0.06370658427476883,0.6757799386978149,-0.13,0.05,0.15,264.16
1682374624.05806494,54380744,2,1.87,1.0,313.77,0.05469346418976784,0.0912107527256012,0.06283320486545563,0.06401019543409348,-0.06299275904893875,-0.05760807916522026,0.6813305616378784,-0.13,0.05,0.15,264.16
1682374624.15800691,54480686,2,1.87,1.0,313.77,0.05877041816711426,0.09742344915866852,0.06383000314235687,0.05186888203024864,-0.060634203255176544,-0.05098101496696472,0.6866925954818726,-0.13,0.05,0.15,264.16
1682374624.25800204,54580681,2,1.87,1.0,313.77,0.06220834702253342,0.10190779715776443,0.06618764251470566,0.045527197420597076,-0.058524757623672485,-0.04527556523680687,0.6912938356399536,-0.13,0.05,0.15,264.16
1682374624.35800099,54680680,2,1.87,0.99,313.78000000000003,0.06774283200502396,0.10780557990074158,0.06683938950300217,0.024551186710596085,-0.0553637370467186,-0.03893350809812546,0.693536639213562,-0.13,0.05,0.15,264.16
1682374624.45800495,54780684,2,1.87,0.99,313.78000000000003,0.0717955231666565,0.11228475719690323,0.06742819398641586,0.0024379424285143614,-0.052861832082271576,-0.03302263841032982,0.6944507360458374,-0.13,0.05,0.15,264.16
1682374624.55800700,54880686,2,1.87,0.99,313.79,0.07627127319574356,0.11854175478219986,0.06818506121635437,0.008777478709816933,-0.049491748213768005,-0.026111222803592682,0.6967378854751587,-0.13,0.05,0.15,264.16
1682374624.65802002,54980699,2,1.86,0.99,313.79,0.07998503744602203,0.12172246724367142,0.06827453523874283,0.0038578673265874386,-0.04698219895362854,-0.021023796871304512,0.6968587636947632,-0.13,0.05,0.15,264.16
1682374624.75806904,55080748,2,1.86,0.99,313.79,0.08437299728393555,0.12543034553527832,0.06912034749984741,-0.011369031853973866,-0.04362191632390022,-0.015660857781767845,0.6961656808853149,-0.13,0.05,0.15,264.16
1682374624.85803390,55180713,2,1.85,0.99,313.79,0.08699031919240952,0.1263931691646576,0.06802886724472046,-0.02160738594830036,-0.04129471257328987,-0.011869030073285103,0.6943022012710571,-0.13,0.05,0.15,264.16
1682374624.95808196,55280761,2,1.84,0.99,313.81,0.09066538512706757,0.1292492002248764,0.06672940403223038,-0.03144385665655136,-0.03815947100520134,-0.007475812919437885,0.6920691728591919,-0.13,0.05,0.15,264.16
1682374625.05799985,55380679,2,1.83,0.99,313.81,0.09347470849752426,0.12854072451591492,0.0654340386390686,-0.029377423226833344,-0.03638326749205589,-0.005752171855419874,0.6897515058517456,-0.13,0.05,0.14,264.16
1682374625.15801096,55480690,2,1.82,0.98,313.82,0.09617023169994354,0.12919792532920837,0.06549593806266785,-0.013397418893873692,-0.03379394859075546,-0.003749929601326585,0.6893476247787476,-0.13,0.05,0.14,264.16
1682374625.25801086,55580690,2,1.81,0.98,313.81,0.09781648963689804,0.12831327319145203,0.06537365913391113,0.009721741080284119,-0.032254427671432495,-0.003264550119638443,0.6904147863388062,-0.12,0.05,0.14,264.16
1682374625.35800886,55680688,2,1.8,0.98,313.81,0.10020212084054947,0.1276158094406128,0.06646206229925156,0.017010783776640892,-0.0297235157340765,-0.0018679030472412705,0.6912671327590942,-0.12,0.05,0.14,264.16
1682374625.45800805,55780687,2,1.78,0.98,313.81,0.10051650553941727,0.1268318146467209,0.06676598638296127,0.015468066558241844,-0.029090728610754013,-0.0016424545319750905,0.6924299001693726,-0.12,0.05,0.14,264.16
1682374625.55804205,55880721,2,1.77,0.98,313.82,0.10090223699808121,0.12694373726844788,0.06715403497219086,0.006638437043875456,-0.02790733613073826,-0.00029255764093250036,0.6925584077835083,-0.12,0.05,0.14,264.16
1682374625.65806389,55980743,2,1.76,0.98,313.83,0.09940813481807709,0.12646707892417908,0.06721163541078568,0.008211330510675907,-0.028711918741464615,-0.00046897155698388815,0.6939660310745239,-0.12,0.05,0.14,264.16
1682374625.75803590,56080715,2,1.74,0.98,313.84000000000003,0.09907494485378265,0.1252792924642563,0.06654994189739227,0.019223473966121674,-0.02879844233393669,0.0005050936597399414,0.6958562135696411,-0.12,0.05,0.14,264.16
1682374625.85807395,56180753,2,1.73,0.98,313.85,0.09720862656831741,0.12351436913013458,0.0656329095363617,0.01549404114484787,-0.030249033123254776,0.00044493924360722303,0.6968675851821899,-0.12,0.05,0.14,264.16
1682374625.95800686,56280686,2,1.71,0.99,313.86,0.09672670066356659,0.1240052655339241,0.06575721502304077,0.008276119828224182,-0.030758121982216835,0.0016753952950239182,0.6977742910385132,-0.12,0.05,0.14,264.16
1682374626.05801392,56380693,2,1.7,0.99,313.87,0.09695825725793839,0.1250184178352356,0.0653710886836052,0.018272047862410545,-0.030025387182831764,0.004419920966029167,0.7005349397659302,-0.12,0.05,0.14,264.16
1682374626.15800190,56480681,2,1.69,0.99,313.87,0.09585987031459808,0.12480567395687103,0.06509355455636978,0.022764181718230247,-0.031180577352643013,0.005239266436547041,0.7024580240249634,-0.12,0.05,0.14,264.16
1682374626.25799799,56580677,2,1.68,0.99,313.87,0.09435517340898514,0.12213306128978729,0.06501633673906326,0.01627107709646225,-0.03275201469659805,0.0056954966858029366,0.7039660215377808,-0.11,0.05,0.14,264.16
1682374626.35800004,56680679,2,1.6600000000000001,0.99,313.88,0.09333773702383041,0.12076858431100845,0.06413622200489044,0.015561957843601704,-0.03428956866264343,0.006113086361438036,0.7057186365127563,-0.11,0.05,0.14,264.16
1682374626.45803094,56780710,2,1.6500000000000001,0.99,313.89,0.09189796447753906,0.11763383448123932,0.06434322893619537,0.027280276641249657,-0.036303725093603134,0.005939522758126259,0.7086690664291382,-0.11,0.05,0.14,264.16
1682374626.55807400,56880753,2,1.6300000000000001,0.98,313.89,0.08974289894104004,0.11603156477212906,0.06504931300878525,0.041010282933712006,-0.038370829075574875,0.0055509814992547035,0.7125002145767212,-0.11,0.05,0.14,264.16
1682374626.65802884,56980708,2,1.62,0.98,313.89,0.08843839913606644,0.11349005997180939,0.06490518152713776,0.04847020283341408,-0.041301172226667404,0.0048871091566979885,0.7170184850692749,-0.11,0.05,0.14,264.16
1682374626.75807285,57080752,2,1.6,0.98,313.89,0.0853307843208313,0.11207924783229828,0.06482437998056412,0.04831801354885101,-0.044650740921497345,0.004326305817812681,0.7213121652603149,-0.11,0.05,0.14,264.16
1682374626.85800195,57180681,2,1.59,0.98,313.90000000000003,0.08448478579521179,0.1102304756641388,0.06649308651685715,0.05128353834152222,-0.047405607998371124,0.0036084845196455717,0.7264267206192017,-0.11,0.05,0.14,264.16
1682374626.95799685,57280676,2,1.58,0.98,313.91,0.08261179178953171,0.10851829499006271,0.06768527626991272,0.0540543869137764,-0.049399483948946,0.0030929669737815857,0.7313333749771118,-0.11,0.05,0.13,264.16
1682374627.05800104,57380680,2,1.57,0.97,313.92,0.08115292340517044,0.10609199106693268,0.06710752099752426,0.033755358308553696,-0.051259446889162064,0.0021434046793729067,0.7343496084213257,-0.11,0.05,0.13,264.16
1682374627.15801001,57480689,2,1.56,0.97,313.92,0.07933063805103302,0.10399401187896729,0.06604235619306564,0.005284841638058424,-0.05269242450594902,0.0011809546267613769,0.7352505922317505,-0.11,0.05,0.13,264.16
1682374627.25799894,57580678,2,1.54,0.97,313.93,0.07643956691026688,0.1010529175400734,0.06566454470157623,0.0006671454175375402,-0.0557485967874527,-0.00026523106498643756,0.736507773399353,-0.11,0.05,0.13,264.16
1682374627.35802794,57680707,2,1.53,0.96,313.93,0.07384543865919113,0.09756995737552643,0.06589940935373306,0.003938540816307068,-0.05969928577542305,-0.0018409404437988997,0.7372950315475464,-0.11,0.05,0.13,264.16
1682374627.45807385,57780753,2,1.52,0.97,313.93,0.07044985145330429,0.09500288218259811,0.06605156511068344,0.0007811004179529846,-0.064540795981884,-0.0032997445669025183,0.7379428148269653,-0.1,0.05,0.13,264.16
1682374627.55806398,57880743,2,1.52,0.96,313.94,0.06749755144119263,0.09198999404907227,0.06637856364250183,0.01204763539135456,-0.06960959732532501,-0.004210414364933968,0.7395681142807007,-0.1,0.05,0.13,264.16
1682374627.65807104,57980750,2,1.51,0.96,313.94,0.06389246881008148,0.08999888598918915,0.06632588803768158,0.023034807294607162,-0.07472898066043854,-0.006096662022173405,0.7419742345809937,-0.1,0.05,0.13,264.16
1682374627.75799489,58080674,2,1.5,0.96,313.93,0.06079479679465294,0.08624252676963806,0.06596122682094574,0.033214177936315536,-0.07958219945430756,-0.008399342186748981,0.7451165914535522,-0.1,0.05,0.13,264.16
1682374627.85801506,58180694,2,1.48,0.96,313.95,0.05683543160557747,0.08291057497262955,0.06614731252193451,0.04158001393079758,-0.08576402813196182,-0.011767943389713764,0.7489489316940308,-0.1,0.05,0.13,264.16
1682374627.95800495,58280684,2,1.47,0.96,313.94,0.05538185313344002,0.08068851381540298,0.06553902477025986,0.04436880722641945,-0.08979038149118423,-0.013013792224228382,0.7529901266098022,-0.1,0.05,0.13,264.16
1682374628.05801105,58380690,2,1.45,0.9500000000000001,313.94,0.05376695469021797,0.07868673652410507,0.06581973284482956,0.03273821994662285,-0.09374504536390305,-0.014506766572594643,0.7557088136672974,-0.1,0.05,0.13,264.16
1682374628.15800285,58480682,2,1.45,0.96,313.95,0.05162220075726509,0.0768415704369545,0.06479363143444061,0.017820283770561218,-0.09732934832572937,-0.0157853402197361,0.7576903104782104,-0.1,0.05,0.13,264.16
1682374628.25803089,58580710,2,1.45,0.96,313.95,0.051107268780469894,0.07546159625053406,0.06257674843072891,-0.014697759412229061,-0.09997936338186264,-0.01712857559323311,0.7560027837753296,-0.1,0.05,0.13,264.16
1682374628.35806584,58680745,2,1.44,0.96,313.95,0.05101287364959717,0.07408559322357178,0.06019293889403343,-0.05343901365995407,-0.10165084153413773,-0.018232567235827446,0.7518678903579712,-0.1,0.05,0.13,264.16
1682374628.45806193,58780741,2,1.44,0.96,313.97,0.05075543373823166,0.07297759503126144,0.05852966383099556,-0.06649365276098251,-0.10387467592954636,-0.019273333251476288,0.7466169595718384,-0.1,0.05,0.13,264.16
1682374628.55809307,58880772,2,1.43,0.96,313.97,0.049583565443754196,0.07206800580024719,0.05627482011914253,-0.06977658718824387,-0.10628658533096313,-0.020034344866871834,0.7411407232284546,-0.1,0.05,0.13,264.16
1682374628.65799403,58980673,2,1.42,0.96,313.98,0.049290064722299576,0.0708157941699028,0.054550256580114365,-0.04975167661905289,-0.10843167454004288,-0.02035788632929325,0.737442135810852,-0.1,0.05,0.13,264.16
1682374628.75800896,59080688,2,1.43,0.96,313.98,0.04898392781615257,0.07018061727285385,0.05464969947934151,-0.019645918160676956,-0.11011717468500137,-0.02009139396250248,0.7356446981430054,-0.1,0.05,0.13,264.16
1682374628.85801506,59180694,2,1.42,0.96,313.98,0.04732094705104828,0.06860587745904922,0.05561971291899681,-0.010272582992911339,-0.11294152587652206,-0.02060312032699585,0.7337726354598999,-0.1,0.05,0.13,264.16
1682374628.95800686,59280686,2,1.41,0.96,313.97,0.044696442782878876,0.06848929822444916,0.05479343980550766,-0.012222414836287498,-0.11646194756031036,-0.021376576274633408,0.7321592569351196,-0.1,0.05,0.13,264.16
1682374629.05800986,59380689,2,1.41,0.9500000000000001,313.97,0.042408883571624756,0.06663914769887924,0.05438396707177162,-0.013729208149015903,-0.12048985064029694,-0.023130420595407486,0.7305570840835571,-0.09,0.05,0.13,264.16
1682374629.15804291,59480722,2,1.41,0.96,313.97,0.0416041798889637,0.06577656418085098,0.055367227643728256,-0.004161735996603966,-0.12350323796272278,-0.02401689812541008,0.7302631139755249,-0.09,0.05,0.13,264.16
1682374629.25807500,59580754,2,1.4000000000000001,0.96,313.97,0.039703331887722015,0.0645272508263588,0.05541779473423958,0.01767783612012863,-0.12791843712329865,-0.02517613023519516,0.7319880723953247,-0.09,0.05,0.13,264.16
1682374629.35802698,59680706,2,1.4000000000000001,0.9500000000000001,313.97,0.038721974939107895,0.06388694792985916,0.05639905855059624,0.043422881513834,-0.1316080391407013,-0.025197001174092293,0.7358795404434204,-0.09,0.05,0.13,264.16
1682374629.45807385,59780753,2,1.3900000000000001,0.9500000000000001,313.97,0.03628424182534218,0.0627966970205307,0.056806519627571106,0.050726957619190216,-0.13597632944583893,-0.026206450536847115,0.7397323846817017,-0.09,0.05,0.13,264.16
1682374629.55804992,59880729,2,1.3800000000000001,0.96,313.98,0.035019710659980774,0.0615118108689785,0.05707452818751335,0.04751257225871086,-0.13942453265190125,-0.026498595252633095,0.7439018487930298,-0.09,0.05,0.12,264.16
1682374629.65799785,59980677,2,1.3800000000000001,0.96,313.98,0.034418728202581406,0.061921730637550354,0.058090414851903915,0.05484367534518242,-0.14296969771385193,-0.027284681797027588,0.7490595579147339,-0.09,0.05,0.12,264.16
1682374629.75800085,60080680,2,1.3800000000000001,0.96,313.99,0.03364652767777443,0.06072506308555603,0.058723222464323044,0.045895736664533615,-0.14542096853256226,-0.027151621878147125,0.7528477907180786,-0.09,0.05,0.12,264.16
1682374629.85800385,60180683,2,1.36,0.97,313.99,0.0315968357026577,0.060476042330265045,0.059077609330415726,0.03350258991122246,-0.14985157549381256,-0.028313493356108665,0.756365180015564,-0.09,0.05,0.12,264.16
1682374629.95799589,60280675,2,1.36,0.97,313.99,0.02871824987232685,0.05913202837109566,0.058468300849199295,0.023105137050151825,-0.1540764570236206,-0.028873946517705917,0.7587109804153442,-0.09,0.05,0.12,264.16
1682374630.05803704,60380716,2,1.35,0.97,313.99,0.025821221992373466,0.05788036435842514,0.05867857486009598,0.01808912493288517,-0.15906551480293274,-0.031313326209783554,0.7611385583877563,-0.09,0.05,0.12,264.16
1682374630.15806603,60480745,2,1.35,0.98,314.0,0.023680364713072777,0.056155335158109665,0.05874532833695412,0.015814796090126038,-0.1633216142654419,-0.03331906348466873,0.7627428770065308,-0.09,0.05,0.12,264.16
1682374630.25804806,60580727,2,1.34,0.97,313.99,0.021924098953604698,0.05416321009397507,0.05850639566779137,0.008751823566854,-0.16759507358074188,-0.035632725805044174,0.763929009437561,-0.09,0.05,0.12,264.16
1682374630.35805988,60680739,2,1.34,0.97,313.98,0.021381398662924767,0.05442927032709122,0.058372076600790024,0.010361268185079098,-0.17083120346069336,-0.036874957382678986,0.7654513120651245,-0.09,0.05,0.12,264.16
1682374630.45799994,60780679,2,1.34,0.96,313.98,0.020257961004972458,0.05237847939133644,0.05755946412682533,0.018209194764494896,-0.17524747550487518,-0.0390351340174675,0.7677632570266724,-0.09,0.05,0.12,264.16
1682374630.55799699,60880676,2,1.33,0.97,313.98,0.018544940277934074,0.051851097494363785,0.057928189635276794,0.020111965015530586,-0.17924770712852478,-0.04053157567977905,0.7695201635360718,-0.09,0.05,0.12,264.16
1682374630.65799689,60980676,2,1.33,0.97,313.97,0.01814126968383789,0.05126207694411278,0.05783097818493843,0.028794899582862854,-0.18274305760860443,-0.04121294990181923,0.7728973627090454,-0.09,0.05,0.12,264.16
1682374630.75799894,61080678,2,1.33,0.97,313.96,0.018794391304254532,0.05309247598052025,0.05929591506719589,0.05139695107936859,-0.1847020536661148,-0.04016001150012016,0.7777532339096069,-0.09,0.05,0.12,264.16
1682374630.85800099,61180680,2,1.33,0.97,313.96,0.017432425171136856,0.05271834507584572,0.06055703014135361,0.06276775896549225,-0.18759970366954803,-0.04009010270237923,0.7834264039993286,-0.09,0.05,0.12,264.16
1682374630.95801902,61280698,2,1.33,0.97,313.96,0.016891242936253548,0.05386273190379143,0.062280137091875076,0.07132409512996674,-0.19009625911712646,-0.039495229721069336,0.789913535118103,-0.09,0.05,0.12,264.16
1682374631.05806899,61380748,2,1.33,0.97,313.96,0.01780850440263748,0.053184088319540024,0.06363478302955627,0.06686297059059143,-0.19240973889827728,-0.04027988016605377,0.7955690622329712,-0.09,0.05,0.12,264.16
1682374631.15804791,61480727,2,1.33,0.97,313.96,0.01830032840371132,0.05320926010608673,0.06380648165941238,0.04131806269288063,-0.19376422464847565,-0.04059724882245064,0.7991262674331665,-0.09,0.05,0.12,264.16
1682374631.25806284,61580742,2,1.33,0.97,313.96,0.0181017704308033,0.052636776119470596,0.06378469616174698,0.02966400608420372,-0.1956246793270111,-0.04122485592961311,0.802956223487854,-0.09,0.05,0.12,264.16
1682374631.35799885,61680678,2,1.33,0.98,313.95,0.01804356276988983,0.0526532307267189,0.06444811820983887,0.03703238070011139,-0.196945458650589,-0.04106029495596886,0.8070801496505737,-0.09,0.05,0.12,264.16
1682374631.45799899,61780678,2,1.32,0.97,313.95,0.017238525673747063,0.053357768803834915,0.0653240755200386,0.050198230892419815,-0.19908703863620758,-0.040873557329177856,0.8126355409622192,-0.09,0.05,0.12,264.16
1682374631.55800104,61880680,2,1.31,0.98,313.95,0.01723862625658512,0.053330499678850174,0.0670173391699791,0.05935705825686455,-0.20085711777210236,-0.03981611877679825,0.8180140256881714,-0.09,0.05,0.12,264.16
1682374631.65799904,61980678,2,1.31,0.98,313.94,0.01569046452641487,0.05364348739385605,0.06760966032743454,0.04316272214055061,-0.20387008786201477,-0.04016650840640068,0.8218833208084106,-0.08,0.05,0.12,264.16
1682374631.75801396,62080693,2,1.31,0.99,313.94,0.014303797855973244,0.05328214168548584,0.06820563971996307,0.02703968435525894,-0.20674529671669006,-0.04024136811494827,0.8248125314712524,-0.08,0.05,0.12,264.16
