timestamp,TimeUS,C,Q1,Q2,Q3,Q4
1682374604.45801306,34780692,2,0.9179295897483826,-0.0035593293141573668,0.01331381220370531,-0.39650386571884155
1682374604.55800986,34880689,2,0.9177997708320618,-0.002934693591669202,0.012878513894975185,-0.39682382345199585
1682374604.65800905,34980688,2,0.9176032543182373,-0.0022710966877639294,0.012462258338928223,-0.39729559421539307
1682374604.75801396,35080693,2,0.9173969626426697,-0.0016943822847679257,0.01203983649611473,-0.3977876901626587
1682374604.85803890,35180718,2,0.91725754737854,-0.0010486807441338897,0.011625583283603191,-0.39812347292900085
1682374604.95806694,35280746,2,0.9170365333557129,-0.00040647535934112966,0.011228460818529129,-0.39864492416381836
1682374605.05803490,35380714,2,0.9168498516082764,0.0001785453496268019,0.010852187871932983,-0.3990846872329712
1682374605.15807104,35480750,2,0.9167227149009705,0.0007923142402432859,0.010430457070469856,-0.3993871510028839
1682374605.25800085,35580680,2,0.916519820690155,0.001422194647602737,0.009943166747689247,-0.39986321330070496
1682374605.35801005,35680689,2,0.9163338541984558,0.0020053472835570574,0.009532541036605835,-0.4002965986728668
1682374605.45801401,35780693,2,0.9162376523017883,0.002651729853823781,0.009160407818853855,-0.4005216658115387
1682374605.55800986,35880689,2,0.9160827398300171,0.0032307400833815336,0.008733361028134823,-0.4008811116218567
1682374605.65801096,35980690,2,0.9159447550773621,0.003856939496472478,0.00836003664880991,-0.40119871497154236
1682374605.75803804,36080717,2,0.9158442616462708,0.004420944023877382,0.007995584048330784,-0.4014297127723694
1682374605.85807395,36180753,2,0.9156795740127563,0.005004171282052994,0.00762020330876112,-0.40180572867393494
1682374605.95803499,36280714,2,0.915533721446991,0.005577971693128347,0.007199282757937908,-0.4021381139755249
1682374606.05807996,36380759,2,0.9154056310653687,0.006177032366394997,0.0068240687251091,-0.4024273455142975
1682374606.15800905,36480688,2,0.9152560234069824,0.006769124884158373,0.006554925348609686,-0.4027625322341919
1682374606.25799990,36580679,2,0.9151479601860046,0.007353256456553936,0.00621900474652648,-0.403003066778183
1682374606.35799789,36680677,2,0.9150859117507935,0.007926714606583118,0.0058731152676045895,-0.40313830971717834
1682374606.45800304,36780682,2,0.9149599075317383,0.008484301157295704,0.005573478527367115,-0.40341711044311523
1682374606.55799603,36880675,2,0.9148657321929932,0.00899173878133297,0.0052358838729560375,-0.40362411737442017
1682374606.65802002,36980699,2,0.9148419499397278,0.009510967880487442,0.004931765608489513,-0.40366995334625244
1682374606.75807190,37080751,2,0.9147495031356812,0.010002722963690758,0.004631947260349989,-0.40387099981307983
1682374606.85806704,37180746,2,0.9146742820739746,0.010539873503148556,0.004328065551817417,-0.4040311574935913
1682374606.95806003,37280739,2,0.9146420359611511,0.011037060059607029,0.004036705940961838,-0.40409383177757263
1682374607.05800200,37380681,2,0.9145569205284119,0.011560405604541302,0.003718758700415492,-0.40427494049072266
1682374607.15799689,37480676,2,0.9144842624664307,0.012019203044474125,0.0034067006781697273,-0.4044286012649536
1682374607.25800085,37580680,2,0.914438009262085,0.01252400130033493,0.003078186186030507,-0.40452051162719727
1682374607.35799789,37680677,2,0.9143622517585754,0.013017933815717697,0.0027852854691445827,-0.40467819571495056
1682374607.45799994,37780679,2,0.9143209457397461,0.013516655191779137,0.0024901244323700666,-0.4047570526599884
1682374607.55802488,37880704,2,0.9143122434616089,0.013962263241410255,0.0021912811789661646,-0.4047633111476898
1682374607.65806007,37980739,2,0.9142689108848572,0.014398103579878807,0.0019210496684536338,-0.4048473834991455
1682374607.75803399,38080713,2,0.9142405986785889,0.014853551052510738,0.0016900949412956834,-0.4048958420753479
1682374607.85806799,38180747,2,0.9142399430274963,0.015209018252789974,0.0014491956681013107,-0.40488508343696594
1682374607.95799494,38280674,2,0.9141974449157715,0.015664057806134224,0.001239984529092908,-0.4049643874168396
1682374608.05800486,38380684,2,0.9141885042190552,0.016057221218943596,0.001056328765116632,-0.4049696922302246
1682374608.15799904,38480678,2,0.9142058491706848,0.016485163941979408,0.0008381498046219349,-0.40491387248039246
1682374608.25799990,38580679,2,0.9141897559165955,0.01686999201774597,0.0006650203140452504,-0.4049345850944519
1682374608.35799885,38680678,2,0.9142166376113892,0.017269590869545937,0.000464113982161507,-0.4048573672771454
1682374608.45803285,38780712,2,0.9142265319824219,0.017659232020378113,0.0002949810295831412,-0.4048183560371399
1682374608.55807304,38880752,2,0.9141853451728821,0.018017524853348732,6.700865196762607e-05,-0.4048956632614136
1682374608.65804505,38980724,2,0.9141789674758911,0.0183438528329134,-0.00015145979705266654,-0.4048954248428345
1682374608.75807405,39080753,2,0.9141837954521179,0.01866997592151165,-0.00032137383823283017,-0.40486952662467957
1682374608.85799384,39180673,2,0.9142046570777893,0.019009724259376526,-0.000438565417425707,-0.404806524515152
1682374608.95799685,39280676,2,0.914222002029419,0.019325297325849533,-0.0005599757423624396,-0.4047521948814392
1682374609.05800295,39380682,2,0.9142460227012634,0.019581139087677002,-0.0006938966107554734,-0.40468546748161316
1682374609.15799785,39480677,2,0.9142765998840332,0.019858798012137413,-0.0008387337438762188,-0.40460261702537537
1682374609.25799990,39580679,2,0.9142910242080688,0.020147651433944702,-0.00099547253921628,-0.4045553207397461
1682374609.35802984,39680709,2,0.914313018321991,0.0203950647264719,-0.0011496650986373425,-0.4044928252696991
1682374609.45806694,39780746,2,0.9143285155296326,0.02066495455801487,-0.0012400904670357704,-0.40444374084472656
1682374609.55804706,39880726,2,0.9143897294998169,0.020886044949293137,-0.0013366430066525936,-0.4042937457561493
1682374609.65806699,39980746,2,0.9144561886787415,0.021098412573337555,-0.0014231681125238538,-0.40413206815719604
1682374609.75799704,40080676,2,0.9144964814186096,0.02129618637263775,-0.0015584235079586506,-0.4040299952030182
1682374609.85801387,40180693,2,0.9145925045013428,0.021463975310325623,-0.0015983236953616142,-0.4038034975528717
1682374609.95800686,40280686,2,0.9146671891212463,0.021616805344820023,-0.0016686486778780818,-0.40362584590911865
1682374610.05800796,40380687,2,0.9147163033485413,0.02180616743862629,-0.0017266508657485247,-0.4035041928291321
1682374610.15801096,40480690,2,0.9148131608963013,0.02197539620101452,-0.0017986167222261429,-0.4032750129699707
1682374610.25803685,40580716,2,0.9148935675621033,0.022131124511361122,-0.0018423732835799456,-0.40308380126953125
1682374610.35806799,40680747,2,0.9149806499481201,0.0223065372556448,-0.0019399565644562244,-0.4028760492801666
1682374610.45803499,40780714,2,0.9150590896606445,0.022453967481851578,-0.0020332655403763056,-0.402689129114151
1682374610.55807304,40880752,2,0.9151775240898132,0.022611623629927635,-0.002085878746584058,-0.4024108648300171
1682374610.65799403,40980673,2,0.915243923664093,0.022711800411343575,-0.0021317480131983757,-0.4022538959980011
1682374610.75800300,41080682,2,0.915295422077179,0.0228702574968338,-0.002218803158029914,-0.402127206325531
1682374610.85800004,41180679,2,0.9153279066085815,0.022994549944996834,-0.002298183273524046,-0.4020457863807678
1682374610.95799685,41280676,2,0.9153385162353516,0.023121749982237816,-0.00231644744053483,-0.40201419591903687
1682374611.05800104,41380680,2,0.915371298789978,0.023196935653686523,-0.0023736630100756884,-0.401934951543808
1682374611.15802193,41480701,2,0.9154125452041626,0.023233510553836823,-0.002370349830016494,-0.4018388092517853
1682374611.25806499,41580744,2,0.9154433012008667,0.02332604117691517,-0.002392054535448551,-0.4017632305622101
1682374611.35805392,41680733,2,0.9155181050300598,0.02341565117239952,-0.00238636857829988,-0.401587575674057
1682374611.45806503,41780744,2,0.9155974388122559,0.023458203300833702,-0.0023431526497006416,-0.4014045000076294
1682374611.55800200,41880681,2,0.9156687259674072,0.023453611880540848,-0.002344464883208275,-0.40124210715293884
1682374611.65799594,41980675,2,0.9157364964485168,0.023517658933997154,-0.0023565355222672224,-0.4010835886001587
1682374611.75799894,42080678,2,0.9157823324203491,0.023550070822238922,-0.0023806418757885695,-0.4009768068790436
1682374611.85800505,42180684,2,0.9158397912979126,0.023595107719302177,-0.002374378265812993,-0.4008429944515228
1682374611.95799494,42280674,2,0.9158890843391418,0.023595981299877167,-0.002393480855971575,-0.4007301330566406
1682374612.05803895,42380718,2,0.9159631133079529,0.023637136444449425,-0.002417295938357711,-0.4005584120750427
1682374612.15807390,42480753,2,0.9160029888153076,0.023620985448360443,-0.0023949160240590572,-0.40046823024749756
1682374612.25804687,42580726,2,0.9160773158073425,0.023631278425455093,-0.002362883184105158,-0.4002978205680847
1682374612.35806298,42680742,2,0.9161583781242371,0.023714084178209305,-0.002322628628462553,-0.40010759234428406
1682374612.45800591,42780685,2,0.9162151217460632,0.023703744634985924,-0.002280744956806302,-0.39997851848602295
1682374612.55799699,42880676,2,0.9162878394126892,0.023699944838881493,-0.002242444083094597,-0.3998122811317444
1682374612.65799594,42980675,2,0.9163642525672913,0.023676984012126923,-0.0022271443158388138,-0.3996385931968689
1682374612.75800300,43080682,2,0.9164376854896545,0.02370261773467064,-0.002196330577135086,-0.3994687795639038
1682374612.85799503,43180674,2,0.9165234565734863,0.023650506511330605,-0.002194524509832263,-0.3992750942707062
1682374612.95802593,43280705,2,0.9166172742843628,0.023620160296559334,-0.0021729394793510437,-0.3990616202354431
1682374613.05806184,43380741,2,0.9167125225067139,0.02353144995868206,-0.0021876513492316008,-0.39884787797927856
1682374613.15803385,43480713,2,0.9168093204498291,0.023479484021663666,-0.0021645985543727875,-0.39862844347953796
1682374613.25806499,43580744,2,0.9169001579284668,0.023404376581311226,-0.002167084952816367,-0.3984239101409912
1682374613.35799694,43680676,2,0.9169590473175049,0.0232993271201849,-0.002106115687638521,-0.3982948958873749
1682374613.45800185,43780681,2,0.9170082807540894,0.023236818611621857,-0.0021115527488291264,-0.3981851637363434
1682374613.55800104,43880680,2,0.91704922914505,0.02324160933494568,-0.002045245375484228,-0.39809083938598633
1682374613.65799594,43980675,2,0.9170913696289062,0.023220805451273918,-0.002035861136391759,-0.39799508452415466
1682374613.75800085,44080680,2,0.9171470403671265,0.023168789222836494,-0.001960898982360959,-0.39787012338638306
1682374613.85802889,44180708,2,0.9171966314315796,0.0231416504830122,-0.001945084542967379,-0.3977574408054352
1682374613.95806694,44280746,2,0.9172305464744568,0.023061389103531837,-0.0019279727712273598,-0.39768409729003906
1682374614.05805898,44380738,2,0.9172911047935486,0.02301016077399254,-0.0018598005408421159,-0.39754757285118103
1682374614.15807104,44480750,2,0.917306661605835,0.022960064932703972,-0.0018134996062144637,-0.39751487970352173
1682374614.25799704,44580676,2,0.917341947555542,0.02287762239575386,-0.0017569942865520716,-0.3974383473396301
1682374614.35799885,44680678,2,0.9173782467842102,0.022805286571383476,-0.0017311789561063051,-0.39735883474349976
1682374614.45800304,44780682,2,0.9174274802207947,0.022728443145751953,-0.0017220492009073496,-0.39724963903427124
1682374614.55799699,44880676,2,0.9174696207046509,0.022724473848938942,-0.001682913745753467,-0.3971526622772217
1682374614.65799594,44980675,2,0.9175205230712891,0.022683998569846153,-0.0016052379505708814,-0.39703765511512756
1682374614.75804186,45080721,2,0.9175543189048767,0.022585174068808556,-0.0016003386117517948,-0.39696526527404785
1682374614.85806203,45180741,2,0.9175897836685181,0.022527707740664482,-0.0015415193047374487,-0.39688676595687866
1682374614.95804596,45280725,2,0.9176321029663086,0.02241475321352482,-0.0014830263098701835,-0.3967955708503723
1682374615.05806589,45380745,2,0.9176564812660217,0.022322319447994232,-0.00141147302929312,-0.3967446982860565
1682374615.15799284,45480672,2,0.9176853895187378,0.022216591984033585,-0.001393710495904088,-0.39668381214141846
1682374615.25799799,45580677,2,0.9177058935165405,0.022182531654834747,-0.0013131339801475406,-0.39663854241371155
1682374615.35800099,45680680,2,0.917736828327179,0.02209545113146305,-0.0012246270198374987,-0.3965720236301422
1682374615.45800495,45780684,2,0.9177694320678711,0.022041676566004753,-0.0011328208493068814,-0.396499902009964
1682374615.55800104,45880680,2,0.9178202152252197,0.021996697410941124,-0.0010247397003695369,-0.396385133266449
1682374615.65802503,45980704,2,0.9178888201713562,0.02188139222562313,-0.00099274015519768,-0.3962327241897583
1682374615.75806594,46080745,2,0.9179279208183289,0.021740080788731575,-0.0009230952709913254,-0.3961501121520996
1682374615.85804486,46180724,2,0.9180169701576233,0.021701034158468246,-0.000906387169379741,-0.39594578742980957
1682374615.95806289,46280742,2,0.9180824756622314,0.02160424366593361,-0.0008467487059533596,-0.3957993984222412
1682374616.05799890,46380678,2,0.9181288480758667,0.02154906466603279,-0.0007393986452370882,-0.3956950008869171
1682374616.15800595,46480685,2,0.9181622862815857,0.02145826444029808,-0.0006820931448601186,-0.39562249183654785
1682374616.25799990,46580679,2,0.918212354183197,0.021354908123612404,-0.0006004456081427634,-0.3955118656158447
1682374616.35800004,46680679,2,0.9182819128036499,0.02124078758060932,-0.0005080154514871538,-0.3953567147254944
1682374616.45800996,46780689,2,0.9183195233345032,0.021135127171874046,-0.0004176870861556381,-0.3952750563621521
1682374616.55801988,46880699,2,0.9183623194694519,0.02100350894033909,-0.0003568327520042658,-0.39518266916275024
1682374616.65806007,46980739,2,0.9184250831604004,0.020971639081835747,-0.00026014778995886445,-0.3950386345386505
1682374616.75805306,47080732,2,0.9184567928314209,0.020845847204327583,-0.00020686458447016776,-0.39497148990631104
1682374616.85806489,47180744,2,0.9185217618942261,0.020748572424054146,-0.0001669713674345985,-0.3948255181312561
1682374616.95799804,47280677,2,0.9185503721237183,0.020674947649240494,-0.00017117474635597318,-0.3947628438472748
1682374617.05801487,47380694,2,0.9185848832130432,0.020603900775313377,-8.546008757548407e-05,-0.3946862816810608
1682374617.15800190,47480681,2,0.9186201095581055,0.020561255514621735,-5.468496965477243e-05,-0.3946065902709961
1682374617.25799704,47580676,2,0.9186372756958008,0.020489061251282692,-1.875232374004554e-05,-0.39457041025161743
1682374617.35799885,47680678,2,0.9186503291130066,0.020405491814017296,1.9201899704057723e-05,-0.3945443034172058
1682374617.45804691,47780726,2,0.9186815619468689,0.02027244120836258,2.633344047353603e-05,-0.3944784700870514
1682374617.55807304,47880752,2,0.9186838865280151,0.020183859393000603,3.0494225939037278e-05,-0.3944775462150574
1682374617.65804386,47980723,2,0.9186912178993225,0.02014341577887535,0.00012310058809816837,-0.39446255564689636
1682374617.75806403,48080743,2,0.9187154769897461,0.020021291449666023,0.00011028147127944976,-0.39441224932670593
1682374617.85799789,48180677,2,0.9187237620353699,0.019920723512768745,0.00018016596732195467,-0.394398033618927
1682374617.95799804,48280677,2,0.9187507629394531,0.019824359565973282,0.0002549595374148339,-0.3943399488925934
1682374618.05799985,48380679,2,0.9187883734703064,0.019770899787545204,0.0002586506016086787,-0.3942548930644989
1682374618.15800595,48480685,2,0.9187986254692078,0.019702117890119553,0.00031047765514813364,-0.39423447847366333
1682374618.25799584,48580675,2,0.9187832474708557,0.01965492218732834,0.00034718302777037024,-0.3942726254463196
1682374618.35804486,48680724,2,0.9188147187232971,0.019561758264899254,0.00037280694232322276,-0.39420396089553833
1682374618.45806694,48780746,2,0.9188723564147949,0.01950625516474247,0.0003944323107134551,-0.39407220482826233
1682374618.55802703,48880706,2,0.918927013874054,0.01943444274365902,0.00045519304694607854,-0.3939482569694519
1682374618.65806699,48980746,2,0.9189887046813965,0.01936044543981552,0.0005258807213976979,-0.39380794763565063
1682374618.75799894,49080678,2,0.9190478920936584,0.019310222938656807,0.0005730898701585829,-0.3936721384525299
1682374618.85800099,49180680,2,0.9190645813941956,0.019267359748482704,0.0006306878640316427,-0.39363524317741394
1682374618.95799589,49280675,2,0.919068455696106,0.019215010106563568,0.0007114307372830808,-0.3936285078525543
1682374619.05800390,49380683,2,0.9190831780433655,0.019131286069750786,0.0007024703663773835,-0.3935982286930084
1682374619.15799999,49480679,2,0.9190959930419922,0.019051827490329742,0.0007136267959140241,-0.39357224106788635
1682374619.25803995,49580719,2,0.9191144704818726,0.018964581191539764,0.0007435048464685678,-0.3935331702232361
1682374619.35806394,49680743,2,0.9190913438796997,0.018881097435951233,0.0008005104027688503,-0.39359113574028015
1682374619.45805192,49780731,2,0.9190831780433655,0.018783381208777428,0.0007518331403844059,-0.3936149477958679
1682374619.55806804,49880747,2,0.9190906286239624,0.018787028267979622,0.000743512820918113,-0.39359745383262634
1682374619.65800405,49980683,2,0.9190788865089417,0.018731798976659775,0.0008433981565758586,-0.39362722635269165
1682374619.75800395,50080683,2,0.9190678596496582,0.018636180087924004,0.0008501562406308949,-0.3936575949192047
1682374619.85800600,50180685,2,0.9190628528594971,0.018609851598739624,0.0009221651125699282,-0.3936702609062195
1682374619.95799589,50280675,2,0.9190723896026611,0.018554987385869026,0.000933807750698179,-0.39365050196647644
1682374620.05801105,50380690,2,0.9190813899040222,0.018512660637497902,0.000972413516137749,-0.39363154768943787
1682374620.15804386,50480723,2,0.9190993905067444,0.01844022050499916,0.0009843807201832533,-0.39359280467033386
1682374620.25806785,50580747,2,0.9190866947174072,0.018402203917503357,0.000947274558711797,-0.3936243951320648
1682374620.35807395,50680753,2,0.919110119342804,0.01836385950446129,0.0009412350482307374,-0.3935714066028595
1682374620.45807600,50780755,2,0.9191226363182068,0.01835167407989502,0.0009728231816552579,-0.39354270696640015
1682374620.55800200,50880681,2,0.9191306233406067,0.018288874998688698,0.0009979227324947715,-0.39352691173553467
1682374620.65800786,50980687,2,0.9191586375236511,0.018235575407743454,0.001082526403479278,-0.39346373081207275
1682374620.75801206,51080691,2,0.9191831946372986,0.018222616985440254,0.001098251435905695,-0.39340683817863464
1682374620.85800695,51180686,2,0.9191963076591492,0.018135426566004753,0.0011781940702348948,-0.3933800160884857
1682374620.95800400,51280683,2,0.9192042946815491,0.01807229593396187,0.0011990729253739119,-0.39336422085762024
1682374621.05803204,51380711,2,0.9192261695861816,0.018060553818941116,0.0012158715398982167,-0.39331355690956116
1682374621.15806603,51480745,2,0.9192527532577515,0.017966561019420624,0.0012565337819978595,-0.39325568079948425
1682374621.25804591,51580725,2,0.919284999370575,0.017906319350004196,0.0012641546782106161,-0.3931829333305359
1682374621.35807300,51680752,2,0.9193087220191956,0.017902683466672897,0.001365182688459754,-0.39312735199928284
1682374621.45799804,51780677,2,0.9193324446678162,0.01780708134174347,0.0013938582269474864,-0.3930760324001312
1682374621.55801606,51880695,2,0.9193532466888428,0.017738502472639084,0.0014534034999087453,-0.3930303752422333
1682374621.65801096,51980690,2,0.9193538427352905,0.017691388726234436,0.0015102431643754244,-0.3930308520793915
1682374621.75800896,52080688,2,0.9193631410598755,0.017682436853647232,0.001539955846965313,-0.3930094242095947
1682374621.85800886,52180688,2,0.9193594455718994,0.017621690407395363,0.001615271088667214,-0.39302051067352295
1682374621.95803404,52280713,2,0.9193371534347534,0.01757238805294037,0.0016344260657206178,-0.3930746912956238
1682374622.05806804,52380747,2,0.9193195700645447,0.01753438264131546,0.0016791581874713302,-0.3931173086166382
1682374622.15804696,52480726,2,0.9193180203437805,0.01751839742064476,0.0016763558378443122,-0.39312174916267395
1682374622.25807190,52580751,2,0.9193081855773926,0.017507970333099365,0.0016644878778606653,-0.3931451737880707
1682374622.35799694,52680676,2,0.919294536113739,0.01749608665704727,0.0017437946517020464,-0.393177330493927
1682374622.45801091,52780690,2,0.9193009734153748,0.017428431659936905,0.0017645962070673704,-0.3931651711463928
1682374622.55800700,52880686,2,0.9193030595779419,0.01742134615778923,0.0017202022718265653,-0.3931608200073242
1682374622.65800095,52980680,2,0.9193069934844971,0.017476553097367287,0.0017555997474119067,-0.3931490480899811
1682374622.75800204,53080681,2,0.9193060398101807,0.017526177689433098,0.0017567342147231102,-0.39314907789230347
1682374622.85802293,53180702,2,0.9193049669265747,0.017630381509661674,0.001677880878560245,-0.39314717054367065
1682374622.95806694,53280746,2,0.9193182587623596,0.017711251974105835,0.0016442022752016783,-0.3931126892566681
1682374623.05804396,53380723,2,0.9193405508995056,0.017796669155359268,0.0016048901015892625,-0.39305683970451355
1682374623.15806389,53480743,2,0.9193523526191711,0.017873885110020638,0.0015784375136718154,-0.39302587509155273
1682374623.25799584,53580675,2,0.9193719029426575,0.017941636964678764,0.0015571422409266233,-0.3929770290851593
1682374623.35800099,53680680,2,0.9193885922431946,0.0180469062179327,0.001543200807645917,-0.39293327927589417
1682374623.45800090,53780680,2,0.9194091558456421,0.01810004562139511,0.001572752371430397,-0.3928825557231903
1682374623.55799985,53880679,2,0.9194353818893433,0.018149949610233307,0.001579283969476819,-0.392818808555603
1682374623.65799689,53980676,2,0.9194502830505371,0.018191613256931305,0.0015597132733091712,-0.39278221130371094
1682374623.75802994,54080709,2,0.9194679856300354,0.018263474106788635,0.0015423352597281337,-0.39273741841316223
1682374623.85806584,54180745,2,0.919499933719635,0.018352974206209183,0.0016089121345430613,-0.39265817403793335
1682374623.95803595,54280715,2,0.9194867014884949,0.018415400758385658,0.0016121292719617486,-0.39268627762794495
1682374624.05806494,54380744,2,0.919518768787384,0.018466193228960037,0.0016427937662228942,-0.3926087021827698
1682374624.15800691,54480686,2,0.9195312857627869,0.018477117642760277,0.0016044953372329473,-0.3925788998603821
1682374624.25800204,54580681,2,0.9195299744606018,0.018505368381738663,0.0016176452627405524,-0.39258062839508057
1682374624.35800099,54680680,2,0.9195596575737,0.018495313823223114,0.0015578251332044601,-0.3925118148326874
1682374624.45800495,54780684,2,0.9195683002471924,0.018486782908439636,0.0015807910822331905,-0.3924919068813324
1682374624.55800700,54880686,2,0.9195870161056519,0.01843174546957016,0.0016000015893951058,-0.3924504816532135
1682374624.65802002,54980699,2,0.919593334197998,0.018390165641903877,0.0015700554940849543,-0.39243775606155396
1682374624.75806904,55080748,2,0.9195934534072876,0.018360767513513565,0.0015612816205248237,-0.39243897795677185
1682374624.85803390,55180713,2,0.9196078181266785,0.018296197056770325,0.0016250613844022155,-0.3924080729484558
1682374624.95808196,55280761,2,0.9196599721908569,0.01824963465332985,0.0016733219381421804,-0.3922877907752991
1682374625.05799985,55380679,2,0.9196737408638,0.01814306154847145,0.0017269699601456523,-0.3922601640224457
1682374625.15801096,55480690,2,0.919689416885376,0.018032414838671684,0.001701019937172532,-0.3922286331653595
1682374625.25801086,55580690,2,0.919677197933197,0.017950912937521935,0.0016712979413568974,-0.39226123690605164
1682374625.35800886,55680688,2,0.9196668267250061,0.01783272996544838,0.0017063552513718605,-0.3922906816005707
1682374625.45800805,55780687,2,0.9196896553039551,0.01771664060652256,0.0017900655511766672,-0.39224204421043396
1682374625.55804205,55880721,2,0.9197166562080383,0.017613360658288002,0.001807378139346838,-0.3921833634376526
1682374625.65806389,55980743,2,0.9197393655776978,0.01751059852540493,0.0018798940582200885,-0.3921343982219696
1682374625.75803590,56080715,2,0.9197837710380554,0.017354149371385574,0.0019308144692331553,-0.3920368254184723
1682374625.85807395,56180753,2,0.9198208451271057,0.017280347645282745,0.0020164288580417633,-0.3919526934623718
1682374625.95800686,56280686,2,0.9198656678199768,0.017196109518408775,0.0020833853632211685,-0.39185091853141785
1682374626.05801392,56380693,2,0.9198850989341736,0.017068013548851013,0.0021491290535777807,-0.3918105363845825
1682374626.15800190,56480681,2,0.9199041724205017,0.0169801227748394,0.002231575781479478,-0.39176908135414124
1682374626.25799799,56580677,2,0.9199010729789734,0.016906265169382095,0.0022576404735445976,-0.391779363155365
1682374626.35800004,56680679,2,0.9199283719062805,0.016794059425592422,0.002274676924571395,-0.3917199671268463
1682374626.45803094,56780710,2,0.9199562072753906,0.016639556735754013,0.0023142783902585506,-0.3916610777378082
1682374626.55807400,56880753,2,0.9199568629264832,0.016512403264641762,0.0023021900560706854,-0.391664981842041
1682374626.65802884,56980708,2,0.9199588894844055,0.016407707706093788,0.0023690180387347937,-0.3916641175746918
1682374626.75807285,57080752,2,0.9199851751327515,0.016220496967434883,0.0024102546740323305,-0.39160993695259094
1682374626.85800195,57180681,2,0.92000812292099,0.016178643330931664,0.0024725915864109993,-0.3915574550628662
1682374626.95799685,57280676,2,0.9200353026390076,0.016077695414423943,0.0024962930474430323,-0.39149758219718933
1682374627.05800104,57380680,2,0.9200730919837952,0.01597473956644535,0.002489999169483781,-0.39141300320625305
1682374627.15801001,57480689,2,0.9200890064239502,0.015866952016949654,0.0024877660907804966,-0.3913799822330475
1682374627.25799894,57580678,2,0.9201256632804871,0.015755416825413704,0.002519977279007435,-0.3912980556488037
1682374627.35802794,57680707,2,0.9201327562332153,0.01567261666059494,0.0025333422236144543,-0.391284704208374
1682374627.45807385,57780753,2,0.9201276898384094,0.01558362040668726,0.0025787854101508856,-0.3912997543811798
1682374627.55806398,57880743,2,0.9201443195343018,0.015514854341745377,0.0025671832263469696,-0.391263484954834
1682374627.65807104,57980750,2,0.9201443791389465,0.015432901680469513,0.0025711252819746733,-0.3912666440010071
1682374627.75799489,58080674,2,0.920143187046051,0.015344961546361446,0.002598673105239868,-0.391272634267807
1682374627.85801506,58180694,2,0.9201837182044983,0.015235403552651405,0.002648678608238697,-0.3911812901496887
1682374627.95800495,58280684,2,0.9201769232749939,0.015103194862604141,0.0026958100497722626,-0.3912021219730377
1682374628.05801105,58380690,2,0.920184850692749,0.014976178295910358,0.00273164757527411,-0.3911880552768707
1682374628.15800285,58480682,2,0.9201881885528564,0.014964522793889046,0.002746646525338292,-0.39118048548698425
1682374628.25803089,58580710,2,0.9201904535293579,0.014946548268198967,0.002782625611871481,-0.39117565751075745
1682374628.35806584,58680745,2,0.920219898223877,0.014881216920912266,0.002788181882351637,-0.39110881090164185
1682374628.45806193,58780741,2,0.9202686548233032,0.014854571782052517,0.0028125860262662172,-0.3909948766231537
1682374628.55809307,58880772,2,0.9202892184257507,0.014821757562458515,0.002813854953274131,-0.39094772934913635
1682374628.65799403,58980673,2,0.9202936291694641,0.014765070751309395,0.0028502473141998053,-0.39093923568725586
1682374628.75800896,59080688,2,0.9202924370765686,0.014781343750655651,0.0028758735861629248,-0.3909412920475006
1682374628.85801506,59180694,2,0.9202937483787537,0.014707598835229874,0.00286501063965261,-0.3909410536289215
1682374628.95800686,59280686,2,0.920289933681488,0.014677503146231174,0.002868832554668188,-0.39095115661621094
1682374629.05800986,59380689,2,0.9202655553817749,0.014666634611785412,0.002851806813850999,-0.39100897312164307
1682374629.15804291,59480722,2,0.9202683568000793,0.014625142328441143,0.0028951612766832113,-0.39100372791290283
1682374629.25807500,59580754,2,0.9202733635902405,0.014582676813006401,0.002911168150603771,-0.3909934163093567
1682374629.35802698,59680706,2,0.920291543006897,0.01451132819056511,0.002879528095945716,-0.39095354080200195
1682374629.45807385,59780753,2,0.9202796220779419,0.014470233581960201,0.002943633357062936,-0.39098259806632996
1682374629.55804992,59880729,2,0.9203065633773804,0.014420828782022,0.002990755019709468,-0.3909205496311188
1682374629.65799785,59980677,2,0.9203176498413086,0.014405538327991962,0.0030272742733359337,-0.3908948600292206
1682374629.75800085,60080680,2,0.9203327298164368,0.014396247453987598,0.003080955008044839,-0.3908591866493225
1682374629.85800385,60180683,2,0.9203437566757202,0.014299075119197369,0.003134904894977808,-0.3908364176750183
1682374629.95799589,60280675,2,0.9203634858131409,0.014305626973509789,0.0031967852264642715,-0.3907891809940338
1682374630.05803704,60380716,2,0.9203521013259888,0.014244139194488525,0.0032334872521460056,-0.3908179998397827
1682374630.15806603,60480745,2,0.9203682541847229,0.014208217151463032,0.003280095523223281,-0.3907807767391205
1682374630.25804806,60580727,2,0.9203492999076843,0.014129613526165485,0.0032424742821604013,-0.3908286690711975
1682374630.35805988,60680739,2,0.9203248620033264,0.014127536676824093,0.0032191977370530367,-0.39088642597198486
1682374630.45799994,60780679,2,0.9203250408172607,0.014078158885240555,0.0032031340524554253,-0.39088794589042664
1682374630.55799699,60880676,2,0.9203076958656311,0.014063065871596336,0.0032497639767825603,-0.39092886447906494
1682374630.65799689,60980676,2,0.9202798008918762,0.014058352448046207,0.0032609307672828436,-0.3909946382045746
1682374630.75799894,61080678,2,0.9202595353126526,0.014063166454434395,0.0032466636039316654,-0.3910422623157501
1682374630.85800099,61180680,2,0.9202553629875183,0.014020871371030807,0.0032960614189505577,-0.3910531997680664
1682374630.95801902,61280698,2,0.920256495475769,0.014014387503266335,0.0032947128638625145,-0.39105087518692017
1682374631.05806899,61380748,2,0.9202403426170349,0.014065569266676903,0.0033095909748226404,-0.39108678698539734
1682374631.15804791,61480727,2,0.9202362895011902,0.014068074524402618,0.0032876706682145596,-0.3910965025424957
1682374631.25806284,61580742,2,0.9202370643615723,0.014046869240701199,0.0033219922333955765,-0.3910951316356659
1682374631.35799885,61680678,2,0.9202082753181458,0.01403028517961502,0.003340143710374832,-0.39116325974464417
1682374631.45799899,61780678,2,0.9202086925506592,0.013960462994873524,0.0033578528091311455,-0.3911646008491516
1682374631.55800104,61880680,2,0.9202035069465637,0.013950599357485771,0.003382682567462325,-0.39117705821990967
1682374631.65799904,61980678,2,0.920187771320343,0.013932358473539352,0.003381522139534354,-0.39121463894844055
1682374631.75801396,62080693,2,0.9201744198799133,0.01395783293992281,0.0034605483524501324,-0.39124444127082825
1682374631.85806108,62180740,2,0.9201571345329285,0.013932445086538792,0.0034725654404610395,-0.3912859261035919
1682374631.95806789,62280747,2,0.9201571941375732,0.013901244848966599,0.003473183372989297,-0.3912868797779083
1682374632.05802608,62380705,2,0.9201390147209167,0.013865740038454533,0.0034173394087702036,-0.3913314640522003
1682374632.15808105,62480760,2,0.9201276302337646,0.013809583149850368,0.0033663446083664894,-0.3913605809211731
1682374632.25800800,62580687,2,0.9200974702835083,0.013823929242789745,0.0034016473218798637,-0.39143064618110657
1682374632.35800695,62680686,2,0.9200565814971924,0.013812772929668427,0.0034309467300772667,-0.3915269374847412
1682374632.45801091,62780690,2,0.9200332760810852,0.013812829740345478,0.0034293208736926317,-0.3915817439556122
1682374632.55800700,62880686,2,0.9200335144996643,0.013808321207761765,0.0034231883473694324,-0.39158129692077637
1682374632.65800595,62980685,2,0.9200271368026733,0.013749908655881882,0.003515394404530525,-0.3915975093841553
1682374632.75805092,63080730,2,0.919988214969635,0.013693985529243946,0.0035292217507958412,-0.3916908800601959
1682374632.85807395,63180753,2,0.9199621081352234,0.013628016225993633,0.0034785352181643248,-0.3917549252510071
1682374632.95804501,63280724,2,0.9199462532997131,0.013630164787173271,0.0034492432605475187,-0.39179229736328125
1682374633.05807090,63380750,2,0.9199203252792358,0.013613664545118809,0.0034339281264692545,-0.39185386896133423
1682374633.15800405,63480683,2,0.9199004173278809,0.013588682748377323,0.003408687422052026,-0.3919017016887665
1682374633.25801086,63580690,2,0.9198887348175049,0.013577324338257313,0.0034420762676745653,-0.3919292688369751
1682374633.35801005,63680689,2,0.9198787212371826,0.013540798798203468,0.003443787107244134,-0.3919539749622345
1682374633.45800996,63780689,2,0.9198710918426514,0.013464158400893211,0.003488109214231372,-0.3919741213321686
1682374633.55800200,63880681,2,0.9198635220527649,0.013455204665660858,0.0034882088657468557,-0.3919921815395355
1682374633.65801692,63980696,2,0.9198592305183411,0.013357474468648434,0.003483323147520423,-0.39200568199157715
1682374633.75806284,64080742,2,0.9198529124259949,0.013376128859817982,0.0035342329647392035,-0.3920193314552307
1682374633.85805202,64180731,2,0.9198439717292786,0.013372339308261871,0.003529871813952923,-0.39204052090644836
1682374633.95806289,64280742,2,0.9198407530784607,0.013409554958343506,0.0035700120497494936,-0.39204642176628113
1682374634.05799794,64380677,2,0.9198376536369324,0.013404089026153088,0.003541494719684124,-0.3920542299747467
1682374634.15801287,64480692,2,0.9198511838912964,0.013403267599642277,0.0034997244365513325,-0.39202287793159485
1682374634.25799584,64580675,2,0.9198405146598816,0.013328337110579014,0.0034672252368181944,-0.39205074310302734
1682374634.35799885,64680678,2,0.9198320508003235,0.013264315202832222,0.00340264686383307,-0.39207330346107483
1682374634.45800090,64780680,2,0.9198285341262817,0.013255566358566284,0.0033891559578478336,-0.3920819163322449
1682374634.55803704,64880716,2,0.9198179841041565,0.013220989145338535,0.003348239231854677,-0.3921082019805908
1682374634.65806007,64980739,2,0.919826090335846,0.013175899162888527,0.0033059532288461924,-0.3920910656452179
1682374634.75803995,65080719,2,0.9198358654975891,0.013138992711901665,0.003306073136627674,-0.3920694589614868
1682374634.85806990,65180749,2,0.9198359847068787,0.013144353404641151,0.0033196399454027414,-0.39206889271736145
1682374634.95799303,65280672,2,0.9198282957077026,0.013174937106668949,0.00330766336992383,-0.39208588004112244
1682374635.05799985,65380679,2,0.9198207259178162,0.013157344423234463,0.0033275727182626724,-0.3921041190624237
1682374635.15800285,65480682,2,0.9198113679885864,0.013150525279343128,0.0032785057555884123,-0.3921266496181488
1682374635.25799584,65580675,2,0.9198228120803833,0.013098780997097492,0.0032403154764324427,-0.392101913690567
1682374635.35799885,65680678,2,0.9198402762413025,0.013032423332333565,0.00328318914398551,-0.39206284284591675
1682374635.45803094,65780710,2,0.9198586940765381,0.013063010759651661,0.003252273891121149,-0.39201876521110535
1682374635.55807185,65880751,2,0.9198635220527649,0.013050159439444542,0.0031967225950211287,-0.39200836420059204
1682374635.65804791,65980727,2,0.9198779463768005,0.01299254596233368,0.003163964254781604,-0.3919767439365387
1682374635.75806403,66080743,2,0.9198960065841675,0.012962127104401588,0.0031141522340476513,-0.3919357359409332
1682374635.85800195,66180681,2,0.9199012517929077,0.012942971661686897,0.0030443118885159492,-0.39192458987236023
1682374635.95799804,66280677,2,0.9199075698852539,0.012864709831774235,0.0030379153322428465,-0.39191240072250366
1682374636.05799985,66380679,2,0.9198877215385437,0.01282249204814434,0.002985189901664853,-0.3919607698917389
1682374636.15800905,66480688,2,0.9198645949363708,0.012833827175199986,0.0030049835331737995,-0.3920145630836487
1682374636.25799584,66580675,2,0.9198490977287292,0.012800455093383789,0.002986123552545905,-0.3920520544052124
1682374636.35801888,66680698,2,0.9198434352874756,0.012791666202247143,0.002948163542896509,-0.39206600189208984
1682374636.45807290,66780752,2,0.9198357462882996,0.01277767401188612,0.0029139588586986065,-0.3920847177505493
1682374636.55805302,66880732,2,0.9198702573776245,0.012787963263690472,0.002893192693591118,-0.39200353622436523
1682374636.65806007,66980739,2,0.9198610186576843,0.012760973535478115,0.002922781277447939,-0.392025887966156
1682374636.75800300,67080682,2,0.9198267459869385,0.012767746113240719,0.002907274989411235,-0.39210620522499084
1682374636.85799885,67180678,2,0.9198316931724548,0.01278999075293541,0.002966752275824547,-0.3920935094356537
1682374636.95799685,67280676,2,0.9197938442230225,0.012752228416502476,0.002966095693409443,-0.39218348264694214
1682374637.05799985,67380679,2,0.9197560548782349,0.012723932974040508,0.0029794233851134777,-0.3922729790210724
1682374637.15801001,67480689,2,0.9197311997413635,0.012728212401270866,0.0029545447323471308,-0.39233121275901794
1682374637.25801992,67580699,2,0.9196966290473938,0.012693038210272789,0.0029453609604388475,-0.3924134075641632
1682374637.35805893,67680738,2,0.919658899307251,0.012662315741181374,0.002957575721666217,-0.3925028145313263
1682374637.45803094,67780710,2,0.9196544289588928,0.012605973519384861,0.0029420426581054926,-0.3925151824951172
1682374637.55806684,67880746,2,0.919630765914917,0.012497536838054657,0.0029324886854737997,-0.3925741910934448
1682374637.65799403,67980673,2,0.9196467399597168,0.012478898279368877,0.0029742044862359762,-0.3925369679927826
1682374637.75800991,68080689,2,0.9196330308914185,0.012420847080647945,0.0029436007607728243,-0.39257124066352844
1682374637.85801101,68180690,2,0.9196450114250183,0.012454325333237648,0.00290416507050395,-0.3925423324108124
1682374637.95800591,68280685,2,0.9196305274963379,0.012413817457854748,0.0028940080665051937,-0.392577588558197
1682374638.05800891,68380688,2,0.9196215271949768,0.012474172748625278,0.0028786524198949337,-0.39259693026542664
1682374638.15803695,68480716,2,0.9195927381515503,0.012408332899212837,0.0029473453760147095,-0.39266589283943176
1682374638.25806904,68580748,2,0.9195820689201355,0.012392045930027962,0.0029058828949928284,-0.3926917314529419
1682374638.35806990,68680749,2,0.9195882081985474,0.012334054335951805,0.002907327376306057,-0.39267924427986145
1682374638.45808196,68780761,2,0.9195621609687805,0.012359009124338627,0.002901543630287051,-0.3927393853664398
1682374638.55800104,68880680,2,0.9195353388786316,0.012347453273832798,0.002883155597373843,-0.39280271530151367
1682374638.65801287,68980692,2,0.9195069074630737,0.01236793864518404,0.00285217072814703,-0.39286890625953674
1682374638.75801206,69080691,2,0.9194664359092712,0.012364733964204788,0.002835348481312394,-0.39296379685401917
1682374638.85801101,69180690,2,0.9194473624229431,0.012338069267570972,0.002831224584951997,-0.393009215593338
1682374638.95800686,69280686,2,0.9194468855857849,0.01229090802371502,0.0028042003978043795,-0.393012136220932
1682374639.05803394,69380713,2,0.9194519519805908,0.01226025726646185,0.0028417061548680067,-0.39300093054771423
1682374639.15806890,69480748,2,0.9194552898406982,0.01229044422507286,0.0028491471894085407,-0.39299213886260986
1682374639.25805593,69580735,2,0.9194578528404236,0.012285042554140091,0.0028121492359787226,-0.39298659563064575
1682374639.35807085,69680750,2,0.9194848537445068,0.01225549541413784,0.0027918326668441296,-0.39292439818382263
1682374639.45800591,69780685,2,0.9194905757904053,0.012334073893725872,0.0028454074636101723,-0.3929081857204437
1682374639.55799985,69880679,2,0.9194557070732117,0.01229716744273901,0.002822449430823326,-0.3929910659790039
1682374639.65799689,69980676,2,0.9194506406784058,0.012302749790251255,0.002819778397679329,-0.39300283789634705
1682374639.75800300,70080682,2,0.9194310307502747,0.012271357700228691,0.0028633070178329945,-0.39304932951927185
1682374639.85800505,70180684,2,0.9194082617759705,0.01228519156575203,0.0028568918351083994,-0.3931022584438324
1682374639.95801687,70280696,2,0.9193568825721741,0.012331392616033554,0.00289796176366508,-0.3932206332683563
1682374640.05806398,70380743,2,0.9193294048309326,0.012306133285164833,0.0028962623327970505,-0.39328572154045105
1682374640.15804601,70480725,2,0.9193090796470642,0.012307076714932919,0.002924771746620536,-0.3933328688144684
1682374640.25807405,70580753,2,0.919289231300354,0.012292005121707916,0.002890849718824029,-0.39337998628616333
1682374640.35799599,70680675,2,0.9192619919776917,0.012294713407754898,0.0028398756403476,-0.3934440314769745
1682374640.45801687,70780696,2,0.9192468523979187,0.012219713069498539,0.0028404525946825743,-0.39348167181015015
1682374640.55800796,70880687,2,0.9192256331443787,0.01220365148037672,0.0028318369295448065,-0.39353182911872864
1682374640.65800691,70980686,2,0.9192006587982178,0.012241885997354984,0.0028161988593637943,-0.3935890197753906
1682374640.75801587,71080695,2,0.9191738367080688,0.012284179218113422,0.00284248567186296,-0.39365026354789734
1682374640.85802794,71180707,2,0.9191316962242126,0.01229406613856554,0.002820865251123905,-0.39374837279319763
1682374640.95807099,71280750,2,0.919119656085968,0.012315829284489155,0.002823834540322423,-0.3937758505344391
1682374641.05804896,71380728,2,0.9191297888755798,0.012280608527362347,0.0028552820440381765,-0.3937531113624573
1682374641.15807295,71480752,2,0.9191266894340515,0.012262526899576187,0.002891174051910639,-0.3937605619430542
1682374641.25800490,71580684,2,0.9191203713417053,0.012250632047653198,0.002879976760596037,-0.39377573132514954
1682374641.35800600,71680685,2,0.9191145300865173,0.012292446568608284,0.0028488500975072384,-0.39378830790519714
1682374641.45801306,71780692,2,0.9190946817398071,0.012279010377824306,0.0028713957872241735,-0.3938348591327667
1682374641.55801105,71880690,2,0.9190905094146729,0.012254747562110424,0.0028338239062577486,-0.39384570717811584
1682374641.65800595,71980685,2,0.9190731644630432,0.012278697453439236,0.0028406253550201654,-0.3938853144645691
1682374641.75805402,72080733,2,0.9190583229064941,0.012369340285658836,0.002796652726829052,-0.39391741156578064
1682374641.85807300,72180752,2,0.9190596342086792,0.012376799248158932,0.0027490125503391027,-0.3939145803451538
1682374641.95804596,72280725,2,0.91902756690979,0.012355820275843143,0.002756603993475437,-0.3939898610115051
1682374642.05807805,72380757,2,0.918983519077301,0.012326695024967194,0.002803802490234375,-0.39409324526786804
1682374642.15800500,72480684,2,0.9189655780792236,0.012264804914593697,0.002840188331902027,-0.39413678646087646
1682374642.25801206,72580691,2,0.9189515709877014,0.012185998260974884,0.0028350232169032097,-0.3941718339920044
1682374642.35801101,72680690,2,0.9189349412918091,0.012226266786456108,0.002819826826453209,-0.3942095637321472
1682374642.45801091,72780690,2,0.918948769569397,0.012267163023352623,0.0028297649696469307,-0.39417600631713867
1682374642.55800700,72880686,2,0.9189364910125732,0.012267328798770905,0.002788223559036851,-0.39420488476753235
1682374642.65804505,72980724,2,0.9189364910125732,0.01225641742348671,0.0028156822081655264,-0.39420491456985474
1682374642.75806284,73080742,2,0.9189470410346985,0.012281576171517372,0.0027941851876676083,-0.39417973160743713
1682374642.85803103,73180710,2,0.9189496040344238,0.012251860462129116,0.002725982340052724,-0.3941752016544342
1682374642.95807290,73280752,2,0.9189424514770508,0.012255960144102573,0.0027601360343396664,-0.39419153332710266
1682374643.05799603,73380675,2,0.9189543128013611,0.012232033535838127,0.0027373970951884985,-0.3941648304462433
1682374643.15800190,73480681,2,0.9189493060112,0.012132471427321434,0.0027592098340392113,-0.3941793143749237
1682374643.25799990,73580679,2,0.9189333319664001,0.012143457308411598,0.0027757338248193264,-0.3942161202430725
1682374643.35799885,73680678,2,0.9189382195472717,0.012080145999789238,0.002835473045706749,-0.39420631527900696
1682374643.45799804,73780677,2,0.9189059734344482,0.012064959853887558,0.002851969562470913,-0.3942817151546478
1682374643.55803704,73880716,2,0.9188748598098755,0.012010353617370129,0.0028318583499640226,-0.39435604214668274
1682374643.65807605,73980755,2,0.9188665747642517,0.011960352770984173,0.002862407360225916,-0.394376665353775
1682374643.75804996,74080729,2,0.9188328981399536,0.011958295479416847,0.002859664149582386,-0.3944552540779114
1682374643.85806704,74180746,2,0.91884446144104,0.011925255879759789,0.002904847264289856,-0.3944289982318878
1682374643.95799398,74280673,2,0.9188501238822937,0.011945096775889397,0.002915490185841918,-0.394415020942688
1682374644.05800104,74380680,2,0.9188416004180908,0.011966314166784286,0.002919489750638604,-0.39443421363830566
1682374644.15800405,74480683,2,0.9188362956047058,0.012011952698230743,0.0028905468061566353,-0.3944454789161682
1682374644.25799704,74580676,2,0.9188498258590698,0.01201056782156229,0.0028927968814969063,-0.3944139778614044
1682374644.35800099,74680680,2,0.9188382625579834,0.012029552832245827,0.0029408526606857777,-0.3944399356842041
1682374644.45803404,74780713,2,0.9188392162322998,0.011997327208518982,0.0029183898586779833,-0.3944389224052429
1682374644.55806303,74880742,2,0.9188545942306519,0.011953187175095081,0.002896572696045041,-0.3944045603275299
1682374644.65804005,74980719,2,0.9188224673271179,0.011942870914936066,0.0029567149467766285,-0.39447927474975586
1682374644.75806403,75080743,2,0.9188231825828552,0.01196291297674179,0.0029804606456309557,-0.39447689056396484
1682374644.85799193,75180671,2,0.9188051819801331,0.011988655664026737,0.0029700875747948885,-0.39451807737350464
1682374644.95807791,75280757,2,0.9187817573547363,0.011967948637902737,0.0029508108273148537,-0.3945734202861786
1682374645.05800200,75380681,2,0.9187718629837036,0.01200950238853693,0.002942673396319151,-0.394595205783844
1682374645.15799785,75480677,2,0.9187654256820679,0.012027637101709843,0.003008656669408083,-0.3946092128753662
1682374645.25800085,75580680,2,0.9187431335449219,0.011962204240262508,0.0030188083183020353,-0.394663006067276
1682374645.35802197,75680701,2,0.9187331199645996,0.01190470065921545,0.003010629443451762,-0.39468809962272644
1682374645.45806289,75780742,2,0.9187414050102234,0.011911720037460327,0.0030099174473434687,-0.3946685194969177
1682374645.55804896,75880728,2,0.9187216758728027,0.011892062611877918,0.00302323536016047,-0.39471492171287537
1682374645.65806198,75980741,2,0.9187145233154297,0.011808459646999836,0.003042918397113681,-0.3947340250015259
1682374645.75799704,76080676,2,0.9187005758285522,0.011824365705251694,0.0030504497699439526,-0.3947659432888031
1682374645.85800505,76180684,2,0.918666660785675,0.011788792908191681,0.0030458092223852873,-0.3948458731174469
1682374645.95799685,76280676,2,0.9186629056930542,0.011836520396173,0.0030523475725203753,-0.39485323429107666
1682374646.05799985,76380679,2,0.9186530709266663,0.01183229498565197,0.003037653863430023,-0.39487627148628235
1682374646.15801287,76480692,2,0.9186313152313232,0.011861246079206467,0.0030514062382280827,-0.394925981760025
1682374646.25802088,76580700,2,0.918603241443634,0.011886807158589363,0.0030276821926236153,-0.39499059319496155
1682374646.35806489,76680744,2,0.9185853004455566,0.011830284260213375,0.003035405185073614,-0.3950340449810028
1682374646.45805502,76780734,2,0.9185507297515869,0.01177275087684393,0.0029929722659289837,-0.3951164186000824
1682374646.55807304,76880752,2,0.9185499548912048,0.011744103394448757,0.0029915703926235437,-0.3951190412044525
1682374646.65800190,76980681,2,0.9185629487037659,0.011704586446285248,0.002963283332064748,-0.3950902223587036
1682374646.75800800,77080687,2,0.9185667634010315,0.011746751144528389,0.0029732503462582827,-0.395080029964447
1682374646.85800791,77180687,2,0.9185834527015686,0.011782364919781685,0.0029409516137093306,-0.39504045248031616
1682374646.95800591,77280685,2,0.918594241142273,0.011773298494517803,0.0028810789808630943,-0.395016074180603
1682374647.05800986,77380689,2,0.9185762405395508,0.011786296963691711,0.0028485211078077555,-0.3950577974319458
1682374647.15804100,77480720,2,0.918586790561676,0.011789506301283836,0.002883878070861101,-0.39503294229507446
1682374647.25807595,77580755,2,0.9185678958892822,0.011775000020861626,0.0029213910456746817,-0.39507704973220825
1682374647.35804701,77680726,2,0.9185495376586914,0.011800345033407211,0.002941064303740859,-0.39511874318122864
1682374647.45808887,77780768,2,0.9185479283332825,0.011811279691755772,0.002915395190939307,-0.39512234926223755
1682374647.55800486,77880684,2,0.9185397624969482,0.011826768517494202,0.0028981377836316824,-0.39514100551605225
1682374647.65801692,77980696,2,0.9185154438018799,0.01182552333921194,0.002870323369279504,-0.39519786834716797
1682374647.75800896,78080688,2,0.9184862971305847,0.011923001147806644,0.0028529802802950144,-0.3952627182006836
1682374647.85801387,78180693,2,0.9184784293174744,0.0119176609441638,0.0028504510410130024,-0.39528122544288635
1682374647.95800400,78280683,2,0.9184601902961731,0.011900827288627625,0.0028827479109168053,-0.39532390236854553
1682374648.05803084,78380710,2,0.9184582829475403,0.011915306560695171,0.0028505625668913126,-0.3953280448913574
1682374648.15806603,78480745,2,0.9184468388557434,0.011849665082991123,0.0028332159854471684,-0.39535680413246155
1682374648.25803399,78580713,2,0.918429970741272,0.01189164537936449,0.0028326385654509068,-0.3953946530818939
1682374648.35806990,78680749,2,0.9184329509735107,0.01189801748842001,0.002829059027135372,-0.39538756012916565
1682374648.45800185,78780681,2,0.9184182286262512,0.011864296160638332,0.0028439571615308523,-0.3954227566719055
1682374648.55800605,78880685,2,0.918429434299469,0.011799884960055351,0.002813424216583371,-0.395398885011673
1682374648.65800691,78980686,2,0.9184067249298096,0.011793955229222775,0.0027888640761375427,-0.39545193314552307
1682374648.75800800,79080687,2,0.9183893799781799,0.011746942065656185,0.00278619397431612,-0.39549362659454346
1682374648.85801005,79180689,2,0.9183976650238037,0.011772694997489452,0.0027912387158721685,-0.39547353982925415
1682374648.95805001,79280729,2,0.9183917045593262,0.01175021193921566,0.002841590205207467,-0.3954877257347107
1682374649.05805993,79380739,2,0.9183456897735596,0.011713584885001183,0.0029094587080180645,-0.39559513330459595
1682374649.15805101,79480730,2,0.9183395504951477,0.01171788014471531,0.0028919968754053116,-0.39560940861701965
1682374649.25808597,79580765,2,0.9183365702629089,0.011636128649115562,0.0029487803112715483,-0.3956182599067688
1682374649.35800385,79680683,2,0.9183169603347778,0.011690623126924038,0.0030255268793553114,-0.3956616520881653
1682374649.45800900,79780688,2,0.918337881565094,0.01163533702492714,0.0030863976571708918,-0.3956142067909241
1682374649.55801105,79880690,2,0.9183521270751953,0.011575926095247269,0.0030895450618118048,-0.3955829441547394
1682374649.65799785,79980677,2,0.9183460474014282,0.011577625758945942,0.0030750625301152468,-0.39559701085090637
1682374649.75800085,80080680,2,0.9183864593505859,0.011575608514249325,0.003116464242339134,-0.3955030143260956
1682374649.85804605,80180725,2,0.9184144735336304,0.01154320128262043,0.0031554915476590395,-0.3954385817050934
1682374649.95807004,80280749,2,0.9183772206306458,0.011529099196195602,0.0032016641926020384,-0.39552512764930725
1682374650.05804491,80380724,2,0.918379008769989,0.011514394544064999,0.0032105499412864447,-0.395521342754364
1682374650.15806794,80480747,2,0.9183914661407471,0.01152749452739954,0.003246128559112549,-0.3954917788505554
1682374650.25799704,80580676,2,0.9183815717697144,0.011492944322526455,0.0032968814484775066,-0.39551523327827454
1682374650.35799599,80680675,2,0.9183849096298218,0.011509244330227375,0.003306968603283167,-0.39550694823265076
1682374650.45800304,80780682,2,0.9183652997016907,0.011447098106145859,0.003338258247822523,-0.3955540955066681
1682374650.55799985,80880679,2,0.9183372855186462,0.011444590985774994,0.0033078195992857218,-0.39561936259269714
1682374650.65799689,80980676,2,0.9183223247528076,0.011430437676608562,0.0033534306567162275,-0.3956540822982788
1682374650.75803995,81080719,2,0.9183273315429688,0.011332159861922264,0.0033548325300216675,-0.39564529061317444
1682374650.85806108,81180740,2,0.9183005690574646,0.011368044652044773,0.003405551891773939,-0.3957059681415558
1682374650.95803595,81280715,2,0.9183222055435181,0.011324550025165081,0.0034024077467620373,-0.39565712213516235
1682374651.05806184,81380741,2,0.9183214902877808,0.011289912275969982,0.003392654936760664,-0.39565980434417725
1682374651.15800095,81480680,2,0.918293297290802,0.011280179023742676,0.0034151289146393538,-0.3957253396511078
1682374651.25800085,81580680,2,0.9183111190795898,0.01124441809952259,0.0034155412577092648,-0.39568501710891724
1682374651.35799599,81680675,2,0.9183048009872437,0.011234862729907036,0.0033915522508323193,-0.395700067281723
1682374651.45799899,81780678,2,0.9182602167129517,0.011223308742046356,0.00341614056378603,-0.39580366015434265
1682374651.55799985,81880679,2,0.9182605147361755,0.011255137622356415,0.003487776266410947,-0.39580151438713074
1682374651.65802693,81980706,2,0.9182510375976562,0.011241632513701916,0.0035117194056510925,-0.39582359790802
1682374651.75806189,82080741,2,0.9182223677635193,0.011224845424294472,0.0035467559937387705,-0.3958902955055237
1682374651.85806704,82180746,2,0.9182249307632446,0.011239713989198208,0.003554132767021656,-0.39588382840156555
1682374651.95806193,82280741,2,0.918232262134552,0.011226409114897251,0.0035812531132251024,-0.3958669602870941
1682374652.05800605,82380685,2,0.9182355403900146,0.011174379847943783,0.0036424051504582167,-0.3958602249622345
1682374652.15801096,82480690,2,0.9182723760604858,0.01116563007235527,0.0036398491356521845,-0.39577510952949524
1682374652.25800896,82580688,2,0.9182692170143127,0.0112359169870615,0.0037088249810039997,-0.3957797884941101
1682374652.35800695,82680686,2,0.9182600975036621,0.011276124976575375,0.0037491358816623688,-0.3957993686199188
1682374652.45801902,82780698,2,0.9182661771774292,0.011309448629617691,0.003730203490704298,-0.39578452706336975
1682374652.55804491,82880724,2,0.9182291626930237,0.011303182691335678,0.0037301909178495407,-0.3958705961704254
1682374652.65807104,82980750,2,0.918198823928833,0.01130780577659607,0.0037102068308740854,-0.3959410786628723
1682374652.75805902,83080738,2,0.9181934595108032,0.011274565011262894,0.003707142313942313,-0.3959544897079468
1682374652.85807896,83180758,2,0.9181652665138245,0.01125445868819952,0.0036907000467181206,-0.3960205316543579
1682374652.95800304,83280682,2,0.9181321263313293,0.01127722579985857,0.003614705055952072,-0.3960973620414734
1682374653.05800796,83380687,2,0.9181426167488098,0.011337468400597572,0.003662490751594305,-0.3960709571838379
1682374653.15801001,83480689,2,0.9181348085403442,0.011305619962513447,0.0037090613041073084,-0.39608946442604065
1682374653.25800800,83580687,2,0.9181395769119263,0.011305838823318481,0.0037022640462964773,-0.39607855677604675
1682374653.35800004,83680679,2,0.9181542992591858,0.011289107613265514,0.003708052448928356,-0.3960448205471039
1682374653.45803785,83780717,2,0.9181461930274963,0.011287682689726353,0.0036626567598432302,-0.39606407284736633
1682374653.55807185,83880751,2,0.9181382060050964,0.011249169707298279,0.003634341526776552,-0.39608392119407654
1682374653.65803003,83980709,2,0.9181414246559143,0.011253281496465206,0.0035972176119685173,-0.3960767388343811
1682374653.75807190,84080751,2,0.9181153178215027,0.011259377934038639,0.0036668325774371624,-0.39613640308380127
1682374653.85800886,84180688,2,0.9181004166603088,0.011262176558375359,0.0036838827654719353,-0.3961706757545471
1682374653.95800495,84280684,2,0.9181137681007385,0.011244316585361958,0.0036883389111608267,-0.3961401879787445
1682374654.05800986,84380689,2,0.918107807636261,0.011277195997536182,0.003721180371940136,-0.3961527943611145
1682374654.15801096,84480690,2,0.9181139469146729,0.011273913085460663,0.003719152882695198,-0.3961387276649475
1682374654.25800705,84580686,2,0.9181497693061829,0.011309005320072174,0.00370973814278841,-0.39605477452278137
1682374654.35803103,84680710,2,0.9181264042854309,0.01131474319845438,0.0036796636413782835,-0.396109014749527
1682374654.45807004,84780749,2,0.9181419014930725,0.011278851889073849,0.003590515349060297,-0.3960748612880707
1682374654.55806184,84880741,2,0.9181600213050842,0.011316663585603237,0.0035584585275501013,-0.3960321545600891
1682374654.65806484,84980744,2,0.918139636516571,0.011362209916114807,0.0035711731761693954,-0.3960779309272766
1682374654.75799799,85080677,2,0.9181393384933472,0.011308657936751842,0.0035624250303953886,-0.39608025550842285
1682374654.85800385,85180683,2,0.918157696723938,0.011318471282720566,0.003572272602468729,-0.39603734016418457
1682374654.95799685,85280676,2,0.9181658029556274,0.011280633509159088,0.003575667506083846,-0.3960195481777191
1682374655.05799890,85380678,2,0.9181696176528931,0.011307614855468273,0.0035735969431698322,-0.39601004123687744
1682374655.15799999,85480679,2,0.9181907773017883,0.011321814730763435,0.0035690446384251118,-0.3959605395793915
1682374655.25803804,85580717,2,0.9181695580482483,0.011323083192110062,0.0036246818490326405,-0.3960091769695282
1682374655.35806704,85680746,2,0.9181797504425049,0.011325724422931671,0.003640158101916313,-0.3959854543209076
1682374655.45806098,85780740,2,0.9181835055351257,0.01133586186915636,0.0037008568178862333,-0.3959757685661316
1682374655.55807185,85880751,2,0.9181646704673767,0.011334587819874287,0.003689863020554185,-0.3960196077823639
1682374655.65799403,85980673,2,0.9181661009788513,0.011372854001820087,0.0036893074866384268,-0.3960152864456177
1682374655.75800705,86080686,2,0.9181577563285828,0.011398148722946644,0.003647811710834503,-0.39603421092033386
1682374655.85800791,86180687,2,0.9181227684020996,0.011378161609172821,0.0036442263517528772,-0.39611589908599854
1682374655.95800591,86280685,2,0.9181258678436279,0.0113556869328022,0.0036389052402228117,-0.3961094617843628
1682374656.05800986,86380689,2,0.9181227684020996,0.01142202690243721,0.003622841089963913,-0.39611494541168213
1682374656.15804791,86480727,2,0.9181148409843445,0.011428341269493103,0.003680555149912834,-0.39613258838653564
1682374656.25808096,86580760,2,0.9181185364723206,0.011437512002885342,0.0036481390707194805,-0.3961239755153656
1682374656.35803103,86680710,2,0.9181469678878784,0.011472119949758053,0.0036338784266263247,-0.3960571587085724
1682374656.45807385,86780753,2,0.9181276559829712,0.011461935937404633,0.0036243179347366095,-0.3961023986339569
1682374656.55799794,86880677,2,0.9181323051452637,0.011424358934164047,0.003644860815256834,-0.3960925340652466
1682374656.65800691,86980686,2,0.9181473255157471,0.011361450888216496,0.0036827032454311848,-0.3960590660572052
1682374656.75800800,87080687,2,0.9181450605392456,0.011337563395500183,0.003667993936687708,-0.3960651457309723
1682374656.85800099,87180680,2,0.9181745052337646,0.011332019232213497,0.0036542105954140425,-0.3959972560405731
1682374656.95799685,87280676,2,0.9181778430938721,0.011347226798534393,0.003691463964059949,-0.39598870277404785
1682374657.05804300,87380722,2,0.9181710481643677,0.01128693763166666,0.0037084026262164116,-0.3960060477256775
1682374657.15807796,87480757,2,0.9181920886039734,0.011332396417856216,0.0037437803111970425,-0.3959555923938751
1682374657.25805402,87580733,2,0.9182109236717224,0.01135141123086214,0.003757579019293189,-0.39591124653816223
1682374657.35807490,87680754,2,0.9182094931602478,0.01134471409022808,0.0037562900688499212,-0.395914763212204
1682374657.45800090,87780680,2,0.918229877948761,0.01134586799889803,0.003779994323849678,-0.395867258310318
