timestamp,TimeUS,DesRoll,Roll,DesPitch,Pitch,DesYaw,Yaw,ErrRP,ErrYaw,AEKF
1682338020.45973682,283227352,0.0,-0.12,0.0,0.6900000000000001,328.03000000000003,328.03000000000003,0.0,0.01,3
1682338020.55969191,283327307,0.0,-0.12,0.0,0.6900000000000001,328.03000000000003,327.99,0.0,0.02,3
1682338020.65967202,283427287,0.0,-0.12,0.0,0.6900000000000001,328.03000000000003,327.95,0.0,0.02,3
1682338020.75960898,283527224,0.0,-0.12,0.0,0.6900000000000001,328.03000000000003,327.91,0.0,0.02,3
1682338020.85967302,283627288,0.0,-0.12,0.0,0.7000000000000001,328.03000000000003,327.89,0.0,0.02,3
1682338020.95940590,283727021,0.0,-0.12,0.0,0.6900000000000001,328.03000000000003,327.85,0.0,0.02,3
1682338021.05943084,283827046,0.0,-0.12,0.0,0.6900000000000001,328.03000000000003,327.82,0.0,0.02,3
1682338021.15952992,283927145,0.0,-0.12,0.0,0.6900000000000001,328.03000000000003,327.78000000000003,0.0,0.02,3
1682338021.25945497,284027070,0.0,-0.12,0.0,0.6900000000000001,328.03000000000003,327.75,0.0,0.02,3
1682338021.35956097,284127176,0.0,-0.12,0.0,0.6900000000000001,328.03000000000003,327.72,0.0,0.02,3
1682338021.45973396,284227349,0.0,-0.12,0.0,0.6900000000000001,328.03000000000003,327.68,0.0,0.02,3
1682338021.55928493,284326900,0.0,-0.12,0.0,0.7000000000000001,328.03000000000003,327.64,0.0,0.02,3
1682338021.65931082,284426926,0.0,-0.12,0.0,0.7000000000000001,328.03000000000003,327.61,0.01,0.02,3
1682338021.75938201,284526997,0.0,-0.12,0.0,0.7000000000000001,328.03000000000003,327.57,0.01,0.02,3
1682338021.85938382,284626999,0.0,-0.12,0.0,0.71,328.03000000000003,327.54,0.01,0.02,3
1682338021.95943189,284727047,0.0,-0.12,0.0,0.71,328.03000000000003,327.51,0.01,0.02,3
1682338022.05944586,284827061,0.0,-0.12,0.0,0.71,328.03000000000003,327.47,0.01,0.02,3
1682338022.15956187,284927177,0.0,-0.13,0.0,0.71,328.03000000000003,327.43,0.01,0.02,3
1682338022.25955486,285027170,0.0,-0.12,0.0,0.7000000000000001,328.03000000000003,327.40000000000003,0.01,0.02,3
1682338022.35981798,285127433,0.0,-0.12,0.0,0.7000000000000001,328.03000000000003,327.36,0.01,0.02,3
1682338022.45927191,285226887,0.0,-0.13,0.0,0.7000000000000001,327.32,327.33,0.01,0.02,3
1682338022.55932593,285326941,0.0,-0.13,0.0,0.71,327.28000000000003,327.29,0.01,0.02,3
1682338022.65944195,285427057,0.0,-0.13,0.0,0.71,327.25,327.26,0.01,0.02,3
1682338022.75940084,285527016,0.0,-0.14,0.0,0.71,327.21,327.22,0.01,0.02,3
1682338022.85943198,285627047,0.0,-0.14,0.0,0.71,327.18,327.19,0.01,0.02,3
1682338022.95948792,285727103,0.0,-0.14,0.0,0.71,327.16,327.16,0.01,0.02,3
1682338023.05946589,285827081,0.0,-0.14,0.0,0.72,327.16,327.13,0.01,0.02,3
1682338023.15979004,285927405,0.0,-0.14,0.0,0.72,327.16,327.1,0.01,0.02,3
1682338023.25973797,286027353,0.0,-0.15,0.0,0.72,327.16,327.06,0.01,0.02,3
1682338023.35928297,286126898,0.0,-0.15,0.0,0.72,327.16,327.03000000000003,0.01,0.02,3
1682338023.45957398,286227189,0.0,-0.15,0.0,0.72,327.16,327.0,0.01,0.03,3
1682338023.55960488,286327220,0.0,-0.16,0.0,0.72,327.16,326.95,0.01,0.02,3
1682338023.65958500,286427200,0.0,-0.14,0.0,0.73,327.16,326.91,0.01,0.02,3
1682338023.75960183,286527217,0.0,-0.14,0.0,0.73,327.16,326.89,0.01,0.02,3
1682338023.85964084,286627256,0.0,-0.14,0.0,0.7000000000000001,327.16,326.85,0.02,0.02,3
1682338023.95968199,286727297,0.0,-0.09,0.0,0.6900000000000001,327.16,326.83,0.02,0.01,3
1682338024.05971885,286827334,0.0,-0.11,0.0,0.6900000000000001,327.16,326.8,0.02,0.02,3
1682338024.15972090,286927336,0.0,-0.1,0.0,0.67,327.16,326.75,0.02,0.02,3
1682338024.25956202,287027177,0.0,-0.14,0.0,0.68,327.16,326.75,0.02,0.02,3
1682338024.35989881,287127514,0.0,-0.14,0.0,0.68,327.16,326.7,0.02,0.02,3
1682338024.45983481,287227450,0.0,-0.1,0.0,0.68,327.16,326.65000000000003,0.02,0.02,3
1682338024.55939293,287327008,0.0,-0.14,0.0,0.7000000000000001,327.16,326.63,0.02,0.01,3
1682338024.65943384,287427049,0.0,-0.1,0.0,0.6900000000000001,327.16,326.6,0.02,0.01,3
1682338024.75949788,287527113,0.0,-0.13,0.0,0.68,327.16,326.57,0.02,0.01,3
1682338024.85951591,287627131,0.0,-0.12,0.0,0.68,327.16,326.53000000000003,0.01,0.01,3
1682338024.95959783,287727213,0.0,-0.12,0.0,0.68,327.16,326.48,0.01,0.02,3
1682338025.05940294,287827018,0.0,-0.12,0.0,0.67,327.16,326.47,0.01,0.01,3
1682338025.15944386,287927059,0.0,-0.12,0.0,0.67,327.16,326.37,0.01,0.02,3
1682338025.25965190,288027267,0.0,-0.13,0.0,0.62,327.16,326.39,0.01,0.01,3
1682338025.35944080,288127056,0.0,-0.12,0.0,0.52,327.16,326.42,0.01,0.02,3
1682338025.45941401,288227029,0.0,0.12,0.01,0.16,327.16,326.45,0.01,0.03,3
1682338025.55943704,288327052,-0.01,0.51,0.3,-0.07,327.16,326.45,0.01,0.04,3
1682338025.65950704,288427122,0.0,0.76,0.5700000000000001,0.26,327.16,326.44,0.01,0.04,3
1682338025.75954580,288527161,-0.07,0.91,0.6900000000000001,0.81,327.16,326.39,0.01,0.03,3
1682338025.85959601,288627211,-0.22,0.97,0.77,0.87,327.34000000000003,326.36,0.02,0.03,3
1682338025.95947695,288727092,-0.32,0.67,0.75,0.77,327.34000000000003,326.33,0.02,0.02,3
1682338026.05969191,288827307,-0.36,0.26,0.65,0.86,327.53000000000003,326.32,0.03,0.02,3
1682338026.16000795,288927623,-0.33,0.0,0.56,0.59,327.76,326.34000000000003,0.03,0.02,3
1682338026.25940490,289027020,-0.24,-0.03,0.47000000000000003,0.27,327.91,326.43,0.03,0.02,3
1682338026.35940194,289127017,0.04,-0.03,0.38,0.18,328.07,326.52,0.03,0.02,3
1682338026.45943785,289227053,0.4,0.32,0.33,0.16,328.51,326.62,0.04,0.02,3
1682338026.55955386,289327169,0.61,0.66,0.35000000000000003,0.09,328.61,326.8,0.04,0.02,3
1682338026.65953493,289427150,0.72,0.76,0.46,0.17,328.61,326.97,0.04,0.01,3
1682338026.75957894,289527194,1.09,0.85,0.74,0.33,328.79,327.11,0.04,0.01,3
1682338026.85938382,289626999,2.02,1.48,1.17,0.76,329.67,327.28000000000003,0.04,0.01,3
1682338026.95943093,289727046,2.95,2.64,1.67,1.3900000000000001,330.69,327.62,0.04,0.01,3
1682338027.05964184,289827257,3.34,3.8000000000000003,2.24,2.23,331.55,328.16,0.04,0.01,3
1682338027.15977883,289927394,3.4,3.91,2.58,3.0500000000000003,332.63,328.8,0.04,0.01,3
1682338027.25968790,290027303,3.2,3.5500000000000003,2.65,3.34,334.06,329.52,0.03,0.01,3
1682338027.35971498,290127330,2.54,3.0500000000000003,2.5300000000000002,3.0700000000000003,335.61,330.40000000000003,0.03,0.02,3
1682338027.45964384,290227259,1.97,2.04,2.31,2.5,337.01,331.45,0.04,0.02,3
1682338027.55966496,290327280,1.73,1.08,1.85,2.02,337.78000000000003,332.61,0.04,0.04,3
1682338027.65971589,290427331,1.68,1.05,1.75,1.46,338.28000000000003,333.76,0.05,0.05,3
1682338027.75969481,290527310,2.14,1.22,2.16,1.3900000000000001,338.5,334.89,0.05,0.05,3
1682338027.85958886,290627204,3.31,2.05,2.52,2.34,338.5,336.01,0.07,0.05,3
1682338027.95994091,290727556,3.79,3.8000000000000003,2.63,2.84,338.5,337.06,0.07,0.04,3
1682338028.05968881,290827304,3.99,4.24,2.68,2.5500000000000003,338.5,337.94,0.09,0.03,3
1682338028.15943289,290927048,4.09,3.92,2.61,2.59,338.5,338.74,0.09,0.04,3
1682338028.25943303,291027048,4.14,4.14,2.47,2.43,338.5,339.38,0.08,0.05,3
1682338028.35952091,291127136,4.17,4.2,2.41,2.2,338.5,339.91,0.08,0.06,3
1682338028.45953393,291227149,4.18,4.0600000000000005,2.35,2.15,338.5,340.3,0.07,0.06,3
1682338028.55957484,291327190,4.07,4.0,2.35,2.09,338.5,340.57,0.07,0.05,3
1682338028.65956402,291427179,3.95,3.92,2.5100000000000002,2.12,338.5,340.71,0.06,0.06,3
1682338028.75928903,291526904,3.7800000000000002,3.66,2.66,2.36,338.51,340.8,0.06,0.06,3
1682338028.85930085,291626916,3.48,3.47,2.79,2.59,338.77,340.75,0.05,0.07,3
1682338028.95947289,291727088,3.3000000000000003,2.97,2.99,2.75,339.59000000000003,340.67,0.05,0.06,3
1682338029.05967999,291827295,3.22,2.74,3.18,3.08,340.58,340.72,0.04,0.06,3
1682338029.15975094,291927366,3.17,2.71,3.24,3.3200000000000003,341.56,340.90000000000003,0.04,0.06,3
1682338029.25971293,292027328,3.2,2.74,3.2600000000000002,3.2800000000000002,342.67,341.17,0.07,0.06,3
1682338029.35971689,292127332,3.24,2.91,3.27,3.2800000000000002,344.29,341.6,0.07,0.06,3
1682338029.45976400,292227379,3.21,2.94,3.29,3.35,346.03000000000003,342.27,0.08,0.06,3
1682338029.55969691,292327312,3.16,2.81,3.33,3.46,347.86,343.14,0.08,0.06,3
1682338029.65965891,292427274,3.0100000000000002,2.66,3.3000000000000003,3.52,349.7,344.23,0.09,0.05,3
1682338029.75995588,292527571,2.52,2.32,3.33,3.5,351.61,345.51,0.09,0.05,3
1682338029.85968995,292627305,2.2,1.44,3.39,3.49,353.98,346.96,0.07,0.06,3
1682338029.95950198,292727117,1.94,0.89,3.43,3.64,356.16,348.6,0.07,0.06,3
1682338030.05943894,292827054,1.73,0.8300000000000001,3.44,3.64,358.01,350.48,0.08,0.07,3
1682338030.15956688,292927182,1.6500000000000001,0.55,3.5,3.69,359.65000000000003,352.43,0.08,0.06,3
1682338030.25954795,293027163,1.6300000000000001,0.92,3.46,3.9,1.1300000000000001,354.43,0.08,0.07,3
1682338030.35957193,293127187,1.69,0.9400000000000001,3.4,3.77,2.6,356.47,0.08,0.08,3
1682338030.45973682,293227352,1.75,0.97,3.18,3.54,4.18,358.58,0.08,0.08,3
1682338030.55961084,293327226,1.75,1.05,2.8000000000000003,3.13,5.76,0.7000000000000001,0.08,0.07,3
1682338030.65962481,293427240,1.75,1.18,2.38,2.46,7.66,2.79,0.09,0.07,3
1682338030.75982189,293527437,1.71,1.18,2.08,2.0,9.76,5.03,0.09,0.08,3
1682338030.85959792,293627213,1.51,1.16,1.83,1.75,11.98,7.37,0.09,0.08,3
1682338030.95967698,293727292,1.07,0.59,1.68,1.59,14.200000000000001,9.8,0.09,0.08,3
1682338031.05965996,293827275,0.51,0.01,1.52,1.69,16.4,12.23,0.08,0.07,3
1682338031.15969300,293927308,-0.17,-0.68,1.24,1.57,18.57,14.790000000000001,0.08,0.08,3
1682338031.25970101,294027316,-0.91,-1.28,1.1300000000000001,1.16,20.900000000000002,17.36,0.07,0.07,3
1682338031.35986090,294127476,-1.68,-1.97,1.12,1.08,23.21,19.94,0.07,0.05,3
1682338031.45966291,294227278,-2.47,-2.71,1.1300000000000001,0.96,24.830000000000002,22.55,0.07,0.05,3
1682338031.55932283,294326938,-3.2600000000000002,-3.47,1.1400000000000001,0.84,26.46,25.05,0.07,0.04,3
1682338031.65944695,294427062,-3.93,-4.17,1.04,1.1,29.25,28.77,0.07,0.04,3
1682338031.75942492,294527040,-4.79,-4.67,0.75,1.07,29.7,31.03,0.07,0.05,3
1682338031.85943604,294627051,-5.62,-5.64,0.15,0.85,29.7,33.35,0.08,0.06,3
1682338031.95955396,294727169,-6.44,-6.390000000000001,-0.54,0.35000000000000003,29.7,35.660000000000004,0.08,0.08,3
1682338032.05951691,294827132,-7.25,-7.23,-1.29,-0.21,29.7,38.04,0.09,0.09,3
1682338032.15961194,294927227,-7.84,-8.25,-1.6300000000000001,-0.6,29.7,40.53,0.09,0.13,3
1682338032.25941682,295027032,-7.8500000000000005,-8.61,-1.5,-0.35000000000000003,29.7,43.13,0.09,0.15,3
1682338032.35935092,295126966,-7.51,-7.75,-0.9400000000000001,0.55,29.7,45.74,0.09,0.18,3
1682338032.45964885,295227264,-6.97,-6.59,-0.05,1.58,29.7,48.32,0.09,0.2,3
1682338032.55970597,295327321,-6.33,-5.37,0.8,2.65,29.7,51.02,0.09,0.22,3
1682338032.65970302,295427318,-5.63,-4.11,1.1300000000000001,3.49,29.7,53.34,0.09,0.23,3
1682338032.75973582,295527351,-4.89,-3.31,1.06,3.45,29.7,55.42,0.09,0.25,3
1682338032.85983682,295627452,-4.11,-2.87,0.84,2.86,30.21,56.86,0.08,0.27,3
1682338032.95974994,295727365,-3.33,-2.58,0.68,2.18,31.01,57.63,0.08,0.29,3
1682338033.05974388,295827359,-2.54,-2.04,0.55,1.67,31.75,57.69,0.09,0.31,3
1682338033.15975690,295927372,-1.74,-1.29,0.47000000000000003,1.21,32.61,57.27,0.09,0.32,3
1682338033.25992584,296027541,-0.98,-0.54,0.52,0.74,33.68,56.4,0.08,0.33,3
1682338033.35960484,296127220,-0.68,0.1,0.96,0.66,34.69,55.21,0.08,0.32,3
1682338033.45968986,296227305,-0.42,0.39,1.7,1.46,35.31,53.82,0.07,0.3,3
1682338033.55942893,296327044,-0.29,0.78,2.05,2.44,35.69,52.27,0.07,0.27,3
1682338033.65944695,296427062,-0.32,0.59,2.02,2.52,35.75,50.4,0.07,0.26,3
1682338033.75951695,296527132,-0.45,0.28,1.77,2.06,36.480000000000004,48.39,0.07,0.23,3
1682338033.85952091,296627136,-0.65,-0.23,1.3,1.69,37.82,46.43,0.07,0.2,3
1682338033.95959687,296727212,-0.8200000000000001,-0.58,0.79,0.9400000000000001,39.550000000000004,44.62,0.07,0.16,3
1682338034.05938387,296826999,-0.92,-0.89,0.86,0.33,41.78,43.01,0.06,0.15,3
1682338034.15943885,296927054,-0.93,-0.89,1.29,0.67,43.58,41.68,0.06,0.12,3
1682338034.25932693,297026942,-0.88,-0.76,1.8900000000000001,1.49,44.53,40.67,0.06,0.1,3
1682338034.35940480,297127020,-0.81,-0.65,2.58,2.2600000000000002,44.67,39.82,0.06,0.09,3
1682338034.45968890,297227304,-0.7000000000000001,-0.54,2.94,2.98,44.67,39.07,0.08,0.07,3
1682338034.55970502,297327320,-0.5700000000000001,-0.67,3.0,3.11,44.67,38.42,0.08,0.06,3
1682338034.65963387,297427249,-0.41000000000000003,-0.68,2.85,2.83,44.67,37.99,0.08,0.05,3
1682338034.75964904,297527264,-0.23,-0.32,2.5100000000000002,2.58,44.67,37.800000000000004,0.08,0.04,3
1682338034.85968494,297627300,-0.03,-0.09,2.12,2.1,44.67,37.7,0.08,0.03,3
1682338034.95979285,297727408,0.11,0.27,1.77,1.62,44.67,37.67,0.08,0.02,3
1682338035.05957890,297827194,0.19,0.28,1.48,1.34,44.67,37.76,0.07,0.02,3
1682338035.15959787,297927213,0.27,0.23,1.27,1.09,44.67,37.96,0.07,0.02,3
1682338035.25967288,298027288,0.31,0.25,1.1400000000000001,0.98,44.67,38.300000000000004,0.06,0.03,3
1682338035.35993481,298127550,0.41000000000000003,0.29,1.05,0.92,44.67,38.730000000000004,0.06,0.03,3
1682338035.45952392,298227139,0.5,0.44,1.0,0.86,44.67,39.2,0.05,0.03,3
1682338035.55953503,298327150,0.6,0.62,0.99,0.91,44.67,39.7,0.05,0.03,3
1682338035.65954494,298427160,0.6900000000000001,0.63,0.96,0.91,44.67,40.25,0.04,0.02,3
1682338035.75957894,298527194,0.78,0.79,0.93,0.91,44.67,40.82,0.04,0.03,3
1682338035.85943604,298627051,0.8200000000000001,0.92,0.9,0.85,44.67,41.410000000000004,0.03,0.02,3
1682338035.95945001,298727065,0.9400000000000001,0.92,0.84,0.8200000000000001,44.67,42.01,0.03,0.02,3
1682338036.05936384,298826979,1.0,1.06,0.79,0.8,44.67,42.61,0.03,0.02,3
1682338036.15951085,298927126,1.1300000000000001,1.1,0.7000000000000001,0.7000000000000001,44.67,43.17,0.03,0.03,3
1682338036.25969982,299027315,1.16,1.24,0.62,0.54,44.67,43.7,0.02,0.03,3
1682338036.35943389,299127049,1.25,1.24,0.5,0.47000000000000003,44.67,44.18,0.02,0.02,3
1682338036.45970583,299227321,1.25,1.36,0.43,0.4,44.67,44.61,0.02,0.02,3
1682338036.55970693,299327322,1.23,1.33,0.37,0.26,44.67,44.93,0.02,0.02,3
1682338036.65974784,299427363,1.1,1.29,0.2,0.26,44.67,45.18,0.02,0.02,3
1682338036.75971603,299527331,0.64,0.85,0.09,-0.01,44.67,45.34,0.02,0.02,3
1682338036.85966682,299627282,-0.01,0.2,0.08,-0.08,44.67,45.45,0.02,0.01,3
1682338036.95969796,299727313,-0.66,-0.62,0.11,0.06,44.67,45.53,0.02,0.03,3
1682338037.05983782,299827453,-1.29,-1.31,0.17,0.14,44.67,45.53,0.03,0.03,3
1682338037.15998888,299927604,-1.8800000000000001,-1.87,0.2,0.24,44.67,45.49,0.03,0.03,3
1682338037.25970197,300027317,-2.35,-2.5100000000000002,0.2,0.26,44.67,45.4,0.02,0.03,3
1682338037.35971999,300127335,-2.63,-2.82,0.17,0.21,44.67,45.26,0.02,0.03,3
1682338037.45969391,300227309,-2.57,-2.91,0.13,0.21,44.71,45.07,0.02,0.03,3
1682338037.55956101,300327176,-2.09,-2.57,0.08,0.11,45.26,44.910000000000004,0.02,0.02,3
1682338037.65941787,300427033,-1.44,-1.49,0.13,0.0,46.07,44.83,0.02,0.03,3
1682338037.75934100,300526956,-0.96,-0.68,0.46,0.12,46.88,44.910000000000004,0.02,0.03,3
1682338037.85934186,300626957,-1.07,-0.38,0.66,0.5700000000000001,47.72,45.11,0.02,0.03,3
1682338037.95949388,300727109,-1.5,-0.89,0.8,0.9,48.65,45.480000000000004,0.02,0.02,3
1682338038.05943584,300827051,-1.6300000000000001,-1.82,0.86,0.86,49.21,46.0,0.01,0.03,3
1682338038.15954399,300927159,-1.6500000000000001,-1.82,0.8200000000000001,0.89,49.22,46.58,0.01,0.03,3
1682338038.25951481,301027130,-1.48,-1.43,0.75,0.77,49.22,47.13,0.01,0.03,3
1682338038.35972381,301127339,-1.01,-1.25,0.65,0.6,49.22,47.63,0.01,0.03,3
1682338038.45956802,301227183,-0.3,-0.37,0.54,0.54,49.22,48.11,0.02,0.03,3
1682338038.55941796,301327033,0.44,0.45,0.48,0.42,49.22,48.54,0.02,0.04,3
1682338038.65933490,301426950,1.22,1.28,0.43,0.4,49.22,48.94,0.01,0.05,3
1682338038.75935888,301526974,2.0100000000000002,2.11,0.41000000000000003,0.39,49.22,49.27,0.01,0.06,3
1682338038.85944080,301627056,2.73,2.95,0.43,0.33,49.22,49.57,0.02,0.04,3
1682338038.95944190,301727057,2.93,3.46,0.44,0.34,49.22,49.82,0.02,0.05,3
1682338039.05944085,301827056,2.74,3.2600000000000002,0.48,0.38,49.22,50.02,0.02,0.06,3
1682338039.15961385,301927229,2.34,2.67,0.5,0.44,49.22,50.19,0.02,0.07,3
1682338039.25970101,302027316,1.8800000000000001,2.05,0.51,0.43,49.22,50.33,0.02,0.06,3
1682338039.35955787,302127173,1.5,1.49,0.52,0.45,49.22,50.39,0.02,0.05,3
1682338039.45965099,302227266,1.1,1.11,0.5,0.42,49.22,50.43,0.02,0.05,3
1682338039.55957484,302327190,0.68,0.67,0.51,0.39,49.22,50.4,0.02,0.04,3
1682338039.65954685,302427162,0.2,0.09,0.53,0.45,49.22,50.32,0.02,0.04,3
1682338039.75959396,302527209,-0.28,-0.4,0.55,0.51,49.22,50.21,0.02,0.04,3
1682338039.85966182,302627277,-0.48,-0.8,0.5700000000000001,0.49,49.22,50.06,0.02,0.05,3
1682338039.95969892,302727314,-0.51,-0.73,0.59,0.54,49.22,49.92,0.02,0.04,3
1682338040.05988288,302827498,-0.4,-0.68,0.64,0.6,49.22,49.76,0.01,0.05,3
1682338040.15977502,302927390,-0.21,-0.45,0.64,0.61,49.22,49.6,0.01,0.06,3
1682338040.25960302,303027218,-0.03,-0.07,0.66,0.67,49.22,49.43,0.02,0.05,3
1682338040.35974503,303127360,0.12,0.11,0.68,0.66,49.22,49.29,0.02,0.06,3
1682338040.45972800,303227343,0.2,0.18,0.6900000000000001,0.66,49.22,49.17,0.01,0.07,3
1682338040.55967784,303327293,0.2,0.25,0.7000000000000001,0.65,49.22,49.04,0.01,0.07,3
1682338040.65976286,303427378,0.18,0.29,0.7000000000000001,0.71,49.22,48.910000000000004,0.01,0.05,3
1682338040.75970602,303527321,0.13,0.14,0.67,0.71,49.22,48.83,0.01,0.06,3
1682338040.85972500,303627340,0.08,0.04,0.65,0.63,49.22,48.72,0.01,0.06,3
1682338040.95979381,303727409,0.05,-0.01,0.64,0.66,49.22,48.65,0.01,0.05,3
1682338041.05972290,303827338,0.03,0.03,0.68,0.66,49.22,48.58,0.01,0.04,3
1682338041.15980387,303927419,0.06,-0.05,0.71,0.75,49.22,48.53,0.01,0.04,3
1682338041.25979090,304027406,0.07,0.0,0.74,0.8,49.22,48.480000000000004,0.01,0.04,3
1682338041.35935998,304126975,0.15,0.13,0.75,0.81,49.22,48.45,0.01,0.05,3
1682338041.45932794,304226943,0.19,0.14,0.73,0.8200000000000001,49.22,48.42,0.01,0.06,3
1682338041.55939198,304327007,0.26,0.07,0.71,0.7000000000000001,49.22,48.410000000000004,0.01,0.07,3
1682338041.65942192,304427037,0.29,0.22,0.64,0.71,49.22,48.47,0.01,0.07,3
1682338041.75944495,304527060,0.26,0.27,0.61,0.62,49.22,48.47,0.01,0.06,3
1682338041.85951185,304627127,0.22,0.23,0.5700000000000001,0.56,49.22,48.49,0.0,0.05,3
1682338041.95976090,304727376,0.12,0.17,0.5700000000000001,0.5700000000000001,49.22,48.52,0.0,0.05,3
1682338042.05957294,304827188,0.1,-0.02,0.56,0.55,49.22,48.52,0.0,0.04,3
1682338042.15947294,304927088,0.04,0.0,0.59,0.54,49.22,48.550000000000004,0.0,0.04,3
1682338042.25935793,305026973,0.05,-0.08,0.59,0.54,49.22,48.550000000000004,0.0,0.04,3
1682338042.35945797,305127073,0.11,-0.02,0.6,0.56,49.22,48.57,0.0,0.04,3
1682338042.45943499,305227050,0.13,0.19,0.59,0.58,49.22,48.620000000000005,0.01,0.04,3
1682338042.55941200,305327027,0.23,0.0,0.59,0.58,49.25,48.65,0.01,0.04,3
1682338042.65944695,305427062,0.23,0.19,0.58,0.59,49.89,48.67,0.01,0.05,3
1682338042.75951886,305527134,0.24,0.25,0.6,0.6,51.35,48.85,0.01,0.04,3
1682338042.85952282,305627138,0.2,0.19,0.62,0.56,53.38,49.300000000000004,0.0,0.04,3
1682338042.95961881,305727234,0.18,0.23,0.64,0.65,56.29,50.06,0.0,0.04,3
1682338043.05973697,305827352,0.18,0.18,0.64,0.72,59.9,51.25,0.01,0.04,3
1682338043.15946293,305927078,0.11,0.18,0.59,0.72,63.11,52.93,0.01,0.04,3
1682338043.25959301,306027208,0.05,0.19,0.5700000000000001,0.63,65.44,54.89,0.01,0.05,3
1682338043.35965681,306127272,0.04,0.13,0.58,0.5700000000000001,66.9,56.96,0.01,0.06,3
1682338043.45963502,306227250,0.0,0.03,0.59,0.64,67.47,58.95,0.01,0.07,3
1682338043.55967402,306327289,0.02,-0.08,0.64,0.5700000000000001,67.48,60.85,0.01,0.1,3
1682338043.65966797,306427283,0.0,-0.1,0.61,0.64,67.48,62.68,0.01,0.11,3
1682338043.75970387,306527319,0.0,-0.1,0.64,0.58,67.48,64.4,0.01,0.13,3
1682338043.85958982,306627205,-0.01,-0.08,0.63,0.66,67.48,66.05,0.01,0.15,3
1682338043.95978284,306727398,0.0,-0.13,0.65,0.61,67.48,67.56,0.01,0.18,3
1682338044.05967999,306827295,0.0,-0.07,0.67,0.5700000000000001,67.48,68.91,0.01,0.22,3
1682338044.15969586,306927311,0.04,-0.09,0.53,0.59,67.48,70.02,0.01,0.24,3
1682338044.25969791,307027313,0.21,-0.02,0.64,0.47000000000000003,67.48,70.93,0.01,0.25,3
1682338044.35967302,307127288,0.28,0.24,0.67,0.61,67.48,71.65,0.01,0.26,3
1682338044.45975995,307227375,0.22,0.27,0.7000000000000001,0.67,67.48,72.17,0.01,0.29,3
1682338044.55968881,307327304,0.21,0.09,0.74,0.65,67.5,72.51,0.01,0.32,3
1682338044.65970182,307427317,0.05,0.19,0.74,0.8,68.13,72.72,0.01,0.35000000000000003,3
1682338044.75955391,307527169,-0.21,-0.05,0.74,0.78,69.5,72.9,0.01,0.37,3
1682338044.85944796,307627063,-0.3,-0.41000000000000003,0.74,0.8200000000000001,70.7,73.2,0.01,0.37,3
1682338044.95947003,307727085,-0.36,-0.39,0.73,0.78,71.19,73.53,0.01,0.38,3
1682338045.05934787,307826963,-0.33,-0.37,0.74,0.72,71.93,73.77,0.02,0.39,3
1682338045.15950203,307927117,-0.26,-0.38,0.77,0.78,72.82000000000001,73.99,0.02,0.4,3
1682338045.25941682,308027032,-0.21,-0.17,0.81,0.78,73.46000000000001,74.27,0.01,0.41000000000000003,3
1682338045.35950303,308127118,-0.16,-0.12,0.9,0.84,74.15,74.58,0.01,0.42,3
1682338045.45951295,308227128,-0.13,-0.05,0.96,0.98,75.7,74.9,0.02,0.43,3
1682338045.55953193,308327147,-0.13,-0.02,1.04,1.02,77.63,75.46000000000001,0.02,0.44,3
1682338045.65957785,308427193,-0.11,-0.06,1.08,1.09,78.98,76.27,0.02,0.45,3
1682338045.75943184,308527047,-0.05,-0.11,1.08,1.12,80.39,77.24,0.02,0.45,3
1682338045.85935593,308626971,0.0,-0.04,1.09,1.1300000000000001,81.62,78.34,0.02,0.45,3
1682338045.95937681,308726992,0.01,0.0,1.12,1.17,82.17,79.5,0.02,0.46,3
1682338046.05945086,308827066,0.02,-0.1,1.1300000000000001,1.19,82.18,80.62,0.02,0.47000000000000003,3
1682338046.15949893,308927114,-0.02,0.01,1.22,1.23,82.18,81.56,0.02,0.49,3
1682338046.25949001,309027105,-0.03,-0.02,1.25,1.3800000000000001,82.18,82.39,0.01,0.49,3
1682338046.35952282,309127138,-0.05,-0.11,1.37,1.32,82.18,83.11,0.01,0.5,3
1682338046.45970297,309227318,0.21,-0.08,1.28,1.42,82.18,83.71000000000001,0.01,0.52,3
1682338046.55982780,309327443,0.37,0.43,0.99,1.21,82.26,84.19,0.01,0.52,3
1682338046.65974593,309427361,0.39,0.62,0.7000000000000001,0.67,83.06,84.56,0.01,0.54,3
1682338046.75928092,309526896,0.34,0.45,0.02,0.35000000000000003,84.58,84.95,0.01,0.56,3
1682338046.85953593,309627151,0.21,0.3,-1.09,-0.61,85.5,85.51,0.01,0.5700000000000001,3
1682338046.95961785,309727233,0.1,0.24,-1.54,-2.15,85.64,86.14,0.01,0.58,3
1682338047.05961895,309827234,0.02,0.01,-1.37,-2.24,86.2,86.61,0.01,0.6,3
1682338047.15969992,309927315,-0.03,-0.06,-0.89,-1.23,86.74,87.05,0.01,0.6,3
1682338047.25964785,310027263,-0.03,-0.09,-0.21,-0.46,86.75,87.51,0.01,0.59,3
1682338047.35970497,310127320,0.02,0.0,0.55,0.42,86.75,87.87,0.01,0.58,3
1682338047.45976996,310227385,0.07,0.09,0.99,1.36,86.75,88.11,0.01,0.5700000000000001,3
1682338047.55972385,310327339,0.07,0.11,1.01,1.49,86.75,88.27,0.01,0.58,3
1682338047.65933681,310426952,0.09,0.12,0.6900000000000001,1.09,86.75,88.34,0.01,0.58,3
1682338047.75962591,310527241,0.1,0.14,0.3,0.51,86.75,88.38,0.01,0.59,3
1682338047.85969996,310627315,0.07,0.13,-0.26,-0.07,86.75,88.35000000000001,0.01,0.6,3
1682338047.95970392,310727319,0.09,0.05,-1.19,-0.93,86.75,88.24,0.01,0.61,3
1682338048.05971599,310827331,0.07,0.0,-1.71,-2.07,86.75,88.11,0.02,0.61,3
1682338048.15977097,310927386,0.07,0.07,-1.77,-2.33,86.75,87.94,0.02,0.62,3
1682338048.25970387,311027319,0.09,0.08,-1.35,-1.81,87.10000000000001,87.74,0.02,0.61,3
1682338048.35977697,311127392,0.07,0.15,-0.75,-1.0,87.36,87.60000000000001,0.02,0.59,3
1682338048.45973182,311227347,0.03,0.06,-0.05,-0.17,87.91,87.55,0.02,0.58,3
1682338048.55934095,311326956,0.03,0.11,0.25,0.65,88.88,87.52,0.02,0.59,3
1682338048.65934396,311426959,0.03,0.08,0.32,0.73,89.87,87.74,0.03,0.5700000000000001,3
1682338048.75944781,311527063,0.04,0.16,0.3,0.48,90.45,88.10000000000001,0.03,0.56,3
1682338048.85941601,311627031,0.09,0.02,0.16,0.29,90.47,88.55,0.04,0.56,3
1682338048.95952296,311727138,0.12,0.17,0.02,0.05,90.47,88.94,0.04,0.56,3
1682338049.05951691,311827132,0.18,0.11,0.08,-0.03,90.47,89.29,0.06,0.5700000000000001,3
1682338049.15956998,311927185,0.28,0.19,0.17,0.19,90.47,89.65,0.06,0.56,3
1682338049.25959086,312027206,0.37,0.33,0.5,0.39,90.47,89.94,0.07,0.56,3
1682338049.35975790,312127373,0.45,0.47000000000000003,0.64,0.8200000000000001,90.47,90.22,0.07,0.56,3
1682338049.45934391,312226959,0.51,0.43,0.63,0.87,90.47,90.46000000000001,0.07,0.54,3
1682338049.55933690,312326952,0.47000000000000003,0.54,0.23,0.54,90.47,90.69,0.07,0.53,3
1682338049.65940881,312427024,0.41000000000000003,0.45,0.03,0.03,90.47,90.84,0.06,0.54,3
1682338049.75940585,312527021,0.32,0.31,0.11,-0.12,90.47,90.99,0.06,0.54,3
1682338049.85943198,312627047,0.23,0.3,0.16,0.22,90.47,91.12,0.05,0.55,3
1682338049.95949602,312727111,0.16,0.16,0.18,0.2,90.47,91.16,0.05,0.55,3
1682338050.05951595,312827131,0.12,0.0,0.21,0.24,90.47,91.19,0.05,0.56,3
1682338050.15962887,312927244,0.1,0.05,0.22,0.34,90.47,91.2,0.05,0.56,3
1682338050.25973296,313027348,0.12,-0.05,0.31,0.25,90.47,91.19,0.05,0.56,3
1682338050.35934091,313126956,0.1,0.22,0.72,0.46,90.47,91.16,0.05,0.55,3
1682338050.45948982,313227105,0.07,0.13,1.32,1.18,90.47,91.07000000000001,0.05,0.55,3
1682338050.55960989,313327225,0.0,0.1,2.02,1.94,90.47,91.0,0.05,0.54,3
1682338050.65961885,313427234,-0.11,-0.06,2.77,2.7,90.47,90.9,0.07,0.54,3
1682338050.75971794,313527333,-0.17,-0.21,3.54,3.56,90.47,90.82000000000001,0.07,0.52,3
1682338050.85963893,313627254,-0.18,-0.18,4.11,4.3100000000000005,90.58,90.73,0.07,0.51,3
1682338050.95971298,313727328,-0.12,-0.18,3.88,4.62,91.12,90.72,0.07,0.5,3
1682338051.05972385,313827339,-0.01,-0.24,3.22,3.71,91.78,90.76,0.07,0.49,3
1682338051.15972781,313927343,0.12,0.03,2.44,2.46,92.35000000000001,90.94,0.07,0.51,3
1682338051.25957084,314027186,0.23,0.2,1.6300000000000001,1.57,92.88,91.2,0.08,0.52,3
1682338051.35992002,314127535,0.34,0.31,0.81,0.7000000000000001,93.68,91.56,0.08,0.52,3
1682338051.45969582,314227311,0.41000000000000003,0.39,0.33,-0.16,94.24,92.03,0.07,0.52,3
1682338051.55968404,314327299,0.46,0.44,0.27,-0.3,94.32000000000001,92.58,0.07,0.52,3
1682338051.65970802,314427323,0.49,0.56,0.68,0.09,94.32000000000001,93.11,0.06,0.52,3
1682338051.75969100,314527306,0.49,0.55,1.28,0.98,94.32000000000001,93.59,0.06,0.52,3
1682338051.85972095,314627336,0.45,0.55,1.97,1.79,94.32000000000001,94.02,0.05,0.52,3
1682338051.95980000,314727415,0.4,0.39,2.34,2.5300000000000002,94.32000000000001,94.41,0.05,0.51,3
1682338052.05975199,314827367,0.34,0.31,2.37,2.68,94.32000000000001,94.74,0.04,0.5,3
1682338052.15978193,314927397,0.28,0.38,2.16,2.39,94.32000000000001,95.03,0.04,0.51,3
1682338052.25993681,315027552,0.22,0.2,1.84,1.96,94.32000000000001,95.27,0.04,0.52,3
1682338052.35970092,315127316,0.18,0.26,1.59,1.5,94.32000000000001,95.46000000000001,0.04,0.53,3
1682338052.45967484,315227290,0.14,0.12,1.41,1.27,94.32000000000001,95.57000000000001,0.03,0.53,3
1682338052.55970287,315327318,0.16,0.07,1.29,1.12,94.32000000000001,95.66,0.03,0.53,3
1682338052.65969801,315427313,0.17,0.23,1.25,1.04,94.32000000000001,95.71000000000001,0.03,0.53,3
1682338052.75972080,315527336,0.18,0.19,1.62,1.1500000000000001,94.32000000000001,95.7,0.03,0.53,3
1682338052.85981083,315627426,0.21,0.21,1.97,1.79,94.32000000000001,95.69,0.03,0.52,3
1682338052.95975590,315727371,0.25,0.21,2.2,2.2600000000000002,94.32000000000001,95.64,0.03,0.51,3
1682338053.05966282,315827278,0.26,0.31,2.46,2.32,94.32000000000001,95.56,0.03,0.51,3
1682338053.15998292,315927598,0.26,0.37,2.62,2.66,94.32000000000001,95.47,0.03,0.51,3
1682338053.25969481,316027310,0.25,0.27,2.87,2.7600000000000002,94.32000000000001,95.37,0.02,0.5,3
1682338053.35968781,316127303,0.25,0.29,3.17,2.97,94.32000000000001,95.26,0.02,0.49,3
1682338053.45970988,316227325,0.26,0.37,3.22,3.37,94.32000000000001,95.15,0.02,0.48,3
1682338053.55952692,316327142,0.26,0.28,3.2800000000000002,3.2,94.32000000000001,95.04,0.02,0.48,3
1682338053.65955997,316427175,0.25,0.36,3.2600000000000002,3.18,94.32000000000001,94.92,0.02,0.48,3
1682338053.75957298,316527188,0.23,0.24,3.12,3.15,94.32000000000001,94.81,0.02,0.48,3
1682338053.85941386,316627029,0.21,0.33,3.13,2.88,94.32000000000001,94.72,0.01,0.48,3
1682338053.95943093,316727046,0.21,0.26,3.17,2.95,94.32000000000001,94.67,0.01,0.49,3
1682338054.05965090,316827266,0.17,0.28,3.3000000000000003,3.14,94.32000000000001,94.60000000000001,0.01,0.5,3
1682338054.15978003,316927395,0.12,0.03,3.34,3.27,94.32000000000001,94.58,0.01,0.47000000000000003,3
1682338054.25968790,317027303,0.07,0.09,3.1,3.29,94.32000000000001,94.56,0.02,0.46,3
1682338054.35971284,317127328,-0.03,0.0,2.64,2.7600000000000002,94.23,94.54,0.02,0.45,3
1682338054.45966291,317227278,-0.11,-0.06,2.25,2.07,94.11,94.52,0.03,0.44,3
1682338054.55966902,317327284,-0.2,-0.18,2.1,1.72,93.96000000000001,94.45,0.03,0.44,3
1682338054.65971398,317427329,-0.43,-0.25,2.17,1.79,93.67,94.37,0.03,0.44,3
1682338054.75967693,317527292,-0.71,-0.58,2.21,1.99,93.03,94.23,0.03,0.43,3
1682338054.85956287,317627178,-0.76,-0.9,2.19,2.15,92.53,93.96000000000001,0.03,0.42,3
1682338054.95967889,317727294,-0.75,-0.74,2.14,2.06,92.14,93.66,0.03,0.41000000000000003,3
1682338055.05959988,317827215,-0.72,-0.7000000000000001,2.11,1.98,91.76,93.32000000000001,0.03,0.41000000000000003,3
1682338055.15994191,317927557,-0.71,-0.7000000000000001,2.13,2.05,91.4,92.97,0.03,0.41000000000000003,3
1682338055.25969601,318027311,-0.8,-0.5700000000000001,2.1,2.07,91.03,92.56,0.04,0.4,3
1682338055.35953903,318127154,-0.89,-0.65,2.1,2.0,90.59,92.14,0.04,0.4,3
1682338055.45952201,318227137,-0.9400000000000001,-0.8,2.17,2.02,90.11,91.68,0.04,0.4,3
1682338055.55956197,318327177,-0.97,-0.76,2.25,2.11,89.64,91.15,0.04,0.41000000000000003,3
1682338055.65941787,318427033,-0.98,-0.9400000000000001,2.31,2.2,89.18,90.59,0.04,0.4,3
1682338055.75934792,318526963,-1.04,-0.92,2.36,2.31,88.71000000000001,89.97,0.04,0.38,3
1682338055.85961103,318627226,-1.11,-0.9,2.36,2.41,88.25,89.35000000000001,0.03,0.38,3
1682338055.95972300,318727338,-1.17,-1.1400000000000001,2.34,2.35,87.78,88.72,0.03,0.35000000000000003,3
1682338056.05969191,318827307,-1.28,-1.2,2.3000000000000003,2.2800000000000002,87.35000000000001,88.08,0.04,0.34,3
1682338056.15976000,318927375,-1.35,-1.36,2.2,2.2600000000000002,86.94,87.46000000000001,0.04,0.33,3
1682338056.25970101,319027316,-1.32,-1.36,2.05,2.06,86.52,86.87,0.05,0.3,3
1682338056.35971498,319127330,-1.31,-1.3,1.97,1.79,86.07000000000001,86.28,0.05,0.29,3
1682338056.45975685,319227372,-1.27,-1.2,1.94,1.8800000000000001,85.64,85.69,0.04,0.28,3
1682338056.55971980,319327335,-1.25,-1.25,1.95,1.83,85.18,85.12,0.04,0.26,3
1682338056.65967083,319427286,-1.24,-1.1,1.93,1.9000000000000001,84.69,84.58,0.03,0.26,3
1682338056.75959897,319527214,-1.22,-1.24,1.92,1.85,84.2,84.05,0.03,0.24,3
1682338056.85970187,319627317,-1.18,-1.06,1.9000000000000001,1.9000000000000001,83.74,83.53,0.03,0.22,3
1682338056.95973587,319727351,-1.07,-1.01,1.83,1.83,83.26,83.07000000000001,0.03,0.23,3
1682338057.05977392,319827389,-0.89,-0.79,1.72,1.72,82.77,82.62,0.03,0.21,3
1682338057.15956998,319927185,-0.72,-0.66,1.61,1.57,82.24,82.17,0.03,0.21,3
1682338057.25953102,320027146,-0.5700000000000001,-0.46,1.54,1.45,81.36,81.73,0.04,0.19,3
1682338057.35957885,320127194,-0.5,-0.37,1.5,1.43,79.71000000000001,81.19,0.04,0.17,3
1682338057.45942402,320227039,-0.47000000000000003,-0.3,1.52,1.42,77.96000000000001,80.41,0.07,0.16,3
1682338057.55934095,320326956,-0.45,-0.33,1.5,1.45,76.43,79.4,0.07,0.14,3
1682338057.65932584,320426941,-0.49,-0.36,1.49,1.44,74.99,78.26,0.07,0.12,3
1682338057.75940800,320527023,-0.51,-0.48,1.49,1.49,73.59,76.97,0.07,0.1,3
1682338057.85940790,320627023,-0.56,-0.52,1.49,1.5,72.45,75.64,0.06,0.08,3
1682338057.95950699,320727122,-0.58,-0.52,1.28,1.49,71.69,74.23,0.06,0.07,3
1682338058.05950999,320827125,-0.58,-0.51,0.72,1.08,71.19,72.9,0.05,0.07,3
1682338058.15973592,320927351,-0.59,-0.58,0.05,0.21,70.54,71.63,0.05,0.05,3
1682338058.25956702,321027182,-0.66,-0.5,-0.68,-0.58,69.86,70.41,0.05,0.06,3
1682338058.35967398,321127289,-0.75,-0.54,-1.44,-1.37,69.23,69.24,0.05,0.07,3
1682338058.45957088,321227186,-0.8200000000000001,-0.71,-2.22,-2.19,68.55,68.12,0.06,0.07,3
1682338058.55951786,321327133,-0.85,-0.68,-3.0100000000000002,-3.0300000000000002,67.85,67.05,0.06,0.09,3
1682338058.65961599,321427231,-0.8200000000000001,-0.62,-3.8000000000000003,-3.74,67.26,66.08,0.06,0.11,3
1682338058.75964093,321527256,-0.73,-0.5,-4.37,-4.49,66.69,65.18,0.06,0.14,3
1682338058.85965681,321627272,-0.59,-0.29,-4.24,-4.82,66.1,64.34,0.06,0.15,3
1682338058.95971489,321727330,-0.54,0.0,-3.63,-4.07,65.5,63.64,0.06,0.17,3
1682338059.05952191,321827137,-0.54,-0.22,-2.75,-2.91,64.88,63.0,0.05,0.2,3
1682338059.15962100,321927236,-0.47000000000000003,-0.23,-1.78,-1.75,64.27,62.5,0.05,0.22,3
1682338059.25941682,322027032,-0.48,-0.14,-0.74,-0.54,63.68,62.0,0.05,0.25,3
1682338059.35935593,322126971,-0.44,-0.31,0.04,0.5,63.06,61.52,0.05,0.27,3
1682338059.45932698,322226942,-0.34,-0.35000000000000003,0.41000000000000003,1.08,62.35,61.09,0.05,0.29,3
1682338059.55939198,322327007,-0.3,-0.14,0.52,1.07,61.65,60.59,0.05,0.3,3
1682338059.65941191,322427027,-0.24,-0.24,0.33,0.92,60.94,60.2,0.07,0.31,3
1682338059.75949383,322527109,0.16,-0.14,0.24,0.5,60.2,59.77,0.07,0.32,3
1682338059.85951495,322627130,0.76,0.5,0.19,0.36,59.26,59.31,0.08,0.32,3
1682338059.95972800,322727343,1.46,1.26,0.21,0.35000000000000003,57.94,58.75,0.08,0.32,3
1682338060.05974293,322827358,2.13,2.12,0.27,0.36,56.54,58.08,0.08,0.32,3
1682338060.15975404,322927369,2.29,2.68,0.34,0.47000000000000003,55.26,57.25,0.08,0.33,3
1682338060.25933480,323026950,2.02,2.5,0.4,0.54,53.97,56.300000000000004,0.08,0.33,3
1682338060.35966086,323127276,1.26,1.8,0.47000000000000003,0.63,52.7,55.2,0.08,0.35000000000000003,3
1682338060.45969701,323227312,0.25,0.61,0.54,0.75,51.47,53.99,0.08,0.35000000000000003,3
1682338060.55967999,323327295,-0.49,-0.64,0.63,0.8,50.31,52.72,0.08,0.38,3
1682338060.65970087,323427316,-0.66,-1.22,0.68,0.86,49.18,51.370000000000005,0.07,0.39,3
1682338060.75969386,323527309,-0.78,-1.08,0.72,0.9,48.04,49.980000000000004,0.07,0.39,3
1682338060.85968995,323627305,-0.9400000000000001,-1.05,0.76,0.92,46.910000000000004,48.58,0.07,0.4,3
1682338060.95977187,323727387,-1.04,-1.3,0.84,0.9500000000000001,45.78,47.17,0.07,0.41000000000000003,3
1682338061.05969286,323827308,-1.05,-1.22,0.84,1.01,44.64,45.77,0.06,0.41000000000000003,3
1682338061.15944195,323927057,-1.01,-1.07,0.8,1.0,43.84,44.39,0.06,0.42,3
1682338061.25938702,324027002,-0.92,-1.0,0.79,0.87,43.410000000000004,43.09,0.06,0.43,3
1682338061.35945392,324127069,-0.9,-0.76,0.78,0.81,43.4,41.92,0.06,0.44,3
1682338061.45943284,324227048,-0.9,-0.6900000000000001,0.8,0.79,43.4,41.0,0.06,0.45,3
1682338061.55950093,324327116,-0.9500000000000001,-0.87,0.76,0.79,43.4,40.24,0.06,0.45,3
1682338061.65951300,324427128,-1.09,-0.9,0.75,0.71,43.4,39.69,0.05,0.46,3
1682338061.75952792,324527143,-1.19,-1.16,0.74,0.66,43.4,39.34,0.05,0.46,3
1682338061.85958791,324627203,-1.03,-1.22,0.93,0.73,43.31,39.14,0.05,0.47000000000000003,3
1682338061.95976496,324727380,-0.62,-0.88,1.2,1.05,42.96,39.050000000000004,0.05,0.47000000000000003,3
1682338062.05933499,324826950,0.0,-0.3,1.24,1.47,42.050000000000004,39.02,0.05,0.47000000000000003,3
1682338062.15960002,324927215,0.7000000000000001,0.4,1.19,1.4000000000000001,40.51,38.95,0.05,0.47000000000000003,3
1682338062.25960803,325027223,1.45,1.28,1.06,1.21,38.980000000000004,38.72,0.07,0.47000000000000003,3
1682338062.35963583,325127251,2.22,2.14,0.88,1.02,37.49,38.31,0.07,0.46,3
1682338062.45966983,325227285,3.0100000000000002,2.92,0.73,0.68,35.99,37.76,0.08,0.45,3
1682338062.55963492,325327250,3.8000000000000003,3.73,0.63,0.5,34.47,37.04,0.08,0.45,3
1682338062.65969396,325427309,4.59,4.51,0.6,0.36,32.97,36.160000000000004,0.08,0.45,3
1682338062.75974798,325527363,5.14,5.26,0.67,0.34,31.48,35.11,0.08,0.44,3
1682338062.85970998,325627325,5.11,5.58,0.78,0.43,30.150000000000002,33.96,0.08,0.45,3
1682338062.95936990,325726985,4.74,5.08,0.89,0.63,29.6,32.72,0.08,0.46,3
1682338063.05935884,325826974,4.08,4.36,0.96,0.85,29.59,31.52,0.07,0.47000000000000003,3
1682338063.15948582,325927101,3.06,3.4,0.98,1.05,29.59,30.45,0.07,0.48,3
1682338063.25942183,326027037,1.96,2.08,0.92,1.07,29.59,29.5,0.06,0.49,3
1682338063.35955095,326127166,0.79,0.59,0.81,0.96,29.59,28.72,0.06,0.5,3
1682338063.45949984,326227115,-0.43,-0.5,0.67,0.72,29.59,28.03,0.06,0.5,3
1682338063.55951190,326327127,-1.3900000000000001,-1.79,0.52,0.51,29.59,27.52,0.06,0.5,3
1682338063.65955591,326427171,-1.79,-2.63,0.41000000000000003,0.37,29.59,27.150000000000002,0.05,0.5,3
1682338063.75970984,326527325,-2.02,-2.49,0.34,0.24,29.59,26.91,0.05,0.5,3
1682338063.85934186,326626957,-1.99,-2.45,0.32,0.16,29.59,26.79,0.04,0.48,3
1682338063.95937991,326726995,-1.6500000000000001,-2.16,0.32,0.22,29.59,26.76,0.04,0.47000000000000003,3
1682338064.05946803,326827083,-1.3900000000000001,-1.44,0.34,0.29,29.59,26.84,0.04,0.46,3
1682338064.15951800,326927133,-1.24,-1.25,0.38,0.31,29.59,27.01,0.04,0.46,3
1682338064.25943494,327027050,-1.01,-1.2,0.41000000000000003,0.39,29.330000000000002,27.22,0.04,0.45,3
1682338064.35951281,327127128,-0.92,-0.86,0.43,0.43,28.87,27.42,0.04,0.45,3
1682338064.45952582,327227141,-0.91,-0.77,0.43,0.48,28.400000000000002,27.59,0.04,0.44,3
1682338064.55957294,327327188,-0.85,-0.8,0.42,0.4,27.94,27.67,0.04,0.45,3
1682338064.65939689,327427012,-0.73,-0.67,0.41000000000000003,0.44,27.46,27.68,0.04,0.45,3
1682338064.75934792,327526963,-0.61,-0.51,0.37,0.44,26.97,27.64,0.04,0.45,3
1682338064.85961390,327627229,-0.51,-0.47000000000000003,0.35000000000000003,0.37,26.5,27.490000000000002,0.04,0.45,3
1682338064.95978498,327727400,-0.45,-0.34,0.33,0.38,26.04,27.29,0.04,0.44,3
1682338065.05959201,327827207,-0.42,-0.34,0.31,0.36,25.6,27.01,0.04,0.43,3
1682338065.15968204,327927297,-0.41000000000000003,-0.39,0.33,0.32,25.17,26.7,0.04,0.43,3
1682338065.25963902,328027254,-0.41000000000000003,-0.43,0.37,0.35000000000000003,24.72,26.330000000000002,0.05,0.42,3
1682338065.35965586,328127271,-0.22,-0.33,0.39,0.4,24.1,25.91,0.05,0.42,3
1682338065.45970798,328227323,0.25,0.01,0.42,0.45,23.42,25.41,0.06,0.41000000000000003,3
1682338065.55966997,328327285,0.88,0.7000000000000001,0.5,0.46,22.740000000000002,24.82,0.06,0.41000000000000003,3
1682338065.65955687,328427172,1.6,1.44,0.58,0.56,22.12,24.150000000000002,0.07,0.41000000000000003,3
1682338065.75988793,328527503,2.35,2.2800000000000002,0.63,0.61,21.54,23.42,0.07,0.4,3
1682338065.85970283,328627318,3.12,3.0700000000000003,0.6900000000000001,0.6,21.04,22.67,0.06,0.39,3
1682338065.95970201,328727317,3.67,3.81,0.7000000000000001,0.63,20.86,21.900000000000002,0.06,0.39,3
1682338066.05969095,328827306,3.65,4.23,0.72,0.66,20.86,21.2,0.05,0.38,3
1682338066.15977192,328927387,3.16,3.67,0.6900000000000001,0.76,20.86,20.59,0.05,0.38,3
1682338066.25969100,329027306,2.44,2.72,0.63,0.73,20.86,20.1,0.05,0.39,3
1682338066.35974503,329127360,1.6,1.67,0.56,0.66,20.86,19.64,0.05,0.4,3
1682338066.45972490,329227340,0.7000000000000001,0.61,0.49,0.56,20.86,19.3,0.05,0.4,3
1682338066.55961680,329327232,-0.15,-0.37,0.42,0.47000000000000003,20.86,19.05,0.05,0.4,3
1682338066.65996504,329427580,-0.52,-1.1400000000000001,0.39,0.38,20.86,18.88,0.04,0.41000000000000003,3
1682338066.75969696,329527312,-0.61,-1.19,0.36,0.38,20.86,18.79,0.04,0.41000000000000003,3
1682338066.85968304,329627298,-0.63,-0.97,0.36,0.39,20.79,18.78,0.04,0.4,3
1682338066.95970893,329727324,-0.67,-0.96,0.33,0.36,20.71,18.830000000000002,0.04,0.4,3
1682338067.05951881,329827134,-0.71,-0.87,0.32,0.35000000000000003,20.64,18.900000000000002,0.03,0.39,3
1682338067.15956998,329927185,-0.72,-0.85,0.32,0.31,20.63,19.02,0.03,0.38,3
1682338067.25956893,330027184,-0.76,-0.84,0.31,0.31,20.63,19.18,0.03,0.38,3
1682338067.35941982,330127035,-0.77,-0.81,0.3,0.33,20.63,19.35,0.03,0.38,3
1682338067.45934296,330226958,-0.55,-0.8300000000000001,0.28,0.28,20.63,19.54,0.03,0.37,3
1682338067.55969501,330327310,-0.01,-0.4,0.27,0.25,20.63,19.73,0.03,0.36,3
1682338067.65968490,330427300,0.64,0.52,0.26,0.17,20.63,19.96,0.03,0.35000000000000003,3
1682338067.75965786,330527273,1.37,1.31,0.29,0.22,20.6,20.17,0.03,0.34,3
1682338067.85969090,330627306,2.14,1.96,0.33,0.37,20.57,20.36,0.03,0.34,3
1682338067.95953393,330727149,2.68,2.71,0.34,0.37,20.56,20.53,0.03,0.33,3
1682338068.05949903,330827114,2.7600000000000002,3.13,0.33,0.35000000000000003,20.56,20.69,0.03,0.33,3
1682338068.15960193,330927217,2.58,2.79,0.32,0.28,20.56,20.81,0.03,0.32,3
1682338068.25941491,331027030,2.18,2.37,0.31,0.33,20.56,20.91,0.04,0.33,3
1682338068.35934281,331126958,1.6,1.71,0.27,0.35000000000000003,20.56,20.98,0.04,0.33,3
1682338068.45931101,331226926,1.09,1.01,0.24,0.33,20.56,21.02,0.05,0.34,3
1682338068.55942392,331327039,0.71,0.47000000000000003,0.24,0.32,20.56,21.05,0.05,0.34,3
1682338068.65967298,331427288,0.28,0.15,0.29,0.22,20.56,21.06,0.05,0.34,3
1682338068.75970292,331527318,0.24,-0.31,0.32,0.33,20.56,21.05,0.05,0.33,3
1682338068.85963702,331627252,0.41000000000000003,-0.17,0.37,0.46,20.56,21.01,0.05,0.33,3
1682338068.95968699,331727302,0.34,0.27,0.39,0.46,20.56,20.990000000000002,0.05,0.32,3
1682338069.05970001,331827315,0.22,0.25,0.38,0.36,20.56,20.96,0.06,0.31,3
1682338069.15972090,331927336,0.13,-0.02,0.39,0.26,20.56,20.900000000000002,0.06,0.31,3
1682338069.25958681,332027202,-0.09,0.07,0.39,0.29,20.56,20.89,0.07,0.3,3
1682338069.35958600,332127201,-0.45,-0.42,0.38,0.27,20.56,20.84,0.07,0.3,3
1682338069.45962501,332227240,-0.58,-0.98,0.39,0.15,20.56,20.79,0.06,0.3,3
1682338069.55969095,332327306,-0.56,-0.8300000000000001,0.37,0.32,20.56,20.76,0.06,0.3,3
1682338069.65976596,332427381,-0.47000000000000003,-0.65,0.35000000000000003,0.44,20.56,20.71,0.06,0.3,3
1682338069.75970483,332527320,-0.06,-0.55,0.37,0.34,20.56,20.7,0.06,0.29,3
1682338069.85971189,332627327,0.53,0.08,0.36,0.42,20.56,20.69,0.07,0.29,3
1682338069.95976686,332727382,1.23,0.86,0.34,0.54,20.56,20.72,0.07,0.28,3
1682338070.05974698,332827362,1.72,1.5,0.35000000000000003,0.53,20.56,20.73,0.07,0.27,3
1682338070.15980387,332927419,1.82,1.8900000000000001,0.38,0.51,20.56,20.77,0.07,0.26,3
1682338070.25957990,333027195,1.75,1.82,0.33,0.56,20.56,20.8,0.06,0.26,3
1682338070.35970187,333127317,1.56,1.61,0.29,0.49,20.56,20.81,0.06,0.26,3
1682338070.45995784,333227573,1.31,1.68,0.29,0.25,20.56,20.830000000000002,0.06,0.26,3
1682338070.55969882,333327314,1.08,1.51,0.25,0.19,20.56,20.830000000000002,0.06,0.25,3
1682338070.65944982,333427065,0.87,1.11,0.22,0.25,20.56,20.84,0.05,0.26,3
1682338070.75946498,333527080,0.65,0.81,0.23,0.07,20.56,20.84,0.05,0.26,3
1682338070.85956693,333627182,0.36,0.34,0.24,0.0,20.56,20.89,0.04,0.26,3
1682338070.95943499,333727050,0.05,-0.17,0.26,0.12,20.56,20.900000000000002,0.04,0.26,3
1682338071.05934000,333826955,-0.25,-0.55,0.32,0.26,20.56,20.92,0.04,0.27,3
1682338071.15937591,333926991,-0.58,-0.89,0.32,0.43,20.56,20.98,0.04,0.27,3
1682338071.25940800,334027023,-0.74,-0.59,0.31,0.6,20.56,21.02,0.05,0.26,3
1682338071.35939789,334127013,-0.63,-0.55,0.0,0.88,20.56,21.03,0.05,0.25,3
1682338071.45944500,334227060,-0.38,-0.61,-0.05,0.79,20.56,20.91,0.05,0.24,3
1682338071.55951285,334327128,-0.03,-0.56,0.2,0.67,20.56,20.77,0.05,0.23,3
1682338071.65971804,334427333,-0.08,-0.51,0.03,0.81,20.56,20.88,0.06,0.22,3
1682338071.75959396,334527209,0.06,-0.56,0.26,0.81,20.56,20.8,0.06,0.21,3
1682338071.85945082,334627066,0.17,-0.53,0.29,0.8200000000000001,20.56,20.86,0.06,0.21,3
1682338071.95945382,334727069,0.13,-0.53,0.28,0.81,20.56,20.88,0.06,0.2,3
1682338072.05932283,334826938,0.1,-0.56,0.34,0.79,20.56,20.88,0.06,0.2,3
1682338072.15952802,334927143,0.11,-0.56,0.15,0.8200000000000001,20.56,20.93,0.06,0.2,3
1682338072.25943089,335027046,0.14,-0.55,0.32,0.78,20.56,20.94,0.05,0.19,3
1682338072.35949588,335127111,0.11,-0.56,0.05,0.8200000000000001,20.56,20.94,0.05,0.2,3
1682338072.45953083,335227146,0.14,-0.53,0.25,0.8,20.56,21.0,0.04,0.2,3
1682338072.55954003,335327155,0.14,-0.56,0.1,0.79,20.56,21.02,0.04,0.19,3
1682338072.65972781,335427343,0.19,-0.56,0.23,0.76,20.56,20.97,0.03,0.19,3
1682338072.75968099,335527296,-0.02,-0.59,0.35000000000000003,0.81,20.56,21.03,0.03,0.19,3
1682338072.85955596,335627171,-0.17,-0.6,0.45,0.8,20.56,20.96,0.03,0.19,3
1682338072.95957184,335727187,-0.24,-0.61,0.5,0.8300000000000001,20.56,21.02,0.03,0.19,3
1682338073.05961394,335827229,-0.28,-0.59,0.53,0.84,20.56,21.09,0.02,0.18,3
1682338073.15964890,335927264,-0.3,-0.65,0.54,0.8300000000000001,20.56,21.01,0.02,0.18,3
1682338073.25988483,336027500,-0.16,-0.62,0.3,0.85,21.11,21.11,0.02,0.18,3
1682338073.35967398,336127289,-0.08,-0.66,0.15,0.85,21.14,21.14,0.02,0.18,3
1682338073.45973897,336227354,-0.04,-0.65,0.07,0.85,20.990000000000002,20.990000000000002,0.02,0.18,3
1682338073.55975890,336327374,-0.02,-0.63,0.04,0.85,20.990000000000002,20.990000000000002,0.02,0.17,3
1682338073.65973592,336427351,-0.01,-0.65,0.02,0.85,20.88,20.88,0.01,0.17,3
1682338073.75967193,336527287,0.0,-0.62,0.01,0.85,20.580000000000002,20.580000000000002,0.01,0.17,3
1682338073.85969090,336627306,0.0,-0.64,0.0,0.86,20.41,20.41,0.01,0.17,3
1682338073.95970988,336727325,0.0,-0.61,0.0,0.85,20.18,20.18,0.01,0.16,3
1682338074.05995393,336827569,0.0,-0.62,0.0,0.86,19.8,19.8,0.01,0.16,3
1682338074.16003299,336927648,0.0,-0.61,0.0,0.85,19.63,19.63,0.01,0.16,3
1682338074.25949788,337027113,0.0,-0.59,0.0,0.86,19.37,19.37,0.01,0.16,3
1682338074.35951781,337127133,0.0,-0.61,0.0,0.86,19.02,19.02,0.01,0.16,3
1682338074.45957398,337227189,0.0,-0.58,0.0,0.86,18.87,18.87,0.01,0.16,3
1682338074.55941701,337327032,0.0,-0.61,0.0,0.86,18.59,18.59,0.01,0.16,3
1682338074.65927982,337426895,0.0,-0.5700000000000001,0.0,0.85,18.25,18.25,0.0,0.16,3
1682338074.75932193,337526937,0.0,-0.58,0.0,0.86,18.1,18.1,0.0,0.15,3
1682338074.85939503,337627010,0.0,-0.56,0.0,0.86,17.81,17.81,0.0,0.16,3
1682338074.95970583,337727321,0.0,-0.5700000000000001,0.0,0.86,17.5,17.5,0.0,0.15,3
1682338075.05970001,337827315,0.0,-0.56,0.0,0.86,17.35,17.35,0.0,0.15,3
1682338075.15954685,337927162,0.0,-0.55,0.0,0.86,17.080000000000002,17.080000000000002,0.0,0.14,3
1682338075.25951791,338027133,0.0,-0.5700000000000001,0.0,0.86,16.78,16.78,0.0,0.15,3
1682338075.35957503,338127190,0.0,-0.54,0.0,0.87,16.63,16.63,0.0,0.15,3
1682338075.45937681,338226992,0.0,-0.56,0.0,0.87,16.34,16.34,0.0,0.14,3
1682338075.55928493,338326900,0.0,-0.54,0.0,0.86,16.07,16.07,0.0,0.15,3
1682338075.65932202,338426937,0.0,-0.56,0.0,0.87,15.91,15.91,0.0,0.14,3
1682338075.75938392,338526999,0.0,-0.55,0.0,0.86,15.63,15.63,0.0,0.15,3
1682338075.85966682,338627282,0.0,-0.55,0.0,0.87,15.370000000000001,15.370000000000001,0.0,0.14,3
1682338075.95951891,338727134,0.0,-0.55,0.0,0.87,15.21,15.21,0.0,0.14,3
1682338076.05964804,338827263,0.0,-0.55,0.0,0.87,14.93,14.93,0.0,0.14,3
1682338076.15970683,338927322,0.0,-0.56,0.0,0.87,14.68,14.68,0.0,0.14,3
1682338076.25969887,339027314,0.0,-0.54,0.0,0.88,14.52,14.52,0.0,0.14,3
1682338076.35968089,339127296,0.0,-0.56,0.0,0.87,14.23,14.23,0.0,0.13,3
1682338076.45956683,339227182,0.0,-0.55,0.0,0.88,14.0,14.0,0.0,0.13,3
1682338076.55956984,339327185,0.0,-0.55,0.0,0.88,13.83,13.83,0.0,0.13,3
1682338076.65962100,339427236,0.0,-0.55,0.0,0.87,13.55,13.55,0.0,0.12,3
1682338076.75991392,339527529,0.0,-0.55,0.0,0.87,13.35,13.35,0.0,0.12,3
1682338076.85970688,339627322,0.0,-0.56,0.0,0.87,13.19,13.19,0.0,0.12,3
1682338076.95967484,339727290,0.0,-0.55,0.0,0.87,12.92,12.92,0.0,0.11,3
1682338077.05971003,339827325,0.0,-0.5700000000000001,0.0,0.87,12.73,12.73,0.0,0.12,3
1682338077.15961480,339927230,0.0,-0.56,0.0,0.87,12.57,12.57,0.0,0.11,3
1682338077.25940681,340027022,0.0,-0.5700000000000001,0.0,0.87,12.31,12.31,0.0,0.11,3
1682338077.35928082,340126896,0.0,-0.56,0.0,0.87,12.13,12.13,0.0,0.11,3
1682338077.45932603,340226941,0.0,-0.5700000000000001,0.0,0.87,11.96,11.96,0.0,0.11,3
1682338077.55943799,340327053,0.0,-0.5700000000000001,0.0,0.87,11.71,11.71,0.0,0.11,3
1682338077.65969086,340427306,0.0,-0.5700000000000001,0.0,0.87,11.55,11.55,0.0,0.11,3
1682338077.75970483,340527320,0.0,-0.5700000000000001,0.0,0.87,11.370000000000001,11.370000000000001,0.0,0.11,3
1682338077.85951185,340627127,0.0,-0.5700000000000001,0.0,0.87,11.13,11.13,0.0,0.11,3
1682338077.95951700,340727132,0.0,-0.5700000000000001,0.0,0.87,10.97,10.97,0.0,0.1,3
1682338078.05957985,340827195,0.0,-0.5700000000000001,0.0,0.87,10.790000000000001,10.790000000000001,0.0,0.11,3
1682338078.15946198,340927077,0.0,-0.58,0.0,0.86,10.56,10.56,0.0,0.11,3
1682338078.25927901,341026894,0.0,-0.5700000000000001,0.0,0.86,10.41,10.41,0.0,0.11,3
1682338078.35963798,341127253,0.0,-0.5700000000000001,0.0,0.86,10.21,10.21,0.0,0.11,3
1682338078.45968986,341227305,0.0,-0.58,0.0,0.86,9.98,9.98,0.0,0.1,3
1682338078.55940294,341327018,0.0,-0.5700000000000001,0.0,0.87,9.84,9.84,0.0,0.1,3
1682338078.65942693,341427042,0.0,-0.5700000000000001,0.0,0.87,9.65,9.65,0.0,0.1,3
1682338078.75951195,341527127,0.0,-0.5700000000000001,0.0,0.87,9.43,9.43,0.0,0.1,3
1682338078.85951495,341627130,0.0,-0.58,0.0,0.88,9.3,9.3,0.0,0.1,3
1682338078.95958591,341727201,0.0,-0.5700000000000001,0.0,0.88,9.1,9.1,0.0,0.1,3
1682338079.05940580,341827021,0.0,-0.58,0.0,0.87,8.9,8.9,0.0,0.09,3
1682338079.15944290,341927058,0.0,-0.58,0.0,0.88,8.77,8.77,0.0,0.09,3
1682338079.25964594,342027261,0.0,-0.58,0.0,0.88,8.58,8.58,0.0,0.08,3
1682338079.35940790,342127023,0.0,-0.58,0.0,0.88,8.39,8.39,0.0,0.08,3
1682338079.45968390,342227299,0.0,-0.58,0.0,0.88,8.27,8.27,0.0,0.08,3
1682338079.55971098,342327326,0.0,-0.58,0.0,0.88,8.08,8.08,0.0,0.08,3
1682338079.65970182,342427317,0.0,-0.58,0.0,0.88,7.91,7.91,0.0,0.08,3
1682338079.75971103,342527326,0.0,-0.58,0.0,0.88,7.79,7.79,0.0,0.08,3
1682338079.85975504,342627370,0.0,-0.58,0.0,0.88,7.59,7.59,0.0,0.08,3
1682338079.95976186,342727377,0.0,-0.58,0.0,0.88,7.43,7.43,0.0,0.08,3
1682338080.05967093,342827286,0.0,-0.58,0.0,0.87,7.29,7.29,0.0,0.08,3
1682338080.16009188,342927707,0.0,-0.58,0.0,0.87,7.1000000000000005,7.1000000000000005,0.0,0.08,3
1682338080.25964499,343027260,0.0,-0.59,0.0,0.87,6.95,6.95,0.0,0.08,3
1682338080.35968089,343127296,0.0,-0.59,0.0,0.87,6.8100000000000005,6.8100000000000005,0.0,0.08,3
1682338080.45971084,343227326,0.0,-0.59,0.0,0.87,6.62,6.62,0.0,0.07,3
1682338080.55949283,343327108,0.0,-0.59,0.0,0.86,6.48,6.48,0.0,0.07,3
1682338080.65965700,343427272,0.0,-0.59,0.0,0.86,6.34,6.34,0.0,0.08,3
1682338080.75969386,343527309,0.0,-0.59,0.0,0.86,6.15,6.15,0.0,0.07,3
1682338080.85965991,343627275,0.0,-0.59,0.0,0.86,6.0200000000000005,6.0200000000000005,0.0,0.07,3
1682338080.95960093,343727216,0.0,-0.59,0.0,0.86,5.88,5.88,0.0,0.07,3
1682338081.05991888,343827534,0.0,-0.59,0.0,0.86,5.71,5.71,0.0,0.07,3
1682338081.15978289,343927398,0.0,-0.59,0.0,0.86,5.58,5.58,0.0,0.07,3
1682338081.25967598,344027291,0.0,-0.59,0.0,0.86,5.44,5.44,0.0,0.07,3
1682338081.35969400,344127309,0.0,-0.59,0.0,0.86,5.2700000000000005,5.2700000000000005,0.0,0.06,3
1682338081.45949602,344227111,0.0,-0.59,0.0,0.86,5.15,5.15,0.0,0.07,3
1682338081.55951095,344327126,0.0,-0.59,0.0,0.86,5.01,5.01,0.0,0.07,3
1682338081.65954781,344427163,0.0,-0.59,0.0,0.85,4.84,4.84,0.0,0.07,3
1682338081.75941086,344527026,0.0,-0.59,0.0,0.85,4.73,4.73,0.0,0.06,3
1682338081.85928392,344626899,0.0,-0.6,0.0,0.85,4.58,4.58,0.0,0.06,3
1682338081.95937300,344726988,0.0,-0.59,0.0,0.85,4.43,4.43,0.0,0.06,3
1682338082.05943990,344827055,0.0,-0.59,0.0,0.84,4.32,4.32,0.0,0.06,3
1682338082.15973997,344927355,0.0,-0.59,0.0,0.85,4.17,4.17,0.0,0.06,3
1682338082.25985003,345027465,0.0,-0.59,0.0,0.84,4.0200000000000005,4.0200000000000005,0.0,0.06,3
1682338082.35951281,345127128,0.0,-0.59,0.0,0.84,3.91,3.91,0.0,0.06,3
1682338082.45951295,345227128,0.0,-0.6,0.0,0.84,3.7600000000000002,3.7600000000000002,0.0,0.06,3
1682338082.55956197,345327177,0.0,-0.6,0.0,0.84,3.62,3.62,0.0,0.06,3
1682338082.65937591,345426991,0.0,-0.6,0.0,0.84,3.5,3.5,0.0,0.06,3
1682338082.75933981,345526955,0.0,-0.6,0.0,0.84,3.35,3.35,0.0,0.06,3
1682338082.85959482,345627210,0.0,-0.6,0.0,0.8300000000000001,3.22,3.22,0.0,0.07,3
1682338082.95971799,345727333,0.0,-0.6,0.0,0.8300000000000001,3.11,3.11,0.0,0.06,3
1682338083.05968499,345827300,0.0,-0.6,0.0,0.8300000000000001,2.95,2.95,0.0,0.06,3
1682338083.15975785,345927373,0.0,-0.6,0.0,0.8200000000000001,2.82,2.82,0.0,0.05,3
1682338083.25944591,346027061,0.0,-0.6,0.0,0.8200000000000001,2.71,2.71,0.0,0.05,3
1682338083.35949683,346127112,0.0,-0.6,0.0,0.8200000000000001,2.56,2.56,0.0,0.05,3
1682338083.45956397,346227179,0.0,-0.6,0.0,0.81,2.44,2.44,0.0,0.05,3
1682338083.55941892,346327034,0.0,-0.6,0.0,0.81,2.32,2.32,0.0,0.05,3
1682338083.65928483,346426900,0.0,-0.6,0.0,0.81,2.18,2.18,0.0,0.05,3
1682338083.75932288,346526938,0.0,-0.6,0.0,0.8200000000000001,2.07,2.07,0.0,0.05,3
1682338083.85938692,346627002,0.0,-0.6,0.0,0.8200000000000001,1.95,1.95,0.0,0.05,3
1682338083.95970392,346727319,0.0,-0.6,0.0,0.8200000000000001,1.81,1.81,0.0,0.05,3
1682338084.05971098,346827326,0.0,-0.6,0.0,0.81,1.7,1.7,0.0,0.05,3
1682338084.15953398,346927149,0.0,-0.6,0.0,0.81,1.59,1.59,0.0,0.05,3
1682338084.25969386,347027309,0.0,-0.6,0.0,0.81,1.45,1.45,0.0,0.04,3
1682338084.35980892,347127424,0.0,-0.6,0.0,0.8200000000000001,1.34,1.34,0.0,0.04,3
1682338084.45970082,347227316,0.0,-0.6,0.0,0.8200000000000001,1.23,1.23,0.0,0.04,3
1682338084.55966091,347327276,0.0,-0.6,0.0,0.81,1.1,1.1,0.0,0.04,3
1682338084.65996790,347427583,0.0,-0.6,0.0,0.81,1.0,1.0,0.0,0.03,3
1682338084.75970602,347527321,0.0,-0.6,0.0,0.81,0.89,0.89,0.0,0.03,3
1682338084.85940790,347627023,0.0,-0.61,0.0,0.81,0.77,0.77,0.0,0.03,3
1682338084.95951486,347727130,0.0,-0.61,0.0,0.81,0.67,0.67,0.0,0.03,3
1682338085.05949783,347827113,0.0,-0.61,0.0,0.81,0.55,0.55,0.0,0.03,3
1682338085.15955997,347927175,0.0,-0.61,0.0,0.81,0.44,0.44,0.0,0.03,3
1682338085.25957799,348027193,0.0,-0.61,0.0,0.81,0.34,0.34,0.0,0.03,3
1682338085.35938096,348126996,0.0,-0.6,0.0,0.81,0.22,0.22,0.0,0.03,3
1682338085.45928383,348226899,0.0,-0.6,0.0,0.81,0.11,0.11,0.0,0.03,3
1682338085.55961895,348327234,0.0,-0.6,0.0,0.81,0.01,0.01,0.0,0.03,3
1682338085.65969491,348427310,0.0,-0.6,0.0,0.81,359.89,359.90000000000003,0.0,0.03,3
1682338085.75939894,348527014,0.0,-0.6,0.0,0.81,359.78000000000003,359.79,0.0,0.04,3
1682338085.85943604,348627051,0.0,-0.6,0.0,0.81,359.69,359.7,0.0,0.04,3
1682338085.95952201,348727137,0.0,-0.61,0.0,0.81,359.57,359.58,0.0,0.03,3
1682338086.05945182,348827067,0.0,-0.6,0.0,0.81,359.46,359.47,0.0,0.03,3
1682338086.15959787,348927213,0.0,-0.6,0.0,0.8200000000000001,359.37,359.38,0.0,0.02,3
1682338086.25969291,349027308,0.0,-0.6,0.0,0.8200000000000001,359.25,359.26,0.0,0.02,3
1682338086.35987687,349127492,0.0,-0.6,0.0,0.8200000000000001,359.15000000000003,359.16,0.0,0.02,3
1682338086.45978403,349227399,0.0,-0.6,0.0,0.8200000000000001,359.06,359.07,0.0,0.02,3
1682338086.55964398,349327259,0.0,-0.6,0.0,0.8200000000000001,358.94,358.95,0.0,0.02,3
1682338086.65967989,349427295,0.0,-0.6,0.0,0.8200000000000001,358.85,358.86,0.0,0.02,3
1682338086.75971484,349527330,0.0,-0.6,0.0,0.81,358.76,358.77,0.0,0.02,3
1682338086.85969186,349627307,0.0,-0.6,0.0,0.81,358.64,358.65000000000003,0.0,0.02,3
1682338086.95972991,349727345,0.0,-0.6,0.0,0.81,358.55,358.56,0.0,0.02,3
1682338087.05974889,349827364,0.0,-0.6,0.0,0.81,358.45,358.46,0.0,0.02,3
1682338087.15977001,349927385,0.0,-0.6,0.0,0.81,358.34000000000003,358.35,0.0,0.02,3
1682338087.25960898,350027224,0.0,-0.6,0.0,0.81,358.25,358.26,0.0,0.02,3
1682338087.35962892,350127244,0.0,-0.6,0.0,0.81,358.16,358.17,0.0,0.02,3
1682338087.45971489,350227330,0.0,-0.61,0.0,0.8,358.05,358.06,0.0,0.02,3
1682338087.55997300,350327588,0.0,-0.61,0.0,0.8,357.96,357.97,0.0,0.02,3
1682338087.65971684,350427332,0.0,-0.61,0.0,0.8,357.87,357.88,0.0,0.02,3
1682338087.75944400,350527059,0.0,-0.6,0.0,0.8,357.77,357.78000000000003,0.0,0.02,3
1682338087.85950899,350627124,0.0,-0.6,0.0,0.79,357.67,357.68,0.0,0.02,3
1682338087.95959091,350727206,0.0,-0.6,0.0,0.79,357.57,357.58,0.0,0.02,3
1682338088.05940199,350827017,0.0,-0.6,0.0,0.79,357.47,357.48,0.0,0.02,3
1682338088.15944481,350927060,0.0,-0.6,0.0,0.79,357.39,357.40000000000003,0.0,0.02,3
1682338088.25930786,351026923,0.0,-0.6,0.0,0.79,357.28000000000003,357.29,0.0,0.02,3
1682338088.35938883,351127004,0.0,-0.6,0.0,0.8,357.18,357.19,0.0,0.02,3
