timestamp,TimeUS,I,Status,GMS,GWk,NSats,HDop,Lat,Lng,Alt,Spd,GCrs,VZ,Yaw,U
1682338020.59999990,283367615,0,3,130038600,2259,15,0.79,42.6899248,-84.4888888,263.92,0.04527692869305611,120.52969360351562,-0.006000000052154064,0.0,1
1682338020.79953980,283567155,0,3,130038800,2259,15,0.79,42.6899246,-84.48888869999999,263.91,0.024041632190346718,45.0,-0.030000001192092896,0.0,1
1682338020.99971390,283767329,0,3,130039000,2259,15,0.79,42.689924399999995,-84.4888886,263.91,0.010816654190421104,146.30992126464844,-0.027000000700354576,0.0,1
1682338021.17918897,283946804,0,3,130039200,2259,15,0.79,42.6899242,-84.4888886,263.91,0.015620499849319458,129.80557250976562,0.00800000037997961,0.0,1
1682338021.40012789,284167743,0,3,130039400,2259,15,0.79,42.689924,-84.4888886,263.9,0.015524175018072128,165.06857299804688,-0.03100000135600567,0.0,1
1682338021.59964585,284367261,0,3,130039600,2259,15,0.79,42.689923799999995,-84.4888886,263.9,0.04640043154358864,322.8831481933594,-0.04800000041723251,0.0,1
1682338021.79964995,284567265,0,3,130039800,2259,15,0.79,42.6899237,-84.4888886,263.92,0.00806225836277008,262.875,-0.003000000026077032,0.0,1
1682338021.99969101,284767306,0,3,130040000,2259,15,0.79,42.6899236,-84.4888886,263.93,0.006708203814923763,206.56504821777344,0.04500000178813934,0.0,1
1682338022.20007682,284967692,0,3,130040200,2259,15,0.79,42.6899234,-84.4888886,263.92,0.03023243509232998,55.78429412841797,-0.03200000151991844,0.0,1
1682338022.39916801,285166783,0,3,130040400,2259,15,0.79,42.689923199999996,-84.4888886,263.93,0.02163330838084221,236.3099365234375,0.005000000353902578,0.0,1
1682338022.59966803,285367283,0,3,130040600,2259,15,0.79,42.6899231,-84.4888886,263.95,0.003000000026077032,270.0,0.07100000232458115,0.0,1
1682338022.79973197,285567347,0,3,130040800,2259,15,0.79,42.6899229,-84.4888886,263.95,0.018681542947888374,344.47589111328125,-0.017000000923871994,0.0,1
1682338022.99959302,285767208,0,3,130041000,2259,15,0.79,42.6899227,-84.4888886,263.95,0.019416488707065582,191.888671875,0.00800000037997961,0.0,1
1682338023.19972897,285967344,0,3,130041200,2259,15,0.79,42.689922599999996,-84.4888886,263.96,0.013928388245403767,201.0375213623047,0.06000000238418579,0.0,1
1682338023.39967299,286167288,0,3,130041400,2259,15,0.79,42.6899224,-84.4888886,263.97,0.015000000596046448,53.13010025024414,-0.020000001415610313,0.0,1
1682338023.59967303,286367288,0,3,130041600,2259,15,0.79,42.6899222,-84.4888886,264.0,0.050089918076992035,183.4336395263672,0.021000001579523087,0.0,1
1682338023.79970384,286567319,0,3,130041800,2259,15,0.79,42.689921999999996,-84.4888886,264.0,0.029529647901654243,28.300756454467773,-0.1210000067949295,0.0,1
1682338024.00008702,286767702,0,3,130042000,2259,15,0.79,42.689921899999995,-84.4888886,264.03000000000003,0.0403112918138504,226.0050811767578,0.032999999821186066,0.0,1
1682338024.19964099,286967256,0,3,130042200,2259,15,0.79,42.6899217,-84.48888869999999,264.03000000000003,0.027073973789811134,184.2364044189453,0.014000000432133675,0.0,1
1682338024.39943886,287167054,0,3,130042400,2259,15,0.79,42.6899215,-84.48888869999999,264.03000000000003,0.01708800718188286,339.4439697265625,-0.0650000050663948,0.0,1
1682338024.59966588,287367281,0,3,130042600,2259,15,0.79,42.689921299999995,-84.4888888,264.03000000000003,0.01077033020555973,111.80139923095703,0.01900000125169754,0.0,1
1682338024.79949689,287567112,0,3,130042800,2259,15,0.79,42.6899212,-84.48888869999999,264.05,0.006708203814923763,243.43496704101562,0.05100000277161598,0.0,1
1682338025.00009203,287767707,0,3,130043000,2259,15,0.79,42.689921,-84.48888869999999,264.05,0.015524175018072128,75.06857299804688,-0.0010000000474974513,0.0,1
1682338025.19968295,287967298,0,3,130043200,2259,15,0.79,42.689920799999996,-84.4888888,264.05,0.009000000543892384,0.0,-0.052000001072883606,0.0,1
1682338025.39920092,288166816,0,3,130043400,2259,15,0.79,42.689920699999995,-84.4888888,264.07,0.02607681043446064,265.601318359375,-0.01600000075995922,0.0,1
1682338025.59910703,288366722,0,3,130043600,2259,15,0.79,42.6899206,-84.4888888,264.09000000000003,0.059539902955293655,29.148069381713867,-0.1380000114440918,0.0,1
1682338025.79910803,288566723,0,3,130043800,2259,15,0.79,42.6899203,-84.4888891,264.11,0.10570241510868073,246.587890625,-0.737000048160553,0.0,1
1682338026.01952291,288787138,0,3,130044000,2259,15,0.79,42.6899203,-84.48889,264.16,0.05192302167415619,164.3577423095703,-0.5600000023841858,0.0,1
1682338026.19958687,288967202,0,3,130044200,2259,15,0.79,42.689920099999995,-84.4888904,264.24,0.08338465541601181,185.5054931640625,-0.36100003123283386,0.0,1
1682338026.39922190,289166837,0,3,130044400,2259,15,0.79,42.689920099999995,-84.4888903,264.32,0.11113955080509186,30.256439208984375,-0.22800001502037048,0.0,1
1682338026.57958102,289347196,0,3,130044600,2259,15,0.79,42.689920099999995,-84.4888904,264.34000000000003,0.06280127912759781,350.837646484375,-0.06599999964237213,0.0,1
1682338026.79918981,289566805,0,3,130044800,2259,15,0.79,42.689920099999995,-84.4888905,264.39,0.0072111026383936405,56.309932708740234,-0.21300001442432404,0.0,1
1682338026.99967098,289767286,0,3,130045000,2259,15,0.79,42.68992,-84.48889059999999,264.41,0.07467261701822281,110.37643432617188,-0.1420000046491623,0.0,1
1682338027.19918799,289966803,0,3,130045200,2259,15,0.79,42.6899199,-84.4888905,264.43,0.19712179899215698,83.88449096679688,-0.2290000170469284,0.0,1
1682338027.39910698,290166722,0,3,130045400,2259,15,0.79,42.68992,-84.48889059999999,264.43,0.25576552748680115,102.18862915039062,-0.2200000137090683,0.0,1
1682338027.59909391,290366709,0,3,130045600,2259,15,0.79,42.6899198,-84.4888909,264.4,0.36282917857170105,143.8565216064453,-0.2110000103712082,0.0,1
1682338027.79965782,290567273,0,3,130045800,2259,15,0.79,42.689919599999996,-84.4888908,264.42,0.4259777367115021,95.5232162475586,-0.2290000170469284,0.0,1
1682338027.97918487,290746800,0,3,130046000,2259,15,0.79,42.6899194,-84.4888904,264.44,0.5411035418510437,136.4227294921875,-0.1290000081062317,0.0,1
1682338028.19967985,290967295,0,3,130046200,2259,15,0.79,42.689918899999995,-84.48889009999999,264.44,0.625889778137207,125.89949035644531,-0.2900000214576721,0.0,1
1682338028.39954090,291167156,0,3,130046400,2259,15,0.79,42.689918299999995,-84.4888893,264.52,0.7933001518249512,127.77996063232422,-0.4390000104904175,0.0,1
1682338028.59954381,291367159,0,3,130046600,2259,15,0.79,42.6899175,-84.4888878,264.64,0.8249030709266663,122.97727966308594,-0.5110000371932983,0.0,1
1682338028.79960084,291567216,0,3,130046800,2259,15,0.79,42.6899166,-84.488886,264.69,0.976934015750885,120.23954772949219,-0.3800000250339508,0.0,1
1682338029.00002003,291767635,0,3,130047000,2259,15,0.79,42.6899156,-84.4888838,264.81,1.118928074836731,118.85565185546875,-0.5440000295639038,0.0,1
1682338029.19909096,291966706,0,3,130047200,2259,15,0.79,42.6899142,-84.4888816,264.86,1.3633613586425781,134.465087890625,-0.42000001668930054,0.0,1
1682338029.39906788,292166683,0,3,130047400,2259,15,0.79,42.6899126,-84.488879,264.98,1.4780073165893555,123.88359069824219,-0.2750000059604645,0.0,1
1682338029.59917593,292366791,0,3,130047600,2259,15,0.79,42.689910999999995,-84.4888761,265.11,1.504310131072998,131.3077392578125,-0.4910000264644623,0.0,1
1682338029.79956794,292567183,0,3,130047800,2259,15,0.79,42.689909199999995,-84.4888735,265.17,1.5523548126220703,130.63731384277344,-0.41700002551078796,0.0,1
1682338029.99972987,292767345,0,3,130048000,2259,15,0.79,42.6899072,-84.48887119999999,265.25,1.655831217765808,139.33489990234375,-0.3930000066757202,0.0,1
1682338030.19999099,292967606,0,3,130048200,2259,15,0.79,42.689904999999996,-84.4888685,265.35,1.6913995742797852,135.0,-0.4320000112056732,0.0,1
1682338030.39962196,293167237,0,3,130048400,2259,15,0.79,42.6899029,-84.48886569999999,265.43,1.6935741901397705,134.5454559326172,-0.3630000054836273,0.0,1
1682338030.59918189,293366797,0,3,130048600,2259,14,0.79,42.6899006,-84.4888632,265.47,1.6491286754608154,145.24990844726562,-0.3880000114440918,0.0,1
1682338030.79920101,293566816,0,3,130048800,2259,15,0.79,42.689898299999996,-84.488861,265.57,1.590905785560608,140.63710021972656,-0.3630000054836273,0.0,1
1682338030.99908686,293766702,0,3,130049000,2259,15,0.79,42.6898961,-84.4888588,265.62,1.5440936088562012,142.499267578125,-0.37700000405311584,0.0,1
1682338031.19957089,293967186,0,3,130049200,2259,15,0.79,42.6898938,-84.4888564,265.75,1.6703667640686035,142.320556640625,-0.37300002574920654,0.0,1
1682338031.39919686,294166812,0,3,130049400,2259,15,0.79,42.6898917,-84.48885399999999,265.91,1.6469260454177856,137.4361114501953,-0.4700000286102295,0.0,1
1682338031.60046196,294368077,0,3,130049600,2259,15,0.79,42.6898896,-84.4888515,265.99,1.5875695943832397,135.6890411376953,-0.2840000092983246,0.0,1
1682338031.80030704,294567922,0,3,130049800,2259,15,0.79,42.689887899999995,-84.4888493,266.07,1.2225687503814697,133.0775909423828,-0.23600001633167267,0.0,1
1682338032.00015402,294767769,0,3,130050000,2259,15,0.79,42.6898865,-84.4888472,266.12,1.3880671262741089,129.5043182373047,-0.1770000010728836,0.0,1
1682338032.20023489,294967850,0,3,130050200,2259,15,0.79,42.6898853,-84.488845,266.23,1.1140094995498657,125.31645202636719,-0.23400001227855682,0.0,1
1682338032.40037704,295167992,0,3,130050400,2259,15,0.79,42.6898845,-84.4888429,266.31,0.967572808265686,109.68965911865234,-0.22800001502037048,0.0,1
1682338032.59920502,295366820,0,3,130050600,2259,15,0.79,42.6898841,-84.4888412,266.31,0.908832848072052,103.42461395263672,-0.030000001192092896,0.0,1
1682338032.79908895,295566704,0,3,130050800,2259,15,0.79,42.689884,-84.4888395,266.36,0.7419784665107727,97.27825164794922,0.08900000154972076,0.0,1
1682338032.99909997,295766715,0,3,130051000,2259,15,0.79,42.689884,-84.488838,266.37,0.5055413246154785,73.21390533447266,0.1600000113248825,0.0,1
1682338033.20035696,295967972,0,3,130051200,2259,15,0.79,42.6898845,-84.48883699999999,266.39,0.4414997398853302,64.65382385253906,0.06300000101327896,0.0,1
1682338033.39957595,296167191,0,3,130051400,2259,15,0.79,42.689884899999996,-84.4888363,266.37,0.4858240783214569,62.01075744628906,0.19700001180171967,0.0,1
1682338033.60037589,296367991,0,3,130051600,2259,15,0.79,42.6898853,-84.4888356,266.3,0.5528706908226013,70.45073699951172,0.23000000417232513,0.0,1
1682338033.80022001,296567835,0,3,130051800,2259,15,0.79,42.6898857,-84.4888347,266.25,0.3671471178531647,71.91049194335938,0.328000009059906,0.0,1
1682338034.00034499,296767960,0,3,130052000,2259,15,0.79,42.689886099999995,-84.4888342,266.29,0.3068093955516815,64.10308837890625,0.18900001049041748,0.0,1
1682338034.20038486,296968000,0,3,130052200,2259,15,0.79,42.6898864,-84.4888337,266.26,0.38525837659835815,82.54293823242188,0.1730000078678131,0.0,1
1682338034.40035295,297167968,0,3,130052400,2259,15,0.79,42.6898868,-84.4888335,266.2,0.37732216715812683,38.32780075073242,0.22300000488758087,0.0,1
1682338034.59910393,297366719,0,3,130052600,2259,15,0.79,42.689887299999995,-84.4888332,266.23,0.18317477405071259,69.88327026367188,0.1770000010728836,0.0,1
1682338034.79908895,297566704,0,3,130052800,2259,15,0.79,42.6898876,-84.4888331,266.23,0.24424783885478973,47.820987701416016,0.04700000211596489,0.0,1
1682338035.00037098,297767986,0,3,130053000,2259,15,0.79,42.689887899999995,-84.488833,266.25,0.08827798068523407,4.548042297363281,-0.014000000432133675,0.0,1
1682338035.20043588,297968051,0,3,130053200,2259,15,0.79,42.6898882,-84.4888332,266.27,0.06407808512449265,337.0362243652344,0.055000003427267075,0.0,1
1682338035.39958286,298167198,0,3,130053400,2259,15,0.79,42.6898884,-84.48883359999999,266.28000000000003,0.04295346513390541,335.224853515625,-0.036000002175569534,0.0,1
1682338035.60015297,298367768,0,3,130053600,2259,15,0.79,42.689888499999995,-84.4888338,266.3,0.02906888537108898,310.8150939941406,-0.06100000441074371,0.0,1
1682338035.80038381,298567999,0,3,130053800,2259,15,0.79,42.689888599999996,-84.48883409999999,266.32,0.05603570491075516,304.8244934082031,-0.0990000069141388,0.0,1
1682338036.00035787,298767973,0,3,130054000,2259,15,0.79,42.6898887,-84.4888344,266.36,0.03807886689901352,246.80142211914062,-0.05700000375509262,0.0,1
1682338036.20042181,298968037,0,3,130054200,2259,15,0.79,42.6898887,-84.48883459999999,266.39,0.07262231409549713,231.70985412597656,-0.11700000613927841,0.0,1
1682338036.39910793,299166723,0,3,130054400,2259,15,0.79,42.6898887,-84.4888347,266.44,0.08542834222316742,154.3347930908203,-0.19600000977516174,0.0,1
1682338036.59910202,299366717,0,3,130054600,2259,15,0.79,42.689888599999996,-84.48883479999999,266.46,0.08354640007019043,168.95904541015625,-0.21900001168251038,0.0,1
1682338036.80036688,299567982,0,3,130054800,2259,15,0.79,42.689888499999995,-84.488835,266.51,0.11859595775604248,197.67105102539062,-0.19300000369548798,0.0,1
1682338037.00045180,299768067,0,3,130055000,2259,15,0.79,42.6898883,-84.4888351,266.53000000000003,0.13192801177501678,153.43495178222656,-0.15700000524520874,0.0,1
1682338037.19963098,299967246,0,3,130055200,2259,14,0.79,42.6898881,-84.4888349,266.56,0.09308598935604095,140.66726684570312,-0.11600000411272049,0.0,1
1682338037.40024590,300167861,0,3,130055400,2259,14,0.79,42.6898881,-84.4888349,266.57,0.052000001072883606,112.61986541748047,-0.15000000596046448,0.0,1
1682338037.60030484,300367920,0,3,130055600,2259,14,0.79,42.6898882,-84.4888351,266.56,0.0660984143614769,349.54010009765625,-0.12600000202655792,0.0,1
1682338037.80037403,300567989,0,3,130055800,2259,15,0.79,42.689888499999995,-84.4888354,266.55,0.11516944319009781,339.6768798828125,0.017000000923871994,0.0,1
1682338038.01908183,300786697,0,3,130056000,2259,15,0.79,42.6898888,-84.4888357,266.55,0.1576324999332428,324.2933044433594,-0.018000001087784767,0.0,1
1682338038.20021796,300967833,0,3,130056200,2259,15,0.79,42.689889099999995,-84.48883599999999,266.56,0.19401031732559204,322.5394592285156,0.05900000408291817,0.0,1
1682338038.39910793,301166723,0,3,130056400,2259,15,0.79,42.6898896,-84.4888364,266.56,0.26043233275413513,326.4319763183594,-0.00800000037997961,0.0,1
1682338038.59919095,301366806,0,3,130056600,2259,15,0.79,42.68989,-84.4888369,266.56,0.3216286897659302,320.171630859375,0.09300000220537186,0.0,1
1682338038.79923201,301566847,0,3,130056800,2259,14,0.81,42.6898905,-84.4888374,266.54,0.2344013750553131,323.3256530761719,0.11500000208616257,0.0,1
1682338038.99920082,301766816,0,3,130057000,2259,14,0.81,42.6898908,-84.48883769999999,266.54,0.12778106331825256,320.0796203613281,0.1340000033378601,0.0,1
1682338039.19906592,301966681,0,3,130057200,2259,14,0.81,42.689890999999996,-84.4888379,266.55,0.08215229958295822,301.56182861328125,0.1469999998807907,0.0,1
1682338039.39918590,302166801,0,3,130057400,2259,14,0.81,42.6898912,-84.488838,266.56,0.03342154994606972,51.072452545166016,0.12400000542402267,0.0,1
1682338039.59917498,302366790,0,3,130057600,2259,14,0.81,42.6898912,-84.4888379,266.58,0.0847230851650238,120.49983215332031,0.12300000339746475,0.0,1
1682338039.79919386,302566809,0,3,130057800,2259,14,0.81,42.6898912,-84.4888378,266.59000000000003,0.036055512726306915,123.6900634765625,0.0820000022649765,0.0,1
1682338040.00027394,302767889,0,3,130058000,2259,15,0.81,42.6898912,-84.4888378,266.6,0.031144823879003525,95.52753448486328,0.1210000067949295,0.0,1
1682338040.17912602,302946741,0,3,130058200,2259,15,0.81,42.6898913,-84.4888378,266.59000000000003,0.06315061450004578,100.95405578613281,0.10000000149011612,0.0,1
1682338040.40028691,303167902,0,3,130058400,2259,15,0.81,42.6898913,-84.48883769999999,266.59000000000003,0.06280127912759781,99.16233825683594,0.07400000095367432,0.0,1
1682338040.60038590,303368001,0,3,130058600,2259,15,0.81,42.6898913,-84.4888376,266.6,0.050219520926475525,144.72756958007812,0.17000000178813934,0.0,1
1682338040.80039382,303568009,0,3,130058800,2259,15,0.79,42.6898913,-84.4888376,266.59000000000003,0.047518420964479446,98.47113800048828,0.02200000174343586,0.0,1
1682338041.00024486,303767860,0,3,130059000,2259,15,0.79,42.6898914,-84.4888376,266.62,0.02280350960791111,74.74488067626953,0.0010000000474974513,0.0,1
1682338041.20036292,303967978,0,3,130059200,2259,15,0.79,42.689891499999995,-84.48883769999999,266.64,0.02451530285179615,78.23170471191406,-0.026000000536441803,0.0,1
1682338041.40039587,304168011,0,3,130059400,2259,15,0.79,42.689891599999996,-84.48883769999999,266.66,0.016278820112347603,137.4895477294922,0.023000001907348633,0.0,1
1682338041.57920790,304346823,0,3,130059600,2259,15,0.79,42.689891599999996,-84.4888378,266.67,0.05131277069449425,146.9293212890625,-0.004000000189989805,0.0,1
1682338041.80022788,304567843,0,3,130059800,2259,15,0.79,42.689891499999995,-84.4888378,266.68,0.07707788795232773,134.47434997558594,-0.015000000596046448,0.0,1
1682338041.99913597,304766751,0,3,130060000,2259,15,0.79,42.689891499999995,-84.48883769999999,266.69,0.048826225101947784,124.99201965332031,-0.08000000566244125,0.0,1
1682338042.19919991,304966815,0,3,130060200,2259,15,0.79,42.689891499999995,-84.48883769999999,266.73,0.0058309524320065975,239.0362548828125,-0.0690000057220459,0.0,1
1682338042.39925194,305166867,0,3,130060400,2259,14,0.79,42.689891499999995,-84.4888378,266.75,0.023345237597823143,136.73568725585938,-0.13500000536441803,0.0,1
1682338042.59921384,305366829,0,3,130060600,2259,14,0.79,42.689891499999995,-84.4888378,266.77,0.027202943339943886,126.0273666381836,-0.08900000154972076,0.0,1
1682338042.79907799,305566693,0,3,130060800,2259,14,0.81,42.689891499999995,-84.4888379,266.78000000000003,0.05547071620821953,123.97653198242188,-0.12000000476837158,0.0,1
1682338043.00038290,305767998,0,3,130061000,2259,14,0.81,42.6898914,-84.4888378,266.8,0.07134424149990082,148.76077270507812,-0.032999999821186066,0.0,1
1682338043.19922090,305966836,0,3,130061200,2259,14,0.81,42.6898913,-84.48883769999999,266.82,0.08036168664693832,106.63095092773438,-0.01900000125169754,0.0,1
1682338043.39919186,306166807,0,3,130061400,2259,14,0.81,42.6898913,-84.48883769999999,266.84000000000003,0.009219544939696789,77.47118377685547,0.021000001579523087,0.0,1
1682338043.60025191,306367867,0,3,130061600,2259,14,0.81,42.6898914,-84.48883769999999,266.85,0.04939636215567589,121.75946807861328,0.04200000315904617,0.0,1
1682338043.79933882,306566954,0,3,130061800,2259,14,0.81,42.6898914,-84.48883769999999,266.85,0.050328921526670456,110.95576477050781,0.14800000190734863,0.0,1
1682338044.01924300,306786858,0,3,130062000,2259,14,0.81,42.6898914,-84.4888376,266.84000000000003,0.07623647898435593,94.51397705078125,0.0950000062584877,0.0,1
1682338044.20030189,306967917,0,3,130062200,2259,14,0.81,42.6898914,-84.4888376,266.83,0.06435060501098633,134.37039184570312,0.14000000059604645,0.0,1
1682338044.40040588,307168021,0,3,130062400,2259,14,0.81,42.6898913,-84.4888374,266.83,0.12442267686128616,118.83097076416016,0.15700000524520874,0.0,1
1682338044.59947395,307367089,0,3,130062600,2259,15,0.81,42.6898913,-84.4888371,266.82,0.08023092150688171,112.72972869873047,0.10400000214576721,0.0,1
1682338044.80035901,307567974,0,3,130062800,2259,15,0.79,42.6898913,-84.48883699999999,266.82,0.08183520287275314,128.5504608154297,0.15400001406669617,0.0,1
1682338045.00040197,307768017,0,3,130063000,2259,15,0.79,42.6898912,-84.4888368,266.8,0.14670038223266602,112.01898193359375,0.06000000238418579,0.0,1
1682338045.20034790,307967963,0,3,130063200,2259,15,0.79,42.6898912,-84.48883649999999,266.8,0.13168524205684662,99.17619323730469,-0.018000001087784767,0.0,1
1682338045.40024781,308167863,0,3,130063400,2259,15,0.79,42.6898912,-84.4888362,266.81,0.05635601282119751,62.52556228637695,0.0950000062584877,0.0,1
1682338045.59911489,308366730,0,3,130063600,2259,15,0.79,42.6898912,-84.4888361,266.81,0.03848376125097275,65.43282318115234,0.017000000923871994,0.0,1
1682338045.79918504,308566800,0,3,130063800,2259,15,0.79,42.6898912,-84.4888359,266.82,0.07317103445529938,86.08174133300781,-0.01900000125169754,0.0,1
1682338045.99924684,308766862,0,3,130064000,2259,15,0.79,42.6898912,-84.4888356,266.84000000000003,0.08395236730575562,77.61923217773438,0.010000000707805157,0.0,1
1682338046.19922686,308966842,0,3,130064200,2259,15,0.79,42.6898912,-84.4888354,266.85,0.07433034479618073,84.59620666503906,-0.04100000113248825,0.0,1
1682338046.39906383,309166679,0,3,130064400,2259,15,0.79,42.6898912,-84.4888352,266.87,0.028600702062249184,126.46922302246094,0.07200000435113907,0.0,1
1682338046.59916902,309366784,0,3,130064600,2259,15,0.79,42.6898912,-84.4888351,266.88,0.055317267775535583,167.47119140625,0.08000000566244125,0.0,1
1682338046.79920793,309566823,0,3,130064800,2259,15,0.79,42.6898911,-84.488835,266.89,0.015811389312148094,161.56504821777344,-0.02800000086426735,0.0,1
1682338046.99917388,309766789,0,3,130065000,2259,15,0.79,42.6898911,-84.4888351,266.89,0.04001250118017197,88.56790161132812,-0.07300000637769699,0.0,1
1682338047.20025897,309967874,0,3,130065200,2259,15,0.79,42.6898911,-84.4888349,266.9,0.09024965763092041,111.44772338867188,0.010000000707805157,0.0,1
1682338047.39933896,310166954,0,3,130065400,2259,15,0.79,42.6898911,-84.4888345,266.93,0.17923448979854584,112.98870849609375,0.01900000125169754,0.0,1
1682338047.60027695,310367892,0,3,130065600,2259,15,0.79,42.689890899999995,-84.48883409999999,266.91,0.2292640507221222,105.43045806884766,0.032999999821186066,0.0,1
1682338047.80030799,310567923,0,3,130065800,2259,15,0.79,42.6898908,-84.4888335,266.94,0.1820247322320938,90.94434356689453,-0.0820000022649765,0.0,1
1682338048.01906490,310786680,0,3,130066000,2259,15,0.79,42.6898908,-84.488833,266.96,0.23189008235931396,106.79389953613281,-0.036000002175569534,0.0,1
1682338048.20016503,310967780,0,3,130066200,2259,15,0.79,42.6898906,-84.48883219999999,266.99,0.3114883601665497,108.72577667236328,-0.0650000050663948,0.0,1
1682338048.40037489,311167990,0,3,130066400,2259,15,0.79,42.6898905,-84.48883149999999,266.98,0.3192303478717804,84.96806335449219,0.0990000069141388,0.0,1
1682338048.60037398,311367989,0,3,130066600,2259,15,0.79,42.689890399999996,-84.48883049999999,266.99,0.394366592168808,103.7895736694336,0.006000000052154064,0.0,1
1682338048.80034089,311567956,0,3,130066800,2259,15,0.79,42.6898902,-84.4888294,266.98,0.5323758125305176,92.1529541015625,0.02200000174343586,0.0,1
1682338049.00023603,311767851,0,3,130067000,2259,15,0.79,42.689890299999995,-84.4888284,266.98,0.30370548367500305,64.44743347167969,0.15600000321865082,0.0,1
1682338049.20025301,311967868,0,3,130067200,2259,15,0.79,42.6898905,-84.4888276,266.99,0.3411158621311188,97.75003051757812,0.04100000113248825,0.0,1
1682338049.39919782,312166813,0,3,130067400,2259,15,0.79,42.689890399999996,-84.4888265,266.99,0.5595579147338867,96.46456909179688,0.07000000029802322,0.0,1
1682338049.59921789,312366833,0,3,130067600,2259,15,0.79,42.6898901,-84.4888253,266.93,0.5662976503372192,102.44100952148438,0.13300000131130219,0.0,1
1682338049.79920983,312566825,0,3,130067800,2259,15,0.79,42.68989,-84.488824,266.9,0.5193919539451599,94.19564819335938,0.18000000715255737,0.0,1
1682338050.01947689,312787092,0,3,130068000,2259,15,0.79,42.68989,-84.4888228,266.86,0.4520011246204376,89.87323760986328,0.15800000727176666,0.0,1
1682338050.19917297,312966788,0,3,130068200,2259,15,0.79,42.689889799999996,-84.4888217,266.85,0.48023539781570435,110.09522247314453,0.20800000429153442,0.0,1
1682338050.39921188,313166827,0,3,130068400,2259,15,0.79,42.6898895,-84.4888204,266.85,0.5950000286102295,115.05760192871094,0.07700000703334808,0.0,1
1682338050.59921789,313366833,0,3,130068600,2259,15,0.79,42.6898893,-84.4888191,266.86,0.46518170833587646,91.60138702392578,0.08800000697374344,0.0,1
1682338050.79908895,313566704,0,3,130068800,2259,15,0.79,42.6898894,-84.4888179,266.87,0.3985022008419037,68.1985855102539,0.007000000216066837,0.0,1
1682338051.00024796,313767863,0,3,130069000,2259,15,0.79,42.6898895,-84.488817,266.99,0.19888187944889069,111.5339126586914,-0.02800000086426735,0.0,1
1682338051.20030689,313967922,0,3,130069200,2259,15,0.79,42.6898894,-84.4888163,266.99,0.3433380424976349,83.30965423583984,-0.1550000011920929,0.0,1
1682338051.39951181,314167127,0,3,130069400,2259,15,0.79,42.6898894,-84.4888158,267.05,0.17677387595176697,71.8725357055664,-0.03200000151991844,0.0,1
1682338051.60042191,314368037,0,3,130069600,2259,15,0.79,42.6898895,-84.4888153,267.06,0.18786431849002838,84.5018310546875,0.01600000075995922,0.0,1
1682338051.80015397,314567769,0,3,130069800,2259,15,0.79,42.6898896,-84.4888148,267.08,0.14415617287158966,77.98851776123047,0.0,0.0,1
1682338052.00023890,314767854,0,3,130070000,2259,15,0.79,42.6898896,-84.4888144,267.1,0.14608560502529144,88.03858184814453,0.11500000208616257,0.0,1
1682338052.20036983,314967985,0,3,130070200,2259,15,0.79,42.6898896,-84.48881399999999,267.09000000000003,0.15952430665493011,97.92691802978516,-0.039000000804662704,0.0,1
1682338052.39919686,315166812,0,3,130070400,2259,15,0.79,42.6898895,-84.4888136,267.09000000000003,0.06324555724859238,71.56504821777344,-0.01900000125169754,0.0,1
1682338052.59908795,315366703,0,3,130070600,2259,15,0.79,42.6898895,-84.48881349999999,267.09000000000003,0.02202271670103073,39.47245788574219,0.01900000125169754,0.0,1
1682338052.79907584,315566691,0,3,130070800,2259,15,0.79,42.6898895,-84.48881329999999,267.08,0.08402381092309952,91.3639144897461,-0.06300000101327896,0.0,1
1682338053.00036788,315767983,0,3,130071000,2259,15,0.79,42.6898894,-84.4888132,267.08,0.026419691741466522,299.47589111328125,0.021000001579523087,0.0,1
1682338053.19960093,315967216,0,3,130071200,2259,15,0.79,42.6898894,-84.4888132,267.08,0.05189412832260132,295.0835876464844,-0.02200000174343586,0.0,1
1682338053.40040302,316168018,0,3,130071400,2259,15,0.79,42.6898894,-84.4888134,267.08,0.11374533176422119,276.56268310546875,-0.020000001415610313,0.0,1
1682338053.60024595,316367861,0,3,130071600,2259,15,0.79,42.6898895,-84.4888137,267.07,0.20059162378311157,284.7290344238281,-0.020000001415610313,0.0,1
1682338053.77905703,316546672,0,3,130071800,2259,15,0.79,42.6898895,-84.4888142,267.07,0.2659962475299835,274.9604187011719,0.03800000250339508,0.0,1
1682338054.00038791,316768003,0,3,130072000,2259,15,0.79,42.6898895,-84.4888148,267.04,0.3112635612487793,280.55181884765625,0.07400000095367432,0.0,1
1682338054.19919181,316966807,0,3,130072200,2259,15,0.79,42.689889699999995,-84.48881569999999,267.07,0.5307542085647583,275.8395080566406,0.04100000113248825,0.0,1
1682338054.39908600,317166701,0,3,130072400,2259,15,0.79,42.689889699999995,-84.488817,267.0,0.43304160237312317,269.20611572265625,0.05700000375509262,0.0,1
1682338054.59910798,317366723,0,3,130072600,2259,15,0.79,42.689889699999995,-84.48881829999999,266.93,0.4845162630081177,277.8290710449219,0.08800000697374344,0.0,1
1682338054.79918098,317566796,0,3,130072800,2259,15,0.79,42.689889799999996,-84.4888194,266.88,0.5100451111793518,286.5163269042969,0.14900000393390656,0.0,1
1682338054.99924302,317766858,0,3,130073000,2259,15,0.79,42.6898901,-84.4888206,266.88,0.6198524236679077,290.3937683105469,0.16100001335144043,0.0,1
1682338055.17951393,317947129,0,3,130073200,2259,15,0.79,42.689890399999996,-84.4888221,266.85,0.6226853728294373,278.40338134765625,0.1380000114440918,0.0,1
1682338055.40016389,318167779,0,3,130073400,2259,15,0.79,42.6898906,-84.48882359999999,266.81,0.6702246069908142,287.2724304199219,0.14400000870227814,0.0,1
1682338055.60026598,318367881,0,3,130073600,2259,15,0.79,42.689890999999996,-84.4888252,266.85,0.7802262902259827,278.3274230957031,0.06300000101327896,0.0,1
1682338055.80046082,318568076,0,3,130073800,2259,15,0.79,42.6898912,-84.4888271,266.89,0.8100080490112305,274.03521728515625,-0.01900000125169754,0.0,1
1682338056.01941586,318787031,0,3,130074000,2259,15,0.79,42.6898914,-84.48882909999999,266.84000000000003,0.7244598269462585,281.061767578125,0.17100000381469727,0.0,1
1682338056.19908881,318966704,0,3,130074200,2259,15,0.79,42.6898918,-84.48883099999999,266.87,0.9130805730819702,282.90997314453125,0.015000000596046448,0.0,1
1682338056.39907789,319166693,0,3,130074400,2259,15,0.79,42.6898923,-84.4888332,266.87,0.8928163647651672,284.5965881347656,0.017000000923871994,0.0,1
1682338056.57932901,319346944,0,3,130074600,2259,15,0.79,42.689892799999996,-84.4888352,266.94,0.9695545434951782,288.3975830078125,-0.1380000114440918,0.0,1
1682338056.79921889,319566834,0,3,130074800,2259,15,0.79,42.6898935,-84.4888374,266.99,0.9546204209327698,292.8045654296875,-0.19500000774860382,0.0,1
1682338056.99962497,319767240,0,3,130075000,2259,15,0.79,42.6898942,-84.48883939999999,267.09000000000003,0.8689678311347961,289.91552734375,-0.33400002121925354,0.0,1
1682338057.20023584,319967851,0,3,130075200,2259,15,0.79,42.6898949,-84.4888417,267.09000000000003,1.0556159019470215,300.4517822265625,-0.2160000056028366,0.0,1
1682338057.37924600,320146861,0,3,130075400,2259,15,0.79,42.689895799999995,-84.4888443,267.09000000000003,1.1536004543304443,288.3407287597656,-0.05700000375509262,0.0,1
1682338057.60037899,320367994,0,3,130075600,2259,15,0.79,42.6898966,-84.48884699999999,267.07,1.1324045658111572,295.97674560546875,-0.012000000104308128,0.0,1
1682338057.77920890,320546824,0,3,130075800,2259,15,0.79,42.6898975,-84.48884939999999,267.09000000000003,1.0958582162857056,297.6173095703125,0.08000000566244125,0.0,1
1682338058.00024796,320767863,0,3,130076000,2259,15,0.79,42.6898984,-84.488852,267.06,1.1649892330169678,294.98126220703125,-0.07700000703334808,0.0,1
1682338058.19909286,320966708,0,3,130076200,2259,15,0.79,42.6898993,-84.4888545,267.05,1.0827174186706543,296.84906005859375,0.164000004529953,0.0,1
1682338058.39918685,321166802,0,3,130076400,2259,15,0.79,42.6899003,-84.488857,267.1,1.267069935798645,294.279296875,-0.03500000014901161,0.0,1
1682338058.59922385,321366839,0,3,130076600,2259,15,0.79,42.6899012,-84.48885969999999,267.07,1.0934628248214722,292.53118896484375,0.12000000476837158,0.0,1
1682338058.79921103,321566826,0,3,130076800,2259,15,0.79,42.689902,-84.488862,267.1,0.9386187195777893,301.18359375,-0.08800000697374344,0.0,1
1682338058.99936104,321766976,0,3,130077000,2259,15,0.79,42.6899029,-84.48886379999999,267.08,0.8107064962387085,303.3764343261719,0.09700000286102295,0.0,1
1682338059.17934489,321946960,0,3,130077200,2259,15,0.79,42.689903799999996,-84.4888655,267.04,0.8132514953613281,315.797119140625,0.11300000548362732,0.0,1
1682338059.40029502,322167910,0,3,130077400,2259,14,0.79,42.689904999999996,-84.48886689999999,266.99,0.8719311952590942,320.21124267578125,0.16300000250339508,0.0,1
1682338059.57956195,322347177,0,3,130077600,2259,15,0.79,42.689906,-84.488868,266.94,0.5729310512542725,327.8356018066406,0.1990000158548355,0.0,1
1682338059.77919698,322546812,0,3,130077800,2259,15,0.79,42.689907,-84.4888689,266.92,0.8164803385734558,321.16485595703125,0.05300000309944153,0.0,1
1682338059.97908902,322746704,0,3,130078000,2259,15,0.79,42.689907999999996,-84.48886979999999,266.97,0.656196653842926,315.12347412109375,-0.04400000348687172,0.0,1
1682338060.19918585,322966801,0,3,130078200,2259,15,0.79,42.689909,-84.4888708,267.03000000000003,0.7694739103317261,321.1192626953125,-0.2720000147819519,0.0,1
1682338060.37940693,323147022,0,3,130078400,2259,15,0.79,42.689909899999996,-84.4888716,267.09000000000003,0.6237708330154419,325.978759765625,-0.09000000357627869,0.0,1
1682338060.57920694,323346822,0,3,130078600,2259,15,0.79,42.6899108,-84.48887239999999,267.1,0.6406660676002502,323.9529113769531,-0.05900000408291817,0.0,1
1682338060.77950096,323547116,0,3,130078800,2259,15,0.79,42.689911599999995,-84.4888733,267.09000000000003,0.4681239426136017,314.480712890625,-0.10600000619888306,0.0,1
1682338061.00035501,323767970,0,3,130079000,2259,15,0.79,42.689912299999996,-84.48887409999999,267.11,0.5615069270133972,315.8658752441406,-0.0560000017285347,0.0,1
1682338061.20038295,323967998,0,3,130079200,2259,15,0.79,42.6899132,-84.4888752,267.13,0.6915757656097412,319.5155334472656,-0.05000000074505806,0.0,1
1682338061.37943101,324147046,0,3,130079400,2259,14,0.79,42.689914099999996,-84.48887649999999,267.14,0.7129726409912109,311.13299560546875,-0.05400000140070915,0.0,1
1682338061.57916594,324346781,0,3,130079600,2259,14,0.79,42.689915,-84.48887769999999,267.19,0.6257427930831909,310.3331298828125,-0.1290000081062317,0.0,1
1682338061.77910590,324546721,0,3,130079800,2259,14,0.81,42.689915899999995,-84.48887909999999,267.21,0.7776182293891907,309.1546325683594,-0.26200002431869507,0.0,1
1682338061.99919581,324766811,0,3,130080000,2259,15,0.81,42.689917,-84.4888806,267.27,0.8355962634086609,316.9883117675781,-0.2240000069141388,0.0,1
1682338062.19921684,324966832,0,3,130080200,2259,15,0.81,42.689917799999996,-84.48888199999999,267.28000000000003,0.5963296294212341,295.1039733886719,-0.09800000488758087,0.0,1
1682338062.39922380,325166839,0,3,130080400,2259,15,0.81,42.689918399999996,-84.4888835,267.2,0.7297123074531555,307.875,0.0020000000949949026,0.0,1
1682338062.59935594,325366971,0,3,130080600,2259,15,0.81,42.6899193,-84.488885,267.21,0.7994529604911804,307.5292663574219,-0.06400000303983688,0.0,1
1682338062.80027580,325567891,0,3,130080800,2259,15,0.79,42.68992,-84.48888629999999,267.18,0.477800190448761,306.9178466796875,0.03200000151991844,0.0,1
1682338063.00033188,325767947,0,3,130081000,2259,15,0.79,42.6899204,-84.4888871,267.14,0.3413209617137909,311.912353515625,0.08000000566244125,0.0,1
1682338063.19958997,325967205,0,3,130081200,2259,15,0.79,42.689920699999995,-84.4888876,267.12,0.18885445594787598,292.0830993652344,-0.055000003427267075,0.0,1
1682338063.37944484,326147060,0,3,130081400,2259,15,0.79,42.689920799999996,-84.488888,267.15,0.16368873417377472,275.2578125,0.03200000151991844,0.0,1
1682338063.60024500,326367860,0,3,130081600,2259,15,0.79,42.6899209,-84.4888884,267.13,0.12184006720781326,286.20379638671875,-0.0010000000474974513,0.0,1
1682338063.79918599,326566801,0,3,130081800,2259,15,0.79,42.689921,-84.4888886,267.11,0.1031600683927536,281.7456359863281,0.15300001204013824,0.0,1
1682338063.99923992,326766855,0,3,130082000,2259,15,0.79,42.689921,-84.4888891,267.11,0.19795960187911987,299.673095703125,0.2200000137090683,0.0,1
1682338064.19920802,326966823,0,3,130082200,2259,15,0.79,42.689921299999995,-84.4888898,267.04,0.38505327701568604,296.36541748046875,0.21400001645088196,0.0,1
1682338064.39907098,327166686,0,3,130082400,2259,14,0.79,42.6899217,-84.488891,266.93,0.286531001329422,293.88128662109375,0.3920000195503235,0.0,1
1682338064.60030103,327367916,0,3,130082600,2259,14,0.79,42.6899221,-84.4888921,266.87,0.43443065881729126,283.17254638671875,0.2510000169277191,0.0,1
1682338064.80037594,327567991,0,3,130082800,2259,14,0.81,42.6899225,-84.4888935,266.76,0.39655768871307373,288.0694274902344,0.27900001406669617,0.0,1
1682338064.99919391,327766809,0,3,130083000,2259,15,0.81,42.6899228,-84.4888945,266.63,0.4135625660419464,302.9599914550781,0.25300002098083496,0.0,1
1682338065.21938992,327987005,0,3,130083200,2259,15,0.81,42.689923199999996,-84.48889539999999,266.59000000000003,0.28317663073539734,272.02374267578125,0.2930000126361847,0.0,1
1682338065.39910293,328166718,0,3,130083400,2259,15,0.81,42.6899234,-84.4888963,266.47,0.39585480093955994,304.81414794921875,0.2240000069141388,0.0,1
1682338065.60036683,328367982,0,3,130083600,2259,15,0.81,42.6899237,-84.48889729999999,266.38,0.5092210173606873,285.37353515625,0.34700000286102295,0.0,1
1682338065.79924297,328566858,0,3,130083800,2259,15,0.79,42.6899242,-84.4888986,266.35,0.34550830721855164,290.3231506347656,0.16700001060962677,0.0,1
1682338066.00028491,328767900,0,3,130084000,2259,15,0.79,42.689924399999995,-84.4888996,266.24,0.2692359685897827,295.9940185546875,0.19700001180171967,0.0,1
1682338066.20015001,328967765,0,3,130084200,2259,15,0.79,42.6899246,-84.48890019999999,266.22,0.2730751037597656,279.9107666015625,0.2580000162124634,0.0,1
1682338066.40027404,329167889,0,3,130084400,2259,15,0.79,42.6899247,-84.4889008,266.17,0.15008331835269928,304.96075439453125,0.25,0.0,1
1682338066.60037804,329367993,0,3,130084600,2259,15,0.79,42.6899249,-84.4889014,266.09000000000003,0.13100382685661316,270.4373779296875,0.21400001645088196,0.0,1
1682338066.79957104,329567186,0,3,130084800,2259,15,0.79,42.689924999999995,-84.488902,266.04,0.1544344574213028,262.1847229003906,0.20200000703334808,0.0,1
1682338067.00020385,329767819,0,3,130085000,2259,15,0.79,42.689925099999996,-84.4889025,265.96,0.143199160695076,280.0543518066406,0.2670000195503235,0.0,1
1682338067.20024395,329967859,0,3,130085200,2259,15,0.79,42.6899252,-84.488903,265.91,0.17410342395305634,268.02508544921875,0.23900000751018524,0.0,1
1682338067.40035892,330167974,0,3,130085400,2259,15,0.79,42.6899253,-84.4889036,265.82,0.19777260720729828,279.605224609375,0.27800002694129944,0.0,1
1682338067.59923697,330366852,0,3,130085600,2259,15,0.79,42.6899255,-84.4889042,265.79,0.23938465118408203,292.6014404296875,0.3840000033378601,0.0,1
1682338067.79918981,330566805,0,3,130085800,2259,15,0.79,42.689925599999995,-84.4889049,265.7,0.2381134331226349,264.45703125,0.367000013589859,0.0,1
1682338068.01944494,330787060,0,3,130086000,2259,15,0.79,42.689925699999996,-84.48890569999999,265.6,0.2657461166381836,280.8448181152344,0.5410000085830688,0.0,1
1682338068.19918203,330966797,0,3,130086200,2259,15,0.79,42.6899258,-84.48890639999999,265.48,0.2985113263130188,264.23211669921875,0.703000009059906,0.0,1
1682338068.39921904,331166834,0,3,130086400,2259,15,0.79,42.689926,-84.488907,265.37,0.14115594327449799,329.802001953125,0.7210000157356262,0.0,1
1682338068.60034084,331367956,0,3,130086600,2259,15,0.79,42.689926199999995,-84.4889073,265.28000000000003,0.030870698392391205,294.90478515625,0.5900000333786011,0.0,1
1682338068.79908299,331566698,0,3,130086800,2259,15,0.79,42.689926299999996,-84.4889074,265.16,0.10394710302352905,135.38975524902344,0.47700002789497375,0.0,1
1682338069.01945090,331787066,0,3,130087000,2259,15,0.79,42.6899265,-84.4889075,265.09000000000003,0.12091732770204544,315.3350524902344,0.39000001549720764,0.0,1
1682338069.19916797,331966783,0,3,130087200,2259,15,0.79,42.6899266,-84.48890779999999,265.02,0.08996110409498215,204.28582763671875,0.48000001907348633,0.0,1
1682338069.39923382,332166849,0,3,130087400,2259,15,0.79,42.689926799999995,-84.48890809999999,265.0,0.05946427956223488,317.726318359375,0.43300002813339233,0.0,1
1682338069.59958100,332367196,0,3,130087600,2259,15,0.79,42.689926899999996,-84.4889085,264.94,0.11567627638578415,235.21087646484375,0.3370000123977661,0.0,1
1682338069.80019403,332567809,0,3,130087800,2259,15,0.79,42.689927,-84.4889089,264.88,0.18564753234386444,297.9454040527344,0.43800002336502075,0.0,1
1682338070.00028300,332767898,0,3,130088000,2259,15,0.79,42.6899271,-84.4889093,264.82,0.08811923861503601,242.27175903320312,0.3360000252723694,0.0,1
1682338070.20027900,332967894,0,3,130088200,2259,15,0.79,42.6899272,-84.48890949999999,264.75,0.1654237061738968,287.23004150390625,0.35200002789497375,0.0,1
1682338070.40034199,333167957,0,3,130088400,2259,15,0.79,42.6899273,-84.4889099,264.67,0.07569016516208649,254.67849731445312,0.3720000088214874,0.0,1
1682338070.59950590,333367121,0,3,130088600,2259,15,0.79,42.6899273,-84.4889101,264.63,0.05824946612119675,258.1113586425781,0.23100000619888306,0.0,1
1682338070.80025792,333567873,0,3,130088800,2259,15,0.79,42.689927399999995,-84.48891019999999,264.61,0.0255538672208786,210.57923889160156,0.21700000762939453,0.0,1
1682338071.00034499,333767960,0,3,130089000,2259,15,0.79,42.689927399999995,-84.4889103,264.57,0.12626956403255463,209.40719604492188,0.34800001978874207,0.0,1
1682338071.20042586,333968041,0,3,130089200,2259,15,0.79,42.6899273,-84.4889103,264.51,0.05923681706190109,111.80139923095703,0.2760000228881836,0.0,1
1682338071.40039897,334168014,0,3,130089400,2259,15,0.79,42.6899272,-84.48891019999999,264.46,0.10922454297542572,176.3254852294922,-0.11900000274181366,0.0,1
1682338071.59907198,334366687,0,3,130089600,2259,15,0.79,42.6899272,-84.4889103,264.46,0.08039900660514832,354.2893981933594,-0.015000000596046448,0.0,1
1682338071.79918098,334566796,0,3,130089800,2259,15,0.79,42.6899272,-84.4889104,264.43,0.0931343138217926,176.9225311279297,-0.03100000135600567,0.0,1
1682338071.99921489,334766830,0,3,130090000,2259,15,0.79,42.6899271,-84.4889105,264.42,0.041785165667533875,248.96249389648438,0.052000001072883606,0.0,1
1682338072.19920897,334966824,0,3,130090200,2259,15,0.79,42.6899272,-84.48891069999999,264.41,0.01984943449497223,310.9143981933594,0.09100000560283661,0.0,1
1682338072.40025592,335167871,0,3,130090400,2259,15,0.79,42.6899272,-84.4889109,264.38,0.034885529428720474,332.700439453125,-0.049000002443790436,0.0,1
1682338072.59912896,335366744,0,3,130090600,2259,15,0.79,42.6899273,-84.488911,264.37,0.010630146600306034,311.1859130859375,-0.02800000086426735,0.0,1
1682338072.79916382,335566779,0,3,130090800,2259,15,0.79,42.6899273,-84.48891119999999,264.36,0.00984885822981596,293.9624938964844,0.0010000000474974513,0.0,1
1682338072.99923086,335766846,0,3,130091000,2259,15,0.79,42.6899273,-84.4889113,264.35,0.01843908801674843,310.6012878417969,-0.003000000026077032,0.0,1
1682338073.20039487,335968010,0,3,130091200,2259,15,0.79,42.689927399999995,-84.4889116,264.34000000000003,0.02202271670103073,267.3974609375,0.03500000014901161,0.0,1
1682338073.39934802,336166963,0,3,130091400,2259,15,0.79,42.689927399999995,-84.4889117,264.33,0.018681542947888374,344.47589111328125,-0.014000000432133675,0.0,1
1682338073.59953690,336367152,0,3,130091600,2259,15,0.79,42.689927399999995,-84.48891189999999,264.31,0.028071338310837746,175.91436767578125,-0.03400000184774399,0.0,1
1682338073.80004501,336567660,0,3,130091800,2259,15,0.79,42.689927399999995,-84.4889121,264.31,0.013341664336621761,192.99462890625,-0.004000000189989805,0.0,1
1682338074.01908302,336786698,0,3,130092000,2259,15,0.79,42.689927399999995,-84.4889122,264.29,0.026248810812830925,220.3645477294922,0.08500000089406967,0.0,1
1682338074.17917085,336946786,0,3,130092200,2259,15,0.79,42.689927399999995,-84.48891239999999,264.27,0.01603122055530548,183.5763397216797,0.04500000178813934,0.0,1
1682338074.39956594,337167181,0,3,130092400,2259,15,0.79,42.689927399999995,-84.48891259999999,264.25,0.026248810812830925,107.74466705322266,0.006000000052154064,0.0,1
1682338074.60010695,337367722,0,3,130092600,2259,15,0.79,42.689927399999995,-84.4889127,264.22,0.02024845778942108,122.90522766113281,0.0950000062584877,0.0,1
1682338074.79962301,337567238,0,3,130092800,2259,15,0.79,42.689927399999995,-84.4889128,264.2,0.012649111449718475,341.5650634765625,-0.009000000543892384,0.0,1
1682338074.99918485,337766800,0,3,130093000,2259,15,0.79,42.689927399999995,-84.488913,264.2,0.03956008329987526,163.85565185546875,-0.009000000543892384,0.0,1
1682338075.19903898,337966654,0,3,130093200,2259,15,0.79,42.689927399999995,-84.48891309999999,264.2,0.008944272063672543,63.4349479675293,0.01900000125169754,0.0,1
1682338075.39916897,338166784,0,3,130093400,2259,15,0.79,42.689927499999996,-84.4889132,264.17,0.010000000707805157,0.0,-0.015000000596046448,0.0,1
1682338075.59918880,338366804,0,3,130093600,2259,15,0.79,42.689927499999996,-84.4889134,264.16,0.0450998917222023,183.81407165527344,0.02200000174343586,0.0,1
1682338075.79966402,338567279,0,3,130093800,2259,15,0.79,42.689927499999996,-84.4889135,264.15,0.025317978113889694,189.0902862548828,-0.004000000189989805,0.0,1
1682338076.01950884,338787124,0,3,130094000,2259,15,0.79,42.689927399999995,-84.48891359999999,264.12,0.02009975165128708,95.71058654785156,-0.17000000178813934,0.0,1
1682338076.19905400,338966669,0,3,130094200,2259,15,0.79,42.689927399999995,-84.48891379999999,264.1,0.01100000087171793,180.0,-0.036000002175569534,0.0,1
1682338076.39915180,339166767,0,3,130094400,2259,15,0.79,42.689927399999995,-84.4889139,264.08,0.025495097041130066,348.6900634765625,-0.012000000104308128,0.0,1
1682338076.59964991,339367265,0,3,130094600,2259,15,0.79,42.689927499999996,-84.4889141,264.05,0.027856776490807533,338.9624938964844,-0.020000001415610313,0.0,1
1682338076.79914188,339566757,0,3,130094800,2259,15,0.79,42.689927499999996,-84.48891429999999,264.02,0.026419691741466522,240.5241241455078,0.03200000151991844,0.0,1
1682338076.99947786,339767093,0,3,130095000,2259,15,0.79,42.689927499999996,-84.4889144,264.0,0.026000000536441803,157.380126953125,-0.013000000268220901,0.0,1
1682338077.19951296,339967128,0,3,130095200,2259,15,0.79,42.689927499999996,-84.48891449999999,263.98,0.019798990339040756,135.0,-0.012000000104308128,0.0,1
1682338077.39956498,340167180,0,3,130095400,2259,15,0.79,42.689927499999996,-84.4889146,263.98,0.03036445379257202,287.241455078125,0.003000000026077032,0.0,1
1682338077.59966993,340367285,0,3,130095600,2259,15,0.79,42.689927499999996,-84.48891479999999,263.97,0.020223749801516533,81.46923065185547,-0.039000000804662704,0.0,1
1682338077.79906392,340566679,0,3,130095800,2259,15,0.79,42.6899276,-84.4889149,263.94,0.02941088378429413,342.1811218261719,-0.023000001907348633,0.0,1
1682338077.99909282,340766708,0,3,130096000,2259,15,0.79,42.6899276,-84.48891499999999,263.93,0.03006659261882305,273.8140869140625,0.039000000804662704,0.0,1
1682338078.19964099,340967256,0,3,130096200,2259,15,0.79,42.6899277,-84.4889152,263.9,0.0036055513191968203,146.30992126464844,-0.036000002175569534,0.0,1
1682338078.39918780,341166803,0,3,130096400,2259,15,0.79,42.6899277,-84.4889153,263.88,0.013601470738649368,252.89727783203125,0.12000000476837158,0.0,1
1682338078.59912491,341366740,0,3,130096600,2259,15,0.79,42.6899277,-84.48891549999999,263.83,0.01649242267012596,284.0362548828125,-0.10500000417232513,0.0,1
1682338078.79903698,341566652,0,3,130096800,2259,15,0.79,42.6899278,-84.48891569999999,263.82,0.02024845778942108,249.775146484375,0.07700000703334808,0.0,1
1682338078.99915886,341766774,0,3,130097000,2259,15,0.79,42.6899278,-84.4889158,263.82,0.048795491456985474,224.16969299316406,0.11100000888109207,0.0,1
1682338079.19964194,341967257,0,3,130097200,2259,15,0.79,42.6899278,-84.4889159,263.79,0.015231546945869923,156.8013916015625,0.08700000494718552,0.0,1
1682338079.39915991,342166775,0,3,130097400,2259,15,0.79,42.6899278,-84.488916,263.78000000000003,0.0150332972407341,176.18592834472656,0.12600000202655792,0.0,1
1682338079.57962584,342347241,0,3,130097600,2259,15,0.79,42.6899278,-84.488916,263.75,0.015264337882399559,301.6075134277344,0.04500000178813934,0.0,1
1682338079.79905796,342566673,0,3,130097800,2259,15,0.79,42.6899279,-84.4889161,263.74,0.018110772594809532,276.3402099609375,0.04000000283122063,0.0,1
1682338080.01939201,342787007,0,3,130098000,2259,15,0.79,42.6899279,-84.48891619999999,263.72,0.01004987582564354,275.7106018066406,-0.004000000189989805,0.0,1
1682338080.19953704,342967152,0,3,130098200,2259,15,0.79,42.689927999999995,-84.4889163,263.71,0.03920459374785423,232.25320434570312,0.09700000286102295,0.0,1
1682338080.39969802,343167313,0,3,130098400,2259,15,0.79,42.689927999999995,-84.4889164,263.69,0.013416407629847527,63.4349479675293,0.023000001907348633,0.0,1
1682338080.59954786,343367163,0,3,130098600,2259,15,0.79,42.689927999999995,-84.4889164,263.69,0.019416488707065582,191.888671875,0.039000000804662704,0.0,1
1682338080.79962492,343567240,0,3,130098800,2259,15,0.79,42.689927999999995,-84.4889165,263.68,0.00806225836277008,209.74488830566406,-0.006000000052154064,0.0,1
1682338080.97914600,343746761,0,3,130099000,2259,15,0.79,42.689927999999995,-84.4889165,263.68,0.014142136089503765,171.86988830566406,0.026000000536441803,0.0,1
1682338081.19952583,343967141,0,3,130099200,2259,15,0.79,42.689927999999995,-84.4889166,263.65,0.025961510837078094,15.642245292663574,-0.02500000037252903,0.0,1
1682338081.39953899,344167154,0,3,130099400,2259,15,0.79,42.689928099999996,-84.4889166,263.65,0.02408318966627121,311.633544921875,-0.03400000184774399,0.0,1
1682338081.59945989,344367075,0,3,130099600,2259,15,0.79,42.689928099999996,-84.48891669999999,263.65,0.009219544939696789,257.47119140625,-0.11100000888109207,0.0,1
1682338081.79954386,344567159,0,3,130099800,2259,15,0.79,42.689928099999996,-84.4889168,263.65,0.024331049993634224,279.46234130859375,0.032999999821186066,0.0,1
1682338081.99958587,344767201,0,3,130100000,2259,15,0.79,42.6899282,-84.48891689999999,263.63,0.011661904864013195,120.96373748779297,-0.007000000216066837,0.0,1
1682338082.19966292,344967278,0,3,130100200,2259,15,0.79,42.6899282,-84.488917,263.62,0.04548626393079758,326.6593017578125,-0.06000000238418579,0.0,1
1682338082.37954187,345147157,0,3,130100400,2259,15,0.79,42.6899283,-84.4889171,263.62,0.023345237597823143,223.26431274414062,0.03400000184774399,0.0,1
1682338082.59952497,345367140,0,3,130100600,2259,15,0.79,42.6899283,-84.4889171,263.6,0.028861740604043007,75.96375274658203,-0.09400000423192978,0.0,1
1682338082.80002880,345567644,0,3,130100800,2259,15,0.79,42.6899283,-84.4889171,263.6,0.014764823950827122,241.69924926757812,0.027000000700354576,0.0,1
1682338082.99915695,345766772,0,3,130101000,2259,15,0.79,42.6899283,-84.4889172,263.59000000000003,0.018110772594809532,263.6598205566406,0.0010000000474974513,0.0,1
1682338083.19907784,345966693,0,3,130101200,2259,15,0.79,42.6899284,-84.4889173,263.58,0.009433981962502003,212.00538635253906,0.0,0.0,1
1682338083.39907384,346166689,0,3,130101400,2259,15,0.79,42.6899284,-84.48891739999999,263.57,0.014422205276787281,213.69007873535156,-0.01900000125169754,0.0,1
1682338083.59917283,346366788,0,3,130101600,2259,15,0.79,42.6899284,-84.48891739999999,263.57,0.021840332075953484,74.05460357666016,-0.08400000631809235,0.0,1
1682338083.77916503,346546780,0,3,130101800,2259,15,0.79,42.6899284,-84.48891739999999,263.56,0.013000000268220901,180.0,0.009000000543892384,0.0,1
1682338083.99915886,346766774,0,3,130102000,2259,15,0.79,42.6899285,-84.48891739999999,263.56,0.02408318966627121,41.63353729248047,-0.04500000178813934,0.0,1
1682338084.19902802,346966643,0,3,130102200,2259,15,0.79,42.6899285,-84.4889175,263.55,0.01984943449497223,319.08563232421875,-0.023000001907348633,0.0,1
1682338084.39913893,347166754,0,3,130102400,2259,15,0.79,42.689928599999995,-84.4889175,263.56,0.029154760763049126,202.16635131835938,-0.029000001028180122,0.0,1
1682338084.59964490,347367260,0,3,130102600,2259,15,0.79,42.689928599999995,-84.4889176,263.56,0.029068883508443832,333.4349365234375,0.01100000087171793,0.0,1
1682338084.79955292,347567168,0,3,130102800,2259,15,0.79,42.689928699999996,-84.4889176,263.55,0.03400000184774399,90.0,-0.07800000160932541,0.0,1
1682338084.99964690,347767262,0,3,130103000,2259,15,0.79,42.689928699999996,-84.4889177,263.54,0.029017237946391106,1.9749339818954468,-0.0820000022649765,0.0,1
1682338085.19965196,347967267,0,3,130103200,2259,15,0.79,42.689928699999996,-84.4889177,263.54,0.021189620718359947,109.2900390625,0.00800000037997961,0.0,1
1682338085.40013480,348167750,0,3,130103400,2259,15,0.79,42.689928699999996,-84.4889177,263.55,0.03125699982047081,172.64761352539062,0.030000001192092896,0.0,1
1682338085.59918785,348366803,0,3,130103600,2259,15,0.79,42.689928699999996,-84.4889178,263.53000000000003,0.0152970589697361,11.309930801391602,-0.1469999998807907,0.0,1
1682338085.79915690,348566772,0,3,130103800,2259,15,0.79,42.6899288,-84.4889178,263.54,0.007280109915882349,105.94538879394531,-0.06700000166893005,0.0,1
1682338086.01933098,348786946,0,3,130104000,2259,15,0.79,42.6899288,-84.4889178,263.55,0.016278821974992752,259.3803405761719,-0.005000000353902578,0.0,1
1682338086.19961381,348967229,0,3,130104200,2259,15,0.79,42.6899289,-84.48891789999999,263.56,0.004999999888241291,143.13009643554688,-0.055000003427267075,0.0,1
1682338086.39919996,349166815,0,3,130104400,2259,15,0.79,42.6899289,-84.48891789999999,263.55,0.01077033020555973,111.80139923095703,-0.13199999928474426,0.0,1
1682338086.59960699,349367222,0,3,130104600,2259,15,0.79,42.6899289,-84.48891789999999,263.56,0.019798990339040756,315.0,0.02500000037252903,0.0,1
1682338086.79953980,349567155,0,3,130104800,2259,15,0.79,42.689929,-84.48891789999999,263.57,0.015811389312148094,251.5650634765625,-0.13900001347064972,0.0,1
1682338086.99946880,349767084,0,3,130105000,2259,15,0.79,42.6899291,-84.488918,263.6,0.00824621133506298,284.0362548828125,-0.0690000057220459,0.0,1
1682338087.20006800,349967683,0,3,130105200,2259,15,0.79,42.6899291,-84.488918,263.6,0.005000000353902578,0.0,-0.08300000429153442,0.0,1
1682338087.39963484,350167250,0,3,130105400,2259,15,0.79,42.689929199999995,-84.488918,263.62,0.011045361869037151,354.8055725097656,0.009000000543892384,0.0,1
1682338087.59913087,350366746,0,3,130105600,2259,15,0.79,42.689929299999996,-84.488918,263.63,0.009999999776482582,36.869895935058594,-0.06800000369548798,0.0,1
1682338087.77915883,350546774,0,3,130105800,2259,15,0.79,42.6899294,-84.488918,263.64,0.010630146600306034,41.18592071533203,0.006000000052154064,0.0,1
1682338087.99962902,350767244,0,3,130106000,2259,15,0.79,42.6899295,-84.488918,263.63,0.03753664717078209,311.76031494140625,-0.08500000089406967,0.0,1
1682338088.20010591,350967721,0,3,130106200,2259,15,0.79,42.6899295,-84.488918,263.66,0.012369317002594471,165.9637451171875,-0.0430000014603138,0.0,1
