timestamp,TimeUS,C,Q1,Q2,Q3,Q4
1682338020.45881796,283226433,2,0.9613597393035889,0.0014088042080402374,0.006117489654570818,-0.2752237021923065
1682338020.55882001,283326435,2,0.96128249168396,0.0013834369601681828,0.00612831674516201,-0.27549317479133606
1682338020.65881681,283426432,2,0.9612118005752563,0.0014092517085373402,0.006115184631198645,-0.275739848613739
1682338020.75885296,283526468,2,0.9611229300498962,0.0014532991917803884,0.0061404043808579445,-0.2760487198829651
1682338020.85893202,283626547,2,0.9610610008239746,0.0014610480284318328,0.006102532614022493,-0.2762649953365326
1682338020.95885897,283726474,2,0.9609887003898621,0.0015220479108393192,0.006080048158764839,-0.2765166759490967
1682338021.05890203,283826517,2,0.9608942866325378,0.0015495065599679947,0.006046298425644636,-0.2768450975418091
1682338021.15886998,283926485,2,0.9608046412467957,0.0015239939093589783,0.0060345809906721115,-0.2771564722061157
1682338021.25884485,284026460,2,0.9607133865356445,0.0014856900088489056,0.00609848415479064,-0.2774714529514313
1682338021.35882592,284126441,2,0.9606384038925171,0.0014689803356304765,0.006150571163743734,-0.27772989869117737
1682338021.45882082,284226436,2,0.9605777263641357,0.0014209155924618244,0.006220132112503052,-0.2779384255409241
1682338021.55881286,284326428,2,0.9605024456977844,0.0013950957218185067,0.006240122951567173,-0.27819809317588806
1682338021.65885496,284426470,2,0.9604166746139526,0.0013366175116971135,0.0062763141468167305,-0.2784934639930725
1682338021.75893688,284526552,2,0.9603487253189087,0.001317616319283843,0.006283894646912813,-0.278727650642395
1682338021.85885382,284626469,2,0.960287868976593,0.001280585303902626,0.006265263073146343,-0.27893775701522827
1682338021.95889902,284726514,2,0.9602116346359253,0.001267946558073163,0.006258239969611168,-0.27920040488243103
1682338022.05886483,284826480,2,0.9601316452026367,0.0012781602563336492,0.0062678102403879166,-0.2794751226902008
1682338022.15884280,284926458,2,0.9600327610969543,0.001279920106753707,0.006301825866103172,-0.27981382608413696
1682338022.25881481,285026430,2,0.9599668979644775,0.001315004308708012,0.0063463966362178326,-0.2800385057926178
1682338022.35881400,285126429,2,0.9598792791366577,0.0012853232910856605,0.006317228078842163,-0.2803395390510559
1682338022.45881701,285226432,2,0.9597997665405273,0.0012529410887509584,0.00631712656468153,-0.28061169385910034
1682338022.55885696,285326472,2,0.9597324132919312,0.0012813040520995855,0.006310528609901667,-0.28084197640419006
1682338022.65892291,285426538,2,0.959652304649353,0.0012862201547250152,0.006363368593156338,-0.2811143398284912
1682338022.75886297,285526478,2,0.9595800042152405,0.0012932212557643652,0.006342616863548756,-0.28136146068573
1682338022.85889602,285626511,2,0.9595063328742981,0.001273030531592667,0.006403802894055843,-0.2816113531589508
1682338022.95886993,285726485,2,0.9594376683235168,0.0012683739187195897,0.006394397933036089,-0.28184548020362854
1682338023.05885386,285826469,2,0.9593511819839478,0.0012069132644683123,0.0064488607458770275,-0.2821387052536011
1682338023.15881801,285926433,2,0.9592889547348022,0.0011806986294686794,0.006466517690569162,-0.28235000371932983
1682338023.25881982,286026435,2,0.9592128992080688,0.0010823188349604607,0.0065160770900547504,-0.28260746598243713
1682338023.35882497,286126440,2,0.9591543674468994,0.0010580933885648847,0.00655281962826848,-0.28280532360076904
1682338023.45887089,286226486,2,0.9590902328491211,0.0010480140335857868,0.006628630682826042,-0.28302109241485596
1682338023.55892801,286326543,2,0.958974301815033,0.0009683092939667404,0.0066077010706067085,-0.28341424465179443
1682338023.65886998,286426485,2,0.9588888883590698,0.0011848695576190948,0.006669030524790287,-0.2837009131908417
1682338023.75890899,286526524,2,0.9588572382926941,0.001165274647064507,0.006609366741031408,-0.2838093042373657
1682338023.85887003,286626485,2,0.9587536454200745,0.000983920064754784,0.006403659004718065,-0.2841644287109375
1682338023.95885587,286726471,2,0.9587132334709167,0.001381574315018952,0.006117095705121756,-0.2843054234981537
1682338024.05882692,286826442,2,0.9586626291275024,0.0009842468425631523,0.006227490492165089,-0.28447532653808594
1682338024.15882397,286926439,2,0.9585341811180115,0.0012602093629539013,0.006210533902049065,-0.2849070429801941
1682338024.25882101,287026436,2,0.9585663676261902,0.00093316804850474,0.006338915321975946,-0.28479719161987305
1682338024.35887384,287126489,2,0.9584421515464783,0.0010121309896931052,0.00639389269053936,-0.2852134108543396
1682338024.45894980,287226565,2,0.9583396911621094,0.0010344017064198852,0.006351453717797995,-0.2855584919452667
1682338024.55886102,287326476,2,0.9582933783531189,0.0007512932643294334,0.006466428283601999,-0.2857120633125305
1682338024.65890098,287426516,2,0.9582294225692749,0.0010496578179299831,0.00636476231738925,-0.28592783212661743
1682338024.75887299,287526488,2,0.9581388831138611,0.0006793985958211124,0.006543994415551424,-0.2862282395362854
1682338024.85885286,287626468,2,0.9580640196800232,0.0008935988880693913,0.006507534999400377,-0.28647899627685547
1682338024.95882583,287726441,2,0.9579582214355469,0.0008889885502867401,0.006569940596818924,-0.2868311405181885
1682338025.05883098,287826446,2,0.9579412341117859,0.0008217903668992221,0.006434234790503979,-0.2868911325931549
1682338025.15881681,287926432,2,0.9577107429504395,0.0008748866966925561,0.006291602272540331,-0.287662535905838
1682338025.25885892,288026474,2,0.957757830619812,0.0004623905988410115,0.006044096779078245,-0.28751203417778015
1682338025.35892701,288126542,2,0.9578176140785217,0.000373919028788805,0.00509984465315938,-0.28733137249946594
1682338025.45886588,288226481,2,0.9578856825828552,0.0007250519120134413,0.0016381768509745598,-0.287144273519516
1682338025.55889988,288326515,2,0.9578890800476074,0.0040861996822059155,-0.0017019539372995496,-0.2871043086051941
1682338025.65888190,288426497,2,0.9578639268875122,0.006917087826877832,0.0008851609891280532,-0.2871377766132355
1682338025.75885296,288526468,2,0.9577372074127197,0.009951525367796421,0.005185861140489578,-0.2874256670475006
1682338025.85881782,288626433,2,0.9576411843299866,0.010209367610514164,0.005466625560075045,-0.2877311408519745
1682338025.95882082,288726436,2,0.9576217532157898,0.008056952618062496,0.005361292511224747,-0.28786617517471313
1682338026.05881691,288826432,2,0.9576013088226318,0.004308644216507673,0.006996397394686937,-0.28797948360443115
1682338026.15884495,288926460,2,0.9576839804649353,0.0015433027874678373,0.005330697633326054,-0.2877682149410248
1682338026.25893188,289026547,2,0.957887589931488,0.00021116988500580192,0.002854578895494342,-0.28712916374206543
1682338026.35886693,289126482,2,0.9581264853477478,0.00036102920421399176,0.00206940108910203,-0.28633755445480347
1682338026.45890784,289226523,2,0.9583896398544312,0.0030102150049060583,0.0008481538970954716,-0.2854462265968323
1682338026.55886793,289326483,2,0.9588101506233215,0.0057150134816765785,-0.000431868655141443,-0.28398990631103516
1682338026.65884995,289426465,2,0.959256649017334,0.006514325272291899,-0.00011681495379889384,-0.2824610471725464
1682338026.75882483,289526440,2,0.9595775604248047,0.008097909390926361,0.0010082077933475375,-0.2813259959220886
1682338026.85881591,289626431,2,0.9599230885505676,0.013508784584701061,0.0032372409477829933,-0.2799191176891327
1682338026.95882082,289726436,2,0.9605022668838501,0.025215908885002136,0.005752137862145901,-0.2770676016807556
1682338027.05886698,289826482,2,0.9613680839538574,0.0366983599960804,0.009812080301344395,-0.27263230085372925
1682338027.15893984,289926555,2,0.9626267552375793,0.03924364969134331,0.0168670155107975,-0.26744186878204346
1682338027.25890589,290026521,2,0.9643536806106567,0.03682360798120499,0.020497215911746025,-0.26123908162117004
1682338027.35889983,290126515,2,0.9665520191192627,0.03203709051012993,0.019481336697936058,-0.253714919090271
1682338027.45885897,290226474,2,0.9691985249519348,0.021975737065076828,0.016920240595936775,-0.24471421539783478
1682338027.55884480,290326460,2,0.9718663692474365,0.013016165234148502,0.014690997079014778,-0.23471374809741974
1682338027.65882301,290426438,2,0.9742579460144043,0.011271970346570015,0.009918540716171265,-0.22493566572666168
1682338027.75882196,290526437,2,0.9764149188995361,0.01277552917599678,0.009508536197245121,-0.2153143733739853
1682338027.85882187,290626437,2,0.978244960308075,0.02129536122083664,0.01597987301647663,-0.20573753118515015
1682338027.95885181,290726467,2,0.9795315861701965,0.03681424632668495,0.017340609803795815,-0.19713430106639862
1682338028.05893493,290826550,2,0.9809257984161377,0.039785150438547134,0.014562930911779404,-0.18970932066440582
1682338028.15886497,290926480,2,0.9823265671730042,0.03689292445778847,0.01539143081754446,-0.18285664916038513
1682338028.25890398,291026519,2,0.9832965135574341,0.03849652037024498,0.0140376603230834,-0.1773383617401123
1682338028.35890889,291126524,2,0.9841157793998718,0.03849298134446144,0.011925557628273964,-0.17289359867572784
1682338028.45886302,291226478,2,0.9847483038902283,0.03722358122467995,0.011861679144203663,-0.16954194009304047
1682338028.55882192,291326437,2,0.9851522445678711,0.03694495931267738,0.011244019493460655,-0.16728322207927704
1682338028.65886283,291426478,2,0.98540198802948,0.035765111446380615,0.011678948998451233,-0.16603411734104156
1682338028.75882101,291526436,2,0.9855208396911621,0.03426111862063408,0.014640254899859428,-0.16541017591953278
1682338028.85882783,291626443,2,0.9854930639266968,0.0322888046503067,0.016395144164562225,-0.16580714285373688
1682338028.95894098,291726556,2,0.9854683876037598,0.028698289766907692,0.018720105290412903,-0.1663670837879181
1682338029.05891395,291826529,2,0.9855074882507324,0.027518151327967644,0.021899238228797913,-0.16594620048999786
1682338029.15889692,291926512,2,0.985710620880127,0.0274305772036314,0.02399701066315174,-0.16445766389369965
1682338029.25887704,292026492,2,0.9861114025115967,0.027215665206313133,0.023450639098882675,-0.1621532142162323
1682338029.35885882,292126474,2,0.9866966009140015,0.02788286842405796,0.023572461679577827,-0.15841925144195557
1682338029.45883393,292226449,2,0.9875708222389221,0.027913568541407585,0.024466000497341156,-0.152728870511055
1682338029.55882382,292326439,2,0.9887248277664185,0.026533471420407295,0.02552495151758194,-0.1451469212770462
1682338029.65882182,292426437,2,0.990074872970581,0.02511645294725895,0.026674989610910416,-0.13568095862865448
1682338029.75888085,292526496,2,0.9915614128112793,0.022503601387143135,0.02698570303618908,-0.12478495389223099
1682338029.85890198,292626517,2,0.9931701421737671,0.015675503760576248,0.027699610218405724,-0.1122502014040947
1682338029.95891190,292726527,2,0.9947220683097839,0.011175001971423626,0.029623139649629593,-0.0975993201136589
1682338030.05890083,292826516,2,0.9961960911750793,0.009161322377622128,0.029760442674160004,-0.08138652890920639
1682338030.15888381,292926499,2,0.9974431991577148,0.007054746616631746,0.0303502194583416,-0.06431309878826141
1682338030.25884795,293026463,2,0.9983718991279602,0.006749734282493591,0.031868819147348404,-0.046822480857372284
1682338030.35882282,293126438,2,0.9990867972373962,0.0072881244122982025,0.030394915491342545,-0.029131069779396057
1682338030.45881987,293226435,2,0.9994981288909912,0.007313862908631563,0.028776878491044044,-0.01104133203625679
1682338030.55881691,293326432,2,0.9996214509010315,0.007878769189119339,0.02529563196003437,0.007414086256176233
1682338030.65885282,293426468,2,0.9994544982910156,0.007565634790807962,0.019174493849277496,0.025802133604884148
1682338030.75893092,293526546,2,0.9988459944725037,0.00771027198061347,0.014881908893585205,0.04500842094421387
1682338030.85886288,293626478,2,0.9977545142173767,0.006745698396116495,0.013240349479019642,0.06530816853046417
1682338030.95889902,293726514,2,0.9961963295936584,0.0033950619399547577,0.011726554483175278,0.08627794682979584
1682338031.05889392,293826509,2,0.9941123723983765,-0.0026051942259073257,0.011480334214866161,0.10771261900663376
1682338031.15884495,293926460,2,0.9914557337760925,-0.00936691090464592,0.009931606240570545,0.12972739338874817
1682338031.25881982,294026435,2,0.9882524013519287,-0.015313651412725449,0.005187913775444031,0.15197280049324036
1682338031.35882592,294126441,2,0.9844586253166199,-0.02188965305685997,0.002390848472714424,0.17423060536384583
1682338031.45881701,294226432,2,0.980104386806488,-0.028113577514886856,-0.0003669500001706183,0.19648116827011108
1682338031.55884600,294326461,2,0.9732425808906555,-0.033766765147447586,-0.003259858349338174,0.22726209461688995
1682338031.65893292,294426548,2,0.9680398106575012,-0.039925266057252884,-0.003741256659850478,0.2475699782371521
1682338031.75891399,294526529,2,0.9623391628265381,-0.04581155255436897,-0.006508202292025089,0.26788488030433655
1682338031.85889697,294626512,2,0.9561561346054077,-0.05129778012633324,-0.011397020891308784,0.28810441493988037
1682338031.95889091,294726506,2,0.9495338797569275,-0.05637042596936226,-0.01888730376958847,0.3079790472984314
1682338032.05884886,294826464,2,0.9416780471801758,-0.06160404905676842,-0.027663342654705048,0.3296697437763214
1682338032.15882301,294926438,2,0.9326351881027222,-0.06711138039827347,-0.034895580261945724,0.3528030812740326
1682338032.25881886,295026434,2,0.9226759076118469,-0.0701444149017334,-0.03502682223916054,0.37752091884613037
1682338032.35882592,295126441,2,0.9127160310745239,-0.06684454530477524,-0.02637086808681488,0.402226060628891
1682338032.45886588,295226481,2,0.9025062918663025,-0.06058082729578018,-0.014837808907032013,0.4261363744735718
1682338032.55891585,295326531,2,0.891477644443512,-0.05447330325841904,-0.00203503156080842,0.449773371219635
1682338032.65891695,295426532,2,0.8814346194267273,-0.048754893243312836,0.00883353129029274,0.469699889421463
1682338032.75890303,295526518,2,0.8728784322738647,-0.04295304790139198,0.011886082589626312,0.48589810729026794
1682338032.85888982,295626505,2,0.8672574162483215,-0.037299636751413345,0.009249890223145485,0.49637460708618164
1682338032.95885301,295726468,2,0.8648337721824646,-0.031458258628845215,0.006232474464923143,0.5010330080986023
1682338033.05882382,295826439,2,0.8654534816741943,-0.025117522105574608,0.005248433910310268,0.500331699848175
1682338033.15881801,295926433,2,0.8682126402854919,-0.017960358411073685,0.005311221815645695,0.4958387017250061
1682338033.25882888,296026444,2,0.8726969361305237,-0.010375883430242538,0.005625533871352673,0.48811957240104675
1682338033.35885096,296126466,2,0.8781399726867676,-0.00505899079144001,0.008450952358543873,0.4783024489879608
1682338033.45892692,296226542,2,0.8839591145515442,-0.006155974697321653,0.016223033890128136,0.4672420918941498
1682338033.55887890,296326494,2,0.8902313113212585,-0.007804989814758301,0.025586333125829697,0.4547225534915924
1682338033.65891886,296426534,2,0.8974155187606812,-0.008248225785791874,0.02612319216132164,0.4403350353240967
1682338033.75886893,296526484,2,0.9050654172897339,-0.009578866884112358,0.021665476262569427,0.4246121048927307
1682338033.85885286,296626468,2,0.912233293056488,-0.011200494132936,0.017268629744648933,0.40915369987487793
1682338033.95882702,296726442,2,0.9187631607055664,-0.011725421994924545,0.010562749579548836,0.39449360966682434
1682338034.05882096,296826436,2,0.924433708190918,-0.011413618922233582,0.004765787627547979,0.38114216923713684
1682338034.15881801,296926433,2,0.9288929104804993,-0.012799320742487907,0.007736033760011196,0.37004634737968445
1682338034.25884795,297026463,2,0.932253897190094,-0.014330369420349598,0.014887693338096142,0.36121422052383423
1682338034.35892892,297126544,2,0.9350005388259888,-0.01612689159810543,0.02094423957169056,0.35365980863571167
1682338034.45893788,297226553,2,0.9374023079872131,-0.018143827095627785,0.027047399431467056,0.34672197699546814
1682338034.55889487,297326510,2,0.9396113157272339,-0.018139254301786423,0.02850903943181038,0.34057125449180603
1682338034.65887403,297426489,2,0.9413270354270935,-0.016729623079299927,0.0263309758156538,0.3360508978366852
1682338034.75885296,297526468,2,0.9424411654472351,-0.013832488097250462,0.024676980450749397,0.3331731855869293
1682338034.85881686,297626432,2,0.9432113766670227,-0.01046550553292036,0.02142094261944294,0.33133649826049805
1682338034.95882082,297726436,2,0.9438226819038391,-0.006845675874501467,0.017978278920054436,0.32989194989204407
1682338035.05882382,297826439,2,0.9440393447875977,-0.004728887230157852,0.015974590554833412,0.3294117748737335
1682338035.15884590,297926461,2,0.943928599357605,-0.0037106736563146114,0.013915875926613808,0.329835444688797
1682338035.25892401,298026539,2,0.9434411525726318,-0.003010384738445282,0.012563582509756088,0.3312881886959076
1682338035.35890889,298126524,2,0.9427028298377991,-0.0027546300552785397,0.012000656686723232,0.33340635895729065
1682338035.45889592,298226511,2,0.9418184161186218,-0.001468061120249331,0.0117515092715621,0.33591341972351074
1682338035.55888200,298326497,2,0.9408180117607117,-0.00033971521770581603,0.01194806955754757,0.33870139718055725
1682338035.65885496,298426470,2,0.9396812319755554,0.00044375669676810503,0.012501329183578491,0.3418225944042206
1682338035.75882196,298526437,2,0.9384171366691589,0.0014022584073245525,0.01245154906064272,0.3452770411968231
1682338035.85882187,298626437,2,0.9370517134666443,0.002133492846041918,0.012387004680931568,0.3489643335342407
1682338035.95882702,298726442,2,0.9356139898300171,0.002310830168426037,0.011726316064596176,0.35282236337661743
1682338036.05888581,298826501,2,0.9341687560081482,0.003654713509604335,0.0117027023807168,0.3566208481788635
1682338036.15893292,298926548,2,0.9328101277351379,0.004347179550677538,0.010901798494160175,0.36017704010009766
1682338036.25886297,299026478,2,0.9314915537834167,0.005879065487533808,0.010315567255020142,0.36356914043426514
1682338036.35890698,299126522,2,0.9302824139595032,0.006417474709451199,0.00968426838517189,0.3666601777076721
1682338036.45889187,299226507,2,0.9292374849319458,0.007241470739245415,0.008836319670081139,0.36930641531944275
1682338036.55884886,299326464,2,0.9284666180610657,0.007396319415420294,0.008025816641747952,0.371255487203598
1682338036.65882492,299426440,2,0.927940845489502,0.006534269079566002,0.0072074756026268005,0.37260058522224426
1682338036.75883293,299526448,2,0.9276883602142334,0.005158552899956703,0.0040566446259617805,0.37329787015914917
1682338036.85882187,299626437,2,0.9275885820388794,-0.0002753831213340163,0.0010575848864391446,0.3736017346382141
1682338036.95887995,299726495,2,0.9275596737861633,-0.00770522328093648,-0.0006598082836717367,0.3735949993133545
1682338037.05893803,299826553,2,0.9276701211929321,-0.01334814727306366,-0.0024751024320721626,0.3731539845466614
1682338037.15886784,299926483,2,0.9279220700263977,-0.018837198615074158,-0.00367652322165668,0.3722798824310303
1682338037.25891089,300026526,2,0.9283080697059631,-0.02332502231001854,-0.005114688538014889,0.371044397354126
1682338037.35894299,300126558,2,0.9289349317550659,-0.025880420580506325,-0.006498934701085091,0.3692801892757416
1682338037.45886183,300226477,2,0.9296321272850037,-0.026730990037322044,-0.0069706859067082405,0.36745208501815796
1682338037.55881596,300326431,2,0.9303998947143555,-0.023063013330101967,-0.0061288438737392426,0.3657684028148651
1682338037.65883303,300426448,2,0.9309112429618835,-0.015338167548179626,-0.004234508145600557,0.36489877104759216
1682338037.75882697,300526442,2,0.9308063983917236,-0.00851080659776926,-0.0005496984231285751,0.3654131293296814
1682338037.85887504,300626490,2,0.9302355051040649,-0.007287481799721718,0.0045984843745827675,0.36686182022094727
1682338037.95893288,300726548,2,0.9290958642959595,-0.012922476977109909,0.005127523094415665,0.369577556848526
1682338038.05891085,300826526,2,0.927395761013031,-0.019595084711909294,0.002164138713851571,0.373561829328537
1682338038.15891790,300926533,2,0.9255154132843018,-0.01940380595624447,0.002243771217763424,0.3782058358192444
1682338038.25886798,301026483,2,0.9238700270652771,-0.016809234395623207,0.001978471642360091,0.3823319375514984
1682338038.35886383,301126479,2,0.9223341941833496,-0.014447453431785107,0.0014814670430496335,0.386120080947876
1682338038.45881987,301226435,2,0.9208616018295288,-0.007884196005761623,0.0035518903750926256,0.3897937536239624
1682338038.55881786,301326433,2,0.9194831252098083,-0.0002135960094165057,0.0056380173191428185,0.3930889964103699
1682338038.65881896,301426434,2,0.9181755185127258,0.005930736660957336,0.008132409304380417,0.3960459530353546
1682338038.75887394,301526489,2,0.9169674515724182,0.012622321024537086,0.011079525575041771,0.39860832691192627
1682338038.85893488,301626550,2,0.9159017205238342,0.01937570609152317,0.013354240916669369,0.40071219205856323
1682338038.95886588,301726481,2,0.9149625897407532,0.02356289140880108,0.015475579537451267,0.4025527536869049
1682338039.05891800,301826533,2,0.9143653512001038,0.021770983934402466,0.01507607288658619,0.40402325987815857
1682338039.15888286,301926498,2,0.913997232913971,0.01702224835753441,0.013301306404173374,0.40514490008354187
1682338039.25884581,302026461,2,0.9137073755264282,0.01236770860850811,0.011317070573568344,0.4060268700122833
1682338039.35883093,302126446,2,0.9135581254959106,0.007532885298132896,0.00930376909673214,0.4065319895744324
1682338039.45881891,302226434,2,0.9135444760322571,0.0044387709349393845,0.007850933820009232,0.4066388010978699
1682338039.55881786,302326433,2,0.9137011170387268,0.0010973077733069658,0.005980860907584429,0.4063412845134735
1682338039.65884781,302426463,2,0.9140132069587708,-0.0029901752714067698,0.004557588137686253,0.4056478440761566
1682338039.75890088,302526516,2,0.9143949151039124,-0.007589717395603657,0.003099363297224045,0.4047403633594513
1682338039.85891294,302626528,2,0.9149224162101746,-0.01094838883727789,0.0015794656937941909,0.4034781754016876
1682338039.95889902,302726514,2,0.9154596924781799,-0.010992237366735935,0.001910163089632988,0.40225496888160706
1682338040.05887294,302826488,2,0.9159971475601196,-0.009913121350109577,0.002660843776538968,0.40105339884757996
1682338040.15885592,302926471,2,0.916643500328064,-0.00821309257298708,0.003970218822360039,0.39960163831710815
1682338040.25882792,303026443,2,0.9172667860984802,-0.005548771470785141,0.005304927472025156,0.3981993794441223
1682338040.35882998,303126445,2,0.9178047776222229,-0.00374232092872262,0.0061002084985375404,0.39696741104125977
1682338040.45882797,303226443,2,0.9183192253112793,-0.002876324113458395,0.007019429467618465,0.3957678973674774
1682338040.55886698,303326482,2,0.9188013076782227,-0.0022403474431484938,0.007079492323100567,0.3946504294872284
1682338040.65892792,303426543,2,0.9192708730697632,-0.0027803063858300447,0.007108233403414488,0.3935515582561493
1682338040.75892496,303526540,2,0.9196189641952515,-0.003518430283293128,0.00684751383960247,0.39273613691329956
1682338040.85890603,303626521,2,0.9200261831283569,-0.0038898857310414314,0.00604905653744936,0.39179086685180664
1682338040.95888495,303726500,2,0.9203311204910278,-0.004784875549376011,0.005893191322684288,0.39106643199920654
1682338041.05885983,303826475,2,0.9205839037895203,-0.004986254032701254,0.005837270058691502,0.39046934247016907
1682338041.15881801,303926433,2,0.9207766652107239,-0.0055037084966897964,0.006330601405352354,0.3899999260902405
1682338041.25881696,304026432,2,0.9209694862365723,-0.005393210798501968,0.006816312670707703,0.3895376920700073
1682338041.35882401,304126439,2,0.92109215259552,-0.004822506103664637,0.0070758992806077,0.3892505168914795
1682338041.45884395,304226459,2,0.921159565448761,-0.004179652780294418,0.007670799270272255,0.3890869915485382
1682338041.55890083,304326516,2,0.9212267994880676,-0.0036236532032489777,0.007112829014658928,0.3889440894126892
1682338041.65890884,304426524,2,0.9211311936378479,-0.002931164111942053,0.007305468898266554,0.38917261362075806
1682338041.75890803,304526523,2,0.9211350679397583,-0.002252783626317978,0.006707696244120598,0.3891787528991699
1682338041.85887694,304626492,2,0.9211075901985168,-0.0026342561468482018,0.005995668470859528,0.3892529606819153
1682338041.95885491,304726470,2,0.9210691452026367,-0.0028344092424958944,0.00571718392893672,0.3893468379974365
1682338042.05881882,304826434,2,0.9210443496704102,-0.004283202346414328,0.00504763750359416,0.3894014358520508
1682338042.15881681,304926432,2,0.9209870100021362,-0.004056702833622694,0.005334040150046349,0.38953569531440735
1682338042.25881696,305026432,2,0.9209641218185425,-0.004436407703906298,0.0051566073670983315,0.38958802819252014
1682338042.35885596,305126471,2,0.9209516048431396,-0.004624092951416969,0.005244857165962458,0.38961416482925415
1682338042.45893097,305226546,2,0.9208393692970276,-0.0033795873168855906,0.0059369285590946674,0.38988223671913147
1682338042.55886292,305326478,2,0.9207285642623901,-0.0035897125490009785,0.005905686877667904,0.3901425302028656
1682338042.65890789,305426523,2,0.9206594228744507,-0.0025009384844452143,0.006335131358355284,0.39030736684799194
1682338042.75887585,305526491,2,0.9200734496116638,-0.0021522764582186937,0.006566822063177824,0.39168497920036316
1682338042.85884595,305626461,2,0.9185698628425598,-0.0022330062929540873,0.006673778872936964,0.39519602060317993
1682338042.95882797,305726443,2,0.9158976674079895,-0.0026671141386032104,0.007063531782478094,0.4013407826423645
1682338043.05882192,305826437,2,0.9116225838661194,-0.003018916118890047,0.007127595134079456,0.41095539927482605
1682338043.15881681,305926432,2,0.9055279493331909,-0.003103948198258877,0.0070450459606945515,0.42421674728393555
1682338043.25886202,306026477,2,0.8981634378433228,-0.0031868366058915854,0.005997906904667616,0.43960925936698914
1682338043.35893083,306126546,2,0.8901675939559937,-0.003432774916291237,0.005335786379873753,0.45558908581733704
1682338043.45891595,306226531,2,0.8820552229881287,-0.004471203777939081,0.005294764414429665,0.47109511494636536
1682338043.55890083,306326516,2,0.8740833401679993,-0.004830240271985531,0.004185430705547333,0.4857339560985565
1682338043.65887690,306426492,2,0.8663036823272705,-0.004997470416128635,0.004540326539427042,0.49947211146354675
1682338043.75884986,306526465,2,0.8586692214012146,-0.004963337909430265,0.0037505452055484056,0.5124924182891846
1682338043.85882497,306626440,2,0.8512253761291504,-0.005209142342209816,0.003834187751635909,0.5247604250907898
1682338043.95882583,306726441,2,0.8442491888999939,-0.005158073268830776,0.0037579527124762535,0.5359128713607788
1682338044.05883384,306826449,2,0.8379536867141724,-0.0048439037054777145,0.0032390374690294266,0.5457102656364441
1682338044.15885782,306926473,2,0.8325492739677429,-0.004948856774717569,0.0032665948383510113,0.5539191961288452
1682338044.25892282,307026538,2,0.8281744122505188,-0.0038518633227795362,0.0022736573591828346,0.5604526400566101
1682338044.35886502,307126480,2,0.8246337175369263,-0.002838092390447855,0.0045164804905653,0.5656418800354004
1682338044.45890999,307226525,2,0.8220968246459961,-0.0028387538623064756,0.0053202323615550995,0.5693157911300659
1682338044.55888581,307326501,2,0.820362389087677,-0.0039771259762346745,0.004288515541702509,0.5718140602111816
1682338044.65885687,307426472,2,0.8193114995956421,-0.004144770093262196,0.0055323196575045586,0.5733069777488708
1682338044.75882292,307526438,2,0.8183955550193787,-0.005843102000653744,0.004255000967532396,0.5746098756790161
1682338044.85883594,307626451,2,0.8168492317199707,-0.008866853080689907,0.0020946806762367487,0.5767792463302612
1682338044.95882893,307726444,2,0.8151790499687195,-0.008743749931454659,0.0021970863454043865,0.5791388750076294
1682338045.05886388,307826479,2,0.8140184283256531,-0.0079345703125,0.002456420101225376,0.5807796716690063
1682338045.15893292,307926548,2,0.8129141330718994,-0.008034703321754932,0.0027672399301081896,0.5823215246200562
1682338045.25886202,308026477,2,0.8114440441131592,-0.007093947846442461,0.0036940292920917273,0.5843754410743713
1682338045.35891700,308126532,2,0.8098150491714478,-0.006758646108210087,0.0044537559151649475,0.5866294503211975
1682338045.45887089,308226486,2,0.8080559372901917,-0.007448012474924326,0.0057668727822601795,0.5890304446220398
1682338045.55885291,308326468,2,0.8052204251289368,-0.007423993665724993,0.00609181635081768,0.5928977727890015
1682338045.65882087,308426436,2,0.8009710311889648,-0.007801786996424198,0.006266898009926081,0.5986195206642151
1682338045.75882387,308526439,2,0.7957992553710938,-0.008189217187464237,0.006614837795495987,0.6054690480232239
1682338045.85881686,308626432,2,0.7900101542472839,-0.007993709295988083,0.0066789668053388596,0.6130052208900452
1682338045.95885587,308726471,2,0.7837652564048767,-0.00804851297289133,0.007012349087744951,0.6209654211997986
1682338046.05893397,308826549,2,0.7776625752449036,-0.008699842728674412,0.006964734755456448,0.6285831332206726
1682338046.15891790,308926533,2,0.7723909020423889,-0.008634637109935284,0.007002956233918667,0.6350501775741577
1682338046.25889587,309026511,2,0.7676582336425781,-0.009812205098569393,0.007391768507659435,0.6407417058944702
1682338046.35887003,309126485,2,0.7635812163352966,-0.010001310147345066,0.007294171955436468,0.6455931663513184
1682338046.45884895,309226464,2,0.7601286172866821,-0.010013211518526077,0.008268818259239197,0.6496428847312927
1682338046.55881786,309326433,2,0.7574580907821655,-0.0063277739100158215,0.008849579840898514,0.6527931690216064
1682338046.65882182,309426437,2,0.7553836107254028,-0.002017054008319974,0.006387387868016958,0.6552485823631287
1682338046.75882101,309526436,2,0.7531120181083679,-0.0010609262390062213,0.0034865348134189844,0.6578822135925293
1682338046.85884595,309626461,2,0.74989253282547,0.003963446710258722,-0.003216146258637309,0.6615399718284607
1682338046.95891881,309726534,2,0.7462596297264099,0.01193586178123951,-0.013976603746414185,0.6654011607170105
1682338047.05891585,309826531,2,0.7435221672058105,0.011227317154407501,-0.0159481018781662,0.6684268116950989
1682338047.15891194,309926527,2,0.7409605383872986,0.00483287638053298,-0.009836709126830101,0.6714591383934021
1682338047.25887895,310026494,2,0.7382584810256958,0.0001114109909394756,-0.004691283218562603,0.6745015978813171
1682338047.35885191,310126467,2,0.7361005544662476,-0.005117977038025856,0.0010506832040846348,0.6768519878387451
1682338047.45882702,310226442,2,0.7346416711807251,-0.010055162943899632,0.00761910667642951,0.6783379912376404
1682338047.55882382,310326439,2,0.7336640954017639,-0.010374380275607109,0.009049363434314728,0.6793728470802307
1682338047.65882492,310426440,2,0.7332409620285034,-0.007842724211513996,0.006110813934355974,0.6798962354660034
1682338047.75885892,310526474,2,0.7331315875053406,-0.004397660959511995,0.0031164432875812054,0.6800654530525208
1682338047.85893202,310626547,2,0.7334075570106506,-0.001011878834106028,-0.0007918895571492612,0.6797879338264465
1682338047.95886493,310726480,2,0.7340148687362671,0.0035545125138014555,-0.006836492568254471,0.6790896654129028
1682338048.05890703,310826522,2,0.734749436378479,0.010378189384937286,-0.013801367953419685,0.6781188249588013
1682338048.15888500,310926500,2,0.7357655167579651,0.012015310116112232,-0.015199548564851284,0.676959216594696
1682338048.25884795,311026463,2,0.7369202375411987,0.008888525888323784,-0.01197057869285345,0.6758152842521667
1682338048.35882282,311126438,2,0.737766444683075,0.004496644251048565,-0.006390405353158712,0.6750108599662781
1682338048.45882988,311226445,2,0.7381014227867126,-0.00120857497677207,-0.0008032303885556757,0.6746882200241089
1682338048.55881691,311326432,2,0.7380695343017578,-0.006413535680621862,0.003551591420546174,0.6746848225593567
1682338048.65886784,311426483,2,0.7368327379226685,-0.00661742826923728,0.004542286042124033,0.6760274171829224
1682338048.75895000,311526565,2,0.7347150444984436,-0.004513433203101158,0.0031313865911215544,0.6783536076545715
1682338048.85890985,311626525,2,0.7321036458015442,-0.0036528068594634533,0.002098255790770054,0.6811802387237549
1682338048.95890498,311726520,2,0.7297664284706116,-0.00200347020290792,0.0011324144434183836,0.6836926341056824
1682338049.05887985,311826495,2,0.7276588082313538,-0.0012852130457758904,0.0005509828333742917,0.6859378218650818
1682338049.15885997,311926475,2,0.7255850434303284,-0.0023023278918117285,0.0021558324806392193,0.6881252527236938
1682338049.25882196,312026437,2,0.7237621545791626,-0.0026281350292265415,0.004175359383225441,0.690031886100769
1682338049.35883093,312126446,2,0.7220320105552673,-0.004721600096672773,0.007765378337353468,0.6917999982833862
1682338049.45881891,312226434,2,0.7205444574356079,-0.0049087717197835445,0.008395040407776833,0.693340539932251
1682338049.55886102,312326476,2,0.71928870677948,-0.0027448409236967564,0.006906171794980764,0.6946715116500854
1682338049.65892887,312426544,2,0.7183752655982971,7.4324511842860375e-06,0.0027628056704998016,0.6956502795219421
1682338049.75886393,312526479,2,0.7175538539886475,0.00017800083151087165,0.0013546602567657828,0.6965017318725586
1682338049.85890102,312626516,2,0.71684330701828,-0.002418372081592679,0.00283830682747066,0.6972243785858154
1682338049.95887184,312726487,2,0.7165448665618896,-0.0030926046893000603,0.002165631391108036,0.6975308060646057
1682338050.05885100,312826466,2,0.7163602113723755,-0.0036032290663570166,0.0018435787642374635,0.6977189183235168
1682338050.15882802,312926443,2,0.7163282036781311,-0.0045130448415875435,0.0023181121796369553,0.6977450847625732
1682338050.25881886,313026434,2,0.7164976000785828,-0.004317165352404118,0.0021164764184504747,0.6975729465484619
1682338050.35882592,313126441,2,0.716814398765564,-0.004930753260850906,0.004012221936136484,0.6972350478172302
1682338050.45883203,313226447,2,0.7171873450279236,-0.009436327032744884,0.008271295577287674,0.6967674493789673
1682338050.55892587,313326541,2,0.7175304889678955,-0.014382569119334221,0.012679466046392918,0.6962631344795227
1682338050.65886593,313426481,2,0.7179518342018127,-0.019402548670768738,0.01713317260146141,0.6956113576889038
1682338050.75889587,313526511,2,0.7182639241218567,-0.025609174743294716,0.0214703269302845,0.6949677467346191
1682338050.85888100,313626496,2,0.7185583710670471,-0.03039650060236454,0.026301484555006027,0.6943040490150452
1682338050.95884991,313726465,2,0.7186967134475708,-0.03238027170300484,0.028214475139975548,0.693996012210846
1682338051.05883002,313826445,2,0.7186492085456848,-0.026137439534068108,0.022744689136743546,0.6945090293884277
1682338051.15881801,313926433,2,0.7179657816886902,-0.017765497788786888,0.01630047895014286,0.6956607103347778
1682338051.25882483,314026440,2,0.7165846824645996,-0.010920030064880848,0.011895647272467613,0.6973131895065308
1682338051.35888600,314126501,2,0.7145132422447205,-0.004778003320097923,0.006746646482497454,0.6995730996131897
1682338051.45893884,314226554,2,0.7117522954940796,0.0009560769540257752,0.0024150139652192593,0.7024257183074951
1682338051.55891085,314326526,2,0.7082750797271729,0.002625079359859228,0.0019930030684918165,0.7059288620948792
1682338051.65890002,314426515,2,0.7050483822822571,-0.0001846805535024032,0.004363418091088533,0.709145724773407
1682338051.75887585,314526491,2,0.70200514793396,-0.005550719797611237,0.009545806795358658,0.7120862603187561
1682338051.85884881,314626464,2,0.6991826891899109,-0.010852223262190819,0.014196873642504215,0.7147196531295776
1682338051.95883393,314726449,2,0.6966053247451782,-0.01608801633119583,0.018381241708993912,0.7170385718345642
1682338052.05882692,314826442,2,0.6944339871406555,-0.017675289884209633,0.01887604221701622,0.7190915942192078
1682338052.15882683,314926442,2,0.6926372647285461,-0.01601499319076538,0.01675150729715824,0.7209137082099915
1682338052.25884581,315026461,2,0.6912049651145935,-0.013749746605753899,0.013826976530253887,0.722395658493042
1682338052.35893798,315126553,2,0.6901612281799316,-0.011367480270564556,0.010545075871050358,0.7234894633293152
1682338052.45892382,315226539,2,0.6894140243530273,-0.009836718440055847,0.00890396535396576,0.7242460250854492
1682338052.55890298,315326518,2,0.6889408826828003,-0.009399162605404854,0.007984636351466179,0.724712610244751
1682338052.65888190,315426497,2,0.6887509822845459,-0.008497623726725578,0.007705147843807936,0.7249072790145874
1682338052.75886083,315526476,2,0.6887490749359131,-0.009082858450710773,0.008527294732630253,0.7248927354812622
1682338052.85882282,315626438,2,0.6888042092323303,-0.013036057353019714,0.012318291701376438,0.7247255444526672
1682338052.95883489,315726450,2,0.6891112923622131,-0.015628593042492867,0.015435450710356236,0.7243225574493408
1682338053.05882287,315826438,2,0.6896743774414062,-0.015811441466212273,0.016325388103723526,0.7237628698348999
1682338053.15886784,315926483,2,0.6902483105659485,-0.01759517565369606,0.018212346360087395,0.7231292724609375
1682338053.25895381,316026569,2,0.6908712983131409,-0.018723227083683014,0.018757857382297516,0.7224918007850647
1682338053.35886693,316126482,2,0.6916487812995911,-0.020214173942804337,0.020016537979245186,0.7216735482215881
1682338053.45890188,316226517,2,0.6923133730888367,-0.02218833565711975,0.022408558055758476,0.7209075689315796
1682338053.55888391,316326499,2,0.6930842399597168,-0.021532505750656128,0.02156139723956585,0.7202122211456299
1682338053.65886402,316426479,2,0.6938712000846863,-0.021016869693994522,0.0214683935046196,0.7194721102714539
1682338053.75882483,316526440,2,0.6945958137512207,-0.021230848506093025,0.021164579316973686,0.7187753319740295
1682338053.85881782,316626433,2,0.695223867893219,-0.01974690705537796,0.01939202845096588,0.7182602882385254
1682338053.95882392,316726439,2,0.6956010460853577,-0.020282471552491188,0.019822582602500916,0.7178682684898376
1682338054.05886889,316826484,2,0.6959737539291382,-0.02149328403174877,0.020775828510522842,0.7174447774887085
1682338054.15894294,316926558,2,0.6961161494255066,-0.022859303280711174,0.021185722202062607,0.7172523736953735
1682338054.25891280,317026528,2,0.696215808391571,-0.023186389356851578,0.02070920355618,0.7171590328216553
1682338054.35890698,317126522,2,0.6964637041091919,-0.02043093740940094,0.017198625952005386,0.717094898223877
1682338054.45892191,317226537,2,0.6967594623565674,-0.016627606004476547,0.012510228902101517,0.7170029878616333
1682338054.55885386,317326469,2,0.6972572803497314,-0.015191502869129181,0.009918293915688992,0.7165912985801697
1682338054.65882802,317426443,2,0.6977942585945129,-0.01636727713048458,0.009338829666376114,0.7160503268241882
1682338054.75883198,317526447,2,0.6986199617385864,-0.01965300180017948,0.008293171413242817,0.7151749134063721
1682338054.85881782,317626433,2,0.700160562992096,-0.022335298359394073,0.007682774681597948,0.7135946154594421
1682338054.95885181,317726467,2,0.7020675539970398,-0.021056797355413437,0.007831701077520847,0.7117558717727661
1682338055.05893183,317826547,2,0.7041542530059814,-0.019778670743107796,0.008288550190627575,0.7097231149673462
1682338055.15886402,317926479,2,0.7063144445419312,-0.0199443232268095,0.00891831237822771,0.7075610160827637
1682338055.25889993,318026515,2,0.708884060382843,-0.019878391176462173,0.009392479434609413,0.7049822807312012
1682338055.35893393,318126549,2,0.7116115689277649,-0.02035975456237793,0.00838489644229412,0.7022280097007751
1682338055.45885587,318226471,2,0.7145878672599792,-0.0208611860871315,0.008348837494850159,0.699184775352478
1682338055.55882382,318326439,2,0.7178274393081665,-0.021379521116614342,0.009240847080945969,0.6958313584327698
1682338055.65882182,318426437,2,0.7213114500045776,-0.02242136560380459,0.009593559429049492,0.6921813488006592
1682338055.75882387,318526439,2,0.7250027656555176,-0.022869424894452095,0.010238138027489185,0.688289999961853
1682338055.85886288,318626478,2,0.7288620471954346,-0.023613102734088898,0.010109457187354565,0.6841785907745361
1682338055.95893788,318726553,2,0.7325459718704224,-0.024308733642101288,0.009536424651741982,0.6802164912223816
1682338056.05886984,318826485,2,0.7363382577896118,-0.02469116449356079,0.008825710974633694,0.6761053204536438
1682338056.15891981,318926535,2,0.7400411367416382,-0.025214288383722305,0.007985086180269718,0.6720413565635681
1682338056.25888181,319026497,2,0.743562638759613,-0.024288125336170197,0.006648771930485964,0.6681919693946838
1682338056.35885692,319126472,2,0.7470860481262207,-0.02236681617796421,0.005945230834186077,0.6643243432044983
1682338056.45882583,319226441,2,0.7504372000694275,-0.02223062701523304,0.006144666578620672,0.6605392098426819
1682338056.55882502,319326440,2,0.7536629438400269,-0.021856285631656647,0.006558299995958805,0.6568648815155029
1682338056.65882182,319426437,2,0.7567363381385803,-0.02162965200841427,0.007504697423428297,0.6533191800117493
1682338056.75884581,319526461,2,0.7597398161888123,-0.022248441353440285,0.007250836119055748,0.649806022644043
1682338056.85892391,319626539,2,0.7626466751098633,-0.021865801885724068,0.007936757989227772,0.6463968753814697
1682338056.95891881,319726534,2,0.7653226852416992,-0.021292997524142265,0.008060458116233349,0.6432439684867859
1682338057.05891895,319826534,2,0.7679618000984192,-0.019731685519218445,0.007760086562484503,0.6401446461677551
1682338057.15888381,319926499,2,0.7705361247062683,-0.017170850187540054,0.00812400970607996,0.6371132135391235
1682338057.25885391,320026469,2,0.7730188965797424,-0.015098960138857365,0.008422570303082466,0.6341473460197449
1682338057.35882998,320126445,2,0.7760258316993713,-0.014465976506471634,0.00895319227129221,0.6304716467857361
1682338057.45882392,320226439,2,0.7802655100822449,-0.014224177226424217,0.009419863112270832,0.6252157092094421
1682338057.55881786,320326433,2,0.7857667207717896,-0.014296567998826504,0.009652853943407536,0.6182823777198792
1682338057.65885186,320426467,2,0.7919507026672363,-0.014403506182134151,0.009749178774654865,0.6103372573852539
1682338057.75892591,320526541,2,0.7987046837806702,-0.015075883828103542,0.009994816966354847,0.6014512777328491
1682338057.85886097,320626476,2,0.8057605028152466,-0.01559402048587799,0.00995415449142456,0.5919525027275085
1682338057.95890498,320726520,2,0.8129326701164246,-0.0158318392932415,0.009667103178799152,0.5820621848106384
1682338058.05888391,320826499,2,0.8197835683822632,-0.013861321844160557,0.006845062132924795,0.5724647641181946
1682338058.15884995,320926465,2,0.8261682391166687,-0.009090593084692955,0.0010534124448895454,0.563349187374115
1682338058.25881791,321026433,2,0.8322087526321411,-0.005255918949842453,-0.0047300951555371284,0.5544173717498779
1682338058.35882783,321126443,2,0.8378830552101135,-0.0021487099584192038,-0.010844752192497253,0.5457378029823303
1682338058.45881987,321226435,2,0.8431242108345032,0.0012543484335765243,-0.016959356144070625,0.537449836730957
1682338058.55885482,321326470,2,0.8479743003845215,0.004898543003946543,-0.02279013581573963,0.529524564743042
1682338058.65894604,321426561,2,0.8523584008216858,0.008361524902284145,-0.02829451858997345,0.5221250653266907
1682338058.75886893,321526484,2,0.8563397526741028,0.012525846250355244,-0.033541977405548096,0.515170156955719
1682338058.85890293,321626518,2,0.8599658608436584,0.01526100654155016,-0.03489314764738083,0.5089285969734192
1682338058.95887899,321726494,2,0.8632773160934448,0.013164469972252846,-0.028766434639692307,0.5037375092506409
1682338059.05885291,321826468,2,0.8661792874336243,0.0073215290904045105,-0.019796306267380714,0.499287486076355
1682338059.15881681,321926432,2,0.8685221076011658,0.001166622736491263,-0.011943445540964603,0.495505154132843
1682338059.25882292,322026438,2,0.8705673813819885,-0.003313792869448662,-0.002574266865849495,0.49203136563301086
1682338059.35883284,322126448,2,0.8724388480186462,-0.009315998293459415,0.005358608905225992,0.4886051118373871
1682338059.45885587,322226471,2,0.8741579651832581,-0.01169382780790329,0.009465860202908516,0.4854085445404053
1682338059.55892682,322326542,2,0.8761582970619202,-0.010678811930119991,0.010206087492406368,0.48179706931114197
1682338059.65890598,322426521,2,0.8778476119041443,-0.01079234853386879,0.00853950809687376,0.4787423014640808
1682338059.75891495,322526530,2,0.8795355558395386,-0.007834902964532375,0.005628267768770456,0.4757353961467743
1682338059.85887980,322626495,2,0.8813100457191467,-0.0023386573884636164,0.007479117251932621,0.47247350215911865
1682338059.95884800,322726463,2,0.8834611177444458,0.003671780927106738,0.010626002214848995,0.46836960315704346
1682338060.05882001,322826435,2,0.8860955238342285,0.010044536553323269,0.013761976733803749,0.46318939328193665
1682338060.15881991,322926435,2,0.8892759680747986,0.014440394937992096,0.01710706204175949,0.45682287216186523
1682338060.25882387,323026439,2,0.8930371999740601,0.013049265369772911,0.016865957528352737,0.4494772255420685
1682338060.35887694,323126492,2,0.8973387479782104,0.007217905949801207,0.014526722952723503,0.44104424118995667
1682338060.45892382,323226539,2,0.9018871188163757,-0.002309593139216304,0.011037454940378666,0.43182462453842163
1682338060.55886292,323326478,2,0.9065696597099304,-0.012491793371737003,0.006941431667655706,0.4218141436576843
1682338060.65890884,323426524,2,0.9113775491714478,-0.017061244696378708,0.005596483126282692,0.41117942333221436
1682338060.75887489,323526490,2,0.9163239598274231,-0.01609622687101364,0.006656814366579056,0.400058776140213
1682338060.85885096,323626466,2,0.9211375713348389,-0.016169780865311623,0.006887832656502724,0.38884010910987854
1682338060.95882583,323726441,2,0.9258230328559875,-0.0179547481238842,0.0066703911870718,0.3774716258049011
1682338061.05883288,323826448,2,0.9304064512252808,-0.017490874975919724,0.007708824705332518,0.3660307228565216
1682338061.15881896,323926434,2,0.934816837310791,-0.016604015603661537,0.008103507570922375,0.3546493649482727
1682338061.25885701,324026472,2,0.9388708472251892,-0.015257204882800579,0.0075022685341537,0.3438495099544525
1682338061.35890603,324126521,2,0.9423232078552246,-0.01339185331016779,0.00786351878196001,0.3343438506126404
1682338061.45886493,324226480,2,0.9450817704200745,-0.012642411515116692,0.00806020200252533,0.32648980617523193
1682338061.55890489,324326520,2,0.947236180305481,-0.013565247878432274,0.007781335152685642,0.32015472650527954
1682338061.65888095,324426496,2,0.9487945437431335,-0.01458667404949665,0.006919344887137413,0.3154810667037964
1682338061.75885987,324526475,2,0.949749231338501,-0.016197843477129936,0.00584450364112854,0.3125377297401428
1682338061.85882497,324626440,2,0.9503032565116882,-0.01700354553759098,0.005868570879101753,0.31080561876296997
1682338061.95881796,324726433,2,0.9505565166473389,-0.015263237990438938,0.009564729407429695,0.31002888083457947
1682338062.05882001,324826435,2,0.9506338834762573,-0.011236376129090786,0.0147175882011652,0.30976179242134094
1682338062.15885687,324926472,2,0.9509246945381165,-0.004357296973466873,0.01613507978618145,0.3089706599712372
1682338062.25892496,325026540,2,0.9515776634216309,0.0028431995306164026,0.017120493575930595,0.3069181740283966
1682338062.35890698,325126522,2,0.9526853561401367,0.01033363863825798,0.017685407772660255,0.30326730012893677
1682338062.45891285,325226528,2,0.9541094899177551,0.017790211364626884,0.01681804656982422,0.2984555661678314
1682338062.55887389,325326489,2,0.955843448638916,0.02492937259376049,0.01686004176735878,0.2923312485218048
1682338062.65885782,325426473,2,0.9578847885131836,0.03183778002858162,0.017495792359113693,0.2848455011844635
1682338062.75883102,325526446,2,0.9602160453796387,0.03844084218144417,0.018711179494857788,0.2759661078453064
1682338062.85882401,325626439,2,0.9628803133964539,0.04092332720756531,0.019818997010588646,0.2660713195800781
1682338062.95882988,325726445,2,0.9659008979797363,0.03647531196475029,0.01982155628502369,0.255562424659729
1682338063.05888796,325826503,2,0.9687976241111755,0.02980497106909752,0.019646691158413887,0.24526888132095337
1682338063.15890002,325926515,2,0.9712532162666321,0.021553322672843933,0.01910313591361046,0.23629999160766602
1682338063.25886297,326026478,2,0.9734379649162292,0.010295433923602104,0.016158409416675568,0.22814789414405823
1682338063.35891986,326126535,2,0.9751232862472534,-0.0010320324217900634,0.012376513332128525,0.22131502628326416
1682338063.45887494,326226490,2,0.9764480590820312,-0.01052841916680336,0.008111728355288506,0.21534289419651031
1682338063.55885386,326326469,2,0.9773073196411133,-0.0208011195063591,0.003638617228716612,0.21077118813991547
1682338063.65883183,326426447,2,0.9778946042060852,-0.027622852474451065,0.0007879824261181056,0.2072642743587494
1682338063.75882292,326526438,2,0.9783905744552612,-0.026826558634638786,-9.798148676054552e-05,0.20501768589019775
1682338063.85881686,326626432,2,0.9786810874938965,-0.02572987973690033,-0.00020661897724494338,0.2037677764892578
1682338063.95887184,326726487,2,0.9787988066673279,-0.023979879915714264,0.0005327000399120152,0.20341476798057556
1682338064.05892801,326826543,2,0.9788250923156738,-0.018270183354616165,0.002116304123774171,0.20387031137943268
1682338064.15886688,326926482,2,0.9786089062690735,-0.015860656276345253,0.0029397362377494574,0.20509599149227142
1682338064.25889897,327026514,2,0.9782558679580688,-0.015599532052874565,0.0035934187471866608,0.2067829817533493
1682338064.35888100,327126496,2,0.9779293537139893,-0.012792058289051056,0.004332848358899355,0.2084987908601761
1682338064.45885181,327226467,2,0.9776791930198669,-0.012433784082531929,0.004741043783724308,0.2096814066171646
1682338064.55882382,327326439,2,0.9775593876838684,-0.013008352369070053,0.00431793974712491,0.2102137953042984
1682338064.65883398,327426449,2,0.9775588512420654,-0.0118086077272892,0.004476548172533512,0.21028371155261993
1682338064.75882983,327526445,2,0.977665901184082,-0.010621068067848682,0.0047225491143763065,0.20984351634979248
1682338064.85885382,327626469,2,0.9779462814331055,-0.00962704885751009,0.004572711419314146,0.20858456194400787
1682338064.95893288,327726548,2,0.9783346056938171,-0.00869104266166687,0.004520657937973738,0.2067980319261551
1682338065.05893183,327826547,2,0.9788274168968201,-0.00870710238814354,0.004324500914663076,0.2044563740491867
1682338065.15889788,327926513,2,0.9793988466262817,-0.008792645297944546,0.0041915373876690865,0.2017003744840622
1682338065.25886989,328026485,2,0.9800435900688171,-0.008865395560860634,0.004338523373007774,0.19853751361370087
1682338065.35884881,328126464,2,0.9807819724082947,-0.008565524592995644,0.004900584928691387,0.19485726952552795
1682338065.45881701,328226432,2,0.981643557548523,-0.005627689883112907,0.005689871031790972,0.1905568242073059
1682338065.55882502,328326440,2,0.9826396107673645,0.00042967675835825503,0.006937200669199228,0.1853943169116974
1682338065.65882397,328426439,2,0.9836744070053101,0.006716254632920027,0.008764761500060558,0.1796182245016098
1682338065.75885701,328526472,2,0.984727144241333,0.013497422449290752,0.010464207269251347,0.17326489090919495
1682338065.85894203,328626557,2,0.985728919506073,0.02050011418759823,0.011713827028870583,0.1666765660047531
1682338065.95887184,328726487,2,0.9866734147071838,0.026983367279171944,0.012892108410596848,0.15994158387184143
1682338066.05890203,328826517,2,0.9875422716140747,0.030074656009674072,0.013619523495435715,0.1538516730070114
1682338066.15888190,328926497,2,0.9884610772132874,0.025822743773460388,0.013235301710665226,0.14866968989372253
1682338066.25885391,329026469,2,0.9892929196357727,0.017775019630789757,0.011573748663067818,0.1443939507007599
1682338066.35883498,329126450,2,0.989974856376648,0.009202594868838787,0.009513291530311108,0.14062218368053436
1682338066.45883703,329226452,2,0.9904459118843079,0.0002826075942721218,0.007316241972148418,0.13770708441734314
1682338066.55882382,329326439,2,0.9907217621803284,-0.008740471675992012,0.005193247925490141,0.13552507758140564
1682338066.65886903,329426484,2,0.990861177444458,-0.01489458978176117,0.003505064407363534,0.13401509821414948
1682338066.75895786,329526573,2,0.990959107875824,-0.01536566298455,0.0034766693133860826,0.13323596119880676
1682338066.85890794,329626523,2,0.9910070896148682,-0.013729088008403778,0.0037525708321481943,0.13305017352104187
1682338066.95890403,329726519,2,0.9909698963165283,-0.013005785644054413,0.003590559121221304,0.13340383768081665
1682338067.05887389,329826489,2,0.9908924698829651,-0.0125401820987463,0.003715365193784237,0.1340186893939972
1682338067.15885901,329926474,2,0.9907585382461548,-0.012225997634232044,0.0034420089796185493,0.13504168391227722
1682338067.25882483,330026440,2,0.9905862212181091,-0.012248661369085312,0.003461226588115096,0.13629740476608276
1682338067.35883188,330126447,2,0.9903930425643921,-0.012435641139745712,0.0033800897654145956,0.13767923414707184
1682338067.45881796,330226433,2,0.9901689291000366,-0.011910569854080677,0.0030218486208468676,0.1393359750509262
1682338067.55885482,330326470,2,0.9899734854698181,-0.0079782260581851,0.0031774439848959446,0.14099189639091492
1682338067.65893984,330426555,2,0.9897474646568298,-0.0007198445382528007,0.003601671429350972,0.14278113842010498
1682338067.75891590,330526531,2,0.9894590377807617,0.006113636773079634,0.005141059868037701,0.14459247887134552
1682338067.85890794,330626523,2,0.9891393184661865,0.0120773296803236,0.0071455189026892185,0.1463095098733902
1682338067.95887494,330726490,2,0.9888240098953247,0.0184323750436306,0.00830754917114973,0.14771030843257904
1682338068.05884886,330826464,2,0.9885764718055725,0.02125602401793003,0.008408252149820328,0.1489766538143158
1682338068.15882492,330926440,2,0.988470733165741,0.018812617287039757,0.007771435659378767,0.15003782510757446
1682338068.25881696,331026432,2,0.9884008765220642,0.015424391254782677,0.00743735721334815,0.15089888870716095
1682338068.35882187,331126437,2,0.9883781671524048,0.009899106808006763,0.00681235222145915,0.1515393704175949
1682338068.45885181,331226467,2,0.9883816242218018,0.0031885020434856415,0.005384302232414484,0.15186381340026855
1682338068.55891585,331326531,2,0.9883573055267334,-0.0013034470612183213,0.004423296544700861,0.15208084881305695
1682338068.65891290,331426528,2,0.9883590340614319,-0.004176899790763855,0.0031938476022332907,0.1520485132932663
1682338068.75890493,331526520,2,0.9883435368537903,-0.00824713334441185,0.0035296359565109015,0.15197564661502838
1682338068.85887599,331626491,2,0.9883972406387329,-0.00690385652706027,0.0048036579973995686,0.15165787935256958
1682338068.95885181,331726467,2,0.9884572625160217,-0.002605469198897481,0.005452567711472511,0.1513795405626297
1682338069.05883002,331826445,2,0.9885085225105286,-0.0035541572142392397,0.0041921199299395084,0.15106530487537384
1682338069.15882182,331926437,2,0.9885838031768799,-0.005267982836812735,0.003062221920117736,0.15054889023303986
1682338069.25881886,332026434,2,0.988629162311554,-0.004880500957369804,0.003265720559284091,0.1502595990896225
1682338069.35887384,332126489,2,0.9886564612388611,-0.008798060938715935,0.0024265602696686983,0.14991699159145355
1682338069.45894384,332226559,2,0.9886755347251892,-0.013766555115580559,0.0007979960646480322,0.1494339108467102
1682338069.55892897,332326544,2,0.9887402653694153,-0.012724748812615871,0.0023718690499663353,0.1490810513496399
1682338069.65889883,332426514,2,0.9888185858726501,-0.01120861154049635,0.0037411923985928297,0.14865471422672272
1682338069.75888395,332526499,2,0.9888644814491272,-0.010001108981668949,0.0029850665014237165,0.14845244586467743
1682338069.85885596,332626471,2,0.9889150261878967,-0.004631099756807089,0.004500773269683123,0.14834190905094147
1682338069.95882297,332726438,2,0.9888848662376404,0.0018527311040088534,0.006604510825127363,0.14852486550807953
1682338070.05883288,332826448,2,0.9888401627540588,0.00718055572360754,0.0074403551407158375,0.14862096309661865
1682338070.15882802,332926443,2,0.9887888431549072,0.010802291333675385,0.007450118660926819,0.1487429291009903
1682338070.25882888,333026444,2,0.9887712001800537,0.009902507066726685,0.008001233451068401,0.14889420568943024
1682338070.35892797,333126543,2,0.9887730479240417,0.008362727239727974,0.007023076061159372,0.1490253508090973
1682338070.45892000,333226535,2,0.988764762878418,0.008347418159246445,0.004693010821938515,0.14917297661304474
1682338070.55889392,333326509,2,0.9887972474098206,0.007599577307701111,0.004545106086879969,0.1490020900964737
1682338070.65886092,333426476,2,0.9887898564338684,0.004712744615972042,0.004230412654578686,0.14917930960655212
1682338070.75885582,333526471,2,0.9888202548027039,0.001819305936805904,0.0021913941018283367,0.14908534288406372
1682338070.85882783,333626443,2,0.9887744784355164,-0.002173708053305745,0.0008883317932486534,0.1493971347808838
1682338070.95882487,333726440,2,0.9887471795082092,-0.006234059575945139,0.0015681853983551264,0.14945802092552185
1682338071.05882382,333826439,2,0.9886893033981323,-0.01042691059410572,0.0017865394474938512,0.14960472285747528
1682338071.15885091,333926466,2,0.9885843396186829,-0.013024641200900078,0.003082458395510912,0.15007299184799194
1682338071.25892997,334026545,2,0.9885582327842712,-0.011042073369026184,0.005090511403977871,0.1503487080335617
1682338071.35886884,334126484,2,0.9885409474372864,-0.01062232255935669,0.007296236231923103,0.15040189027786255
1682338071.45890498,334226520,2,0.9887096285820007,-0.011155165731906891,0.006684281397610903,0.1492787003517151
1682338071.55887794,334326493,2,0.9889166355133057,-0.010621532797813416,0.0055205379612743855,0.14798834919929504
1682338071.65885282,334426468,2,0.988774836063385,-0.010247248224914074,0.006717887241393328,0.14891012012958527
1682338071.75882387,334526439,2,0.9888817667961121,-0.010606189258396626,0.006588587071746588,0.14817874133586884
1682338071.85881782,334626433,2,0.988813579082489,-0.010301916860044003,0.006783509626984596,0.14864560961723328
1682338071.95881701,334726432,2,0.9888125061988831,-0.010213281027972698,0.00668712705373764,0.14866332709789276
1682338072.05884600,334826461,2,0.9888338446617126,-0.010447511449456215,0.006439021788537502,0.1485159695148468
1682338072.15892196,334926537,2,0.9887906908988953,-0.010461339727044106,0.006613666657358408,0.1487942934036255
1682338072.25886297,335026478,2,0.988797664642334,-0.010164184495806694,0.0063597834669053555,0.14877960085868835
1682338072.35890102,335126516,2,0.9888299703598022,-0.010487972758710384,0.0065209283493459225,0.14853523671627045
1682338072.45887995,335226495,2,0.9887665510177612,-0.010198807343840599,0.006426486652344465,0.14898134768009186
1682338072.55884600,335326461,2,0.9887595176696777,-0.010178228840231895,0.00636233389377594,0.14903192222118378
1682338072.65881801,335426433,2,0.9888350367546082,-0.009967075660824776,0.006156816612929106,0.14855319261550903
1682338072.75882387,335526439,2,0.9887717366218567,-0.010302484966814518,0.006403717212378979,0.14894065260887146
1682338072.85881782,335626433,2,0.9888790845870972,-0.010303148999810219,0.006341935601085424,0.14822876453399658
1682338072.95884681,335726462,2,0.9888110160827637,-0.010472714900970459,0.006477454677224159,0.148664653301239
1682338073.05890894,335826524,2,0.9887446165084839,-0.010238437913358212,0.006510719191282988,0.1491203010082245
1682338073.15885401,335926469,2,0.9888655543327332,-0.010713757015764713,0.006302772089838982,0.14829154312610626
1682338073.25889587,336026511,2,0.9887399673461914,-0.010565945878624916,0.006534743122756481,0.14912742376327515
1682338073.35886002,336126475,2,0.9887160062789917,-0.01073331106454134,0.006451507098972797,0.14927762746810913
