timestamp,TimeUS,C,Roll,Pitch,Yaw,VN,VE,VD,dPD,PN,PE,PD,GX,GY,GZ,OH
1682338020.45881796,283226433,2,-0.03,0.71,328.04,-0.03672418370842934,-0.011675648391246796,0.004875736776739359,0.02670755423605442,5.070830345153809,3.567169666290283,-0.06924654543399811,-0.08,0.04,0.4,254.20000000000002
1682338020.55882001,283326435,2,-0.04,0.71,328.01,-0.03710705414414406,-0.01069704256951809,0.0048026894219219685,0.009132332168519497,5.060542106628418,3.5679702758789062,-0.0687427669763565,-0.08,0.04,0.4,254.20000000000002
1682338020.65881681,283426432,2,-0.03,0.71,327.98,-0.037953272461891174,-0.008430350571870804,0.00429248483851552,0.0005167595809325576,5.049604415893555,3.5698232650756836,-0.06855060160160065,-0.08,0.04,0.39,254.20000000000002
1682338020.75885296,283526468,2,-0.03,0.72,327.95,-0.038918014615774155,-0.005870151799172163,0.003348096739500761,-0.00337881688028574,5.038582801818848,3.5725131034851074,-0.0685429722070694,-0.08,0.04,0.39,254.20000000000002
1682338020.85893202,283626547,2,-0.03,0.71,327.92,-0.03808917850255966,-0.0029774405993521214,0.003157606814056635,-0.006786947604268789,5.027698040008545,3.5756211280822754,-0.0691009908914566,-0.08,0.04,0.4,254.20000000000002
1682338020.95885897,283726474,2,-0.02,0.71,327.89,-0.03645970672369003,0.0001084861796698533,0.0022856215946376324,-0.012459333054721355,5.018306732177734,3.5787036418914795,-0.07007361948490143,-0.08,0.04,0.4,254.20000000000002
1682338021.05890203,283826517,2,-0.02,0.71,327.85,-0.033780429512262344,0.002987990388646722,0.0018630805425345898,-0.01686505228281021,5.00805139541626,3.581911325454712,-0.07154084742069244,-0.08,0.04,0.4,254.20000000000002
1682338021.15886998,283926485,2,-0.02,0.71,327.81,-0.030895357951521873,0.006206923630088568,0.002373709576204419,-0.017907805740833282,4.998885154724121,3.5849878787994385,-0.07301165163516998,-0.08,0.04,0.4,254.20000000000002
1682338021.25884485,284026460,2,-0.03,0.71,327.78000000000003,-0.028693007305264473,0.008174391463398933,0.002098324941471219,-0.011223429813981056,4.988351821899414,3.588343620300293,-0.0738159567117691,-0.08,0.04,0.39,254.20000000000002
1682338021.35882592,284126441,2,-0.03,0.72,327.74,-0.02592518739402294,0.010988379828631878,0.003071726532652974,-0.003300470532849431,4.979617118835449,3.591413974761963,-0.07420159876346588,-0.08,0.04,0.4,254.20000000000002
1682338021.45882082,284226436,2,-0.04,0.72,327.72,-0.024571146816015244,0.012128119356930256,0.002371817361563444,-0.011930681765079498,4.969654083251953,3.594285726547241,-0.07587350904941559,-0.08,0.04,0.4,254.20000000000002
1682338021.55881286,284326428,2,-0.04,0.73,327.69,-0.023816974833607674,0.01274317316710949,0.001015553018078208,-0.026759162545204163,4.9604644775390625,3.5967795848846436,-0.07829345762729645,-0.08,0.04,0.4,254.20000000000002
1682338021.65885496,284426470,2,-0.05,0.73,327.65000000000003,-0.01939084380865097,0.011109931394457817,0.0004300712316762656,-0.03678007796406746,4.951837062835693,3.5978081226348877,-0.08181668817996979,-0.08,0.04,0.4,254.20000000000002
1682338021.75893688,284526552,2,-0.05,0.73,327.63,-0.013956223614513874,0.008854945190250874,-0.0008925899164751172,-0.03960775211453438,4.945268630981445,3.5978026390075684,-0.08496393263339996,-0.08,0.04,0.4,254.20000000000002
1682338021.85885382,284626469,2,-0.05,0.73,327.6,-0.008888307958841324,0.006969773676246405,-0.0012654182501137257,-0.028283575549721718,4.937613487243652,3.5975236892700195,-0.08746053278446198,-0.08,0.04,0.39,254.20000000000002
1682338021.95889902,284726514,2,-0.06,0.72,327.57,-0.005009260959923267,0.004610797390341759,-0.002502909628674388,-0.023975376039743423,4.931026458740234,3.5969655513763428,-0.08984352648258209,-0.08,0.04,0.39,254.20000000000002
1682338022.05886483,284826480,2,-0.06,0.73,327.54,-0.0030915401875972748,0.002181394025683403,-0.0028413718100637197,-0.012370158918201923,4.923090934753418,3.59643816947937,-0.09070898592472076,-0.08,0.04,0.39,254.20000000000002
1682338022.15884280,284926458,2,-0.06,0.73,327.5,-0.0012293359031900764,0.00086249690502882,-0.003037187736481428,0.003112921491265297,4.915884017944336,3.5958144664764404,-0.09078194200992584,-0.08,0.04,0.39,254.20000000000002
1682338022.25881481,285026430,2,-0.05,0.74,327.47,0.0005073561915196478,0.0015589067479595542,-0.002973095281049609,-0.005070534534752369,4.907991886138916,3.596433401107788,-0.09228266775608063,-0.08,0.04,0.39,254.20000000000002
1682338022.35881400,285126429,2,-0.06,0.73,327.43,0.0026598188560456038,0.003481385763734579,-0.0036305885296314955,-0.01933250017464161,4.901240348815918,3.5977284908294678,-0.09422232210636139,-0.08,0.04,0.39,254.20000000000002
1682338022.45881701,285226432,2,-0.06,0.73,327.40000000000003,0.0027814835775643587,0.003877210197970271,-0.004025961738079786,-0.01219389121979475,4.892419815063477,3.59832763671875,-0.09490825235843658,-0.08,0.04,0.4,254.20000000000002
1682338022.55885696,285326472,2,-0.06,0.73,327.37,0.0019467660458758473,0.0030295830219984055,-0.003719019703567028,-0.004672851879149675,4.884006023406982,3.5984573364257812,-0.09556807577610016,-0.08,0.04,0.4,254.20000000000002
1682338022.65892291,285426538,2,-0.06,0.74,327.34000000000003,0.0013036018935963511,0.0022443856578320265,-0.003548120614141226,0.00625058077275753,4.874354839324951,3.5985987186431885,-0.09456135332584381,-0.08,0.04,0.4,254.20000000000002
1682338022.75886297,285526478,2,-0.06,0.73,327.31,0.0012994538992643356,0.0015054814284667373,-0.003013154724612832,0.018451018258929253,4.86561393737793,3.598639726638794,-0.09341646730899811,-0.08,0.04,0.4,254.20000000000002
1682338022.85889602,285626511,2,-0.06,0.74,327.28000000000003,0.002155492315068841,0.0006682713865302503,-0.00358388340100646,0.009537073783576488,4.856393814086914,3.5986075401306152,-0.09309066832065582,-0.08,0.04,0.4,254.20000000000002
1682338022.95886993,285726485,2,-0.06,0.74,327.25,0.0032559570390731096,-0.0003505884378682822,-0.002871110802516341,-0.00026099165552295744,4.848521709442139,3.5984549522399902,-0.09328295290470123,-0.08,0.04,0.39,254.20000000000002
1682338023.05885386,285826469,2,-0.07,0.74,327.22,0.0021831304766237736,-0.0016640693647786975,-0.002756544156000018,0.000628525682259351,4.838466167449951,3.5983057022094727,-0.09290625154972076,-0.08,0.04,0.39,254.20000000000002
1682338023.15881801,285926433,2,-0.07,0.74,327.19,0.00042226529330946505,-0.0019316680263727903,-0.002389378845691681,0.003561233403161168,4.828816890716553,3.598067045211792,-0.09262646734714508,-0.08,0.04,0.39,254.20000000000002
1682338023.25881982,286026435,2,-0.09,0.75,327.16,-0.002204220974817872,-0.0015135734574869275,-0.001979956403374672,0.013318597339093685,4.817655563354492,3.5979247093200684,-0.09083570539951324,-0.08,0.04,0.39,254.20000000000002
1682338023.35882497,286126440,2,-0.09,0.75,327.14,-0.006709914654493332,-0.0023147808387875557,-0.0020349526312202215,0.023193106055259705,4.807326316833496,3.597755193710327,-0.08902241289615631,-0.08,0.04,0.39,254.20000000000002
1682338023.45887089,286226486,2,-0.09,0.76,327.11,-0.004168696701526642,-0.0027305460534989834,-0.0009388006874360144,0.0116603197529912,4.796369552612305,3.5981428623199463,-0.08851970732212067,-0.08,0.04,0.39,254.20000000000002
1682338023.55892801,286326543,2,-0.1,0.75,327.07,-0.01125971507281065,-0.0009200080530717969,-0.002842721762135625,-0.0009460101719014347,4.786764144897461,3.598752737045288,-0.08830119669437408,-0.08,0.04,0.39,254.20000000000002
1682338023.65886998,286426485,2,-0.08,0.77,327.03000000000003,0.005124362651258707,0.0003485552151687443,-0.0024429759941995144,0.0010080772917717695,4.774003505706787,3.5992138385772705,-0.08776332437992096,-0.08,0.04,0.39,254.20000000000002
1682338023.75890899,286526524,2,-0.08,0.76,327.02,0.0023500085808336735,0.0012469467474147677,-0.001026465673930943,0.0028150142170488834,4.761518955230713,3.5994019508361816,-0.08765222132205963,-0.08,0.04,0.39,254.20000000000002
1682338023.85887003,286626485,2,-0.1,0.73,326.98,-0.0033192362170666456,-0.022001219913363457,-0.0018563454505056143,-0.027695706114172935,4.7502336502075195,3.6001384258270264,-0.09178735315799713,-0.08,0.04,0.39,254.20000000000002
1682338023.95885587,286726471,2,-0.04,0.71,326.96,-0.009498327039182186,-0.006079880986362696,-0.0012861167779192328,-0.0647602528333664,4.740628242492676,3.600426197052002,-0.09765161573886871,-0.08,0.04,0.39,254.20000000000002
1682338024.05882692,286826442,2,-0.09,0.71,326.94,0.00344281573779881,0.00814330019056797,0.0008362508378922939,-0.049985308200120926,4.729370594024658,3.600313663482666,-0.10142041742801666,-0.08,0.04,0.39,254.20000000000002
1682338024.15882397,286926439,2,-0.06,0.72,326.89,0.014456406235694885,0.0120534747838974,-0.0016821137396618724,-0.024769539013504982,4.719451904296875,3.5992648601531982,-0.10394705832004547,-0.08,0.04,0.39,254.20000000000002
1682338024.25882101,287026436,2,-0.1,0.72,326.90000000000003,0.016683142632246017,0.004599135369062424,-0.012605274096131325,-0.028903862461447716,4.708101272583008,3.598602294921875,-0.1068056970834732,-0.08,0.04,0.39,254.20000000000002
1682338024.35887384,287126489,2,-0.09,0.73,326.85,0.018247684463858604,0.004165909253060818,-0.010224931873381138,-0.02694648504257202,4.697120189666748,3.5975635051727295,-0.10964180529117584,-0.08,0.04,0.39,254.20000000000002
1682338024.45894980,287226565,2,-0.09,0.73,326.81,0.005742288194596767,-0.012373331002891064,-0.010179813019931316,-0.04362001642584801,4.688587188720703,3.5967376232147217,-0.1143963485956192,-0.08,0.04,0.39,254.20000000000002
1682338024.55886102,287326476,2,-0.12,0.73,326.79,0.017566703259944916,-0.011275566183030605,-0.014382530935108662,-0.0723608061671257,4.680667877197266,3.5957460403442383,-0.120826855301857,-0.08,0.04,0.39,254.20000000000002
1682338024.65890098,287426516,2,-0.09,0.73,326.77,-0.004664141219109297,-0.021726934239268303,-0.009123330004513264,-0.05967695266008377,4.672759056091309,3.595046281814575,-0.12604381144046783,-0.08,0.04,0.39,254.20000000000002
1682338024.75887299,287526488,2,-0.14,0.74,326.73,-0.01566177047789097,-0.012765217572450638,-0.009857929311692715,-0.04157901555299759,4.6658148765563965,3.595217704772949,-0.1301286369562149,-0.08,0.04,0.39,254.20000000000002
1682338024.85885286,287626468,2,-0.11,0.74,326.7,-0.018111100420355797,0.0032487527932971716,-0.01120030414313078,-0.013348476961255074,4.658249855041504,3.594845771789551,-0.1310894638299942,-0.08,0.04,0.39,254.20000000000002
1682338024.95882583,287726441,2,-0.11,0.75,326.66,-0.02656085044145584,-0.015757746994495392,-0.010378828272223473,0.014048056676983833,4.650832653045654,3.594275712966919,-0.13075996935367584,-0.08,0.04,0.39,254.20000000000002
1682338025.05883098,287826446,2,-0.12,0.73,326.65000000000003,-0.029201917350292206,-0.00722142681479454,-0.010561051778495312,0.0034960885532200336,4.642571926116943,3.594595193862915,-0.1315014511346817,-0.08,0.04,0.39,254.20000000000002
1682338025.15881681,287926432,2,-0.11,0.71,326.56,-0.02353544905781746,-0.021906640380620956,-0.011727637611329556,-0.016623444855213165,4.633935928344727,3.5955588817596436,-0.13375486433506012,-0.08,0.04,0.39,254.20000000000002
1682338025.25885892,288026474,2,-0.14,0.67,326.58,-0.02608310617506504,-0.02384020760655403,-0.01479970384389162,-0.051135722547769547,4.624395370483398,3.595613956451416,-0.13932372629642487,-0.08,0.04,0.39,254.20000000000002
1682338025.35892701,288126542,2,-0.12,0.5700000000000001,326.6,0.00781958270817995,-0.013466836884617805,-0.01883988454937935,-0.08037023991346359,4.617290496826172,3.594883441925049,-0.14697064459323883,-0.08,0.04,0.39,254.20000000000002
1682338025.45886588,288226481,2,0.02,0.2,326.62,0.011357476934790611,-0.022644152864813805,-0.1486571580171585,-0.21626508235931396,4.610023021697998,3.592895030975342,-0.15904118120670319,-0.08,0.04,0.39,254.20000000000002
1682338025.55889988,288326515,2,0.5,-0.05,326.63,0.021325910463929176,-0.024782851338386536,-0.4663201570510864,-0.5399786233901978,4.604083061218262,3.5899484157562256,-0.19544865190982819,-0.08,0.04,0.39,254.20000000000002
1682338025.65888190,288426497,2,0.73,0.32,326.62,0.02662770450115204,-0.01918412558734417,-0.7005841732025146,-0.8214894533157349,4.599052429199219,3.588329553604126,-0.26726141571998596,-0.08,0.04,0.39,254.20000000000002
1682338025.75885296,288526468,2,0.92,0.89,326.59000000000003,0.03110385499894619,-0.021257413551211357,-0.7612799406051636,-0.9335828423500061,4.596108436584473,3.588224411010742,-0.3566397726535797,-0.08,0.04,0.39,254.20000000000002
1682338025.85881782,288626433,2,0.9400000000000001,0.93,326.56,0.03390839323401451,-0.01574513502418995,-0.7595585584640503,-0.9607000946998596,4.58907413482666,3.585627794265747,-0.45172861218452454,-0.08,0.04,0.39,254.20000000000002
1682338025.95882082,288726436,2,0.7000000000000001,0.85,326.54,0.022202495485544205,-0.006567896343767643,-0.7061466574668884,-0.9003655314445496,4.581460952758789,3.5825817584991455,-0.5423981547355652,-0.08,0.04,0.39,254.20000000000002
1682338026.05881691,288826432,2,0.24,0.9,326.52,0.015824051573872566,-0.00708879204466939,-0.6183934211730957,-0.7168402075767517,4.571903228759766,3.580042839050293,-0.6151422262191772,-0.08,0.04,0.39,254.20000000000002
1682338026.15884495,288926460,2,0.0,0.63,326.55,0.0099297184497118,-0.004820060450583696,-0.525194525718689,-0.48079559206962585,4.559345245361328,3.5775136947631836,-0.6693190336227417,-0.08,0.04,0.39,254.20000000000002
1682338026.25893188,289026547,2,-0.07,0.32,326.62,-7.891180575825274e-05,-0.006612985860556364,-0.4339657425880432,-0.29006505012512207,4.54352331161499,3.5728683471679688,-0.704219400882721,-0.08,0.04,0.39,254.20000000000002
1682338026.35886693,289126482,2,-0.02,0.23,326.72,-0.004896036349236965,-0.013300682418048382,-0.37031885981559753,-0.15637534856796265,4.527945518493652,3.5675175189971924,-0.7282435894012451,-0.08,0.04,0.39,254.20000000000002
1682338026.45890784,289226523,2,0.3,0.19,326.82,-0.00120872026309371,-0.013238525949418545,-0.31783655285835266,-0.11231054365634918,4.516401290893555,3.5628368854522705,-0.7448659539222717,-0.08,0.04,0.39,254.20000000000002
1682338026.55886793,289326483,2,0.64,0.13,327.0,0.0023219946306198835,-0.02045547589659691,-0.2545463740825653,-0.09683340787887573,4.508606910705566,3.558788776397705,-0.762701153755188,-0.08,0.04,0.39,254.20000000000002
1682338026.65884995,289426465,2,0.71,0.19,327.18,0.004944917280226946,-0.02310987003147602,-0.2555040717124939,-0.11323036253452301,4.502388954162598,3.5527210235595703,-0.7723108530044556,-0.08,0.04,0.39,254.20000000000002
1682338026.75882483,289526440,2,0.85,0.37,327.32,0.01693076826632023,-0.006680063437670469,-0.2517890930175781,-0.13617849349975586,4.499411106109619,3.548123598098755,-0.7883761525154114,-0.08,0.04,0.39,254.20000000000002
1682338026.85881591,289626431,2,1.3800000000000001,0.78,327.49,0.023461980745196342,0.00719040771946311,-0.24902381002902985,-0.20023579895496368,4.49600887298584,3.5449845790863037,-0.8088967800140381,-0.08,0.04,0.39,254.20000000000002
1682338026.95882082,289726436,2,2.59,1.43,327.85,0.03517526015639305,0.05101581662893295,-0.26228299736976624,-0.2510885000228882,4.494265556335449,3.5456106662750244,-0.8320751786231995,-0.08,0.04,0.39,254.20000000000002
1682338027.05886698,289826482,2,3.74,2.22,328.40000000000003,0.04001091420650482,0.09928268194198608,-0.2740282416343689,-0.24827271699905396,4.490401268005371,3.552084445953369,-0.8534281849861145,-0.08,0.04,0.39,254.20000000000002
1682338027.15893984,289926555,2,3.8200000000000003,3.06,329.04,0.030158568173646927,0.15290366113185883,-0.25652530789375305,-0.21832579374313354,4.486270904541016,3.564675807952881,-0.8763335943222046,-0.08,0.04,0.39,254.20000000000002
1682338027.25890589,290026521,2,3.46,3.36,329.78000000000003,0.025960378348827362,0.23074570298194885,-0.248301163315773,-0.2634921073913574,4.480856418609619,3.587186336517334,-0.904363751411438,-0.08,0.04,0.39,254.20000000000002
1682338027.35889983,290126515,2,2.98,3.09,330.66,0.014140375889837742,0.300100177526474,-0.26461395621299744,-0.33482626080513,4.475307464599609,3.6179394721984863,-0.9356940388679504,-0.08,0.04,0.39,254.20000000000002
1682338027.45885897,290226474,2,1.96,2.49,331.7,-0.0046980478800833225,0.34576815366744995,-0.2641252875328064,-0.35379132628440857,4.465465545654297,3.652346134185791,-0.9691418409347534,-0.08,0.04,0.39,254.20000000000002
1682338027.55884480,290326460,2,1.05,1.98,332.86,-0.015629470348358154,0.39232438802719116,-0.2468900829553604,-0.336849182844162,4.454540729522705,3.690502882003784,-1.0016272068023682,-0.08,0.04,0.39,254.20000000000002
1682338027.65882301,290426438,2,1.0,1.3900000000000001,334.01,-0.029765890911221504,0.4140355587005615,-0.24990752339363098,-0.33733251690864563,4.434710502624512,3.7243547439575195,-1.034160852432251,-0.08,0.04,0.39,254.20000000000002
1682338027.75882196,290526437,2,1.19,1.37,335.14,-0.062230002135038376,0.42650356888771057,-0.25831541419029236,-0.3441292941570282,4.411558151245117,3.7577743530273438,-1.0673900842666626,-0.08,0.04,0.39,254.20000000000002
1682338027.85882187,290626437,2,2.0100000000000002,2.29,336.28000000000003,-0.07940699905157089,0.48158565163612366,-0.25154468417167664,-0.3276899456977844,4.389528751373291,3.7932956218719482,-1.0987579822540283,-0.08,0.04,0.39,254.20000000000002
1682338027.95885181,290726467,2,3.74,2.77,337.33,-0.08046143501996994,0.5243820548057556,-0.2536619007587433,-0.32360076904296875,4.3701887130737305,3.8348631858825684,-1.13199782371521,-0.08,0.04,0.39,254.20000000000002
1682338028.05893493,290826550,2,4.16,2.5,338.19,-0.1143479198217392,0.5756261944770813,-0.2647145688533783,-0.316426157951355,4.3408379554748535,3.8767495155334473,-1.162126898765564,-0.08,0.04,0.39,254.20000000000002
1682338028.15886497,290926480,2,3.83,2.5,338.99,-0.12871786952018738,0.6442704796791077,-0.2586864233016968,-0.28801289200782776,4.309541702270508,3.925820827484131,-1.191332221031189,-0.08,0.04,0.39,254.20000000000002
1682338028.25890398,291026519,2,4.05,2.36,339.63,-0.1431168168783188,0.7157520651817322,-0.2734459638595581,-0.3194618821144104,4.275594234466553,3.9807660579681396,-1.2232016324996948,-0.08,0.04,0.39,254.20000000000002
1682338028.35890889,291126524,2,4.11,2.1,340.14,-0.16013386845588684,0.7722465991973877,-0.28224048018455505,-0.35416796803474426,4.239689350128174,4.041501522064209,-1.2570573091506958,-0.08,0.04,0.39,254.20000000000002
1682338028.45886302,291226478,2,3.97,2.06,340.53000000000003,-0.17786796391010284,0.8292896151542664,-0.26836615800857544,-0.3427707552909851,4.199202060699463,4.106265544891357,-1.2922559976577759,-0.08,0.03,0.39,254.20000000000002
1682338028.55882192,291326437,2,3.96,1.97,340.79,-0.1928136646747589,0.8915351033210754,-0.2935120165348053,-0.36998042464256287,4.155925750732422,4.1765899658203125,-1.3280866146087646,-0.08,0.03,0.39,254.20000000000002
1682338028.65886283,291426478,2,3.8200000000000003,1.99,340.93,-0.2169162482023239,0.9477851390838623,-0.30866432189941406,-0.4224300682544708,4.11026668548584,4.249889850616455,-1.3708302974700928,-0.07,0.03,0.39,254.20000000000002
1682338028.75882101,291526436,2,3.59,2.3000000000000003,341.01,-0.24129053950309753,1.0074878931045532,-0.3327661156654358,-0.47978559136390686,4.062623500823975,4.3275146484375,-1.4153293371200562,-0.07,0.03,0.39,254.20000000000002
1682338028.85882783,291626443,2,3.33,2.46,340.97,-0.269966185092926,1.054829478263855,-0.33493220806121826,-0.452622652053833,4.011839389801025,4.409555435180664,-1.4588664770126343,-0.07,0.03,0.39,254.20000000000002
1682338028.95894098,291726556,2,2.88,2.66,340.90000000000003,-0.2967737317085266,1.090260624885559,-0.3440471589565277,-0.43776974081993103,3.9583518505096436,4.495414733886719,-1.5012588500976562,-0.07,0.03,0.39,254.20000000000002
1682338029.05891395,291826529,2,2.69,2.99,340.95,-0.3424888551235199,1.1340411901474,-0.3626527488231659,-0.45490947365760803,3.900028705596924,4.587333679199219,-1.547345519065857,-0.07,0.03,0.38,254.20000000000002
1682338029.15889692,291926512,2,2.65,3.22,341.13,-0.3828956186771393,1.188127040863037,-0.37941214442253113,-0.4882466495037079,3.837967872619629,4.684735298156738,-1.594642996788025,-0.07,0.03,0.38,254.20000000000002
1682338029.25887704,292026492,2,2.64,3.15,341.39,-0.43365153670310974,1.2194328308105469,-0.3808104693889618,-0.44747838377952576,3.75820255279541,4.782635688781738,-1.638124704360962,-0.06,0.03,0.38,254.20000000000002
1682338029.35885882,292126474,2,2.72,3.17,341.83,-0.494169145822525,1.2517653703689575,-0.3917948603630066,-0.4203232526779175,3.6720945835113525,4.886053562164307,-1.6801586151123047,-0.06,0.03,0.38,254.20000000000002
1682338029.45883393,292226449,2,2.73,3.25,342.49,-0.5536627769470215,1.2934149503707886,-0.41366833448410034,-0.4149881601333618,3.577378511428833,4.995798587799072,-1.7211507558822632,-0.06,0.02,0.38,254.20000000000002
1682338029.55882382,292326439,2,2.58,3.33,343.37,-0.6103342771530151,1.3305482864379883,-0.4324563145637512,-0.42625293135643005,3.4809410572052,5.112878799438477,-1.76405668258667,-0.06,0.02,0.38,254.20000000000002
1682338029.65882182,292426437,2,2.43,3.41,344.46,-0.6707281470298767,1.355478286743164,-0.4237706959247589,-0.44282904267311096,3.3734099864959717,5.2299652099609375,-1.8108479976654053,-0.06,0.02,0.38,254.20000000000002
1682338029.75888085,292526496,2,2.17,3.39,345.71,-0.7296367287635803,1.3746966123580933,-0.43545904755592346,-0.4648263454437256,3.263641595840454,5.349685192108154,-1.8574461936950684,-0.06,0.02,0.38,254.20000000000002
1682338029.85890198,292626517,2,1.43,3.35,347.14,-0.8029033541679382,1.3907747268676758,-0.4825422167778015,-0.4855958819389343,3.1458821296691895,5.4668474197387695,-1.9026607275009155,-0.06,0.02,0.38,254.20000000000002
1682338029.95891190,292726527,2,0.9400000000000001,3.5,348.82,-0.8671869039535522,1.3910716772079468,-0.49848076701164246,-0.4864937663078308,3.025393009185791,5.587440490722656,-1.9498881101608276,-0.06,0.02,0.38,254.20000000000002
1682338030.05890083,292826516,2,0.76,3.48,350.68,-0.9328747391700745,1.388728141784668,-0.48884251713752747,-0.4706799387931824,2.892251491546631,5.700405597686768,-1.9968113899230957,-0.05,0.02,0.37,254.20000000000002
1682338030.15888381,292926499,2,0.58,3.52,352.63,-1.0127562284469604,1.3710678815841675,-0.490427166223526,-0.46521663665771484,2.754990577697754,5.812211036682129,-2.043935775756836,-0.05,0.02,0.37,254.20000000000002
1682338030.25884795,293026463,2,0.6,3.68,354.64,-1.0825207233428955,1.356300950050354,-0.5186324119567871,-0.49006187915802,2.6109941005706787,5.920499324798584,-2.0912673473358154,-0.05,0.02,0.37,254.20000000000002
1682338030.35882282,293126438,2,0.73,3.5,356.68,-1.1464179754257202,1.3298821449279785,-0.4944864809513092,-0.46115395426750183,2.4658448696136475,6.030139446258545,-2.13923978805542,-0.05,0.02,0.37,254.20000000000002
1682338030.45881987,293226435,2,0.8,3.3000000000000003,358.75,-1.2177274227142334,1.3346664905548096,-0.5424467325210571,-0.5108851194381714,2.317499876022339,6.137405872344971,-2.1876935958862305,-0.04,0.02,0.37,254.20000000000002
1682338030.55881691,293326432,2,0.92,2.89,0.87,-1.253074288368225,1.3032535314559937,-0.5038905739784241,-0.4515521228313446,2.1693317890167236,6.245869159698486,-2.2347285747528076,-0.05,0.02,0.37,254.20000000000002
1682338030.65885282,293426468,2,0.92,2.17,2.97,-1.2968295812606812,1.2813931703567505,-0.5191145539283752,-0.45547959208488464,2.0167555809020996,6.344690322875977,-2.28167724609375,-0.04,0.02,0.37,254.20000000000002
1682338030.75893092,293526546,2,0.9500000000000001,1.6600000000000001,5.17,-1.3235317468643188,1.2559583187103271,-0.5335655808448792,-0.48921698331832886,1.8652114868164062,6.441040992736816,-2.3315746784210205,-0.04,0.02,0.37,254.20000000000002
1682338030.85886288,293626478,2,0.87,1.46,7.5,-1.3606538772583008,1.2348967790603638,-0.532781183719635,-0.5136971473693848,1.7152289152145386,6.533573150634766,-2.3824381828308105,-0.04,0.02,0.37,254.20000000000002
1682338030.95889902,293726514,2,0.5,1.3,9.9,-1.3672813177108765,1.2027252912521362,-0.5358210206031799,-0.4997653067111969,1.5687388181686401,6.626304626464844,-2.4313833713531494,-0.04,0.02,0.37,254.20000000000002
1682338031.05889392,293826509,2,-0.15,1.34,12.36,-1.3721652030944824,1.151005744934082,-0.5069347023963928,-0.4515036642551422,1.4259922504425049,6.711385250091553,-2.477227210998535,-0.04,0.02,0.37,254.20000000000002
1682338031.15884495,293926460,2,-0.91,1.26,14.89,-1.3609973192214966,1.104926347732544,-0.46413809061050415,-0.39663779735565186,1.2867807149887085,6.79458475112915,-2.5205202102661133,-0.04,0.02,0.37,254.20000000000002
1682338031.25881982,294026435,2,-1.6400000000000001,0.85,17.47,-1.36361563205719,1.0429211854934692,-0.4441385865211487,-0.3869791030883789,1.148708462715149,6.873452186584473,-2.5605478286743164,-0.04,0.03,0.37,254.20000000000002
1682338031.35882592,294126441,2,-2.42,0.7000000000000001,20.05,-1.3483927249908447,0.9746863842010498,-0.42084911465644836,-0.36597147583961487,1.0126514434814453,6.9502949714660645,-2.59733510017395,-0.04,0.03,0.37,254.20000000000002
1682338031.45881701,294226432,2,-3.16,0.59,22.650000000000002,-1.321697473526001,0.9012187123298645,-0.3597564697265625,-0.330635666847229,0.8817811608314514,7.027605056762695,-2.6331348419189453,-0.04,0.03,0.37,254.20000000000002
1682338031.55884600,294326461,2,-3.85,0.51,26.26,-1.2935043573379517,0.8264662623405457,-0.32781657576560974,-0.3271958827972412,0.756614625453949,7.099627494812012,-2.6666252613067627,-0.04,0.03,0.37,254.20000000000002
1682338031.65893292,294426548,2,-4.54,0.71,28.66,-1.2387568950653076,0.7388618588447571,-0.3030335307121277,-0.3216001093387604,0.6394209265708923,7.168704509735107,-2.699084758758545,-0.04,0.02,0.37,254.20000000000002
1682338031.75891399,294526529,2,-5.25,0.68,31.07,-1.1816136837005615,0.6560133099555969,-0.275571346282959,-0.3063744604587555,0.5285812020301819,7.234609603881836,-2.7300853729248047,-0.04,0.02,0.37,254.20000000000002
1682338031.85889697,294626512,2,-6.0,0.44,33.51,-1.1052641868591309,0.5604069232940674,-0.2720213830471039,-0.2929462194442749,0.43173232674598694,7.292976379394531,-2.757960319519043,-0.04,0.03,0.37,254.20000000000002
1682338031.95889091,294726506,2,-6.8100000000000005,-0.06,35.94,-1.0058130025863647,0.45827507972717285,-0.25448158383369446,-0.26245081424713135,0.3487313687801361,7.3437275886535645,-2.7846405506134033,-0.04,0.03,0.37,254.20000000000002
1682338032.05884886,294826464,2,-7.71,-0.65,38.63,-0.8939806818962097,0.37331271171569824,-0.2034267634153366,-0.22019989788532257,0.27716073393821716,7.394513130187988,-2.8099474906921387,-0.05,0.02,0.37,254.20000000000002
1682338032.15882301,294926438,2,-8.61,-1.01,41.51,-0.7516564726829529,0.29191458225250244,-0.1619519293308258,-0.1958271712064743,0.21924370527267456,7.444856643676758,-2.83359694480896,-0.05,0.02,0.37,254.20000000000002
1682338032.25881886,295026434,2,-8.96,-0.66,44.550000000000004,-0.6152198314666748,0.23302623629570007,-0.12773321568965912,-0.18475914001464844,0.17756518721580505,7.494112014770508,-2.8558106422424316,-0.05,0.02,0.37,254.20000000000002
1682338032.35882592,295126441,2,-8.23,0.32,47.54,-0.4741092026233673,0.1934805065393448,-0.12447116523981094,-0.18938806653022766,0.15268729627132416,7.544093608856201,-2.8760061264038086,-0.05,0.02,0.37,254.20000000000002
1682338032.45886588,295226481,2,-7.0,1.42,50.46,-0.3344079554080963,0.16346769034862518,-0.07375764846801758,-0.14131848514080048,0.1447294056415558,7.597761154174805,-2.893186330795288,-0.05,0.02,0.37,254.20000000000002
1682338032.55891585,295326531,2,-5.68,2.6,53.410000000000004,-0.21931035816669464,0.15889881551265717,-0.041093338280916214,-0.11119477450847626,0.15226508677005768,7.6572957038879395,-2.90557861328125,-0.05,0.02,0.37,254.20000000000002
1682338032.65891695,295426532,2,-4.46,3.5100000000000002,55.96,-0.11962214857339859,0.1615051031112671,0.017014682292938232,-0.027235575020313263,0.16663914918899536,7.721866130828857,-2.910074234008789,-0.04,0.02,0.37,254.20000000000002
1682338032.75890303,295526518,2,-3.64,3.58,58.09,-0.040837883949279785,0.17194172739982605,0.05320239067077637,0.03298290818929672,0.1870335042476654,7.791439533233643,-2.9090476036071777,-0.04,0.02,0.37,254.20000000000002
1682338032.85888982,295626505,2,-3.18,3.04,59.480000000000004,0.023104846477508545,0.17888282239437103,0.09541291743516922,0.08670926839113235,0.20980846881866455,7.861295223236084,-2.902142286300659,-0.04,0.02,0.37,254.20000000000002
1682338032.95885301,295726468,2,-2.7600000000000002,2.42,60.11,0.07585875689983368,0.17798636853694916,0.16029885411262512,0.1711684912443161,0.23357421159744263,7.929779052734375,-2.888831615447998,-0.04,0.02,0.37,254.20000000000002
1682338033.05882382,295826439,2,-2.19,1.96,60.02,0.10765384882688522,0.18366208672523499,0.18841667473316193,0.21618711948394775,0.2620163857936859,7.99217414855957,-2.869321823120117,-0.04,0.02,0.37,254.20000000000002
1682338033.15881801,295926433,2,-1.48,1.54,59.44,0.1544223129749298,0.18767806887626648,0.23501181602478027,0.27828356623649597,0.29431527853012085,8.048450469970703,-2.8454506397247314,-0.04,0.02,0.37,254.20000000000002
1682338033.25882888,296026444,2,-0.72,1.1400000000000001,58.43,0.1691916286945343,0.19183897972106934,0.2515158951282501,0.2775876522064209,0.3287172317504883,8.099133491516113,-2.8214826583862305,-0.04,0.02,0.37,254.20000000000002
1682338033.35885096,296126466,2,-0.04,1.12,57.15,0.200320765376091,0.1869623363018036,0.2596508860588074,0.25133004784584045,0.36374253034591675,8.14492130279541,-2.7977840900421143,-0.04,0.02,0.37,254.20000000000002
1682338033.45892692,296226542,2,0.24,1.97,55.72,0.18747414648532867,0.18724319338798523,0.24679799377918243,0.23175619542598724,0.398080974817276,8.187301635742188,-2.7733993530273438,-0.04,0.02,0.37,254.20000000000002
1682338033.55887890,296326494,2,0.53,3.0100000000000002,54.120000000000005,0.1763887107372284,0.19364765286445618,0.24341681599617004,0.2320648580789566,0.43036144971847534,8.227535247802734,-2.748222827911377,-0.04,0.02,0.37,254.20000000000002
1682338033.65891886,296426534,2,0.47000000000000003,3.1,52.28,0.17410683631896973,0.1869772970676422,0.2527232766151428,0.24396972358226776,0.45873355865478516,8.267329216003418,-2.723389148712158,-0.04,0.02,0.37,254.20000000000002
1682338033.75886893,296526484,2,0.06,2.71,50.26,0.14705248177051544,0.17418497800827026,0.2600160837173462,0.24930605292320251,0.48293808102607727,8.306257247924805,-2.6976397037506104,-0.04,0.02,0.37,254.20000000000002
1682338033.85885286,296626468,2,-0.36,2.33,48.300000000000004,0.1386474370956421,0.1639598160982132,0.26009073853492737,0.2641785442829132,0.5023373961448669,8.339963912963867,-2.670563220977783,-0.04,0.02,0.37,254.20000000000002
1682338033.95882702,296726442,2,-0.75,1.6400000000000001,46.46,0.12257210165262222,0.16333161294460297,0.24917146563529968,0.2658001780509949,0.5185067057609558,8.369389533996582,-2.644338607788086,-0.04,0.02,0.37,254.20000000000002
1682338034.05882096,296826436,2,-1.0,1.0,44.800000000000004,0.11627265810966492,0.1601976901292801,0.20744311809539795,0.21680261194705963,0.5355650782585144,8.394121170043945,-2.6213529109954834,-0.04,0.02,0.37,254.20000000000002
1682338034.15881801,296926433,2,-1.03,1.36,43.42,0.12088678777217865,0.14417213201522827,0.20134390890598297,0.19288232922554016,0.5529095530509949,8.414538383483887,-2.6015920639038086,-0.04,0.02,0.37,254.20000000000002
1682338034.25884795,297026463,2,-0.91,2.18,42.34,0.12420124560594559,0.13050080835819244,0.17512238025665283,0.1669534146785736,0.5683877468109131,8.434800148010254,-2.5840723514556885,-0.04,0.02,0.37,254.20000000000002
1682338034.35892892,297126544,2,-0.88,2.89,41.410000000000004,0.11101424694061279,0.10871539264917374,0.16350971162319183,0.15369616448879242,0.5821399092674255,8.454413414001465,-2.5684595108032227,-0.04,0.02,0.37,254.20000000000002
1682338034.45893788,297226553,2,-0.87,3.62,40.56,0.10066630691289902,0.07222270220518112,0.13751348853111267,0.13931873440742493,0.5997646450996399,8.468025207519531,-2.5518710613250732,-0.04,0.02,0.37,254.20000000000002
1682338034.55889487,297326510,2,-0.84,3.7800000000000002,39.81,0.08805354684591293,0.048929158598184586,0.13662126660346985,0.16057182848453522,0.6196644306182861,8.476862907409668,-2.535299301147461,-0.04,0.02,0.37,254.20000000000002
1682338034.65887403,297426489,2,-0.79,3.48,39.26,0.057474032044410706,0.023134972900152206,0.11598126590251923,0.14951500296592712,0.6340765357017517,8.480911254882812,-2.5208656787872314,-0.04,0.02,0.37,254.20000000000002
1682338034.75885296,297526468,2,-0.55,3.19,38.92,0.03248000517487526,-0.007184038404375315,0.0762692242860794,0.10822407901287079,0.6432826519012451,8.48022747039795,-2.509387969970703,-0.04,0.02,0.37,254.20000000000002
1682338034.85881686,297626432,2,-0.31,2.71,38.7,0.015266584232449532,-0.031958453357219696,0.04039265587925911,0.0596650205552578,0.6532699465751648,8.478301048278809,-2.502448797225952,-0.04,0.02,0.37,254.20000000000002
1682338034.95882082,297726436,2,-0.06,2.2,38.53,0.005745247472077608,-0.04936164990067482,0.00985824503004551,0.013389063067734241,0.6633210182189941,8.476398468017578,-2.498354911804199,-0.04,0.02,0.37,254.20000000000002
1682338035.05882382,297826439,2,0.09,1.9000000000000001,38.47,-0.011148262768983841,-0.05052110180258751,-0.015489764511585236,-0.012687007896602154,0.6725848913192749,8.471416473388672,-2.4982736110687256,-0.04,0.02,0.37,254.20000000000002
1682338035.15884590,297926461,2,0.12,1.6400000000000001,38.52,-0.024431204423308372,-0.0517648421227932,-0.05359797924757004,-0.031116070225834846,0.6811451315879822,8.46438980102539,-2.49753999710083,-0.04,0.02,0.37,254.20000000000002
1682338035.25892401,298026539,2,0.15,1.47,38.69,-0.02624894678592682,-0.0492573156952858,-0.06901717185974121,-0.004104191437363625,0.6891612410545349,8.45586109161377,-2.4964921474456787,-0.03,0.02,0.37,254.20000000000002
1682338035.35890889,298126524,2,0.16,1.4000000000000001,38.95,-0.030863983556628227,-0.044077660888433456,-0.08657348155975342,0.008807760663330555,0.6963441371917725,8.446662902832031,-2.496062755584717,-0.03,0.02,0.37,254.20000000000002
1682338035.45889592,298226511,2,0.29,1.32,39.26,-0.040502507239580154,-0.042966075241565704,-0.12154301255941391,-0.013965549878776073,0.7018768787384033,8.437521934509277,-2.4976344108581543,-0.03,0.02,0.37,254.20000000000002
1682338035.55888200,298326497,2,0.42,1.3,39.6,-0.04781844839453697,-0.03888658806681633,-0.1350078284740448,-0.025131303817033768,0.7090048789978027,8.427521705627441,-2.5009469985961914,-0.03,0.02,0.37,254.20000000000002
1682338035.65885496,298426470,2,0.53,1.32,39.980000000000004,-0.043744031339883804,-0.03403151407837868,-0.16457004845142365,-0.06890077888965607,0.7151704430580139,8.417604446411133,-2.50738787651062,-0.03,0.02,0.37,254.20000000000002
1682338035.75882196,298526437,2,0.64,1.28,40.4,-0.053580548614263535,-0.0367647148668766,-0.1906205713748932,-0.11385170370340347,0.7201285362243652,8.408242225646973,-2.517457962036133,-0.03,0.02,0.37,254.20000000000002
1682338035.85882187,298626437,2,0.72,1.24,40.85,-0.053839005529880524,-0.03369016945362091,-0.20357869565486908,-0.1245892196893692,0.7246358394622803,8.398380279541016,-2.527348041534424,-0.03,0.02,0.37,254.20000000000002
1682338035.95882702,298726442,2,0.72,1.16,41.33,-0.06981586664915085,-0.013581130653619766,-0.22174695134162903,-0.09202629327774048,0.7282226085662842,8.38863468170166,-2.5348477363586426,-0.03,0.02,0.37,254.20000000000002
1682338036.05888581,298826501,2,0.86,1.1,41.79,-0.07300331443548203,-0.010708157904446125,-0.2109382599592209,-0.040416304022073746,0.7306293249130249,8.378904342651367,-2.5399296283721924,-0.03,0.02,0.37,254.20000000000002
1682338036.15893292,298926548,2,0.91,0.98,42.230000000000004,-0.07748974114656448,0.0007028250838629901,-0.23292283713817596,-0.046107400208711624,0.7317414283752441,8.36955451965332,-2.5457253456115723,-0.03,0.02,0.37,254.20000000000002
1682338036.25886297,299026478,2,1.05,0.85,42.65,-0.10152309387922287,0.014107543043792248,-0.23712946474552155,-0.07091502100229263,0.7309612035751343,8.359975814819336,-2.5527334213256836,-0.03,0.02,0.37,254.20000000000002
1682338036.35890698,299126522,2,1.09,0.76,43.02,-0.10131420940160751,0.009660454466938972,-0.24501022696495056,-0.08073275536298752,0.7281819581985474,8.350972175598145,-2.561401128768921,-0.03,0.02,0.37,254.20000000000002
1682338036.45889187,299226507,2,1.1400000000000001,0.63,43.35,-0.11274658143520355,0.03650953620672226,-0.23504510521888733,-0.10780869424343109,0.7238068580627441,8.344964981079102,-2.573485851287842,-0.03,0.02,0.37,254.20000000000002
1682338036.55884886,299326464,2,1.12,0.53,43.59,-0.12180420011281967,0.049609746783971786,-0.2488897442817688,-0.1520797312259674,0.7178590297698975,8.341925621032715,-2.5881543159484863,-0.03,0.02,0.37,254.20000000000002
1682338036.65882492,299426440,2,1.0,0.48,43.75,-0.11693298071622849,0.059662576764822006,-0.24714148044586182,-0.17510217428207397,0.7113422155380249,8.340071678161621,-2.6049911975860596,-0.03,0.02,0.37,254.20000000000002
1682338036.75883293,299526448,2,0.72,0.21,43.84,-0.12204119563102722,0.07784344255924225,-0.2508472204208374,-0.18313461542129517,0.7045959234237671,8.339784622192383,-2.621394634246826,-0.03,0.02,0.37,254.20000000000002
1682338036.85882187,299626437,2,0.01,0.12,43.87,-0.11385855078697205,0.08403511345386505,-0.23398569226264954,-0.1503971368074417,0.6984063386917114,8.33706283569336,-2.6362662315368652,-0.03,0.02,0.37,254.20000000000002
1682338036.95887995,299726495,2,-0.84,0.25,43.87,-0.10367672145366669,0.08479930460453033,-0.2302282601594925,-0.1373835653066635,0.6929868459701538,8.332550048828125,-2.650350332260132,-0.03,0.02,0.37,254.20000000000002
1682338037.05893803,299826553,2,-1.52,0.3,43.82,-0.08349541574716568,0.06744701415300369,-0.20696789026260376,-0.13031317293643951,0.6891390085220337,8.327945709228516,-2.665060043334961,-0.03,0.02,0.38,254.20000000000002
1682338037.15886784,299926483,2,-2.16,0.41000000000000003,43.71,-0.05525719374418259,0.03998377546668053,-0.20383812487125397,-0.15036813914775848,0.6873324513435364,8.322315216064453,-2.679882049560547,-0.03,0.02,0.38,254.20000000000002
1682338037.25891089,300026526,2,-2.69,0.44,43.56,-0.026359910145401955,0.022825682535767555,-0.1856297254562378,-0.12798552215099335,0.6892890930175781,8.314467430114746,-2.692169189453125,-0.03,0.02,0.38,254.20000000000002
1682338037.35894299,300126558,2,-3.0300000000000002,0.4,43.34,0.014874894171953201,-0.007240082137286663,-0.1459767371416092,-0.07159723341464996,0.6950277090072632,8.30431079864502,-2.7018418312072754,-0.03,0.02,0.38,254.20000000000002
1682338037.45886183,300226477,2,-3.14,0.38,43.12,0.06590412557125092,-0.04872370511293411,-0.14714501798152924,-0.07086002826690674,0.7045974135398865,8.292015075683594,-2.7100539207458496,-0.03,0.02,0.38,254.20000000000002
1682338037.55881596,300326431,2,-2.71,0.31,42.910000000000004,0.09108768403530121,-0.0660981759428978,-0.14863188564777374,-0.0584571547806263,0.7175605893135071,8.278213500976562,-2.714165210723877,-0.03,0.02,0.38,254.20000000000002
1682338037.65883303,300426448,2,-1.81,0.18,42.800000000000004,0.1287083774805069,-0.08862647414207458,-0.11121731251478195,0.010421049781143665,0.7341670989990234,8.262686729431152,-2.71466064453125,-0.03,0.02,0.38,254.20000000000002
1682338037.75882697,300526442,2,-0.93,0.29,42.86,0.1424274891614914,-0.10067223012447357,-0.0996965616941452,0.018038321286439896,0.7533655166625977,8.245891571044922,-2.7147231101989746,-0.03,0.02,0.38,254.20000000000002
1682338037.85887504,300626490,2,-0.58,0.79,43.04,0.16184189915657043,-0.12334877252578735,-0.09220070391893387,0.021743033081293106,0.7733326554298401,8.228851318359375,-2.712355613708496,-0.03,0.02,0.37,254.20000000000002
1682338037.95893288,300726548,2,-1.1500000000000001,1.09,43.37,0.18193987011909485,-0.13409653306007385,-0.0633791983127594,0.05215559899806976,0.7945052981376648,8.211304664611816,-2.7091662883758545,-0.03,0.02,0.37,254.20000000000002
1682338038.05891085,300826526,2,-1.99,1.06,43.86,0.19310146570205688,-0.15142731368541718,-0.059628017246723175,0.027912147343158722,0.8162491321563721,8.192268371582031,-2.706388235092163,-0.03,0.02,0.37,254.20000000000002
1682338038.15891790,300926533,2,-1.96,1.07,44.43,0.2067539393901825,-0.17069163918495178,-0.03333517909049988,0.03176695480942726,0.8379808068275452,8.17115592956543,-2.7040228843688965,-0.03,0.02,0.38,254.20000000000002
1682338038.25886798,301026483,2,-1.69,0.9400000000000001,44.94,0.22704513370990753,-0.19157107174396515,-0.0006131061818450689,0.04542870074510574,0.8612629771232605,8.147937774658203,-2.6998450756073,-0.04,0.02,0.38,254.20000000000002
1682338038.35886383,301126479,2,-1.46,0.79,45.42,0.22777391970157623,-0.20377880334854126,-0.0016993398312479258,0.05108151584863663,0.8859716057777405,8.12287712097168,-2.6935901641845703,-0.04,0.02,0.38,254.20000000000002
1682338038.45881987,301226435,2,-0.67,0.72,45.88,0.23735788464546204,-0.21398499608039856,0.029350152239203453,0.07783111929893494,0.9121018052101135,8.09765911102295,-2.685805559158325,-0.04,0.02,0.38,254.20000000000002
1682338038.55881786,301326433,2,0.23,0.6,46.29,0.23778001964092255,-0.2104654610157013,0.03493070229887962,0.08110488206148148,0.9388667345046997,8.073107719421387,-2.676436424255371,-0.04,0.02,0.37,254.20000000000002
1682338038.65881896,301426434,2,0.99,0.58,46.67,0.22417187690734863,-0.1968454122543335,0.0648103579878807,0.1087927594780922,0.9654315710067749,8.048748016357422,-2.6658787727355957,-0.04,0.03,0.38,254.20000000000002
1682338038.75887394,301526489,2,1.83,0.58,46.99,0.21950720250606537,-0.17864619195461273,0.0813356414437294,0.11908932775259018,0.9902223944664001,8.026383399963379,-2.6546411514282227,-0.04,0.03,0.38,254.20000000000002
1682338038.85893488,301626550,2,2.64,0.51,47.27,0.18951942026615143,-0.15365274250507355,0.09336163103580475,0.12019618600606918,1.0114825963974,8.00804328918457,-2.6425540447235107,-0.04,0.03,0.38,254.20000000000002
1682338038.95886588,301726481,2,3.18,0.53,47.51,0.14640386402606964,-0.11126119643449783,0.09020235389471054,0.12334107607603073,1.0287837982177734,7.994050979614258,-2.6292037963867188,-0.04,0.03,0.38,254.20000000000002
1682338039.05891800,301826533,2,2.98,0.5700000000000001,47.69,0.12262076884508133,-0.0818357840180397,0.10488008707761765,0.1347484290599823,1.0409656763076782,7.984607219696045,-2.615429162979126,-0.04,0.03,0.38,254.20000000000002
1682338039.15888286,301926498,2,2.4,0.6,47.82,0.07999052852392197,-0.039622195065021515,0.12164624780416489,0.15541286766529083,1.0481997728347778,7.979529857635498,-2.6010639667510986,-0.04,0.03,0.38,254.20000000000002
1682338039.25884581,302026461,2,1.82,0.6,47.92,0.04886569082736969,-0.0045393239706754684,0.10269422084093094,0.12835097312927246,1.0519591569900513,7.9766740798950195,-2.5873146057128906,-0.04,0.03,0.38,254.20000000000002
1682338039.35883093,302126446,2,1.22,0.62,47.980000000000004,0.03671156242489815,0.006974709220230579,0.1224476546049118,0.138734370470047,1.053094506263733,7.975502967834473,-2.574106216430664,-0.04,0.03,0.38,254.20000000000002
1682338039.45881891,302226434,2,0.8300000000000001,0.61,47.99,0.02185823582112789,0.019237317144870758,0.1334112286567688,0.14291337132453918,1.0533270835876465,7.976145267486572,-2.56089186668396,-0.04,0.03,0.37,254.20000000000002
1682338039.55881786,302326433,2,0.39,0.5700000000000001,47.95,0.01184526551514864,0.02715860679745674,0.10335098206996918,0.10795781016349792,1.0532019138336182,7.977974891662598,-2.5486268997192383,-0.04,0.03,0.37,254.20000000000002
1682338039.65884781,302426463,2,-0.1,0.61,47.86,0.0025661205872893333,0.04063272103667259,0.11015991866588593,0.11072079092264175,1.0523217916488647,7.981137275695801,-2.536602020263672,-0.04,0.03,0.37,254.20000000000002
1682338039.75890088,302526516,2,-0.65,0.67,47.74,0.00940195843577385,0.03803298994898796,0.12071436643600464,0.12655748426914215,1.0513224601745605,7.984913349151611,-2.5243353843688965,-0.04,0.03,0.37,254.20000000000002
1682338039.85891294,302626528,2,-1.07,0.67,47.58,0.01874476857483387,0.030277859419584274,0.11783085763454437,0.12053689360618591,1.052085041999817,7.9868597984313965,-2.5134663581848145,-0.04,0.03,0.37,254.20000000000002
1682338039.95889902,302726514,2,-1.06,0.7000000000000001,47.43,0.02777295745909214,0.022026358172297478,0.1020754724740982,0.09140356630086899,1.0543153285980225,7.987226963043213,-2.5034127235412598,-0.04,0.03,0.37,254.20000000000002
1682338040.05887294,302826488,2,-0.91,0.73,47.28,0.029149556532502174,0.01648692414164543,0.11087014526128769,0.10624454915523529,1.058210015296936,7.986209869384766,-2.493175745010376,-0.04,0.03,0.37,254.20000000000002
1682338040.15885592,302926471,2,-0.68,0.79,47.1,0.04714806377887726,0.00011147950135637075,0.0970999076962471,0.09730640798807144,1.0632266998291016,7.984296798706055,-2.4839658737182617,-0.04,0.03,0.37,254.20000000000002
1682338040.25882792,303026443,2,-0.34,0.81,46.93,0.04679720848798752,-0.0001898111222544685,0.07543733716011047,0.073991559445858,1.0686089992523193,7.982490062713623,-2.475766181945801,-0.04,0.03,0.37,254.20000000000002
1682338040.35882998,303126445,2,-0.11,0.81,46.77,0.0522131510078907,-0.006929946597665548,0.06060055270791054,0.06148836016654968,1.0737329721450806,7.980898380279541,-2.4683218002319336,-0.04,0.03,0.37,254.20000000000002
1682338040.45882797,303226443,2,0.01,0.86,46.62,0.0565565787255764,-0.014459180645644665,0.059420786798000336,0.06313034892082214,1.078544020652771,7.979959964752197,-2.4618747234344482,-0.04,0.03,0.37,254.20000000000002
1682338040.55886698,303326482,2,0.08,0.84,46.49,0.03760519251227379,-0.0014393553137779236,0.039029598236083984,0.039860084652900696,1.0827261209487915,7.979892730712891,-2.4572412967681885,-0.04,0.03,0.37,254.20000000000002
1682338040.65892792,303426543,2,0.02,0.87,46.35,0.04635057970881462,-0.013282408006489277,0.025062117725610733,0.03320062533020973,1.0855238437652588,7.979349136352539,-2.452754259109497,-0.04,0.03,0.37,254.20000000000002
1682338040.75892496,303526540,2,-0.06,0.87,46.25,0.036335766315460205,-0.005067681893706322,0.033458299934864044,0.05216012895107269,1.0870686769485474,7.978662967681885,-2.4496660232543945,-0.04,0.03,0.37,254.20000000000002
1682338040.85890603,303626521,2,-0.13,0.81,46.13,0.03543442487716675,-0.009626529179513454,-0.005235334392637014,-0.0020422351080924273,1.0885050296783447,7.978519439697266,-2.4493560791015625,-0.04,0.03,0.37,254.20000000000002
1682338040.95888495,303726500,2,-0.24,0.8300000000000001,46.04,0.02290286310017109,-0.0009165768860839307,-0.016757454723119736,-0.02569103240966797,1.089815616607666,7.978494167327881,-2.4512412548065186,-0.04,0.03,0.37,254.20000000000002
1682338041.05885983,303826475,2,-0.26,0.8300000000000001,45.96,0.033574428409338,-0.01655844785273075,-0.03762080892920494,-0.05320916697382927,1.0917844772338867,7.977874279022217,-2.455007314682007,-0.04,0.03,0.37,254.20000000000002
1682338041.15881801,303926433,2,-0.29,0.91,45.9,0.02038835547864437,-0.013830210082232952,-0.042934272438287735,-0.052990540862083435,1.0942457914352417,7.976604461669922,-2.4595415592193604,-0.04,0.03,0.37,254.20000000000002
1682338041.25881696,304026432,2,-0.26,0.96,45.85,0.029090138152241707,-0.0186932235956192,-0.06492961198091507,-0.05798092111945152,1.0971943140029907,7.974846839904785,-2.463822841644287,-0.04,0.03,0.37,254.20000000000002
1682338041.35882401,304126439,2,-0.19,0.96,45.81,0.032778747379779816,-0.025705907493829727,-0.06516451388597488,-0.04145244508981705,1.0999308824539185,7.972943305969238,-2.468202590942383,-0.04,0.03,0.37,254.20000000000002
1682338041.45884395,304226459,2,-0.09,0.99,45.79,0.02596759796142578,-0.023508643731474876,-0.0640675276517868,-0.017238561064004898,1.1023986339569092,7.9704670906066895,-2.4705581665039062,-0.04,0.03,0.37,254.20000000000002
1682338041.55890083,304326516,2,-0.06,0.91,45.77,0.03195196017622948,-0.03046886995434761,-0.08716760575771332,-0.0012570491526275873,1.104359745979309,7.967897415161133,-2.470733404159546,-0.04,0.03,0.37,254.20000000000002
1682338041.65890884,304426524,2,0.01,0.9,45.800000000000004,0.0036831919569522142,-0.015270441770553589,-0.08901049941778183,0.031978052109479904,1.104844570159912,7.965888023376465,-2.4677138328552246,-0.04,0.03,0.37,254.20000000000002
1682338041.75890803,304526523,2,0.06,0.8,45.800000000000004,0.022008053958415985,-0.025796588510274887,-0.10763649642467499,0.028744403272867203,1.1048846244812012,7.964116096496582,-2.4660513401031494,-0.04,0.03,0.37,254.20000000000002
1682338041.85887694,304626492,2,-0.01,0.75,45.81,0.0036254655569791794,-0.025407345965504646,-0.10082626342773438,0.014965515583753586,1.1039934158325195,7.963455677032471,-2.4653396606445312,-0.04,0.03,0.37,254.20000000000002
1682338041.95885491,304726470,2,-0.04,0.72,45.82,0.001333020394667983,-0.01870887540280819,-0.1082201674580574,-0.009430648759007454,1.1025240421295166,7.963703155517578,-2.4677891731262207,-0.04,0.03,0.37,254.20000000000002
1682338042.05881882,304826434,2,-0.22,0.72,45.83,0.007913537323474884,-0.019986286759376526,-0.11632143706083298,-0.08037061989307404,1.1012864112854004,7.964205741882324,-2.475959539413452,-0.04,0.03,0.37,254.20000000000002
1682338042.15881681,304926432,2,-0.19,0.74,45.85,0.0006142379133962095,-0.016893580555915833,-0.11265412718057632,-0.10781411826610565,1.0999855995178223,7.9648942947387695,-2.4855027198791504,-0.04,0.03,0.37,254.20000000000002
1682338042.25881696,305026432,2,-0.23,0.74,45.85,0.008678661659359932,-0.017771359533071518,-0.11802952736616135,-0.09327571094036102,1.0999127626419067,7.96429967880249,-2.4925575256347656,-0.04,0.03,0.37,254.20000000000002
1682338042.35885596,305126471,2,-0.25,0.75,45.86,-0.00919287744909525,-0.00882277823984623,-0.11673587560653687,-0.07214143872261047,1.1005547046661377,7.96284294128418,-2.499741315841675,-0.04,0.03,0.37,254.20000000000002
1682338042.45893097,305226546,2,-0.09,0.77,45.89,0.01075910497456789,-0.02449948713183403,-0.09548884630203247,-0.06365936994552612,1.1011775732040405,7.961214542388916,-2.507600784301758,-0.04,0.03,0.37,254.20000000000002
1682338042.55886292,305326478,2,-0.11,0.78,45.92,0.0002604404871817678,-0.012291684746742249,-0.08527089655399323,-0.06048375740647316,1.101775050163269,7.959595203399658,-2.516261100769043,-0.04,0.03,0.37,254.20000000000002
1682338042.65890789,305426523,2,0.01,0.78,45.94,-0.00010001900227507576,-0.01899816282093525,-0.11164776235818863,-0.11566250771284103,1.1022944450378418,7.958296298980713,-2.527228832244873,-0.05,0.03,0.37,254.20000000000002
1682338042.75887585,305526491,2,0.06,0.78,46.12,-0.00011426028504502028,-0.011243815533816814,-0.09978187084197998,-0.1400209218263626,1.1025429964065552,7.9573493003845215,-2.5401294231414795,-0.04,0.03,0.37,254.20000000000002
1682338042.85884595,305626461,2,0.06,0.8,46.550000000000004,-0.009129427373409271,-0.0067987930960953236,-0.07978563755750656,-0.14125686883926392,1.1022210121154785,7.957294464111328,-2.554436206817627,-0.05,0.03,0.37,254.20000000000002
1682338042.95882797,305726443,2,0.04,0.86,47.32,-0.006229532416909933,-0.006654147058725357,-0.07868766039609909,-0.1615992933511734,1.1013340950012207,7.958043098449707,-2.570817708969116,-0.05,0.03,0.37,254.20000000000002
1682338043.05882192,305826437,2,0.02,0.88,48.53,-0.005055627319961786,-0.013124651275575161,-0.09542965888977051,-0.1834280639886856,1.0990846157073975,7.959108829498291,-2.5861282348632812,-0.05,0.03,0.37,254.20000000000002
1682338043.15881681,305926432,2,0.02,0.88,50.2,-0.016427267342805862,-0.0016054626321420074,-0.06348373740911484,-0.13342617452144623,1.095616102218628,7.9602861404418945,-2.5986313819885254,-0.05,0.03,0.37,254.20000000000002
1682338043.25886202,306026477,2,-0.02,0.77,52.15,-0.02273477055132389,-0.004329647868871689,-0.038847483694553375,-0.08619681745767593,1.092152714729309,7.962823390960693,-2.606808662414551,-0.05,0.03,0.37,254.20000000000002
1682338043.35893083,306126546,2,-0.07,0.72,54.2,-0.023387933149933815,-0.00321772089228034,0.0190634373575449,-0.0011360476491972804,1.0887342691421509,7.966229438781738,-2.6098196506500244,-0.05,0.03,0.37,254.20000000000002
1682338043.45891595,306226531,2,-0.16,0.77,56.21,-0.014680765569210052,-0.0011325031518936157,0.042890772223472595,0.04137841612100601,1.0856733322143555,7.969110012054443,-2.608285903930664,-0.05,0.03,0.37,254.20000000000002
1682338043.55890083,306326516,2,-0.25,0.68,58.120000000000005,-0.013756977394223213,-0.0024884382728487253,0.051323119550943375,0.0646229237318039,1.0832527875900269,7.971645832061768,-2.604361057281494,-0.05,0.03,0.37,254.20000000000002
1682338043.65887690,306426492,2,-0.23,0.73,59.93,-0.02313038520514965,0.0052407728508114815,0.061960361897945404,0.07894003391265869,1.080263614654541,7.974470615386963,-2.5979695320129395,-0.05,0.03,0.37,254.20000000000002
1682338043.75884986,306526465,2,-0.26,0.66,61.65,-0.006690685637295246,-0.0015382908750325441,0.08180055767297745,0.1010797768831253,1.0774943828582764,7.977078914642334,-2.5897512435913086,-0.05,0.03,0.37,254.20000000000002
1682338043.85882497,306626440,2,-0.27,0.68,63.300000000000004,-0.019053621217608452,0.00731362821534276,0.09076245874166489,0.11544854938983917,1.074625849723816,7.9798407554626465,-2.5789716243743896,-0.05,0.03,0.37,254.20000000000002
1682338043.95882583,306726441,2,-0.26,0.68,64.81,-0.003000491764396429,0.0048240371979773045,0.10436193645000458,0.14557096362113953,1.071526050567627,7.983135223388672,-2.5661845207214355,-0.05,0.03,0.37,254.20000000000002
1682338044.05883384,306826449,2,-0.26,0.61,66.14,-0.0017164841992780566,0.002996488008648157,0.10011475533246994,0.13327591121196747,1.0690391063690186,7.9869866371154785,-2.5538408756256104,-0.05,0.03,0.37,254.20000000000002
1682338044.15885782,306926473,2,-0.26,0.62,67.27,-0.0028758191037923098,0.008967546746134758,0.10402776300907135,0.12559592723846436,1.0670851469039917,7.991863250732422,-2.542024612426758,-0.05,0.03,0.37,254.20000000000002
1682338044.25892282,307026538,2,-0.21,0.46,68.17,0.0008375386241823435,0.015183853916823864,0.09068697690963745,0.10798507928848267,1.0650349855422974,7.996604919433594,-2.5302927494049072,-0.05,0.03,0.37,254.20000000000002
1682338044.35886502,307126480,2,0.02,0.61,68.89,-0.0027307330165058374,0.016091730445623398,0.09372624009847641,0.11241262406110764,1.0623908042907715,8.001084327697754,-2.518303394317627,-0.05,0.03,0.37,254.20000000000002
1682338044.45890999,307226525,2,0.07,0.68,69.4,0.0010723286541178823,0.0268421433866024,0.10467357188463211,0.13192781805992126,1.0590161085128784,8.007488250732422,-2.504939556121826,-0.05,0.03,0.37,254.20000000000002
1682338044.55888581,307326501,2,-0.09,0.66,69.75,-0.008326642215251923,0.03185722976922989,0.10325798392295837,0.1430661678314209,1.0553585290908813,8.01509952545166,-2.491042375564575,-0.05,0.03,0.37,254.20000000000002
1682338044.65885687,307426472,2,-0.02,0.79,69.96000000000001,-0.011186812072992325,0.03859145939350128,0.09256941080093384,0.11627905815839767,1.0516403913497925,8.022647857666016,-2.4791154861450195,-0.05,0.03,0.37,254.20000000000002
1682338044.75882292,307526438,2,-0.26,0.78,70.14,0.0037000062875449657,0.03438522666692734,0.10847648978233337,0.10877140611410141,1.0485872030258179,8.030033111572266,-2.4689691066741943,-0.05,0.03,0.37,254.20000000000002
1682338044.85883594,307626451,2,-0.6900000000000001,0.78,70.44,-0.007152420934289694,0.036859188228845596,0.09177622944116592,0.09062965214252472,1.0459924936294556,8.036431312561035,-2.4588494300842285,-0.05,0.03,0.37,254.20000000000002
1682338044.95882893,307726444,2,-0.67,0.78,70.77,0.0010114702163264155,0.030077168717980385,0.09223044663667679,0.10353881120681763,1.043427586555481,8.042008399963379,-2.4491517543792725,-0.05,0.03,0.37,254.20000000000002
1682338045.05886388,307826479,2,-0.5700000000000001,0.75,71.0,0.011828147806227207,0.032287828624248505,0.07709897309541702,0.0803932398557663,1.0414007902145386,8.048858642578125,-2.441234827041626,-0.05,0.03,0.37,254.20000000000002
1682338045.15893292,307926548,2,-0.56,0.79,71.22,0.016013555228710175,0.034768711775541306,0.07914994657039642,0.06834198534488678,1.0399545431137085,8.056404113769531,-2.4352266788482666,-0.05,0.03,0.37,254.20000000000002
1682338045.25886202,308026477,2,-0.41000000000000003,0.81,71.51,0.02361907996237278,0.03939911350607872,0.043996840715408325,0.015851959586143494,1.039215326309204,8.064908027648926,-2.4322731494903564,-0.05,0.03,0.37,254.20000000000002
1682338045.35891700,308126532,2,-0.32,0.86,71.83,0.02281542681157589,0.029696034267544746,0.02820737287402153,-0.018271172419190407,1.03932785987854,8.074007987976074,-2.431386709213257,-0.05,0.03,0.37,254.20000000000002
1682338045.45887089,308226486,2,-0.3,1.03,72.17,0.0306000467389822,0.02967323549091816,0.0225985087454319,-0.012544458732008934,1.0409727096557617,8.081528663635254,-2.4301998615264893,-0.05,0.03,0.37,254.20000000000002
1682338045.55885291,308326468,2,-0.27,1.06,72.72,0.02312839776277542,0.02379508689045906,0.014095178805291653,-0.0026969723403453827,1.043566107749939,8.087801933288574,-2.429652214050293,-0.05,0.03,0.37,254.20000000000002
1682338045.65882087,308426436,2,-0.28,1.11,73.54,0.027552828192710876,0.023322930559515953,0.006368089001625776,-0.009328968822956085,1.046763300895691,8.092333793640137,-2.4317431449890137,-0.05,0.03,0.37,254.20000000000002
1682338045.75882387,308526439,2,-0.28,1.17,74.52,0.03265318647027016,0.01826024241745472,-0.0009958053706213832,-0.015433533117175102,1.050235629081726,8.095361709594727,-2.434222936630249,-0.05,0.03,0.37,254.20000000000002
1682338045.85881686,308626432,2,-0.25,1.16,75.61,0.028144648298621178,0.01654936745762825,-0.019663168117403984,-0.03488535061478615,1.0533872842788696,8.098969459533691,-2.4374043941497803,-0.05,0.03,0.37,254.20000000000002
1682338045.95885587,308726471,2,-0.22,1.2,76.77,0.028767431154847145,0.002283163135871291,-0.024433456361293793,-0.054103024303913116,1.0563373565673828,8.102407455444336,-2.44230318069458,-0.05,0.03,0.37,254.20000000000002
1682338046.05893397,308826549,2,-0.27,1.24,77.89,0.0346921868622303,-0.0047418721951544285,-0.036628808826208115,-0.06529362499713898,1.0589576959609985,8.106401443481445,-2.447601795196533,-0.05,0.03,0.36,254.20000000000002
1682338046.15891790,308926533,2,-0.25,1.24,78.85000000000001,0.045683134347200394,-0.010531223379075527,-0.04102880880236626,-0.0621824748814106,1.061292290687561,8.110602378845215,-2.4528913497924805,-0.05,0.03,0.36,254.20000000000002
1682338046.25889587,309026511,2,-0.32,1.37,79.69,0.04189438745379448,-0.008559055626392365,-0.031216774135828018,-0.05180758610367775,1.0633606910705566,8.114893913269043,-2.4591176509857178,-0.05,0.03,0.36,254.20000000000002
1682338046.35887003,309126485,2,-0.33,1.37,80.42,0.05028822645545006,-0.02570771425962448,-0.03862389549612999,-0.0582769438624382,1.0653893947601318,8.119087219238281,-2.4651615619659424,-0.05,0.03,0.36,254.20000000000002
1682338046.45884895,309226464,2,-0.25,1.46,81.03,0.05045907199382782,-0.03140464052557945,-0.05603582412004471,-0.08024879544973373,1.066756010055542,8.121925354003906,-2.4720664024353027,-0.06,0.03,0.36,254.20000000000002
1682338046.55881786,309326433,2,0.11,1.24,81.51,0.041315484791994095,-0.028720755130052567,-0.043772920966148376,-0.057723645120859146,1.067064881324768,8.123936653137207,-2.4779176712036133,-0.05,0.03,0.36,254.20000000000002
1682338046.65882182,309426437,2,0.3,0.7000000000000001,81.88,0.0389346219599247,-0.02528246119618416,-0.03928878530859947,-0.03546680137515068,1.0652908086776733,8.12579345703125,-2.4816110134124756,-0.06,0.03,0.36,254.20000000000002
1682338046.75882101,309526436,2,0.17,0.38,82.27,0.03073074109852314,-0.022831402719020844,-0.05006120726466179,-0.009511830285191536,1.062069296836853,8.127439498901367,-2.482968330383301,-0.06,0.03,0.36,254.20000000000002
