timestamp,TimeUS,C,Q1,Q2,Q3,Q4
1683153640.25896215,9992078,2,1.0,0.0,0.0,0.0
1683153640.35897303,10092089,2,1.0,0.0,0.0,0.0
1683153640.45898318,10192099,2,1.0,0.0,0.0,0.0
1683153640.55891705,10292033,2,1.0,0.0,0.0,0.0
1683153640.65895820,10392074,2,1.0,0.0,0.0,0.0
1683153640.75892615,10492042,2,1.0,0.0,0.0,0.0
1683153640.85892010,10592036,2,1.0,0.0,0.0,0.0
1683153640.95898199,10692098,2,1.0,0.0,0.0,0.0
1683153641.05899310,10792109,2,1.0,0.0,0.0,0.0
1683153641.15898418,10892100,2,1.0,0.0,0.0,0.0
1683153641.25896716,10992083,2,0.9999934434890747,0.002619815757498145,-0.0024989056400954723,3.069588274229318e-05
1683153641.35897112,11092087,2,0.9999935626983643,0.0026161889545619488,-0.002456547459587455,3.3125110348919407e-05
1683153641.45898914,11192105,2,0.9999937415122986,0.0025398258585482836,-0.002467750571668148,-5.346645775716752e-05
1683153641.55891299,11292029,2,0.9999938011169434,0.002515234285965562,-0.002451918087899685,-6.761608528904617e-05
1683153641.65892410,11392040,2,0.9999939799308777,0.0024876929819583893,-0.0024204952642321587,-4.7167912271106616e-05
1683153641.75891709,11492033,2,0.9999939203262329,0.002530524041503668,-0.002401365665718913,-8.419500954914838e-05
1683153641.85898519,11592101,2,0.9999939799308777,0.002494920277968049,-0.002409194363281131,-4.957876444677822e-05
1683153641.95896411,11692080,2,0.9999938607215881,0.0025306951720267534,-0.0024314590264111757,-9.358790703117847e-05
1683153642.05896521,11792081,2,0.9999937415122986,0.0025718158576637506,-0.0024318580981343985,-0.00012975759455002844
1683153642.15896702,11892083,2,0.9999938011169434,0.002527597825974226,-0.0024494549725204706,-6.287916767178103e-05
1683153642.25897002,11992086,2,0.9999939799308777,0.002487392630428076,-0.002419394440948963,-6.16921970504336e-05
1683153642.35898709,12092103,2,0.9999939799308777,0.0025537123437970877,-0.0023401975631713867,-8.566254837205634e-05
1683153642.45896602,12192082,2,0.9999939203262329,0.002627959242090583,-0.0022911462001502514,-3.289118831162341e-05
1683153642.55892110,12292037,2,0.9999938607215881,0.002693396992981434,-0.0022438669111579657,-7.185106369433925e-05
1683153642.65891314,12392029,2,0.9999936819076538,0.002841944806277752,-0.002144346944987774,-5.88542316108942e-05
1683153642.75897098,12492087,2,0.999993622303009,0.002939231228083372,-0.0020317428279668093,-7.760582229821011e-05
1683153642.85898900,12592105,2,0.9999934434890747,0.0030360559467226267,-0.0019790397491306067,-7.766384078422561e-05
1683153642.95896006,12692076,2,0.9999932050704956,0.0031131363939493895,-0.0019653327763080597,-0.00011814791650976986
1683153643.05896997,12792086,2,0.2073442041873932,-0.001004139194265008,-0.0037898835726082325,-0.9782602190971375
1683153643.15897107,12892087,2,0.20682908594608307,-0.0011001479579135776,-0.003671152051538229,-0.9783695936203003
1683153643.25898004,12992096,2,0.2054830938577652,-0.0011152317747473717,-0.0036000036634504795,-0.9786534309387207
1683153643.35892320,13092039,2,0.2036232054233551,-0.0011431481689214706,-0.003514882642775774,-0.9790423512458801
1683153643.45892310,13192039,2,0.20164178311824799,-0.0011385554680600762,-0.0034794448874890804,-0.9794524908065796
1683153643.55891609,13292032,2,0.20010749995708466,-0.0011493974598124623,-0.0034332580398768187,-0.9797672629356384
1683153643.65898204,13392098,2,0.19866199791431427,-0.0011109821498394012,-0.0034114050213247538,-0.9800614714622498
1683153643.75898314,13492099,2,0.19734306633472443,-0.0011010020971298218,-0.0034123919904232025,-0.9803279638290405
1683153643.85896420,13592080,2,0.1964033544063568,-0.001025168807245791,-0.003392697311937809,-0.980516791343689
1683153643.95895910,13692075,2,0.1958463340997696,-0.0010662430431693792,-0.003377051092684269,-0.9806281924247742
1683153644.05897117,13792087,2,0.19564327597618103,-0.001019874238409102,-0.0033326700795441866,-0.9806689620018005
1683153644.15892220,13892038,2,0.19581346213817596,-0.0010199622483924031,-0.0033486655447632074,-0.9806349277496338
1683153644.25895000,13992066,2,0.19615449011325836,-0.0010056280298158526,-0.003349256468936801,-0.9805667400360107
1683153644.35892415,14092040,2,0.19650055468082428,-0.0009435268002562225,-0.0033411048352718353,-0.9804975390434265
1683153644.45891809,14192034,2,0.19687648117542267,-0.0009251869050785899,-0.00332925864495337,-0.9804221987724304
1683153644.55897403,14292090,2,0.19734588265419006,-0.0008815308683551848,-0.0032841949723660946,-0.9803280234336853
1683153644.65897918,14392095,2,0.19779540598392487,-0.0008615737897343934,-0.003256196156144142,-0.9802375435829163
1683153644.75897408,14492090,2,0.1980828046798706,-0.00077659054659307,-0.003292324021458626,-0.9801794290542603
1683153644.85897017,14592086,2,0.19823135435581207,-0.0006485722260549664,-0.0032731681130826473,-0.9801495671272278
1683153644.95896506,14692081,2,0.19818969070911407,-0.0006149772671051323,-0.0033432620111852884,-0.9801577925682068
1683153645.05898905,14792105,2,0.1980624496936798,-0.0005901959957554936,-0.003341388190165162,-0.9801835417747498
1683153645.15891409,14892030,2,0.19793786108493805,-0.0005196970305405557,-0.0033842369448393583,-0.9802085757255554
1683153645.25891113,14992027,2,0.19778281450271606,-0.00046165395178832114,-0.0034708494786173105,-0.9802396297454834
1683153645.35891509,15092031,2,0.19769032299518585,-0.00041885339305736125,-0.003520033787935972,-0.9802581071853638
1683153645.45897412,15192090,2,0.19758141040802002,-0.00037417878047563136,-0.003541915211826563,-0.9802799820899963
1683153645.55897212,15292088,2,0.19744549691677094,-0.00036589469527825713,-0.0036409790627658367,-0.9803070425987244
1683153645.65896106,15392077,2,0.19735415279865265,-0.00032952422043308616,-0.003640245646238327,-0.98032546043396
1683153645.75897408,15492090,2,0.19733725488185883,-0.00042031306657008827,-0.0037656042259186506,-0.9803283214569092
1683153645.85897803,15592094,2,0.19745618104934692,-0.00043891664245165884,-0.0037291506305336952,-0.9803045392036438
1683153645.95891500,15692031,2,0.19749858975410461,-0.0004507351841311902,-0.0038322112523019314,-0.9802955985069275
1683153646.05893707,15792053,2,0.1975746601819992,-0.0004326584457885474,-0.003818221390247345,-0.980280339717865
1683153646.15891910,15892035,2,0.1974215805530548,-0.000527595984749496,-0.003911563660949469,-0.9803107380867004
1683153646.25891209,15992028,2,0.19688816368579865,-0.00048008430167101324,-0.003914818167686462,-0.9804180264472961
1683153646.35898399,16092100,2,0.19624851644039154,-0.0005200753803364933,-0.003981347195804119,-0.9805459976196289
1683153646.45896816,16192084,2,0.1958836019039154,-0.0005865935236215591,-0.00403196457773447,-0.9806187152862549
1683153646.55895901,16292075,2,0.1956874430179596,-0.0005170608055777848,-0.004062743857502937,-0.9806577563285828
1683153646.65896511,16392081,2,0.19583407044410706,-0.0005204207845963538,-0.004146709572523832,-0.9806281328201294
1683153646.75897312,16492089,2,0.19668012857437134,-0.0005488577880896628,-0.004286007024347782,-0.9804581999778748
1683153646.85898614,16592102,2,0.19779157638549805,-0.0006645082612521946,-0.004394473508000374,-0.9802340269088745
1683153646.95892310,16692039,2,0.19860020279884338,-0.0005446905852295458,-0.004292373079806566,-0.9800710082054138
1683153647.05892515,16792041,2,0.19922766089439392,-0.0007045351667329669,-0.004370505455881357,-0.9799432158470154
1683153647.15891600,16892032,2,0.19955947995185852,-0.0006788338650949299,-0.004284138325601816,-0.9798761010169983
1683153647.25896907,16992085,2,0.19956223666667938,-0.0007033483125269413,-0.004395858850330114,-0.9798750281333923
1683153647.35897899,17092095,2,0.19961489737033844,-0.0007204800494946539,-0.004304541740566492,-0.9798647165298462
1683153647.45896316,17192079,2,0.19962799549102783,-0.0006937762955203652,-0.004358516074717045,-0.9798617959022522
1683153647.55896616,17292082,2,0.19943997263908386,-0.0007987510762177408,-0.004338487982749939,-0.9799001216888428
1683153647.65896797,17392084,2,0.1993585228919983,-0.0007968901190906763,-0.004410191904753447,-0.9799163937568665
1683153647.75898004,17492096,2,0.19911423325538635,-0.0009302051039412618,-0.004375344142317772,-0.9799661040306091
1683153647.85893703,17592053,2,0.19886521995067596,-0.0009414991945959628,-0.004375785123556852,-0.9800166487693787
1683153647.95891118,17692027,2,0.19881606101989746,-0.0008709399844519794,-0.004380667582154274,-0.9800266623497009
1683153648.05891919,17792035,2,0.19873635470867157,-0.000894019496627152,-0.004443718120455742,-0.9800425171852112
1683153648.15898705,17892103,2,0.19862353801727295,-0.0008193481480702758,-0.004552057944238186,-0.9800649285316467
1683153648.25897598,17992092,2,0.19865727424621582,-0.0009555183351039886,-0.004563625436276197,-0.980057954788208
1683153648.35896206,18092078,2,0.19866862893104553,-0.0009082144242711365,-0.0045798160135746,-0.980055570602417
1683153648.45896912,18192085,2,0.19864331185817719,-0.001008078921586275,-0.004535276908427477,-0.9800608158111572
1683153648.55896711,18292083,2,0.19860143959522247,-0.0010179121745750308,-0.0045670089311897755,-0.9800691604614258
1683153648.65891314,18392029,2,0.19853389263153076,-0.0010523524833843112,-0.004524397198110819,-0.9800829887390137
1683153648.75892115,18492037,2,0.19834935665130615,-0.001084750285372138,-0.004573893267661333,-0.9801201224327087
1683153648.85891104,18592027,2,0.19834035634994507,-0.0010743415914475918,-0.004562209360301495,-0.9801220297813416
1683153648.95891118,18692027,2,0.19828763604164124,-0.0010966559639200568,-0.0045852758921682835,-0.980132520198822
1683153649.05897808,18792094,2,0.19830258190631866,-0.001069119549356401,-0.00457646232098341,-0.980129599571228
1683153649.15898299,18892099,2,0.19851195812225342,-0.0010952140437439084,-0.004544629715383053,-0.9800873398780823
1683153649.25895715,18992073,2,0.19875365495681763,-0.0011208842042833567,-0.004514684900641441,-0.9800384640693665
1683153649.35897207,19092088,2,0.19890710711479187,-0.001127329538576305,-0.004472172819077969,-0.9800074696540833
1683153649.45897007,19192086,2,0.1990731656551361,-0.0011534120421856642,-0.004490038380026817,-0.9799736738204956
1683153649.55891299,19292029,2,0.1991879940032959,-0.0011704204371199012,-0.004469250328838825,-0.9799504280090332
1683153649.65892315,19392039,2,0.19940197467803955,-0.001161735039204359,-0.004477325826883316,-0.9799068570137024
1683153649.75891709,19492033,2,0.19969327747821808,-0.0011629083892330527,-0.004459725227206945,-0.9798476099967957
1683153649.85891819,19592034,2,0.19980673491954803,-0.0011584474705159664,-0.004438374657183886,-0.9798246026039124
1683153649.95897818,19692094,2,0.19978918135166168,-0.0012136849109083414,-0.004464286845177412,-0.9798280000686646
1683153650.05897307,19792089,2,0.1998055875301361,-0.0012215125607326627,-0.00443291524425149,-0.9798247814178467
1683153650.15896702,19892083,2,0.19976520538330078,-0.0012076239800080657,-0.004438462201505899,-0.9798330068588257
1683153650.25896716,19992083,2,0.199677973985672,-0.001219739904627204,-0.0044464957900345325,-0.979850709438324
1683153650.35897112,20092087,2,0.19969579577445984,-0.0012942858738824725,-0.0044205524027347565,-0.9798471331596375
1683153650.45891905,20192035,2,0.19964519143104553,-0.0012472320813685656,-0.004384674597531557,-0.9798576235771179
1683153650.55892301,20292039,2,0.1995687335729599,-0.0012061656452715397,-0.004362770356237888,-0.9798733592033386
1683153650.65891004,20392026,2,0.19961008429527283,-0.001199644641019404,-0.0043266769498586655,-0.9798651337623596
1683153650.75891709,20492033,2,0.19950926303863525,-0.001210006303153932,-0.004337803460657597,-0.9798855781555176
1683153650.85898018,20592096,2,0.19955457746982574,-0.0011831758311018348,-0.00426829420030117,-0.979876697063446
1683153650.95897698,20692093,2,0.19974079728126526,-0.001182783511467278,-0.004226972348988056,-0.9798389673233032
1683153651.05896902,20792085,2,0.19986027479171753,-0.0011973186628893018,-0.004216331522911787,-0.9798145890235901
1683153651.15898919,20892105,2,0.20006774365901947,-0.001218683086335659,-0.004147915169596672,-0.9797725081443787
1683153651.25898218,20992098,2,0.2004178911447525,-0.0012406733585521579,-0.0040926760993897915,-0.9797011613845825
1683153651.35891604,21092032,2,0.20064175128936768,-0.0011549280025064945,-0.00406491057947278,-0.9796555638313293
1683153651.45894814,21192064,2,0.2007617950439453,-0.0011191178346052766,-0.004065076820552349,-0.9796310067176819
1683153651.55891109,21292027,2,0.20096109807491302,-0.0010860381880775094,-0.004029558971524239,-0.9795903563499451
1683153651.65891004,21392026,2,0.20095252990722656,-0.0010701303835958242,-0.004050753079354763,-0.9795920252799988
1683153651.75897098,21492087,2,0.20098482072353363,-0.0010286018950864673,-0.004011387005448341,-0.979585587978363
1683153651.85898304,21592099,2,0.20111548900604248,-0.001023119781166315,-0.004044337663799524,-0.9795586466789246
1683153651.95895910,21692075,2,0.20127928256988525,-0.0010700342245399952,-0.0040257773362100124,-0.9795250296592712
1683153652.05897713,21792093,2,0.2015019804239273,-0.0011027533328160644,-0.0040581985376775265,-0.9794790744781494
1683153652.15897417,21892090,2,0.20162878930568695,-0.0011428763391450047,-0.004051531665027142,-0.9794529676437378
1683153652.25897717,21992093,2,0.20152737200260162,-0.0011346221435815096,-0.004044574219733477,-0.979473888874054
1683153652.35892701,22092043,2,0.20145916938781738,-0.0010839932365342975,-0.004061623476445675,-0.9794878959655762
1683153652.45891809,22192034,2,0.20136678218841553,-0.001077392604202032,-0.004035200458019972,-0.9795070290565491
1683153652.55891109,22292027,2,0.20123390853405,-0.001006807666271925,-0.004008072428405285,-0.9795345067977905
1683153652.65896916,22392085,2,0.20123502612113953,-0.0010295399697497487,-0.004004675429314375,-0.9795342683792114
1683153652.75898504,22492101,2,0.20130471885204315,-0.0010461024940013885,-0.003975884523242712,-0.9795200228691101
1683153652.85896206,22592078,2,0.20130187273025513,-0.0009808159666135907,-0.003978022374212742,-0.9795206785202026
1683153652.95897698,22692093,2,0.20124030113220215,-0.000953582813963294,-0.003943782765418291,-0.9795334935188293
1683153653.05897498,22792091,2,0.20117604732513428,-0.0009532736730761826,-0.0039089941419661045,-0.979546844959259
1683153653.15891504,22892031,2,0.20089131593704224,-0.0009428606135770679,-0.003907579928636551,-0.9796052575111389
1683153653.25892210,22992038,2,0.2005360871553421,-0.0009299934608861804,-0.003876427887007594,-0.979678213596344
1683153653.35891819,23092034,2,0.20019209384918213,-0.0009053985704667866,-0.0038426844403147697,-0.9797487258911133
1683153653.45891404,23192030,2,0.1998826414346695,-0.0008847499848343432,-0.003772422671318054,-0.9798122048377991
1683153653.55897617,23292092,2,0.19967509806156158,-0.0008365159737877548,-0.003793250536546111,-0.9798544645309448
1683153653.65898204,23392098,2,0.19952723383903503,-0.0008059240062721074,-0.0037778979167342186,-0.979884684085846
1683153653.75898218,23492098,2,0.1994728296995163,-0.0008314751321449876,-0.0037749854382127523,-0.9798957109451294
1683153653.85898209,23592098,2,0.19952166080474854,-0.0007709715282544494,-0.0037716608494520187,-0.9798858761787415
1683153653.95896816,23692084,2,0.19953109323978424,-0.0007948651327751577,-0.0037996983155608177,-0.9798837900161743
1683153654.05897498,23792091,2,0.199546679854393,-0.0008493178174830973,-0.0038124709390103817,-0.9798805117607117
1683153654.15894818,23892064,2,0.19962821900844574,-0.0008725868538022041,-0.003749310737475753,-0.9798641204833984
1683153654.25891113,23992027,2,0.1996665894985199,-0.0008310676203109324,-0.0037367651239037514,-0.9798564314842224
1683153654.35891318,24092029,2,0.1996556967496872,-0.0008647121139802039,-0.003766968846321106,-0.9798585176467896
1683153654.45897508,24192091,2,0.19963066279888153,-0.0008749705739319324,-0.0037477773148566484,-0.9798636436462402
1683153654.55897617,24292092,2,0.1997072398662567,-0.0008299550390802324,-0.0037029541563242674,-0.9798482656478882
1683153654.65896010,24392076,2,0.19979463517665863,-0.0007842539926059544,-0.0036740207578986883,-0.9798306226730347
1683153654.75897408,24492090,2,0.1997903287410736,-0.000838621286675334,-0.003669584169983864,-0.9798314571380615
1683153654.85897112,24592087,2,0.19984713196754456,-0.0008002087706699967,-0.003666216041892767,-0.9798198938369751
1683153654.95891309,24692029,2,0.1998281478881836,-0.0007503537926822901,-0.003677631262689829,-0.9798237681388855
1683153655.05892015,24792036,2,0.19980059564113617,-0.0007349819643422961,-0.0036774943582713604,-0.9798294305801392
1683153655.15891099,24892027,2,0.19966505467891693,-0.0007156395586207509,-0.0036377431824803352,-0.9798572063446045
1683153655.25891113,24992027,2,0.19950854778289795,-0.0007524703396484256,-0.0036722475197166204,-0.979888916015625
1683153655.35896111,25092077,2,0.19944828748703003,-0.0007545373518951237,-0.0036541144363582134,-0.9799012541770935
1683153655.45898700,25192103,2,0.19931334257125854,-0.0007906698738224804,-0.0036520706489682198,-0.9799286723136902
1683153655.55896020,25292076,2,0.19929544627666473,-0.000813024933449924,-0.003679065266624093,-0.9799321889877319
1683153655.65897012,25392086,2,0.19936713576316833,-0.0008015026687644422,-0.0037113740108907223,-0.9799175262451172
1683153655.75897098,25492087,2,0.19951635599136353,-0.0007608868181705475,-0.0036687490064650774,-0.9798873066902161
1683153655.85891819,25592034,2,0.1996907740831375,-0.0006990127149038017,-0.003692812751978636,-0.9798517823219299
1683153655.95892906,25692045,2,0.19985431432724,-0.0006828189943917096,-0.0036556574050337076,-0.97981858253479
1683153656.05891514,25792031,2,0.2000121921300888,-0.0006734937778674066,-0.0036077192053198814,-0.9797865152359009
1683153656.15891600,25892032,2,0.19999054074287415,-0.0005820802180096507,-0.0036063443403691053,-0.9797910451889038
1683153656.25896907,25992085,2,0.19996295869350433,-0.0005759936757385731,-0.0036386738065630198,-0.9797965288162231
1683153656.35899019,26092106,2,0.19982922077178955,-0.000541352725122124,-0.003608257742598653,-0.9798239469528198
1683153656.45897102,26192087,2,0.19967661798000336,-0.0005392217426560819,-0.003591459710150957,-0.9798551201820374
1683153656.55896807,26292084,2,0.19954930245876312,-0.0005263654747977853,-0.0036173474509269,-0.9798809885978699
1683153656.65896702,26392083,2,0.19947640597820282,-0.000506178941577673,-0.0036376100033521652,-0.9798957705497742
1683153656.75892210,26492038,2,0.19935357570648193,-0.0005655856803059578,-0.003659807611256838,-0.9799206256866455
1683153656.85891509,26592031,2,0.19922108948230743,-0.0005319128977134824,-0.0036274774465709925,-0.9799476861953735
1683153656.95891118,26692027,2,0.19919151067733765,-0.0005111823556944728,-0.0036182249896228313,-0.9799537658691406
1683153657.05892015,26792036,2,0.1991530954837799,-0.0005406536511145532,-0.0036301969084888697,-0.9799615144729614
1683153657.15895605,26892072,2,0.19907990097999573,-0.0005084250587970018,-0.0036260669585317373,-0.9799764156341553
1683153657.25897908,26992095,2,0.19904842972755432,-0.0005083773867227137,-0.0036322884261608124,-0.9799827933311462
1683153657.35896420,27092080,2,0.19901132583618164,-0.00047221817658282816,-0.0036380623932927847,-0.9799903035163879
1683153657.45896411,27192080,2,0.19902025163173676,-0.0004630330950021744,-0.0035680364817380905,-0.9799887537956238
1683153657.55897117,27292087,2,0.19905059039592743,-0.00044650741619989276,-0.0035896634217351675,-0.9799825549125671
1683153657.65898418,27392100,2,0.19908665120601654,-0.0004824673815164715,-0.0036409725435078144,-0.9799749851226807
1683153657.75891709,27492033,2,0.19915418326854706,-0.0004936259938403964,-0.0036363948602229357,-0.9799612760543823
1683153657.85891318,27592029,2,0.19922319054603577,-0.0004756471316795796,-0.003631351515650749,-0.9799472689628601
1683153657.95891213,27692028,2,0.19922548532485962,-0.00046102816122584045,-0.0036704756785184145,-0.9799466729164124
1683153658.05897212,27792088,2,0.1992199718952179,-0.000511390739120543,-0.0037162776570767164,-0.9799476265907288
1683153658.15898204,27892098,2,0.19917240738868713,-0.0005091420607641339,-0.003717430168762803,-0.9799572825431824
1683153658.25895905,27992075,2,0.1990564912557602,-0.0005155816907063127,-0.0037062286864966154,-0.9799808859825134
1683153658.35896897,28092085,2,0.19892022013664246,-0.0005235009593889117,-0.003713669953867793,-0.9800084829330444
1683153658.45898318,28192099,2,0.19884638488292694,-0.0005406150012277067,-0.0037461109459400177,-0.9800233840942383
1683153658.55897999,28292096,2,0.1988282948732376,-0.0005463570123538375,-0.003795817494392395,-0.9800268411636353
1683153658.65891814,28392034,2,0.1989383101463318,-0.0005212819087319076,-0.003816128708422184,-0.9800044298171997
1683153658.75891900,28492035,2,0.19895941019058228,-0.00047895859461277723,-0.003791970666497946,-0.9800002574920654
1683153658.85891414,28592030,2,0.19895429909229279,-0.00045798724750056863,-0.003872649045661092,-0.9800010323524475
1683153658.95897913,28692095,2,0.1989685297012329,-0.0004821938055101782,-0.003875922877341509,-0.9799981117248535
1683153659.05897999,28792096,2,0.1989365518093109,-0.0005304326768964529,-0.0038385936059057713,-0.9800047278404236
1683153659.15897512,28892091,2,0.19893205165863037,-0.0005644091870635748,-0.0038485953118652105,-0.9800055623054504
1683153659.25897098,28992087,2,0.19897262752056122,-0.0005761440843343735,-0.0038714322727173567,-0.9799972176551819
1683153659.35896897,29092085,2,0.19894523918628693,-0.0005980718997307122,-0.003929032012820244,-0.9800025224685669
1683153659.45891500,29192031,2,0.19886569678783417,-0.0005756976897828281,-0.0038780709728598595,-0.9800189137458801
1683153659.55892706,29292043,2,0.19875718653202057,-0.0005771259893663228,-0.0039041382260620594,-0.9800408482551575
1683153659.65891504,29392031,2,0.1985984742641449,-0.0005770383286289871,-0.003867132356390357,-0.9800731539726257
1683153659.75891399,29492030,2,0.19852586090564728,-0.0005369602586142719,-0.003880390664562583,-0.9800878167152405
1683153659.85898519,29592101,2,0.19837923347949982,-0.0005191012169234455,-0.0038555588107556105,-0.9801176190376282
1683153659.95898008,29692096,2,0.19822800159454346,-0.00046680777450092137,-0.0038939740043133497,-0.9801480770111084
1683153660.05896306,29792079,2,0.1980970948934555,-0.00040200966759584844,-0.0038733063265681267,-0.9801746606826782
1683153660.15896606,29892082,2,0.19798515737056732,-0.0003919998125638813,-0.0038618072867393494,-0.9801973104476929
1683153660.25897098,29992087,2,0.19791120290756226,-0.00038553064223378897,-0.0038725947961211205,-0.9802122116088867
1683153660.35896206,30092078,2,0.19789466261863708,-0.00043537659803405404,-0.003891156753525138,-0.9802154898643494
1683153660.45890999,30192026,2,0.19784341752529144,-0.00045853451592847705,-0.003926857374608517,-0.980225682258606
1683153660.55890107,30292017,2,0.19774267077445984,-0.0004912415170110762,-0.003928108140826225,-0.9802459478378296
1683153660.65890098,30392017,2,0.19757424294948578,-0.0004557408101391047,-0.003959163557738066,-0.980279803276062
1683153660.75896406,30492080,2,0.1974467635154724,-0.0004325541667640209,-0.003965336829423904,-0.9803054928779602
1683153660.85896707,30592083,2,0.1973399668931961,-0.0003948250086978078,-0.003992472775280476,-0.9803268909454346
1683153660.95895219,30692068,2,0.19732089340686798,-0.0003756266087293625,-0.004047971218824387,-0.9803305268287659
1683153661.05895519,30792071,2,0.19737400114536285,-0.0003924882039427757,-0.004008342977613211,-0.9803199768066406
1683153661.15895820,30892074,2,0.19743159413337708,-0.0003972558188252151,-0.004013785161077976,-0.9803083539009094
1683153661.25896406,30992080,2,0.19750869274139404,-0.0004223328724037856,-0.00407484220340848,-0.980292558670044
1683153661.35890198,31092018,2,0.19761307537555695,-0.00042243566713295877,-0.0041032275184988976,-0.9802713990211487
1683153661.45890212,31192018,2,0.19759733974933624,-0.000439535389887169,-0.0041660103015601635,-0.9802743196487427
1683153661.55889916,31292015,2,0.19761298596858978,-0.00043473875848576427,-0.004204226192086935,-0.9802709817886353
1683153661.65896010,31392076,2,0.19763098657131195,-0.0004503460950218141,-0.004225281532853842,-0.9802672863006592
1683153661.75897312,31492089,2,0.19760701060295105,-0.00044278966379351914,-0.0042716749012470245,-0.9802719354629517
1683153661.85897017,31592086,2,0.19756241142749786,-0.0003883850004058331,-0.0042693535797297955,-0.9802809357643127
1683153661.95895100,31692067,2,0.19752614200115204,-0.00039521834696643054,-0.004210824612528086,-0.9802885055541992
1683153662.05895805,31792074,2,0.19751249253749847,-0.00039510641363449395,-0.004187536891549826,-0.9802913665771484
1683153662.15896416,31892080,2,0.19747363030910492,-0.0003811751084867865,-0.004273376427590847,-0.9802988171577454
1683153662.25889897,31992015,2,0.19737523794174194,-0.0003331376938149333,-0.004268578253686428,-0.9803186655044556
1683153662.35890007,32092016,2,0.19729194045066833,-0.0003310692554805428,-0.004243651870638132,-0.980335533618927
1683153662.45890903,32192025,2,0.19717969000339508,-0.00034767287434078753,-0.004270923789590597,-0.9803580045700073
1683153662.55896997,32292086,2,0.1970476657152176,-0.0003266407875344157,-0.004232008010149002,-0.9803847074508667
1683153662.65896511,32392081,2,0.19692988693714142,-0.00029862974770367146,-0.0041977642104029655,-0.9804085493087769
1683153662.75895309,32492069,2,0.1968228816986084,-0.0003198470803909004,-0.004194349516183138,-0.980430006980896
1683153662.85895801,32592074,2,0.19677607715129852,-0.00034782683360390365,-0.004227399360388517,-0.980439305305481
1683153662.95895910,32692075,2,0.19677570462226868,-0.00035922136157751083,-0.004212572239339352,-0.9804394245147705
1683153663.05890512,32792021,2,0.19682374596595764,-0.0003689664008561522,-0.004209000151604414,-0.9804297685623169
1683153663.15889907,32892015,2,0.19684897363185883,-0.00036625773645937443,-0.004231719300150871,-0.9804246425628662
1683153663.25890017,32992016,2,0.19677644968032837,-0.0003830346104223281,-0.004204231780022383,-0.980439305305481
1683153663.35890412,33092020,2,0.19678233563899994,-0.0003997228923253715,-0.0041810935363173485,-0.980438232421875
1683153663.45897317,33192089,2,0.19685904681682587,-0.0003765772271435708,-0.004207128193229437,-0.9804226756095886
1683153663.55897307,33292089,2,0.19690807163715363,-0.00040010473458096385,-0.004190030973404646,-0.9804129004478455
1683153663.65895009,33392066,2,0.19697371125221252,-0.00038851506542414427,-0.004200397524982691,-0.9803996682167053
1683153663.75895405,33492070,2,0.19707423448562622,-0.0004009161493740976,-0.00419442867860198,-0.9803795218467712
1683153663.85896707,33592083,2,0.19708305597305298,-0.0003663807292468846,-0.004167239647358656,-0.9803778529167175
1683153663.95894909,33692065,2,0.19706904888153076,-0.00036763199022971094,-0.004219410475343466,-0.9803804755210876
1683153664.05890203,33792018,2,0.19707952439785004,-0.00036509495112113655,-0.004240641836076975,-0.980378270149231
1683153664.15890718,33892023,2,0.19710612297058105,-0.0003232505696360022,-0.004235247150063515,-0.980372965335846
1683153664.25890613,33992022,2,0.19717958569526672,-0.0003332517226226628,-0.004198807291686535,-0.980358362197876
1683153664.35896611,34092082,2,0.1972787231206894,-0.0003461585147306323,-0.004186037927865982,-0.980338454246521
1683153664.45897198,34192088,2,0.1973799467086792,-0.00034583991509862244,-0.004184357821941376,-0.9803180694580078
1683153664.55894804,34292064,2,0.19743722677230835,-0.00036621143226511776,-0.0042366087436676025,-0.9803063273429871
1683153664.65895414,34392070,2,0.19755254685878754,-0.00034201741800643504,-0.0041658915579319,-0.9802833795547485
1683153664.75896120,34492077,2,0.19768419861793518,-0.00037214424810372293,-0.004144944716244936,-0.9802569150924683
1683153664.85896516,34592081,2,0.1977401226758957,-0.00031901372130960226,-0.004082989878952503,-0.9802459478378296
1683153664.95889902,34692015,2,0.19781090319156647,-0.0003100957546848804,-0.004076152574270964,-0.9802317023277283
1683153665.05890799,34792024,2,0.1978253573179245,-0.00027301808586344123,-0.004090016707777977,-0.9802287220954895
1683153665.15890217,34892018,2,0.1978282928466797,-0.00028353265952318907,-0.0041018202900886536,-0.980228066444397
1683153665.25897503,34992091,2,0.19788338243961334,-0.000285228161374107,-0.004126934800297022,-0.9802168607711792
1683153665.35897207,35092088,2,0.1979903131723404,-0.00023264162882696837,-0.004115693271160126,-0.9801952838897705
1683153665.45894909,35192065,2,0.19816653430461884,-0.0002726968377828598,-0.004106417298316956,-0.9801596999168396
1683153665.55896020,35292076,2,0.19834628701210022,-0.0002618204744067043,-0.0041050692088902,-0.9801234006881714
1683153665.65895700,35392073,2,0.19849379360675812,-0.00030706750112585723,-0.004073524381965399,-0.9800936579704285
1683153665.75895119,35492067,2,0.19860132038593292,-0.0002939636178780347,-0.004075249191373587,-0.9800718426704407
1683153665.85890818,35592024,2,0.19865044951438904,-0.0002978095435537398,-0.004053975455462933,-0.980061948299408
1683153665.95889902,35692015,2,0.19871573150157928,-0.0003090052050538361,-0.004074800759553909,-0.980048656463623
1683153666.05890417,35792020,2,0.19876086711883545,-0.0002856319770216942,-0.004091399256139994,-0.9800394177436829
1683153666.15897703,35892093,2,0.1987754851579666,-0.00029663663008250296,-0.004063563421368599,-0.9800365567207336
1683153666.25895715,35992073,2,0.19877904653549194,-0.0003113753627985716,-0.004026463720947504,-0.9800360202789307
1683153666.35895014,36092066,2,0.198844775557518,-0.00036212155828252435,-0.003972090780735016,-0.9800229072570801
1683153666.45895720,36192073,2,0.1988171935081482,-0.00037048375816084445,-0.003932425286620855,-0.9800286293029785
1683153666.55895805,36292074,2,0.19884367287158966,-0.00030990675440989435,-0.003906669560819864,-0.9800233840942383
1683153666.65895009,36392066,2,0.19883349537849426,-0.000291655829641968,-0.0038680715952068567,-0.980025589466095
1683153666.75892305,36492039,2,0.19883844256401062,-0.00027243446675129235,-0.003825652878731489,-0.9800247550010681
1683153666.85890198,36592018,2,0.19893582165241241,-0.00020183087326586246,-0.003821610240265727,-0.9800050258636475
1683153666.95890212,36692018,2,0.19896775484085083,-0.00017027294961735606,-0.0037845736369490623,-0.9799987077713013
1683153667.05896401,36792080,2,0.19898498058319092,-0.00013803843467030674,-0.0037588353734463453,-0.9799953103065491
1683153667.15896702,36892083,2,0.1990583837032318,-0.00017873082833830267,-0.0037335494998842478,-0.9799805283546448
1683153667.25895214,36992068,2,0.19914530217647552,-0.0001900856295833364,-0.0037097237072885036,-0.979962944984436
1683153667.35896206,37092078,2,0.19920794665813446,-0.00017422594828531146,-0.0037216143682599068,-0.9799501299858093
1683153667.45895815,37192074,2,0.1992669403553009,-0.00017408738494850695,-0.00373370130546391,-0.9799380898475647
1683153667.55896306,37292079,2,0.19934752583503723,-0.00015360706311184913,-0.003691760590299964,-0.9799218773841858
1683153667.65890908,37392025,2,0.19943442940711975,-0.00014525024744216353,-0.0036923822481185198,-0.9799042344093323
1683153667.75890207,37492018,2,0.19945651292800903,-0.0001025068704620935,-0.003645312739536166,-0.9798998832702637
1683153667.85890412,37592020,2,0.19949820637702942,-0.00013475274317897856,-0.003623521188274026,-0.9798914790153503
1683153667.95896912,37692085,2,0.1995435357093811,-0.00011799253115896136,-0.0036896546371281147,-0.979882001876831
1683153668.05897212,37792088,2,0.19961455464363098,-0.00016302321455441415,-0.003636665176600218,-0.9798677563667297
1683153668.15895915,37892075,2,0.19973328709602356,-0.00011578608973650262,-0.0036659426987171173,-0.9798434376716614
1683153668.25895810,37992074,2,0.19978226721286774,-0.00010456232848810032,-0.0036201579496264458,-0.9798336029052734
1683153668.35895801,38092074,2,0.19984647631645203,-9.261121886083856e-05,-0.003629235550761223,-0.9798204898834229
1683153668.45891213,38192028,2,0.1998697966337204,-0.00015798381355125457,-0.003641553455963731,-0.979815661907196
1683153668.55889916,38292015,2,0.19990980625152588,-0.00012217785115353763,-0.0036174370907247066,-0.9798076152801514
1683153668.65890217,38392018,2,0.2000364065170288,-0.00012844332377426326,-0.0036443269345909357,-0.9797816872596741
1683153668.75891399,38492030,2,0.2001928985118866,-0.00011361928045516834,-0.0037054275162518024,-0.9797495007514954
1683153668.85896516,38592081,2,0.20031286776065826,-9.256615157937631e-05,-0.003665289608761668,-0.9797251224517822
1683153668.95896411,38692080,2,0.2004411518573761,-0.0001316122943535447,-0.003635302186012268,-0.9796990156173706
1683153669.05895209,38792068,2,0.20054154098033905,-0.00013671073247678578,-0.003573739668354392,-0.9796786904335022
1683153669.15896320,38892079,2,0.20060913264751434,-0.00019196677021682262,-0.003561499295756221,-0.9796648621559143
1683153669.25895905,38992075,2,0.200693279504776,-9.233431774191558e-05,-0.003491000272333622,-0.9796478748321533
1683153669.35895205,39092068,2,0.20074911415576935,-0.00012734922347590327,-0.00352047523483634,-0.9796363711357117
1683153669.45890212,39192018,2,0.2008025348186493,-0.00012105041241738945,-0.003524492494761944,-0.979625403881073
1683153669.55889916,39292015,2,0.20089054107666016,-0.00011710719263646752,-0.0035154041834175587,-0.9796074032783508
1683153669.65889907,39392015,2,0.20087377727031708,-0.00014785672829020768,-0.003508334280923009,-0.9796108603477478
1683153669.75896215,39492078,2,0.2009279429912567,-4.8386140406364575e-05,-0.0035114637576043606,-0.9795997142791748
1683153669.85896802,39592084,2,0.20092804729938507,-5.595412221737206e-05,-0.00347242783755064,-0.9795998334884644
1683153669.95894599,39692062,2,0.20095431804656982,-2.749520353972912e-05,-0.0034956790041178465,-0.979594349861145
1683153670.05896521,39792081,2,0.20110002160072327,-3.1457249860977754e-05,-0.003511781105771661,-0.9795644283294678
1683153670.15896320,39892079,2,0.2011910378932953,-3.864346581394784e-05,-0.00355581589974463,-0.9795455932617188
1683153670.25894117,39992057,2,0.20127299427986145,-4.0720467950450256e-05,-0.0035304431803524494,-0.9795288443565369
1683153670.35890198,40092018,2,0.20141227543354034,-4.110860754735768e-05,-0.003503446700051427,-0.9795002937316895
1683153670.45891404,40192030,2,0.20149029791355133,-7.518280472140759e-05,-0.0035244179889559746,-0.9794841408729553
1683153670.55889916,40292015,2,0.20156364142894745,-5.8207202528137714e-05,-0.0035225828178226948,-0.9794690608978271
1683153670.65895915,40392075,2,0.20157654583454132,-1.4825388461758848e-05,-0.0035403529182076454,-0.9794663786888123
1683153670.75897598,40492092,2,0.20160503685474396,-5.0250531785422936e-05,-0.0035072090104222298,-0.979460597038269
1683153670.85895610,40592072,2,0.20157203078269958,-4.783148324349895e-05,-0.003584897145628929,-0.9794671535491943
1683153670.95896101,40692077,2,0.20164655148983002,-8.637658902443945e-05,-0.0035545118153095245,-0.9794518947601318
1683153671.05895901,40792075,2,0.20166417956352234,-8.196774433599785e-05,-0.003602568758651614,-0.9794480800628662
1683153671.15895319,40892069,2,0.20167870819568634,-0.0001054601016221568,-0.0036200874019414186,-0.9794450402259827
1683153671.25889897,40992015,2,0.20178057253360748,-0.00010942549852188677,-0.0036782249808311462,-0.9794238209724426
1683153671.35890198,41092018,2,0.2018800973892212,-0.00012848942424170673,-0.003698954125866294,-0.9794032573699951
1683153671.45890212,41192018,2,0.20188389718532562,-0.00014978594845160842,-0.003694804385304451,-0.979402482509613
1683153671.55896306,41292079,2,0.20200711488723755,-0.00014163572632241994,-0.003711220109835267,-0.979377031326294
1683153671.65895915,41392075,2,0.20209650695323944,-9.539507300360128e-05,-0.0036888064350932837,-0.9793586730957031
1683153671.75895715,41492073,2,0.20214959979057312,-9.839377889875323e-05,-0.0037161544896662235,-0.9793475866317749
1683153671.85897017,41592086,2,0.20218004286289215,-0.000115961731353309,-0.003709713462740183,-0.9793413281440735
1683153671.95895600,41692072,2,0.20214739441871643,-0.00011267143418081105,-0.0037533550057560205,-0.9793478846549988
1683153672.05896521,41792081,2,0.20210443437099457,-0.00014266192738432437,-0.0037075828295201063,-0.9793569445610046
1683153672.15890503,41892021,2,0.2021821141242981,-0.0001565118582220748,-0.0037425265181809664,-0.9793407917022705
1683153672.25889897,41992015,2,0.20214997231960297,-0.00011817392805824056,-0.003738206811249256,-0.9793474078178406
1683153672.35890102,42092017,2,0.20209898054599762,-6.273327016970143e-05,-0.0037574348971247673,-0.979357898235321
1683153672.45896411,42192080,2,0.2020331621170044,-2.3260172383743338e-05,-0.003767139045521617,-0.9793714284896851
1683153672.55895805,42292074,2,0.20200718939304352,2.4446964744129218e-05,-0.003724208101630211,-0.9793769717216492
1683153672.65894914,42392065,2,0.20197947323322296,4.364648702903651e-05,-0.0037324093282222748,-0.9793826341629028
1683153672.75896215,42492078,2,0.20196427404880524,1.0073934390675277e-05,-0.0036260122433304787,-0.9793861508369446
1683153672.85896015,42592076,2,0.20192627608776093,7.788217772031203e-06,-0.0036126470658928156,-0.9793940782546997
1683153672.95894003,42692056,2,0.20194955170154572,-2.6322619305574335e-05,-0.003587838029488921,-0.9793893694877625
1683153673.05890512,42792021,2,0.20199096202850342,-1.4323260984383523e-05,-0.0036206096410751343,-0.9793806672096252
1683153673.15890002,42892016,2,0.20204313099384308,-1.6033684005378745e-05,-0.0035735571291297674,-0.9793701171875
1683153673.25890017,42992016,2,0.2021159827709198,-8.517376045347191e-06,-0.0035824766382575035,-0.9793550372123718
1683153673.35896420,43092080,2,0.20216508209705353,2.9107026421115734e-05,-0.003583709243685007,-0.97934490442276
1683153673.45896101,43192077,2,0.20222288370132446,4.552484460873529e-05,-0.00362260639667511,-0.9793328046798706
1683153673.55895019,43292066,2,0.20223836600780487,9.913974281516857e-06,-0.003712689271196723,-0.9793292880058289
1683153673.65896010,43392076,2,0.2022235244512558,-5.1037835646639e-07,-0.003715230617672205,-0.9793323278427124
1683153673.75895810,43492074,2,0.20219889283180237,1.1077249837398995e-05,-0.0037641869857907295,-0.979337215423584
1683153673.85897517,43592091,2,0.20215260982513428,3.513834599289112e-05,-0.0037701132241636515,-0.979346752166748
1683153673.95890617,43692022,2,0.20218390226364136,4.486901525524445e-05,-0.003769130911678076,-0.9793403148651123
1683153674.05890203,43792018,2,0.2022327035665512,9.257493729819544e-06,-0.003749558934941888,-0.97933030128479
1683153674.15890408,43892020,2,0.20229262113571167,9.511633834335953e-06,-0.003758144797757268,-0.9793179035186768
1683153674.25895715,43992073,2,0.20244058966636658,2.1869351257919334e-05,-0.0037530804984271526,-0.979287326335907
1683153674.35896897,44092085,2,0.20255668461322784,5.095015512779355e-05,-0.0037605215329676867,-0.9792633056640625
1683153674.45895505,44192071,2,0.20265306532382965,0.00011710512626450509,-0.0037549943663179874,-0.9792433977127075
1683153674.55895710,44292073,2,0.20271259546279907,0.00011849468137370422,-0.003762949490919709,-0.979231059551239
1683153674.65896106,44392077,2,0.20264394581317902,0.00010571194434305653,-0.0037531647831201553,-0.9792453050613403
1683153674.75896311,44492079,2,0.20263026654720306,9.806739399209619e-05,-0.0037102731876075268,-0.9792482852935791
1683153674.85890007,44592016,2,0.20263776183128357,8.764197991695255e-05,-0.003732244949787855,-0.9792466759681702
1683153674.95889997,44692016,2,0.2025386542081833,0.0001144159323303029,-0.003681248053908348,-0.9792673587799072
1683153675.05890608,44792022,2,0.20248611271381378,0.00015087042993400246,-0.003703936468809843,-0.9792780876159668
1683153675.15896201,44892078,2,0.20255886018276215,0.00017408319399692118,-0.003693328006193042,-0.9792631268501282
1683153675.25896120,44992077,2,0.20256397128105164,0.00018281878146808594,-0.003682545619085431,-0.979262113571167
1683153675.35894608,45092062,2,0.20261302590370178,0.00019577056809794158,-0.003745605703443289,-0.9792516827583313
1683153675.45895505,45192071,2,0.20263363420963287,0.0002105479798046872,-0.003707240568473935,-0.9792475700378418
1683153675.55896115,45292077,2,0.20266814529895782,0.00019276005332358181,-0.003681347705423832,-0.9792405366897583
1683153675.65890217,45392018,2,0.2026543766260147,0.0001771962270140648,-0.0036465630400925875,-0.9792435169219971
1683153675.75890207,45492018,2,0.202692449092865,0.00016456116281915456,-0.003656549844890833,-0.9792355895042419
1683153675.85890913,45592025,2,0.2027239203453064,0.00019952509319409728,-0.0036153357941657305,-0.979229211807251
1683153675.95890808,45692024,2,0.20279550552368164,0.00025386473862454295,-0.003575005568563938,-0.9792145490646362
1683153676.05896211,45792078,2,0.2028912454843521,0.00027891609352082014,-0.0035321915056556463,-0.9791948795318604
1683153676.15897202,45892088,2,0.2028569132089615,0.0002758296031970531,-0.003562851808965206,-0.9792018532752991
1683153676.25895000,45992066,2,0.20288094878196716,0.00028174626640975475,-0.003565805498510599,-0.9791969060897827
1683153676.35895109,46092067,2,0.20287063717842102,0.00026713000261224806,-0.0035428095143288374,-0.9791991114616394
1683153676.45896101,46192077,2,0.202900230884552,0.00023371216957457364,-0.003501963336020708,-0.9791931509971619
1683153676.55890012,46292016,2,0.20292329788208008,0.0002319446502951905,-0.003490791190415621,-0.9791883826255798
1683153676.65890503,46392021,2,0.20297788083553314,0.00020185347239021212,-0.0034992252476513386,-0.9791770577430725
1683153676.75891018,46492026,2,0.20296140015125275,0.00022425875067710876,-0.003487600013613701,-0.9791805148124695
1683153676.85890508,46592021,2,0.20291686058044434,0.00011910351895494387,-0.0034928712993860245,-0.9791897535324097
1683153676.95897913,46692095,2,0.20290768146514893,8.347754192072898e-05,-0.0035164635628461838,-0.9791915416717529
1683153677.05896306,46792079,2,0.202836275100708,4.118632205063477e-05,-0.003550051711499691,-0.9792062044143677
1683153677.15895510,46892071,2,0.20283736288547516,1.480695755162742e-05,-0.0035645647440105677,-0.9792059659957886
1683153677.25896120,46992077,2,0.2028217911720276,2.3226533812703565e-05,-0.0035794698633253574,-0.9792091250419617
1683153677.35896301,47092079,2,0.20271851122379303,-1.722957449601381e-06,-0.003597979201003909,-0.9792304635047913
1683153677.45890617,47192022,2,0.20272372663021088,-1.8623806681716815e-05,-0.0036200887989252806,-0.9792292714118958
1683153677.55890918,47292025,2,0.20270976424217224,-5.145087470737053e-06,-0.003636854700744152,-0.979232132434845
1683153677.65890408,47392020,2,0.20277193188667297,-3.213564195903018e-05,-0.0036646174266934395,-0.9792191386222839
1683153677.75890207,47492018,2,0.20278221368789673,-4.2660831240937114e-05,-0.003698250511661172,-0.9792168736457825
1683153677.85898709,47592103,2,0.20282623171806335,-2.9454058676492423e-05,-0.003685839707031846,-0.9792078137397766
1683153677.95896506,47692081,2,0.2028466910123825,-4.270958015695214e-05,-0.0036908346228301525,-0.9792035222053528
1683153678.05895209,47792068,2,0.20283038914203644,-0.00010751659283414483,-0.0037268123123794794,-0.9792068004608154
1683153678.15895700,47892073,2,0.20279546082019806,-8.818606875138357e-05,-0.0037177999038249254,-0.979214072227478
1683153678.25896001,47992076,2,0.20282667875289917,-5.751677235821262e-05,-0.0037528332322835922,-0.979207456111908
1683153678.35895014,48092066,2,0.20287258923053741,-9.51082183746621e-05,-0.0037598004564642906,-0.9791979193687439
1683153678.45891118,48192027,2,0.20287549495697021,-0.00011665700003504753,-0.003740726038813591,-0.9791973829269409
1683153678.55890512,48292021,2,0.20277602970600128,-0.0001501899241702631,-0.003756374353542924,-0.9792179465293884
1683153678.65890312,48392019,2,0.20276565849781036,-0.00015626827371306717,-0.0037695711944252253,-0.9792200326919556
1683153678.75896621,48492082,2,0.202750563621521,-0.0002157271810574457,-0.0037943790666759014,-0.9792230129241943
1683153678.85896802,48592084,2,0.20263086259365082,-0.00019569929281715304,-0.0038188952021300793,-0.9792477488517761
1683153678.95894504,48692061,2,0.20254985988140106,-0.00021177133021410555,-0.003794023534283042,-0.9792645573616028
1683153679.05895400,48792070,2,0.20248492062091827,-0.00015084267943166196,-0.003726596711203456,-0.9792782664299011
1683153679.15896010,48892076,2,0.2023920714855194,-0.00013856503937859088,-0.0036945990286767483,-0.9792975783348083
1683153679.25896502,48992081,2,0.2023855745792389,-3.1332321668742225e-05,-0.003695420455187559,-0.9792989492416382
1683153679.35890412,49092020,2,0.20233823359012604,1.2274363143660594e-06,-0.003657577559351921,-0.9793088436126709
1683153679.45890713,49192023,2,0.20228071510791779,3.328574530314654e-05,-0.003707268973812461,-0.9793205857276917
1683153679.55891800,49292034,2,0.2022387534379959,4.6581943024648353e-05,-0.003698993008583784,-0.9793292880058289
1683153679.65895200,49392068,2,0.2021634578704834,4.4829703256255016e-05,-0.0036834932398051023,-0.9793448448181152
1683153679.75897813,49492094,2,0.20214532315731049,5.46205737919081e-05,-0.0036587901413440704,-0.9793487191200256
1683153679.85896301,49592079,2,0.20214539766311646,5.5478696594946086e-05,-0.0036516946274787188,-0.9793487191200256
1683153679.95895100,49692067,2,0.2021353542804718,5.69536023249384e-05,-0.003634329419583082,-0.9793508648872375
1683153680.05895805,49792074,2,0.20216257870197296,7.176669168984517e-05,-0.003596131457015872,-0.9793453812599182
1683153680.15897012,49892086,2,0.20217719674110413,0.0001733871322358027,-0.0035654257517307997,-0.9793424606323242
1683153680.25889802,49992014,2,0.20215174555778503,0.00016356246487703174,-0.003594782901927829,-0.9793475866317749
1683153680.35890007,50092016,2,0.20218615233898163,0.00018688196723815054,-0.003602475393563509,-0.9793404936790466
1683153680.45890999,50192026,2,0.2022324800491333,0.0002047347807092592,-0.0036115231923758984,-0.979330837726593
1683153680.55898404,50292100,2,0.2022179365158081,0.00013832906552124768,-0.003650475526228547,-0.979333758354187
1683153680.65896702,50392083,2,0.2022068053483963,0.0001514401228632778,-0.0036084605380892754,-0.9793362021446228
1683153680.75895405,50492070,2,0.2022397518157959,0.0001743947941577062,-0.0036324153188616037,-0.9793292880058289
1683153680.85895610,50592072,2,0.20224018394947052,0.00018475131946615875,-0.003684250172227621,-0.979328989982605
1683153680.95895410,50692070,2,0.20222142338752747,0.0001837237214203924,-0.003654924686998129,-0.9793329834938049
1683153681.05891109,50792027,2,0.20215600728988647,0.00015802289999555796,-0.003675652900710702,-0.9793463945388794
1683153681.15890408,50892020,2,0.20212110877037048,0.00013274792581796646,-0.0036375289782881737,-0.9793537855148315
1683153681.25889897,50992015,2,0.20208323001861572,0.00018053909298032522,-0.003601605538278818,-0.9793617129325867
1683153681.35889912,51092015,2,0.20205599069595337,0.00017205742187798023,-0.0036047562025487423,-0.9793673157691956
1683153681.45897007,51192086,2,0.2020503580570221,0.0002194530243286863,-0.0035734367556869984,-0.9793685674667358
1683153681.55898499,51292101,2,0.202077254652977,0.00010316968837287277,-0.003570966888219118,-0.9793630838394165
1683153681.65895009,51392066,2,0.20210030674934387,9.046665945788845e-05,-0.0036096684634685516,-0.9793581962585449
1683153681.75895405,51492070,2,0.20212893187999725,5.5687512940494344e-05,-0.0035866606049239635,-0.9793523550033569
1683153681.85896802,51592084,2,0.20213261246681213,5.29737735632807e-05,-0.0036679806653410196,-0.979351282119751
1683153681.95895004,51692066,2,0.2021942436695099,6.921672320459038e-05,-0.003725014626979828,-0.9793383479118347
1683153682.05890298,51792019,2,0.20211666822433472,0.00011895366333192214,-0.003772689728066325,-0.979354202747345
1683153682.15890908,51892025,2,0.20208925008773804,0.00013922313519287854,-0.0038109412416815758,-0.9793596863746643
1683153682.25889897,51992015,2,0.2020675092935562,0.00013328046770766377,-0.0038235774263739586,-0.9793640971183777
1683153682.35895610,52092072,2,0.20205827057361603,0.0001314919936703518,-0.0037778562400490046,-0.9793661832809448
1683153682.45896411,52192080,2,0.20205198228359222,8.225739293266088e-05,-0.0038205082528293133,-0.9793673157691956
1683153682.55895305,52292069,2,0.2020406872034073,8.244600758189335e-05,-0.0038204838056117296,-0.9793696999549866
1683153682.65895319,52392069,2,0.20201225578784943,7.255734817590564e-05,-0.003821434685960412,-0.9793755412101746
1683153682.75896120,52492077,2,0.20203563570976257,0.00011668059596559033,-0.0037717900704592466,-0.9793708920478821
1683153682.85890198,52592018,2,0.20197321474552155,6.615842721657827e-05,-0.003777106059715152,-0.9793837666511536
1683153682.95889902,52692015,2,0.20195692777633667,7.219937106128782e-05,-0.0038087647408246994,-0.9793869853019714
1683153683.05890918,52792025,2,0.20199339091777802,3.944935815525241e-05,-0.0038334729615598917,-0.9793793559074402
1683153683.15890217,52892018,2,0.2020622193813324,-2.280382250319235e-05,-0.0039018283132463694,-0.9793649315834045
1683153683.25896502,52992081,2,0.2020527720451355,3.7298115785233676e-05,-0.0039092474617064,-0.9793668389320374
1683153683.35895109,53092067,2,0.2020956575870514,-1.5549481759080663e-05,-0.00390309514477849,-0.9793580174446106
1683153683.45895815,53192074,2,0.20209833979606628,-1.981777859327849e-05,-0.003931816667318344,-0.9793573617935181
1683153683.55896020,53292076,2,0.20209181308746338,-4.1197887185262516e-05,-0.003917701076716185,-0.9793587327003479
1683153683.65895700,53392073,2,0.20207062363624573,-5.2351533668115735e-05,-0.003902833443135023,-0.979363203048706
1683153683.75896907,53492085,2,0.20204317569732666,-0.00012246251571923494,-0.003913096617907286,-0.9793688058853149
1683153683.85890412,53592020,2,0.2019984871149063,-0.00016859894094523042,-0.003914596512913704,-0.9793779850006104
1683153683.95889997,53692016,2,0.20198191702365875,-0.0002406962594250217,-0.00398059980943799,-0.9793811440467834
1683153684.05890107,53792017,2,0.20202302932739258,-0.00029026795527897775,-0.003983587492257357,-0.9793726205825806
1683153684.15896511,53892081,2,0.20200039446353912,-0.0002763596421573311,-0.004005578346550465,-0.9793772101402283
1683153684.25897098,53992087,2,0.2020120620727539,-0.00033654706203378737,-0.003997058607637882,-0.9793748259544373
1683153684.35894918,54092065,2,0.20202437043190002,-0.0003558444732334465,-0.003985749091953039,-0.9793723225593567
1683153684.45896006,54192076,2,0.2020081877708435,-0.00037530832923948765,-0.004051396157592535,-0.9793753623962402
1683153684.55896020,54292076,2,0.20196101069450378,-0.000438664952525869,-0.004062221851199865,-0.9793850183486938
1683153684.65890598,54392022,2,0.20187908411026,-0.0005125281750224531,-0.004032874945551157,-0.9794020056724548
1683153684.75890613,54492022,2,0.2018253654241562,-0.0005729451077058911,-0.004032476805150509,-0.9794130325317383
1683153684.85891104,54592027,2,0.20180360972881317,-0.0005752689321525395,-0.004010896198451519,-0.979417622089386
1683153684.95890808,54692024,2,0.2018078863620758,-0.0005088794860057533,-0.003992740996181965,-0.9794168472290039
1683153685.05895901,54792075,2,0.20175503194332123,-0.0005446381401270628,-0.004010471515357494,-0.9794276356697083
1683153685.15898418,54892100,2,0.2017369568347931,-0.0005547227337956429,-0.004016289487481117,-0.9794313311576843
1683153685.25896001,54992076,2,0.20173247158527374,-0.0005283970385789871,-0.00400971807539463,-0.9794322848320007
1683153685.35895419,55092070,2,0.20164746046066284,-0.0005019625532440841,-0.003963964059948921,-0.9794500470161438
1683153685.45895720,55192073,2,0.2015874832868576,-0.0004785190394613892,-0.003965070471167564,-0.9794623851776123
1683153685.55896211,55292078,2,0.20152969658374786,-0.0004699290730059147,-0.003936233930289745,-0.9794743657112122
1683153685.65890002,55392016,2,0.20146293938159943,-0.0004522423550952226,-0.003914337605237961,-0.9794881939888
1683153685.75890708,55492023,2,0.2014339566230774,-0.0004598352243192494,-0.003924456890672445,-0.9794941544532776
1683153685.85890508,55592021,2,0.2014959305524826,-0.00042626698268577456,-0.00391952320933342,-0.9794813990592957
1683153685.95896411,55692080,2,0.20150083303451538,-0.0004138652584515512,-0.003920555580407381,-0.9794803857803345
1683153686.05897617,55792092,2,0.2015087753534317,-0.0004716098483186215,-0.003930126316845417,-0.9794787168502808
1683153686.15895200,55892068,2,0.20155878365039825,-0.0004903500084765255,-0.003977116197347641,-0.9794682264328003
1683153686.25895214,55992068,2,0.20160821080207825,-0.0005008500884287059,-0.003925023600459099,-0.9794582724571228
1683153686.35895514,56092071,2,0.2016471028327942,-0.00044724956387653947,-0.00385490944609046,-0.979450523853302
1683153686.45897007,56192086,2,0.20162340998649597,-0.00047400983748957515,-0.0038536458741873503,-0.9794554114341736
1683153686.55890608,56292022,2,0.20156340301036835,-0.0004915765603072941,-0.0038644459564238787,-0.9794677495956421
1683153686.65890718,56392023,2,0.20155976712703705,-0.0005328291445039213,-0.0038530181627720594,-0.9794684648513794
1683153686.75890803,56492024,2,0.2014828473329544,-0.00045042767305858433,-0.003838752629235387,-0.9794844388961792
1683153686.85894513,56592061,2,0.2014414519071579,-0.0004029453848488629,-0.003826475003734231,-0.9794930219650269
1683153686.95896411,56692080,2,0.20137469470500946,-0.0003581978671718389,-0.0038324117194861174,-0.9795067310333252
1683153687.05894899,56792065,2,0.201344296336174,-0.00026740264729596674,-0.003868807340040803,-0.9795128703117371
1683153687.15895510,56892071,2,0.20126590132713318,-0.00025786436162889004,-0.0038712036330252886,-0.9795289635658264
1683153687.25895810,56992074,2,0.2011914849281311,-0.00023956867516972125,-0.003902371972799301,-0.9795441031455994
1683153687.35890102,57092017,2,0.20115803182125092,-0.00023870151198934764,-0.0038832686841487885,-0.9795510768890381
1683153687.45890307,57192019,2,0.2010737955570221,-0.00026369374245405197,-0.003935308661311865,-0.9795681834220886
1683153687.55890298,57292019,2,0.20104745030403137,-0.00025233603082597256,-0.003925494384020567,-0.9795736074447632
1683153687.65890002,57392016,2,0.20098336040973663,-0.00023738319578114897,-0.003905138000845909,-0.9795868396759033
1683153687.75897217,57492088,2,0.20090588927268982,-0.0001909498532768339,-0.003919040784239769,-0.9796026945114136
1683153687.85897899,57592095,2,0.2008618861436844,-0.00017219193978235126,-0.0039026655722409487,-0.9796117544174194
1683153687.95897007,57692086,2,0.20082607865333557,-0.00017099424439948052,-0.0038963211700320244,-0.9796191453933716
1683153688.05896115,57792077,2,0.20077569782733917,-9.43220584304072e-05,-0.003864128841087222,-0.979629635810852
1683153688.15896320,57892079,2,0.20078341662883759,-4.075286415172741e-05,-0.003834322327747941,-0.9796281456947327
1683153688.25895214,57992068,2,0.20076696574687958,1.1445105883467477e-05,-0.0037884043995290995,-0.9796317219734192
1683153688.35890508,58092021,2,0.2007473111152649,3.0263374355854467e-05,-0.0038289874792099,-0.9796355962753296
1683153688.45891404,58192030,2,0.2008146494626999,9.564428182784468e-05,-0.003777374979108572,-0.979621946811676
1683153688.55890512,58292021,2,0.20082895457744598,9.047483035828918e-05,-0.0036808624863624573,-0.9796193838119507
1683153688.65895104,58392067,2,0.20080561935901642,2.4972317987703718e-05,-0.0037078808527439833,-0.9796240925788879
1683153688.75897813,58492094,2,0.20079676806926727,3.414945240365341e-05,-0.003797575132921338,-0.9796255826950073
1683153688.85895705,58592073,2,0.20069663226604462,1.981895911740139e-05,-0.0038581164553761482,-0.979645848274231
1683153688.95896101,58692077,2,0.20063523948192596,-1.7270691387238912e-05,-0.0038907236885279417,-0.979658305644989
1683153689.05896211,58792078,2,0.20052705705165863,-3.805416417890228e-05,-0.0038846225943416357,-0.9796804785728455
1683153689.15891504,58892031,2,0.2004549354314804,7.982020377994559e-08,-0.003847062587738037,-0.9796953797340393
1683153689.25890517,58992021,2,0.2003805786371231,1.1309951332805213e-05,-0.003822523169219494,-0.9797106981277466
1683153689.35891414,59092030,2,0.20026297867298126,1.1260050996497739e-05,-0.003847542218863964,-0.9797345995903015
1683153689.45890617,59192022,2,0.20016245543956757,7.387028017546982e-05,-0.003811619011685252,-0.9797552824020386
1683153689.55897307,59292089,2,0.20010504126548767,3.1694318749941885e-05,-0.0037301983684301376,-0.9797673225402832
1683153689.65896201,59392078,2,0.20001651346683502,8.803732634987682e-05,-0.003658220637589693,-0.979785680770874
1683153689.75895309,59492069,2,0.19998201727867126,0.00010077439219458029,-0.003632273292168975,-0.9797928333282471
1683153689.85896611,59592082,2,0.1999887079000473,8.440609235549346e-05,-0.0036572266835719347,-0.9797913432121277
1683153689.95897007,59692086,2,0.19996900856494904,8.810580766294152e-05,-0.003673893166705966,-0.9797953367233276
1683153690.05898213,59792098,2,0.1999824494123459,6.65718616801314e-05,-0.0036613461561501026,-0.9797926545143127
1683153690.15891409,59892030,2,0.19995777308940887,1.2198489457659889e-05,-0.0036730808205902576,-0.9797976016998291
1683153690.25890207,59992018,2,0.19994334876537323,-1.9915973098250106e-05,-0.0036975399125367403,-0.9798004627227783
1683153690.35891509,60092031,2,0.19992010295391083,-3.955197098548524e-05,-0.003734730649739504,-0.9798051118850708
1683153690.45896912,60192085,2,0.19995175302028656,-1.89277452591341e-05,-0.0036816338542848825,-0.9797988533973694
1683153690.55897617,60292092,2,0.19997678697109222,-3.6168417864246294e-05,-0.003635318949818611,-0.979793906211853
1683153690.65895510,60392071,2,0.19997909665107727,-0.00010331419616704807,-0.003572191810235381,-0.9797936677932739
1683153690.75897908,60492095,2,0.199947789311409,-0.00013737098197452724,-0.003528231754899025,-0.9798001646995544
1683153690.85896707,60592083,2,0.19990061223506927,-0.00017573557852301747,-0.0035301093012094498,-0.9798098206520081
1683153690.95899010,60692106,2,0.19996057450771332,-0.00021513128012884408,-0.0035010024439543486,-0.9797976613044739
1683153691.05890703,60792023,2,0.1999390572309494,-0.00024919057614170015,-0.00347230420447886,-0.979802131652832
1683153691.15892220,60892038,2,0.19996151328086853,-0.00024518216378055513,-0.003421196946874261,-0.9797977209091187
1683153691.25890708,60992023,2,0.1999415159225464,-0.00024468268384225667,-0.0033515675459057093,-0.9798020720481873
1683153691.35896802,61092084,2,0.1999710202217102,-0.00018826745508704334,-0.0033425609581172466,-0.9797961115837097
1683153691.45897198,61192088,2,0.19995924830436707,-0.00018272644956596196,-0.003280763980001211,-0.9797987341880798
1683153691.55896902,61292085,2,0.19995203614234924,-0.00016114811296574771,-0.003278816817328334,-0.9798001646995544
1683153691.65897202,61392088,2,0.20011556148529053,-9.924911864800379e-05,-0.0032515916973352432,-0.9797669053077698
1683153691.75897717,61492093,2,0.19976407289505005,-8.827866986393929e-05,-0.0031951158307492733,-0.9798387885093689
1683153691.85898399,61592100,2,0.2001352310180664,-9.500594751443714e-05,-0.003146361792460084,-0.9797632098197937
1683153691.95894814,61692064,2,0.19990505278110504,-0.0001579058007337153,-0.0029752396512776613,-0.9798107147216797
1683153692.05892110,61792037,2,0.19985884428024292,-5.840696394443512e-05,-0.003259237390011549,-0.9798192977905273
1683153692.15893316,61892049,2,0.20004545152187347,-0.0001494279713369906,-0.0023449279833585024,-0.9797837734222412
1683153692.25895905,61992075,2,0.19977785646915436,-6.777660746593028e-05,-0.0028481900226324797,-0.9798370599746704
1683153692.35898113,62092097,2,0.1997944414615631,-1.2933975085616112e-05,-0.002573522971943021,-0.9798344373703003
