timestamp,TimeUS,Lat,Lng,Alt,RelHomeAlt,RelOriginAlt
1683153639.65941906,9392535,42.6892579,-84.4889544,0.22999998927116394,0.23170900344848633,nan
1683153639.75939298,9492509,42.6892579,-84.4889544,0.3199999928474426,0.3249577581882477,nan
1683153639.85931802,9592434,42.689257999999995,-84.4889544,0.28999999165534973,0.2938748300075531,nan
1683153639.95924306,9692359,42.689257999999995,-84.4889544,0.35999998450279236,0.36451780796051025,nan
1683153640.05927205,9792388,42.689258099999996,-84.4889544,0.3100000023841858,0.31930631399154663,nan
1683153640.15931702,9892433,42.689258099999996,-84.4889544,0.25,0.25431475043296814,nan
1683153640.25960016,9992716,42.6892583,-84.4889543,0.28999999165534973,0.2938748300075531,nan
1683153640.35958004,10092696,42.6892583,-84.4889543,0.4099999964237213,0.4125550389289856,nan
1683153640.45964599,10192762,42.6892583,-84.4889543,0.3100000023841858,0.31930631399154663,nan
1683153640.55956602,10292682,42.6892583,-84.4889543,0.10999999940395355,0.11020306497812271,nan
1683153640.65961814,10392734,42.6892584,-84.4889542,0.22999998927116394,0.23170900344848633,nan
1683153640.75961900,10492735,42.6892584,-84.4889541,0.25999999046325684,0.26844334602355957,nan
1683153640.85964513,10592761,42.6892585,-84.4889541,0.14000000059604645,0.1412859708070755,nan
1683153640.95955920,10692675,42.6892584,-84.4889541,0.32999998331069946,0.33060917258262634,nan
1683153641.05950809,10792624,42.689258599999995,-84.4889541,0.23999999463558197,0.2401861548423767,nan
1683153641.15967703,10892793,42.689258599999995,-84.4889541,0.35999998450279236,0.3616921007633209,nan
1683153641.25964308,10992759,42.689258699999996,-84.4889541,268.72998046875,0.29952627420425415,nan
1683153641.35985112,11092967,42.689258699999996,-84.4889541,268.72998046875,0.1525888592004776,nan
1683153641.45988107,11192997,42.6892588,-84.4889541,268.7200012207031,0.27692052721977234,nan
1683153641.55990505,11293021,42.6892588,-84.4889541,268.7200012207031,0.24583759903907776,nan
1683153641.65987301,11392989,42.689259,-84.4889541,268.7200012207031,0.26844334602355957,nan
1683153641.75971007,11492826,42.689259,-84.4889541,268.7200012207031,0.2938748300075531,nan
1683153641.85962319,11592739,42.6892591,-84.4889541,268.7099914550781,0.07912014424800873,nan
1683153641.95952201,11692638,42.6892591,-84.4889541,268.7099914550781,0.3588663935661316,nan
1683153642.05963516,11792751,42.689259199999995,-84.4889542,268.69000244140625,0.45211511850357056,nan
1683153642.15972614,11892842,42.689259199999995,-84.4889542,268.69000244140625,0.36451780796051025,nan
1683153642.25989008,11993006,42.6892594,-84.4889542,268.66998291015625,0.327783465385437,nan
1683153642.35988808,12093004,42.6892594,-84.4889542,268.66998291015625,0.3249577581882477,nan
1683153642.45990920,12193025,42.6892595,-84.4889542,268.6499938964844,0.2740947902202606,nan
1683153642.55989408,12293010,42.6892595,-84.4889542,268.6499938964844,0.2599661946296692,nan
1683153642.65970898,12392825,42.6892596,-84.4889542,268.6499938964844,0.1412859708070755,nan
1683153642.75963616,12492752,42.6892596,-84.4889542,268.6499938964844,0.565143883228302,nan
1683153642.85954499,12592661,42.6892596,-84.4889542,268.6600036621094,0.3475635051727295,nan
1683153642.95959902,12692715,42.6892596,-84.4889542,268.6600036621094,0.38429784774780273,nan
1683153643.05964899,12792765,42.6892596,-84.4889542,268.6600036621094,0.29670053720474243,0.1877717226743698
1683153643.15969419,12892810,42.6892596,-84.4889542,268.6600036621094,0.4323350787162781,0.20199038088321686
1683153643.25971413,12992830,42.6892596,-84.4889542,268.66998291015625,0.3475635051727295,0.21569621562957764
1683153643.35968304,13092799,42.6892596,-84.4889542,268.66998291015625,0.34191206097602844,0.23094534873962402
1683153643.45989013,13193006,42.6892597,-84.4889541,268.66998291015625,0.4125550389289856,0.24697649478912354
1683153643.55970812,13292824,42.6892597,-84.4889541,268.66998291015625,0.6160068511962891,0.26242876052856445
1683153643.65964103,13392757,42.6892597,-84.4889541,268.67999267578125,0.30800342559814453,0.27882319688796997
1683153643.75956511,13492681,42.6892597,-84.4889541,268.67999267578125,0.4464636743068695,0.30082714557647705
1683153643.85961914,13592735,42.6892597,-84.48895399999999,268.6999816894531,0.282571941614151,0.32228580117225647
1683153643.95966005,13692776,42.6892597,-84.48895399999999,268.6999816894531,0.282571941614151,0.3426971137523651
1683153644.05966115,13792777,42.6892597,-84.48895399999999,268.7099914550781,0.3588663935661316,0.3599623739719391
1683153644.15970707,13892823,42.6892597,-84.48895399999999,268.7099914550781,0.41820648312568665,0.3730071783065796
1683153644.25968909,13992805,42.6892597,-84.48895399999999,268.7099914550781,0.41820648312568665,0.3845262825489044
1683153644.35990620,14093022,42.6892597,-84.48895399999999,268.7099914550781,0.5284095406532288,0.3967580199241638
1683153644.45973206,14192848,42.6892596,-84.48895399999999,268.6999816894531,0.3814721405506134,0.41007035970687866
1683153644.55964112,14292757,42.6892596,-84.48895399999999,268.6999816894531,0.5566667318344116,0.42630696296691895
1683153644.65964007,14392756,42.6892594,-84.48895399999999,268.6600036621094,0.36451780796051025,0.4424689710140228
1683153644.75963616,14492752,42.6892594,-84.48895399999999,268.6600036621094,0.33343490958213806,0.4604279398918152
1683153644.85964298,14592759,42.689259199999995,-84.48895399999999,268.6199951171875,0.36451780796051025,0.4771716892719269
1683153644.95963907,14692755,42.689259199999995,-84.48895399999999,268.6199951171875,0.39842644333839417,0.4897545278072357
1683153645.05966115,14792777,42.6892591,-84.48895399999999,268.6199951171875,0.26561763882637024,0.49962884187698364
1683153645.15995002,14893066,42.6892591,-84.48895399999999,268.6199951171875,0.3390863537788391,0.5083673596382141
1683153645.25990319,14993019,42.6892591,-84.4889541,268.6399841308594,0.282571941614151,0.5133427381515503
1683153645.35974908,15092865,42.6892591,-84.4889541,268.6399841308594,0.4238579273223877,0.5157344937324524
1683153645.45963311,15192749,42.689259299999996,-84.48895399999999,268.6000061035156,0.3616921007633209,0.515601396560669
1683153645.55956411,15292680,42.689259299999996,-84.48895399999999,268.6000061035156,0.33060917258262634,0.5160759091377258
1683153645.65961099,15392727,42.6892595,-84.4889542,268.5899963378906,0.5453638434410095,0.5170918107032776
1683153645.75968313,15492799,42.6892595,-84.4889542,268.5899963378906,0.38429784774780273,0.5169560313224792
1683153645.85966897,15592785,42.6892596,-84.4889544,268.6099853515625,0.604703962802887,0.5204111933708191
1683153645.95966601,15692782,42.6892596,-84.4889544,268.6099853515625,0.33060917258262634,0.5253041982650757
1683153646.05969214,15792808,42.689259799999995,-84.48895449999999,268.6000061035156,0.5312352776527405,0.5342238545417786
1683153646.15973020,15892846,42.689259799999995,-84.48895449999999,268.6000061035156,0.34191206097602844,0.5419481992721558
1683153646.25973701,15992853,42.68926,-84.4889547,268.6300048828125,0.4775466024875641,0.5501814484596252
1683153646.35996914,16093085,42.68926,-84.4889547,268.6300048828125,0.4238579273223877,0.5563474893569946
1683153646.45953798,16192654,42.6892602,-84.4889549,268.6600036621094,0.5425381660461426,0.5616489052772522
1683153646.55960608,16292722,42.6892602,-84.4889549,268.6600036621094,0.3588663935661316,0.5664515495300293
1683153646.65964818,16392764,42.689260399999995,-84.48895499999999,268.66998291015625,0.32213202118873596,0.5728442668914795
1683153646.75965905,16492775,42.689260399999995,-84.48895499999999,268.66998291015625,0.4379865229129791,0.5770682096481323
1683153646.85966301,16592779,42.689260999999995,-84.48895519999999,268.6000061035156,0.21475468575954437,0.5765185356140137
1683153646.95967507,16692791,42.689260999999995,-84.48895519999999,268.6000061035156,0.5764467716217041,0.5745454430580139
1683153647.05967999,16792796,42.6892613,-84.4889554,268.6099853515625,0.2175804078578949,0.5675754547119141
1683153647.15979505,16892911,42.6892613,-84.4889554,268.6099853515625,0.4125550389289856,0.5630013942718506
1683153647.25996304,16993079,42.689261599999995,-84.4889556,268.6099853515625,0.4266836643218994,0.5559152960777283
1683153647.35963321,17092749,42.689261599999995,-84.4889556,268.6099853515625,0.2062775194644928,0.5472465753555298
1683153647.45967412,17192790,42.6892621,-84.4889558,268.57000732421875,0.4351608157157898,0.5403923988342285
1683153647.55965114,17292767,42.6892621,-84.4889558,268.57000732421875,0.19214892387390137,0.5295548439025879
1683153647.65966201,17392778,42.6892628,-84.4889561,268.5400085449219,0.2288832813501358,0.5187180042266846
1683153647.75967908,17492795,42.6892628,-84.4889561,268.5400085449219,0.46341800689697266,0.5052657723426819
1683153647.85970020,17592816,42.689263499999996,-84.48895639999999,268.47998046875,0.21192896366119385,0.4876845180988312
1683153647.95967913,17692795,42.689263499999996,-84.48895639999999,268.47998046875,0.3475635051727295,0.4738055467605591
1683153648.05971909,17792835,42.6892639,-84.4889566,268.4700012207031,0.39560073614120483,0.45953789353370667
1683153648.16001201,17893128,42.6892639,-84.4889566,268.4700012207031,0.3475635051727295,0.44525808095932007
1683153648.25964212,17992758,42.6892643,-84.4889568,268.4499816894531,0.2740947902202606,0.4340984523296356
1683153648.35961199,18092728,42.6892643,-84.4889568,268.4499816894531,0.48319804668426514,0.4248051941394806
1683153648.45963717,18192753,42.6892646,-84.48895689999999,268.44000244140625,0.47472089529037476,0.41467565298080444
1683153648.55966210,18292778,42.6892646,-84.48895689999999,268.44000244140625,0.37582069635391235,0.40818727016448975
1683153648.65964603,18392762,42.6892649,-84.4889571,268.41998291015625,0.511455237865448,0.4067457616329193
1683153648.75970316,18492819,42.6892649,-84.4889571,268.41998291015625,0.5058038234710693,0.40643346309661865
1683153648.85985017,18592966,42.689265299999995,-84.4889573,268.3999938964844,0.3051777184009552,0.4090011715888977
1683153648.95988798,18693004,42.689265299999995,-84.4889573,268.3999938964844,0.33060917258262634,0.41530686616897583
1683153649.06009102,18793207,42.6892656,-84.4889575,268.3800048828125,0.2627919316291809,0.41832420229911804
1683153649.15966010,18892776,42.6892656,-84.4889575,268.3800048828125,0.3899492919445038,0.418075293302536
1683153649.25962710,18992743,42.689265899999995,-84.4889577,268.3899841308594,0.36451780796051025,0.41391250491142273
1683153649.35965419,19092770,42.689265899999995,-84.4889577,268.3899841308594,0.5764467716217041,0.4098522365093231
1683153649.45966601,19192782,42.6892662,-84.4889578,268.3699951171875,0.30800342559814453,0.4062427282333374
1683153649.55973721,19292853,42.6892662,-84.4889578,268.3699951171875,0.42103222012519836,0.4083101749420166
1683153649.65969205,19392808,42.6892664,-84.4889579,268.3699951171875,0.2938748300075531,0.40897026658058167
1683153649.75969315,19492809,42.6892664,-84.4889579,268.3699951171875,0.29670053720474243,0.4095785617828369
1683153649.85971713,19592833,42.689266599999996,-84.488958,268.3699951171875,0.3786464035511017,0.40770450234413147
1683153649.95995808,19693074,42.689266599999996,-84.488958,268.3699951171875,0.21475468575954437,0.4032699763774872
1683153650.05990005,19793016,42.6892668,-84.48895809999999,268.3699951171875,0.5538410544395447,0.39927026629447937
1683153650.16002011,19893136,42.6892668,-84.48895809999999,268.3699951171875,0.3560406565666199,0.39207038283348083
1683153650.25991607,19993032,42.689267099999995,-84.4889582,268.3599853515625,0.367343544960022,0.3900088667869568
1683153650.35966301,20092779,42.689267099999995,-84.4889582,268.3599853515625,0.6329611539840698,0.3890925645828247
1683153650.45966911,20192785,42.689267199999996,-84.4889583,268.3699951171875,0.5594924688339233,0.38796165585517883
1683153650.55967712,20292793,42.689267199999996,-84.4889583,268.3699951171875,0.4238579273223877,0.39321914315223694
1683153650.65966010,20392776,42.6892674,-84.4889584,268.3599853515625,0.466243714094162,0.4028313159942627
1683153650.75971508,20492831,42.6892674,-84.4889584,268.3599853515625,0.35321494936943054,0.411625474691391
1683153650.85994601,20593062,42.6892675,-84.48895859999999,268.3599853515625,0.46341800689697266,0.4198128581047058
1683153650.95990109,20693017,42.6892675,-84.48895859999999,268.3599853515625,0.4888494908809662,0.4250151216983795
1683153651.05988908,20793005,42.6892676,-84.4889587,268.3599853515625,0.5566667318344116,0.42985430359840393
1683153651.15998101,20893097,42.6892676,-84.4889587,268.3599853515625,0.4492894113063812,0.43559738993644714
1683153651.25970006,20992816,42.689267699999995,-84.48895879999999,268.3599853515625,-0.006347211077809334,-0.006347211077809334
1683153651.35967398,21092790,42.689267699999995,-84.48895879999999,268.3599853515625,0.0011580567806959152,0.0011580567806959152
1683153651.45968699,21192803,42.6892679,-84.4889589,268.3500061035156,0.010165957733988762,0.010165957733988762
1683153651.55967999,21292796,42.6892679,-84.4889589,268.3500061035156,0.01992112211883068,0.01992112211883068
1683153651.65973997,21392856,42.6892679,-84.4889591,268.3599853515625,0.03212735056877136,0.03212735056877136
1683153651.75963807,21492754,42.6892679,-84.4889591,268.3599853515625,0.03762543201446533,0.03762543201446533
1683153651.85958099,21592697,42.6892681,-84.4889591,268.3500061035156,0.042655616998672485,0.042655616998672485
1683153651.95987701,21692993,42.6892681,-84.4889591,268.3500061035156,0.048153579235076904,0.048153579235076904
1683153652.05993199,21793048,42.6892682,-84.4889592,268.3500061035156,0.049305081367492676,0.049305081367492676
1683153652.15971398,21892830,42.6892682,-84.4889592,268.3500061035156,0.04888993501663208,0.04888993501663208
1683153652.25968814,21992804,42.689268299999995,-84.4889592,268.3399963378906,0.0479065477848053,0.0479065477848053
1683153652.35968518,22092801,42.689268299999995,-84.4889592,268.3399963378906,0.0468808114528656,0.0468808114528656
1683153652.45966315,22192779,42.689268399999996,-84.48895929999999,268.3399963378906,0.04581555724143982,0.04581555724143982
1683153652.55970716,22292823,42.689268399999996,-84.48895929999999,268.3399963378906,0.039213597774505615,0.039213597774505615
1683153652.65963411,22392750,42.689268399999996,-84.48895929999999,268.3399963378906,0.030754027888178825,0.030754027888178825
1683153652.75963497,22492751,42.689268399999996,-84.48895929999999,268.3399963378906,0.02408340387046337,0.02408340387046337
1683153652.85994911,22593065,42.6892685,-84.4889594,268.3299865722656,0.020848659798502922,0.020848659798502922
1683153652.95997810,22693094,42.6892685,-84.4889594,268.3299865722656,0.01908889226615429,0.01908889226615429
1683153653.05968118,22792797,42.6892686,-84.4889594,268.32000732421875,0.015455691143870354,0.015455691143870354
1683153653.15971804,22892834,42.6892686,-84.4889594,268.32000732421875,0.010706482455134392,0.010706482455134392
1683153653.25970101,22992817,42.6892688,-84.48895949999999,268.30999755859375,0.0053167324513196945,0.0053167324513196945
1683153653.35967517,23092791,42.6892688,-84.48895949999999,268.30999755859375,0.0019353609532117844,0.0019353609532117844
1683153653.45972013,23192836,42.689268899999995,-84.4889596,268.30999755859375,0.001552162691950798,0.001552162691950798
1683153653.55971503,23292831,42.689268899999995,-84.4889596,268.30999755859375,0.00012796930968761444,0.00012796930968761444
1683153653.65963697,23392753,42.689268999999996,-84.4889596,268.2900085449219,-0.0015780944377183914,-0.0015780944377183914
1683153653.76008821,23493204,42.689268999999996,-84.4889596,268.2900085449219,-0.0017188210040330887,-0.0017188210040330887
1683153653.85992813,23593044,42.6892691,-84.4889597,268.2900085449219,-0.001382322981953621,-0.001382322981953621
1683153653.95967412,23692790,42.6892691,-84.4889597,268.2900085449219,-0.002840133383870125,-0.002840133383870125
1683153654.05965614,23792772,42.6892692,-84.4889597,268.2799987792969,-0.006017895415425301,-0.006017895415425301
1683153654.15972900,23892845,42.6892692,-84.4889597,268.2799987792969,-0.010907353833317757,-0.010907353833317757
1683153654.25967503,23992791,42.6892693,-84.4889597,268.2799987792969,-0.01233750768005848,-0.01233750768005848
1683153654.35970902,24092825,42.6892693,-84.4889597,268.2799987792969,-0.01296892948448658,-0.01296892948448658
1683153654.45962906,24192745,42.6892693,-84.48895979999999,268.2799987792969,-0.014633091166615486,-0.014633091166615486
1683153654.55954313,24292659,42.6892693,-84.48895979999999,268.2799987792969,-0.01867440529167652,-0.01867440529167652
1683153654.65961409,24392730,42.6892694,-84.48895979999999,268.2699890136719,-0.02325359173119068,-0.02325359173119068
1683153654.75967216,24492788,42.6892694,-84.48895979999999,268.2699890136719,-0.024709584191441536,-0.024709584191441536
1683153654.85996699,24593083,42.689269599999996,-84.4889599,268.2699890136719,-0.02518642134964466,-0.02518642134964466
1683153654.95990705,24693023,42.689269599999996,-84.4889599,268.2699890136719,-0.02415684051811695,-0.02415684051811695
1683153655.05970907,24792825,42.6892697,-84.48895999999999,268.2599792480469,-0.019497932866215706,-0.019497932866215706
1683153655.15970206,24892818,42.6892697,-84.48895999999999,268.2599792480469,-0.015993060544133186,-0.015993060544133186
1683153655.25972319,24992839,42.6892698,-84.4889602,268.25,-0.01187378354370594,-0.01187378354370594
1683153655.35962820,25092744,42.6892698,-84.4889602,268.25,-0.008173199370503426,-0.008173199370503426
1683153655.45965219,25192768,42.6892699,-84.4889603,268.25,-0.0049104709178209305,-0.0049104709178209305
1683153655.55964708,25292763,42.6892699,-84.4889603,268.25,-0.006612392142415047,-0.006612392142415047
1683153655.65964198,25392758,42.6892699,-84.4889603,268.2599792480469,-0.00913277454674244,-0.00913277454674244
1683153655.75993919,25493055,42.6892699,-84.4889603,268.2599792480469,-0.010204525664448738,-0.010204525664448738
1683153655.85973501,25592851,42.68927,-84.4889603,268.25,-0.012123854830861092,-0.012123854830861092
1683153655.95969605,25692812,42.68927,-84.4889603,268.25,-0.011201800778508186,-0.011201800778508186
1683153656.05966210,25792778,42.689270099999995,-84.4889603,268.25,-0.01051718182861805,-0.01051718182861805
1683153656.15979218,25892908,42.689270099999995,-84.4889603,268.25,-0.010990412905812263,-0.010990412905812263
1683153656.25971913,25992835,42.689270199999996,-84.4889604,268.25,-0.008146705105900764,-0.008146705105900764
1683153656.35968018,26092796,42.689270199999996,-84.4889604,268.25,-0.006347300484776497,-0.006347300484776497
1683153656.45962715,26192743,42.6892704,-84.4889604,268.239990234375,-0.0076057035475969315,-0.0076057035475969315
1683153656.55964708,26292763,42.6892704,-84.4889604,268.239990234375,-0.009609224274754524,-0.009609224274754524
1683153656.65989304,26393009,42.6892704,-84.4889604,268.25,-0.012071045115590096,-0.012071045115590096
1683153656.75968003,26492796,42.6892704,-84.4889604,268.25,-0.010675342753529549,-0.010675342753529549
1683153656.85969615,26592812,42.6892706,-84.4889604,268.2200012207031,-0.01041126437485218,-0.01041126437485218
1683153656.95967197,26692788,42.6892706,-84.4889604,268.2200012207031,-0.011394115164875984,-0.011394115164875984
1683153657.05971813,26792834,42.6892707,-84.4889604,268.2099914550781,-0.011752041056752205,-0.011752041056752205
1683153657.15972805,26892844,42.6892707,-84.4889604,268.2099914550781,-0.013387830927968025,-0.013387830927968025
1683153657.25964713,26992763,42.6892709,-84.48896049999999,268.1999816894531,-0.015794726088643074,-0.015794726088643074
1683153657.35962701,27092743,42.6892709,-84.48896049999999,268.1999816894531,-0.016817929223179817,-0.016817929223179817
1683153657.45963907,27192755,42.689271,-84.48896049999999,268.19000244140625,-0.01657015271484852,-0.01657015271484852
1683153657.55993915,27293055,42.689271,-84.48896049999999,268.19000244140625,-0.017344119027256966,-0.017344119027256966
1683153657.65989900,27393015,42.6892712,-84.48896049999999,268.17999267578125,-0.016502680256962776,-0.016502680256962776
1683153657.75969005,27492806,42.6892712,-84.48896049999999,268.17999267578125,-0.015256436541676521,-0.015256436541676521
1683153657.85966420,27592780,42.689271399999996,-84.48896049999999,268.1600036621094,-0.015854956582188606,-0.015854956582188606
1683153657.95971298,27692829,42.689271399999996,-84.48896049999999,268.1600036621094,-0.018393786624073982,-0.018393786624073982
1683153658.05963802,27792754,42.6892715,-84.48896049999999,268.1600036621094,-0.019611867144703865,-0.019611867144703865
1683153658.15969920,27892815,42.6892715,-84.48896049999999,268.1600036621094,-0.020440759137272835,-0.020440759137272835
1683153658.25998497,27993101,42.6892717,-84.48896049999999,268.1499938964844,-0.019875051453709602,-0.019875051453709602
1683153658.35992098,28093037,42.6892717,-84.48896049999999,268.1499938964844,-0.019366087391972542,-0.019366087391972542
1683153658.45966816,28192784,42.6892717,-84.48896049999999,268.1499938964844,-0.019915731623768806,-0.019915731623768806
1683153658.55968714,28292803,42.6892717,-84.48896049999999,268.1499938964844,-0.0187970120459795,-0.0187970120459795
1683153658.65970612,28392822,42.6892719,-84.4889604,268.1499938964844,-0.018223347142338753,-0.018223347142338753
1683153658.75968409,28492800,42.6892719,-84.4889604,268.1499938964844,-0.016275914385914803,-0.016275914385914803
1683153658.85971999,28592836,42.6892721,-84.48896049999999,268.1300048828125,-0.016017885878682137,-0.016017885878682137
1683153658.95971513,28692831,42.6892721,-84.48896049999999,268.1300048828125,-0.016887517645955086,-0.016887517645955086
1683153659.05964112,28792757,42.6892722,-84.48896049999999,268.1199951171875,-0.016660066321492195,-0.016660066321492195
1683153659.16004705,28893163,42.6892722,-84.48896049999999,268.1199951171875,-0.016651751473546028,-0.016651751473546028
1683153659.25992608,28993042,42.6892723,-84.48896049999999,268.1300048828125,-0.018656553700566292,-0.018656553700566292
1683153659.35966110,29092777,42.6892723,-84.48896049999999,268.1300048828125,-0.021818162873387337,-0.021818162873387337
1683153659.45966601,29192782,42.6892724,-84.48896049999999,268.1099853515625,-0.023404838517308235,-0.023404838517308235
1683153659.55969214,29292808,42.6892724,-84.48896049999999,268.1099853515625,-0.023600967600941658,-0.023600967600941658
1683153659.65966702,29392783,42.6892725,-84.48896049999999,268.1000061035156,-0.023974182084202766,-0.023974182084202766
1683153659.75972009,29492836,42.6892725,-84.48896049999999,268.1000061035156,-0.023043127730488777,-0.023043127730488777
1683153659.85972118,29592837,42.6892727,-84.48896049999999,268.1000061035156,-0.020498128607869148,-0.020498128607869148
1683153659.95963216,29692748,42.6892727,-84.48896049999999,268.1000061035156,-0.017177702859044075,-0.017177702859044075
1683153660.06005907,29793175,42.6892727,-84.48896049999999,268.1000061035156,-0.016514213755726814,-0.016514213755726814
1683153660.15972304,29892839,42.6892727,-84.48896049999999,268.1000061035156,-0.017069311812520027,-0.017069311812520027
1683153660.25966406,29992780,42.6892728,-84.48896049999999,268.0899963378906,-0.020484568551182747,-0.020484568551182747
1683153660.35969520,30092811,42.6892728,-84.48896049999999,268.0899963378906,-0.020827414467930794,-0.020827414467930794
1683153660.45967913,30192795,42.689273,-84.4889604,268.07000732421875,-0.021315934136509895,-0.021315934136509895
1683153660.55966210,30292778,42.689273,-84.4889604,268.07000732421875,-0.021289022639393806,-0.021289022639393806
1683153660.65972900,30392845,42.6892731,-84.4889604,268.05999755859375,-0.022795410826802254,-0.022795410826802254
1683153660.75970411,30492820,42.6892731,-84.4889604,268.05999755859375,-0.025533678010106087,-0.025533678010106087
1683153660.85955000,30592666,42.689273199999995,-84.48896049999999,268.0400085449219,-0.026156427338719368,-0.026156427338719368
1683153660.95987916,30692995,42.689273199999995,-84.48896049999999,268.0400085449219,-0.026564957574009895,-0.026564957574009895
1683153661.05988216,30792998,42.689273299999996,-84.48896049999999,268.0199890136719,-0.024217786267399788,-0.024217786267399788
1683153661.15988898,30893005,42.689273299999996,-84.48896049999999,268.0199890136719,-0.022653164342045784,-0.022653164342045784
1683153661.25986314,30992979,42.6892734,-84.4889606,268.0199890136719,-0.022803695872426033,-0.022803695872426033
1683153661.35985708,31092973,42.6892734,-84.4889606,268.0199890136719,-0.023112716153264046,-0.023112716153264046
1683153661.45984912,31192965,42.6892735,-84.48896069999999,268.0,-0.02574467845261097,-0.02574467845261097
1683153661.55989718,31293013,42.6892735,-84.48896069999999,268.0,-0.026003630831837654,-0.026003630831837654
1683153661.65986609,31392982,42.6892735,-84.48896069999999,268.0,-0.024291308596730232,-0.024291308596730232
1683153661.75988507,31493001,42.6892735,-84.48896069999999,268.0,-0.021256716921925545,-0.021256716921925545
1683153661.86011600,31593232,42.6892736,-84.48896069999999,267.97998046875,-0.01958257146179676,-0.01958257146179676
1683153661.95989203,31693008,42.6892736,-84.48896069999999,267.97998046875,-0.020227821543812752,-0.020227821543812752
1683153662.05987215,31792988,42.6892737,-84.4889608,267.9599914550781,-0.0204619187861681,-0.0204619187861681
1683153662.16002703,31893143,42.6892737,-84.4889608,267.9599914550781,-0.019215496256947517,-0.019215496256947517
1683153662.25969005,31992806,42.689273799999995,-84.4889608,267.94000244140625,-0.018458189442753792,-0.018458189442753792
1683153662.35966420,32092780,42.689273799999995,-84.4889608,267.94000244140625,-0.017655910924077034,-0.017655910924077034
1683153662.45971417,32192830,42.689273899999996,-84.4889609,267.91998291015625,-0.0191518384963274,-0.0191518384963274
1683153662.55969501,32292811,42.689273899999996,-84.4889609,267.91998291015625,-0.019638152793049812,-0.019638152793049812
1683153662.65956616,32392682,42.6892741,-84.4889609,267.8800048828125,-0.021367879584431648,-0.021367879584431648
1683153662.75987220,32492988,42.6892741,-84.4889609,267.8800048828125,-0.024385305121541023,-0.024385305121541023
1683153662.85991001,32593026,42.6892742,-84.48896099999999,267.8500061035156,-0.02844870276749134,-0.02844870276749134
1683153662.95987201,32692988,42.6892742,-84.48896099999999,267.8500061035156,-0.03226366639137268,-0.03226366639137268
1683153663.05989408,32793010,42.6892743,-84.48896099999999,267.82000732421875,-0.03541192412376404,-0.03541192412376404
1683153663.15970206,32892818,42.6892743,-84.48896099999999,267.82000732421875,-0.03983315825462341,-0.03983315825462341
1683153663.25967216,32992788,42.689274499999996,-84.48896099999999,267.79998779296875,-0.04415708780288696,-0.04415708780288696
1683153663.35966897,33092785,42.689274499999996,-84.48896099999999,267.79998779296875,-0.0503881573677063,-0.0503881573677063
1683153663.45963120,33192747,42.689274499999996,-84.48896099999999,267.79998779296875,-0.0547691285610199,-0.0547691285610199
1683153663.55958104,33292697,42.689274499999996,-84.48896099999999,267.79998779296875,-0.05925077199935913,-0.05925077199935913
1683153663.65960908,33392725,42.6892746,-84.48896099999999,267.7799987792969,-0.06308344006538391,-0.06308344006538391
1683153663.75963497,33492751,42.6892746,-84.48896099999999,267.7799987792969,-0.06741690635681152,-0.06741690635681152
1683153663.85987997,33592996,42.6892747,-84.48896099999999,267.7699890136719,-0.0716182291507721,-0.0716182291507721
1683153663.95988202,33692998,42.6892747,-84.48896099999999,267.7699890136719,-0.07343724370002747,-0.07343724370002747
1683153664.05968714,33792803,42.6892748,-84.48896099999999,267.7599792480469,-0.075603187084198,-0.075603187084198
1683153664.15971303,33892829,42.6892748,-84.48896099999999,267.7599792480469,-0.07802620530128479,-0.07802620530128479
1683153664.25973415,33992850,42.6892749,-84.4889611,267.739990234375,-0.07979896664619446,-0.07979896664619446
1683153664.35963511,34092751,42.6892749,-84.4889611,267.739990234375,-0.08246493339538574,-0.08246493339538574
1683153664.45956302,34192679,42.689274999999995,-84.4889611,267.72998046875,-0.08397835493087769,-0.08397835493087769
1683153664.55988097,34292997,42.689274999999995,-84.4889611,267.72998046875,-0.08431822061538696,-0.08431822061538696
1683153664.65989709,34393013,42.689275099999996,-84.48896119999999,267.7200012207031,-0.08414831757545471,-0.08414831757545471
1683153664.75988603,34493002,42.689275099999996,-84.48896119999999,267.7200012207031,-0.08645737171173096,-0.08645737171173096
1683153664.85987997,34592996,42.6892752,-84.4889613,267.7099914550781,-0.09105774760246277,-0.09105774760246277
1683153664.95968413,34692800,42.6892752,-84.4889613,267.7099914550781,-0.09606802463531494,-0.09606802463531494
1683153665.05968213,34792798,42.6892753,-84.4889613,267.6999816894531,-0.10105106234550476,-0.10105106234550476
1683153665.15993214,34893048,42.6892753,-84.4889613,267.6999816894531,-0.10316070914268494,-0.10316070914268494
1683153665.25970221,34992818,42.6892754,-84.4889614,267.67999267578125,-0.10429105162620544,-0.10429105162620544
1683153665.35955000,35092666,42.6892754,-84.4889614,267.67999267578125,-0.10514801740646362,-0.10514801740646362
1683153665.45960307,35192719,42.6892755,-84.4889615,267.6999816894531,-0.10538288950920105,-0.10538288950920105
1683153665.55964518,35292761,42.6892755,-84.4889615,267.6999816894531,-0.10329112410545349,-0.10329112410545349
1683153665.65988708,35393003,42.6892755,-84.4889616,267.69000244140625,-0.10199043154716492,-0.10199043154716492
1683153665.75991011,35493026,42.6892755,-84.4889616,267.69000244140625,-0.1037033200263977,-0.1037033200263977
1683153665.85970211,35592818,42.689275599999995,-84.48896169999999,267.66998291015625,-0.10521486401557922,-0.10521486401557922
1683153665.95966911,35692785,42.689275599999995,-84.48896169999999,267.66998291015625,-0.10818132758140564,-0.10818132758140564
1683153666.05972219,35792838,42.689275699999996,-84.4889618,267.6499938964844,-0.11025822162628174,-0.11025822162628174
1683153666.16001201,35893128,42.689275699999996,-84.4889618,267.6499938964844,-0.11164101958274841,-0.11164101958274841
1683153666.25954819,35992664,42.6892758,-84.48896189999999,267.6199951171875,-0.11401253938674927,-0.11401253938674927
1683153666.35971403,36092830,42.6892758,-84.48896189999999,267.6199951171875,-0.11528617143630981,-0.11528617143630981
1683153666.45963502,36192751,42.689276,-84.488962,267.6000061035156,-0.11659601330757141,-0.11659601330757141
1683153666.55965614,36292772,42.689276,-84.488962,267.6000061035156,-0.11695131659507751,-0.11695131659507751
1683153666.65964699,36392763,42.6892761,-84.4889622,267.5899963378906,-0.11628487706184387,-0.11628487706184387
1683153666.75968504,36492801,42.6892761,-84.4889622,267.5899963378906,-0.11782673001289368,-0.11782673001289368
1683153666.85989213,36593008,42.6892761,-84.4889622,267.5899963378906,-0.12103617191314697,-0.12103617191314697
1683153666.95969820,36692814,42.6892761,-84.4889622,267.5899963378906,-0.12279456853866577,-0.12279456853866577
1683153667.05963016,36792746,42.689276199999995,-84.4889623,267.57000732421875,-0.12273254990577698,-0.12273254990577698
1683153667.15966821,36892784,42.689276199999995,-84.4889623,267.57000732421875,-0.1239478588104248,-0.1239478588104248
1683153667.25961304,36992729,42.689276199999995,-84.4889625,267.55999755859375,-0.12443861365318298,-0.12443861365318298
1683153667.35963917,37092755,42.689276199999995,-84.4889625,267.55999755859375,-0.12133005261421204,-0.12133005261421204
1683153667.45964408,37192760,42.689276199999995,-84.4889626,267.5400085449219,-0.11870431900024414,-0.11870431900024414
1683153667.55987716,37292993,42.689276199999995,-84.4889626,267.5400085449219,-0.11633196473121643,-0.11633196473121643
1683153667.65993309,37393049,42.689276299999996,-84.4889628,267.5299987792969,-0.11365649104118347,-0.11365649104118347
1683153667.75989699,37493013,42.689276299999996,-84.4889628,267.5299987792969,-0.11361411213874817,-0.11361411213874817
1683153667.85993600,37593052,42.6892764,-84.48896289999999,267.5,-0.11610472202301025,-0.11610472202301025
1683153667.95993710,37693053,42.6892764,-84.48896289999999,267.5,-0.11986342072486877,-0.11986342072486877
1683153668.05989408,37793010,42.6892765,-84.488963,267.489990234375,-0.12450560927391052,-0.12450560927391052
1683153668.16002202,37893138,42.6892765,-84.488963,267.489990234375,-0.1291458010673523,-0.1291458010673523
1683153668.25992417,37993040,42.6892766,-84.4889632,267.489990234375,-0.13246053457260132,-0.13246053457260132
1683153668.35988808,38093004,42.6892766,-84.4889632,267.489990234375,-0.13425090909004211,-0.13425090909004211
1683153668.46001601,38193132,42.689276799999995,-84.4889633,267.47998046875,-0.13600975275039673,-0.13600975275039673
1683153668.55990815,38293024,42.689276799999995,-84.4889633,267.47998046875,-0.13743194937705994,-0.13743194937705994
1683153668.66006112,38393177,42.689277,-84.4889634,267.4499816894531,-0.1402980387210846,-0.1402980387210846
1683153668.75971317,38492829,42.689277,-84.4889634,267.4499816894531,-0.14282840490341187,-0.14282840490341187
1683153668.85962701,38592743,42.6892771,-84.4889635,267.41998291015625,-0.14360755681991577,-0.14360755681991577
1683153668.95954013,38692656,42.6892771,-84.4889635,267.41998291015625,-0.14448323845863342,-0.14448323845863342
1683153669.05961514,38792731,42.6892772,-84.4889637,267.41998291015625,-0.14227354526519775,-0.14227354526519775
1683153669.15968704,38892803,42.6892772,-84.4889637,267.41998291015625,-0.13745522499084473,-0.13745522499084473
1683153669.25966716,38992783,42.689277399999995,-84.4889639,267.3999938964844,-0.13368475437164307,-0.13368475437164307
1683153669.35966015,39092776,42.689277399999995,-84.4889639,267.3999938964844,-0.12973204255104065,-0.12973204255104065
1683153669.45967507,39192791,42.689277499999996,-84.488964,267.3899841308594,-0.12504467368125916,-0.12504467368125916
1683153669.55989099,39293007,42.689277499999996,-84.488964,267.3899841308594,-0.1223369836807251,-0.1223369836807251
1683153669.65993214,39393048,42.6892777,-84.48896409999999,267.3500061035156,-0.12401238083839417,-0.12401238083839417
1683153669.75994205,39493058,42.6892777,-84.48896409999999,267.3500061035156,-0.1269187033176422,-0.1269187033176422
1683153669.85954714,39592663,42.6892778,-84.48896429999999,267.3500061035156,-0.1297786831855774,-0.1297786831855774
1683153669.95960402,39692720,42.6892778,-84.48896429999999,267.3500061035156,-0.1328185498714447,-0.1328185498714447
1683153670.05965900,39792775,42.6892779,-84.4889644,267.3299865722656,-0.13650178909301758,-0.13650178909301758
1683153670.15971112,39892827,42.6892779,-84.4889644,267.3299865722656,-0.13991165161132812,-0.13991165161132812
1683153670.25966907,39992785,42.689278,-84.4889644,267.30999755859375,-0.14306843280792236,-0.14306843280792236
1683153670.35967302,40092789,42.689278,-84.4889644,267.30999755859375,-0.14542028307914734,-0.14542028307914734
1683153670.45965600,40192772,42.6892782,-84.4889645,267.2900085449219,-0.14647281169891357,-0.14647281169891357
1683153670.55971408,40292830,42.6892782,-84.4889645,267.2900085449219,-0.14674979448318481,-0.14674979448318481
1683153670.65993404,40393050,42.6892783,-84.4889647,267.2799987792969,-0.1483672559261322,-0.1483672559261322
1683153670.75963616,40492752,42.6892783,-84.4889647,267.2799987792969,-0.15198934078216553,-0.15198934078216553
1683153670.85963798,40592754,42.6892785,-84.48896479999999,267.2699890136719,-0.15712976455688477,-0.15712976455688477
1683153670.95964217,40692758,42.6892785,-84.48896479999999,267.2699890136719,-0.16355377435684204,-0.16355377435684204
1683153671.05965114,40792767,42.6892786,-84.4889649,267.2599792480469,-0.17043858766555786,-0.17043858766555786
1683153671.15970612,40892822,42.6892786,-84.4889649,267.2599792480469,-0.17636939883232117,-0.17636939883232117
1683153671.25967002,40992786,42.689278699999996,-84.488965,267.239990234375,-0.1814691722393036,-0.1814691722393036
1683153671.35966206,41092778,42.689278699999996,-84.488965,267.239990234375,-0.18579354882240295,-0.18579354882240295
1683153671.45970416,41192820,42.6892788,-84.4889651,267.239990234375,-0.1895161271095276,-0.1895161271095276
1683153671.55995297,41293069,42.6892788,-84.4889651,267.239990234375,-0.19134345650672913,-0.19134345650672913
1683153671.65953708,41392653,42.6892789,-84.48896529999999,267.22998046875,-0.19245174527168274,-0.19245174527168274
1683153671.75964499,41492761,42.6892789,-84.48896529999999,267.22998046875,-0.1941509246826172,-0.1941509246826172
1683153671.85965514,41592771,42.6892791,-84.4889654,267.2099914550781,-0.1963181495666504,-0.1963181495666504
1683153671.95965600,41692772,42.6892791,-84.4889654,267.2099914550781,-0.19841709733009338,-0.19841709733009338
1683153672.05966115,41792777,42.6892792,-84.48896549999999,267.1999816894531,-0.19813472032546997,-0.19813472032546997
1683153672.15972614,41892842,42.6892792,-84.48896549999999,267.1999816894531,-0.19790318608283997,-0.19790318608283997
1683153672.25966215,41992778,42.689279299999995,-84.4889656,267.17999267578125,-0.19953328371047974,-0.19953328371047974
1683153672.35969615,42092812,42.689279299999995,-84.4889656,267.17999267578125,-0.20048674941062927,-0.20048674941062927
1683153672.45992613,42193042,42.689279299999995,-84.4889657,267.17999267578125,-0.20025216042995453,-0.20025216042995453
1683153672.55953598,42292652,42.689279299999995,-84.4889657,267.17999267578125,-0.19793963432312012,-0.19793963432312012
1683153672.65975618,42392872,42.689279299999995,-84.4889658,267.17999267578125,-0.19600754976272583,-0.19600754976272583
1683153672.75964808,42492764,42.689279299999995,-84.4889658,267.17999267578125,-0.1948179006576538,-0.1948179006576538
1683153672.85966301,42592779,42.6892794,-84.4889659,267.16998291015625,-0.19420775771141052,-0.19420775771141052
1683153672.95965314,42692769,42.6892794,-84.4889659,267.16998291015625,-0.19112911820411682,-0.19112911820411682
1683153673.05967307,42792789,42.6892794,-84.48896599999999,267.16998291015625,-0.18762490153312683,-0.18762490153312683
1683153673.15971303,42892829,42.6892794,-84.48896599999999,267.16998291015625,-0.18603721261024475,-0.18603721261024475
1683153673.25971198,42992828,42.6892794,-84.4889661,267.16998291015625,-0.18700313568115234,-0.18700313568115234
1683153673.35962009,43092736,42.6892794,-84.4889661,267.16998291015625,-0.18879419565200806,-0.18879419565200806
1683153673.45953798,43192654,42.689279299999995,-84.4889663,267.19000244140625,-0.1902039349079132,-0.1902039349079132
1683153673.55988598,43293002,42.689279299999995,-84.4889663,267.19000244140625,-0.1944730579853058,-0.1944730579853058
1683153673.65993309,43393049,42.689279299999995,-84.4889663,267.17999267578125,-0.19890108704566956,-0.19890108704566956
1683153673.75967002,43492786,42.689279299999995,-84.4889663,267.17999267578125,-0.20098578929901123,-0.20098578929901123
1683153673.85966110,43592777,42.689279299999995,-84.4889664,267.19000244140625,-0.20303958654403687,-0.20303958654403687
1683153673.95966601,43692782,42.689279299999995,-84.4889664,267.19000244140625,-0.2045465111732483,-0.2045465111732483
1683153674.05966401,43792780,42.689279299999995,-84.4889664,267.1999816894531,-0.20488089323043823,-0.20488089323043823
1683153674.15979004,43892906,42.689279299999995,-84.4889664,267.1999816894531,-0.20396697521209717,-0.20396697521209717
1683153674.25962520,43992741,42.6892792,-84.48896649999999,267.2099914550781,-0.20268814265727997,-0.20268814265727997
1683153674.35955000,44092666,42.6892792,-84.48896649999999,267.2099914550781,-0.20237256586551666,-0.20237256586551666
1683153674.45988202,44192998,42.6892791,-84.4889666,267.2200012207031,-0.2038017362356186,-0.2038017362356186
1683153674.55991817,44293034,42.6892791,-84.4889666,267.2200012207031,-0.2066921889781952,-0.2066921889781952
1683153674.65966821,44392784,42.689279,-84.4889666,267.2200012207031,-0.20888492465019226,-0.20888492465019226
1683153674.75972104,44492837,42.689279,-84.4889666,267.2200012207031,-0.21081241965293884,-0.21081241965293884
1683153674.85967708,44592793,42.689279,-84.48896669999999,267.22998046875,-0.2127508670091629,-0.2127508670091629
1683153674.95981097,44692927,42.689279,-84.48896669999999,267.22998046875,-0.213881254196167,-0.213881254196167
1683153675.05991006,44793026,42.6892789,-84.48896669999999,267.2200012207031,-0.21436497569084167,-0.21436497569084167
1683153675.15997100,44893087,42.6892789,-84.48896669999999,267.2200012207031,-0.21583238244056702,-0.21583238244056702
1683153675.25985503,44992971,42.6892788,-84.4889668,267.239990234375,-0.21607215702533722,-0.21607215702533722
1683153675.36016202,45093278,42.6892788,-84.4889668,267.239990234375,-0.2134704738855362,-0.2134704738855362
1683153675.45965815,45192774,42.689278699999996,-84.4889669,267.239990234375,-0.21007384359836578,-0.21007384359836578
1683153675.55968308,45292799,42.689278699999996,-84.4889669,267.239990234375,-0.20753180980682373,-0.20753180980682373
1683153675.65967417,45392790,42.689278699999996,-84.488967,267.22998046875,-0.20663340389728546,-0.20663340389728546
1683153675.75968504,45492801,42.689278699999996,-84.488967,267.22998046875,-0.20691896975040436,-0.20691896975040436
1683153675.85967803,45592794,42.6892785,-84.4889671,267.2599792480469,-0.20687757432460785,-0.20687757432460785
1683153675.95971012,45692826,42.6892785,-84.4889671,267.2599792480469,-0.20705567300319672,-0.20705567300319672
1683153676.05963802,45792754,42.6892785,-84.48896719999999,267.2599792480469,-0.20746658742427826,-0.20746658742427826
1683153676.15971708,45892833,42.6892785,-84.48896719999999,267.2599792480469,-0.2100336104631424,-0.2100336104631424
1683153676.25996900,45993085,42.6892784,-84.4889673,267.2599792480469,-0.21147476136684418,-0.21147476136684418
1683153676.35989904,46093015,42.6892784,-84.4889673,267.2599792480469,-0.21301071345806122,-0.21301071345806122
1683153676.45988107,46192997,42.6892783,-84.48896739999999,267.2599792480469,-0.2158690094947815,-0.2158690094947815
1683153676.55990410,46293020,42.6892783,-84.48896739999999,267.2599792480469,-0.2208145558834076,-0.2208145558834076
1683153676.65971208,46392828,42.6892782,-84.48896739999999,267.2599792480469,-0.23045696318149567,-0.23045696318149567
1683153676.75968504,46492801,42.6892782,-84.48896739999999,267.2599792480469,-0.23868513107299805,-0.23868513107299805
1683153676.85973501,46592851,42.689278099999996,-84.48896739999999,267.2599792480469,-0.24185040593147278,-0.24185040593147278
1683153676.95964003,46692756,42.689278099999996,-84.48896739999999,267.2599792480469,-0.24425286054611206,-0.24425286054611206
1683153677.05955100,46792667,42.6892779,-84.4889675,267.2799987792969,-0.24562355875968933,-0.24562355875968933
1683153677.16005421,46893170,42.6892779,-84.4889675,267.2799987792969,-0.24486438930034637,-0.24486438930034637
1683153677.25992203,46993038,42.6892779,-84.4889675,267.2699890136719,-0.24331407248973846,-0.24331407248973846
1683153677.35988712,47093003,42.6892779,-84.4889675,267.2699890136719,-0.24139516055583954,-0.24139516055583954
1683153677.45989609,47193012,42.6892779,-84.4889675,267.2799987792969,-0.23891118168830872,-0.23891118168830872
1683153677.55969715,47292813,42.6892779,-84.4889675,267.2799987792969,-0.23565657436847687,-0.23565657436847687
1683153677.65966320,47392779,42.6892778,-84.4889675,267.2799987792969,-0.23500679433345795,-0.23500679433345795
1683153677.75970912,47492825,42.6892778,-84.4889675,267.2799987792969,-0.23556289076805115,-0.23556289076805115
1683153677.85974503,47592861,42.6892777,-84.4889675,267.2799987792969,-0.23623034358024597,-0.23623034358024597
1683153677.95963311,47692749,42.6892777,-84.4889675,267.2799987792969,-0.23691561818122864,-0.23691561818122864
1683153678.05961514,47792731,42.6892777,-84.4889675,267.2799987792969,-0.23789717257022858,-0.23789717257022858
1683153678.15971208,47892828,42.6892777,-84.4889675,267.2799987792969,-0.23885948956012726,-0.23885948956012726
1683153678.25990605,47993022,42.6892777,-84.4889675,267.2799987792969,-0.24041734635829926,-0.24041734635829926
1683153678.35987997,48092996,42.6892777,-84.4889675,267.2799987792969,-0.24176909029483795,-0.24176909029483795
1683153678.45969510,48192811,42.6892776,-84.4889675,267.2799987792969,-0.24432657659053802,-0.24432657659053802
1683153678.55967498,48292791,42.6892776,-84.4889675,267.2799987792969,-0.24677342176437378,-0.24677342176437378
1683153678.65973020,48392846,42.6892764,-84.488968,268.1099853515625,-0.24891971051692963,-0.24891971051692963
1683153678.75964212,48492758,42.6892764,-84.488968,268.1000061035156,-0.25170475244522095,-0.25170475244522095
1683153678.85988402,48593000,42.6892764,-84.48896789999999,268.1000061035156,-0.2535695731639862,-0.2535695731639862
1683153678.96003509,48693151,42.6892764,-84.48896789999999,268.1000061035156,-0.257934033870697,-0.257934033870697
1683153679.05987501,48792991,42.6892764,-84.48896789999999,268.0899963378906,-0.2619785666465759,-0.2619785666465759
1683153679.16026807,48893384,42.6892764,-84.48896789999999,268.0899963378906,-0.2641478180885315,-0.2641478180885315
1683153679.25990415,48993020,42.6892764,-84.488968,268.0799865722656,-0.27056360244750977,-0.27056360244750977
1683153679.35969019,49092806,42.6892764,-84.488968,268.0799865722656,-0.2791825532913208,-0.2791825532913208
1683153679.45988703,49193003,42.6892765,-84.488968,268.07000732421875,-0.28780296444892883,-0.28780296444892883
1683153679.55996013,49293076,42.6892765,-84.488968,268.05999755859375,-0.2948835790157318,-0.2948835790157318
1683153679.65996218,49393078,42.6892765,-84.488968,268.04998779296875,-0.30075615644454956,-0.30075615644454956
1683153679.75992513,49493041,42.6892764,-84.48896789999999,268.04998779296875,-0.3066244125366211,-0.3066244125366211
1683153679.85997200,49593088,42.6892764,-84.48896789999999,268.0400085449219,-0.3119102418422699,-0.3119102418422699
1683153679.95990419,49693020,42.6892764,-84.488968,268.0400085449219,-0.3165113925933838,-0.3165113925933838
1683153680.05988097,49792997,42.6892764,-84.488968,268.0299987792969,-0.32014361023902893,-0.32014361023902893
1683153680.15997720,49893093,42.6892764,-84.488968,268.0299987792969,-0.3233039975166321,-0.3233039975166321
1683153680.25969601,49992812,42.6892764,-84.488968,268.0299987792969,-0.32645899057388306,-0.32645899057388306
1683153680.35966897,50092785,42.6892764,-84.488968,268.0299987792969,-0.32930657267570496,-0.32930657267570496
1683153680.45971513,50192831,42.6892764,-84.488968,268.0199890136719,-0.33050283789634705,-0.33050283789634705
1683153680.55972314,50292839,42.689276299999996,-84.488968,268.0199890136719,-0.3318178951740265,-0.3318178951740265
1683153680.65954614,50392662,42.689276299999996,-84.488968,268.0199890136719,-0.3326413631439209,-0.3326413631439209
1683153680.75961518,50492731,42.689276299999996,-84.488968,268.0199890136719,-0.3313013017177582,-0.3313013017177582
1683153680.85964203,50592758,42.689276299999996,-84.488968,268.0199890136719,-0.330844908952713,-0.330844908952713
1683153680.95988107,50692997,42.689276199999995,-84.488968,268.0299987792969,-0.3299854099750519,-0.3299854099750519
1683153681.06002116,50793137,42.689276199999995,-84.488968,268.0199890136719,-0.3308611810207367,-0.3308611810207367
1683153681.15971899,50892835,42.6892761,-84.488968,268.0199890136719,-0.33295938372612,-0.33295938372612
1683153681.25968409,50992800,42.6892761,-84.488968,268.0199890136719,-0.3343505561351776,-0.3343505561351776
1683153681.35970807,51092824,42.6892761,-84.488968,268.0199890136719,-0.3359432816505432,-0.3359432816505432
1683153681.45964098,51192757,42.689276,-84.488968,268.0199890136719,-0.33604633808135986,-0.33604633808135986
1683153681.55964303,51292759,42.689276,-84.488968,268.0199890136719,-0.3350328505039215,-0.3350328505039215
1683153681.65988708,51393003,42.6892759,-84.488968,268.0199890136719,-0.33544549345970154,-0.33544549345970154
1683153681.75992298,51493039,42.6892759,-84.488968,268.0199890136719,-0.33667442202568054,-0.33667442202568054
1683153681.85965514,51592771,42.6892758,-84.488968,268.0199890136719,-0.33740484714508057,-0.33740484714508057
1683153681.95967817,51692794,42.6892758,-84.488968,268.0199890136719,-0.3358815014362335,-0.3358815014362335
1683153682.05969810,51792814,42.6892758,-84.488968,268.0199890136719,-0.33303314447402954,-0.33303314447402954
1683153682.15972519,51892841,42.689275699999996,-84.4889681,268.0299987792969,-0.3296211361885071,-0.3296211361885071
1683153682.25972915,51992845,42.689275699999996,-84.4889681,268.0299987792969,-0.32675960659980774,-0.32675960659980774
1683153682.35964012,52092756,42.689275599999995,-84.4889681,268.0299987792969,-0.3251984119415283,-0.3251984119415283
1683153682.45954418,52192660,42.689275599999995,-84.4889681,268.0299987792969,-0.3240325450897217,-0.3240325450897217
1683153682.55997705,52293093,42.6892755,-84.4889681,268.0299987792969,-0.32491812109947205,-0.32491812109947205
1683153682.65992212,52393038,42.6892755,-84.4889681,268.0199890136719,-0.33029770851135254,-0.33029770851135254
1683153682.75966811,52492784,42.6892754,-84.4889681,268.0199890136719,-0.33514687418937683,-0.33514687418937683
1683153682.85986018,52592976,42.6892754,-84.488968,268.0199890136719,-0.3373035192489624,-0.3373035192489624
1683153682.95986915,52692985,42.6892753,-84.4889681,268.0199890136719,-0.3386266827583313,-0.3386266827583313
1683153683.05986714,52792983,42.6892752,-84.4889681,268.0099792480469,-0.34065383672714233,-0.34065383672714233
1683153683.16002417,52893140,42.6892752,-84.4889681,268.0099792480469,-0.34270405769348145,-0.34270405769348145
1683153683.25991797,52993034,42.689275099999996,-84.4889681,268.0099792480469,-0.34265244007110596,-0.34265244007110596
1683153683.35985804,53092974,42.689275099999996,-84.4889681,268.0099792480469,-0.3421099781990051,-0.3421099781990051
1683153683.45987415,53192990,42.689274999999995,-84.4889681,268.0099792480469,-0.34087875485420227,-0.34087875485420227
1683153683.55992603,53293042,42.689274999999995,-84.488968,268.0099792480469,-0.34023720026016235,-0.34023720026016235
1683153683.65965104,53392767,42.6892749,-84.488968,268.0099792480469,-0.3407563269138336,-0.3407563269138336
1683153683.75966501,53492781,42.6892748,-84.488968,268.0199890136719,-0.33968305587768555,-0.33968305587768555
1683153683.85969901,53592815,42.6892747,-84.488968,268.0199890136719,-0.3381538689136505,-0.3381538689136505
1683153683.95968509,53692801,42.6892747,-84.488968,268.0199890136719,-0.3356838524341583,-0.3356838524341583
1683153684.05973315,53792849,42.6892746,-84.488968,268.0199890136719,-0.3316485285758972,-0.3316485285758972
1683153684.15977502,53892891,42.689274499999996,-84.488968,268.0299987792969,-0.32568785548210144,-0.32568785548210144
1683153684.25964618,53992762,42.689274399999995,-84.488968,268.0299987792969,-0.3214247524738312,-0.3214247524738312
1683153684.35960197,54092718,42.6892743,-84.488968,268.0400085449219,-0.3182213306427002,-0.3182213306427002
1683153684.45963717,54192753,42.6892742,-84.488968,268.0400085449219,-0.314521849155426,-0.314521849155426
1683153684.55988407,54293000,42.6892741,-84.488968,268.0400085449219,-0.31273892521858215,-0.31273892521858215
1683153684.65989709,54393013,42.689274,-84.488968,268.0400085449219,-0.31052371859550476,-0.31052371859550476
1683153684.75969720,54492813,42.689273899999996,-84.488968,268.04998779296875,-0.3060990869998932,-0.3060990869998932
1683153684.85990620,54593022,42.689273899999996,-84.48896789999999,268.05999755859375,-0.29969874024391174,-0.29969874024391174
1683153684.95993519,54693051,42.689273799999995,-84.48896789999999,268.05999755859375,-0.2962413728237152,-0.2962413728237152
1683153685.05993199,54793048,42.6892737,-84.48896789999999,268.05999755859375,-0.2943100929260254,-0.2943100929260254
1683153685.15997219,54893088,42.6892736,-84.48896789999999,268.05999755859375,-0.2915157079696655,-0.2915157079696655
1683153685.26006198,54993178,42.6892735,-84.4889678,268.07000732421875,-0.2874663472175598,-0.2874663472175598
1683153685.35991216,55093028,42.6892734,-84.4889678,268.07000732421875,-0.28428158164024353,-0.28428158164024353
1683153685.46021104,55193327,42.689273299999996,-84.4889678,268.07000732421875,-0.28388381004333496,-0.28388381004333496
1683153685.56019807,55293314,42.689273299999996,-84.4889678,268.07000732421875,-0.2833336889743805,-0.2833336889743805
1683153685.65992308,55393039,42.689273199999995,-84.4889678,268.07000732421875,-0.2834668457508087,-0.2834668457508087
1683153685.75991797,55493034,42.6892731,-84.48896769999999,268.07000732421875,-0.283403217792511,-0.283403217792511
1683153685.85994720,55593063,42.689273,-84.48896769999999,268.07000732421875,-0.2836509048938751,-0.2836509048938751
1683153685.95996118,55693077,42.689273,-84.48896769999999,268.07000732421875,-0.2841958999633789,-0.2841958999633789
1683153686.05993509,55793051,42.6892729,-84.48896769999999,268.07000732421875,-0.2843143343925476,-0.2843143343925476
1683153686.16004014,55893156,42.6892728,-84.4889676,268.07000732421875,-0.28330370783805847,-0.28330370783805847
1683153686.25992608,55993042,42.6892728,-84.4889676,268.07000732421875,-0.2830395996570587,-0.2830395996570587
1683153686.36021900,56093335,42.6892727,-84.4889676,268.07000732421875,-0.28396132588386536,-0.28396132588386536
1683153686.45966601,56192782,42.689272599999995,-84.4889675,268.07000732421875,-0.28511637449264526,-0.28511637449264526
1683153686.55969715,56292813,42.6892725,-84.4889675,268.07000732421875,-0.2870604991912842,-0.2870604991912842
1683153686.65967417,56392790,42.6892725,-84.48896739999999,268.05999755859375,-0.29067090153694153,-0.29067090153694153
1683153686.75971699,56492833,42.6892724,-84.48896739999999,268.05999755859375,-0.29367998242378235,-0.29367998242378235
1683153686.85962105,56592737,42.6892724,-84.48896739999999,268.05999755859375,-0.2974875271320343,-0.2974875271320343
1683153686.95954609,56692662,42.6892723,-84.4889673,268.04998779296875,-0.3015809655189514,-0.3015809655189514
1683153687.05962515,56792741,42.6892723,-84.4889673,268.04998779296875,-0.3065757751464844,-0.3065757751464844
1683153687.15974808,56892864,42.6892723,-84.4889673,268.0400085449219,-0.3124655485153198,-0.3124655485153198
1683153687.25990510,56993021,42.6892723,-84.4889673,268.0400085449219,-0.31758439540863037,-0.31758439540863037
1683153687.36001611,57093132,42.6892722,-84.48896719999999,268.0299987792969,-0.3203480541706085,-0.3203480541706085
1683153687.45992017,57193036,42.6892722,-84.48896719999999,268.0299987792969,-0.32169684767723083,-0.32169684767723083
1683153687.55991507,57293031,42.6892721,-84.4889671,268.0299987792969,-0.3236922323703766,-0.3236922323703766
1683153687.65973306,57392849,42.6892721,-84.4889671,268.0299987792969,-0.3275998830795288,-0.3275998830795288
1683153687.75963998,57492756,42.6892721,-84.4889671,268.0199890136719,-0.3321932554244995,-0.3321932554244995
1683153687.85956502,57592681,42.689271999999995,-84.4889671,268.0199890136719,-0.33656513690948486,-0.33656513690948486
1683153687.95961905,57692735,42.689271999999995,-84.488967,268.0099792480469,-0.34020137786865234,-0.34020137786865234
1683153688.05966520,57792781,42.6892719,-84.488967,268.0099792480469,-0.3428986668586731,-0.3428986668586731
1683153688.15999603,57893112,42.6892719,-84.4889669,268.0099792480469,-0.3455776572227478,-0.3455776572227478
1683153688.25992298,57993039,42.6892719,-84.4889669,268.0099792480469,-0.3482181429862976,-0.3482181429862976
1683153688.35992098,58093037,42.6892718,-84.4889669,268.0,-0.3506636917591095,-0.3506636917591095
1683153688.45990300,58193019,42.6892718,-84.4889668,268.0,-0.35207846760749817,-0.35207846760749817
1683153688.55971313,58292829,42.6892717,-84.4889668,268.0,-0.35386374592781067,-0.35386374592781067
1683153688.65971518,58392831,42.6892716,-84.4889668,268.0,0.004548467695713043,-0.3554515242576599
1683153688.75966215,58492778,42.6892716,-84.48896669999999,268.0,0.0038838163018226624,-0.3561161756515503
1683153688.85964918,58592765,42.6892715,-84.48896669999999,268.0,0.003346748650074005,-0.35665324330329895
1683153688.95968199,58692798,42.6892715,-84.48896669999999,268.0,0.002472914755344391,-0.35752707719802856
1683153689.05970716,58792823,42.689271399999996,-84.48896669999999,268.0,0.0017453506588935852,-0.35825464129447937
1683153689.15973711,58892853,42.6892713,-84.48896669999999,268.0,0.0015372410416603088,-0.35846275091171265
1683153689.25972199,58992838,42.6892713,-84.4889666,267.989990234375,-0.00018333643674850464,-0.36018332839012146
1683153689.35994101,59093057,42.6892712,-84.4889666,267.989990234375,-0.003295205533504486,-0.36329519748687744
1683153689.45998311,59193099,42.6892712,-84.48896649999999,267.989990234375,-0.005273394286632538,-0.3652733862400055
1683153689.55995297,59293069,42.6892711,-84.4889664,267.989990234375,-0.005935691297054291,-0.36593568325042725
1683153689.65989399,59393010,42.6892711,-84.4889664,267.989990234375,-0.006545953452587128,-0.3665459454059601
1683153689.75986719,59492983,42.689271,-84.4889663,267.989990234375,-0.007314376533031464,-0.3673143684864044
1683153689.85991406,59593030,42.6892709,-84.4889663,267.989990234375,-0.007414542138576508,-0.36741453409194946
1683153689.95987606,59692992,42.6892709,-84.4889663,267.989990234375,-0.007298283278942108,-0.36729827523231506
1683153690.05988908,59793005,42.689270799999996,-84.4889662,267.989990234375,-0.006200574338436127,-0.3662005662918091
1683153690.15994811,59893064,42.689270799999996,-84.4889662,267.989990234375,-0.004442743957042694,-0.36444273591041565
1683153690.25993204,59993048,42.6892707,-84.4889661,267.989990234375,-0.004098229110240936,-0.3640982210636139
1683153690.35974503,60092861,42.6892706,-84.4889661,267.989990234375,-0.004859797656536102,-0.36485978960990906
1683153690.45997810,60193094,42.6892705,-84.48896599999999,267.989990234375,-0.0053573474287986755,-0.36535733938217163
1683153690.55996418,60293080,42.6892705,-84.48896599999999,267.989990234375,-0.005156509578227997,-0.36515650153160095
1683153690.66004109,60393157,42.6892704,-84.4889659,267.989990234375,-0.005927585065364838,-0.3659275770187378
1683153690.75999403,60493110,42.6892703,-84.4889659,267.989990234375,-0.007831685245037079,-0.36783167719841003
1683153690.86001515,60593131,42.689270199999996,-84.4889658,267.989990234375,-0.008359663188457489,-0.36835965514183044
1683153690.95998812,60693104,42.689270099999995,-84.4889658,267.989990234375,-0.008471600711345673,-0.36847159266471863
1683153691.06027412,60793390,42.68927,-84.4889658,267.97998046875,-0.010071836411952972,-0.3700718283653259
1683153691.16022015,60893336,42.6892699,-84.4889657,267.97998046875,-0.012275807559490204,-0.37227579951286316
1683153691.25980401,60992920,42.6892698,-84.4889656,267.97998046875,-0.013954482972621918,-0.3739544749259949
1683153691.35973001,61092846,42.6892698,-84.4889656,267.97998046875,-0.015136830508708954,-0.3751368224620819
1683153691.45964503,61192761,42.6892697,-84.48896549999999,267.97998046875,-0.014232300221920013,-0.37423229217529297
1683153691.55978298,61292899,42.689269599999996,-84.48896549999999,267.97998046875,-0.011266909539699554,-0.3712669014930725
1683153691.65970111,61392817,42.689269499999995,-84.4889654,267.989990234375,-0.0076617226004600525,-0.367661714553833
1683153691.75971198,61492828,42.6892694,-84.48896529999999,267.989990234375,-0.0032046660780906677,-0.3632046580314636
1683153691.85969114,61592807,42.6892693,-84.48896529999999,267.989990234375,-0.0009557828307151794,-0.36095577478408813
1683153691.95970011,61692816,42.6892692,-84.4889652,268.0,-5.289912223815918e-07,-0.36000052094459534
1683153692.05969906,61792815,42.6892691,-84.4889652,268.0,0.0012375488877296448,-0.3587624430656433
1683153692.15983009,61892946,42.689268999999996,-84.4889651,268.0,0.0022039487957954407,-0.3577960431575775
