timestamp,TimeUS,C,Roll,Pitch,Yaw,VN,VE,VD,dPD,PN,PE,PD,GX,GY,GZ,OH
1683153640.25896215,9992078,2,0.0,0.0,0.0,0.0,0.0,0.0,0.0,0.0,0.0,0.0,0.0,0.0,0.0,0.0
1683153640.35897303,10092089,2,0.0,0.0,0.0,0.0,0.0,0.0,0.0,0.0,0.0,0.0,0.0,0.0,0.0,0.0
1683153640.45898318,10192099,2,0.0,0.0,0.0,0.0,0.0,0.0,0.0,0.0,0.0,0.0,0.0,0.0,0.0,0.0
1683153640.55891705,10292033,2,0.0,0.0,0.0,0.0,0.0,0.0,0.0,0.0,0.0,0.0,0.0,0.0,0.0,0.0
1683153640.65895820,10392074,2,0.0,0.0,0.0,0.0,0.0,0.0,0.0,0.0,0.0,0.0,0.0,0.0,0.0,0.0
1683153640.75892615,10492042,2,0.0,0.0,0.0,0.0,0.0,0.0,0.0,0.0,0.0,0.0,0.0,0.0,0.0,0.0
1683153640.85892010,10592036,2,0.0,0.0,0.0,0.0,0.0,0.0,0.0,0.0,0.0,0.0,0.0,0.0,0.0,0.0
1683153640.95898199,10692098,2,0.0,0.0,0.0,0.0,0.0,0.0,0.0,0.0,0.0,0.0,0.0,0.0,0.0,0.0
1683153641.05899310,10792109,2,0.0,0.0,0.0,0.0,0.0,0.0,0.0,0.0,0.0,0.0,0.0,0.0,0.0,0.0
1683153641.15898418,10892100,2,0.0,0.0,0.0,0.0,0.0,0.0,0.0,0.0,0.0,0.0,0.0,0.0,0.0,0.0
1683153641.25896716,10992083,2,0.3,-0.28,0.0,0.0023148413747549057,-0.0022058028262108564,0.014921152032911777,0.0035262354649603367,0.0,0.0,0.0005616983980871737,0.0,0.0,0.0,0.0
1683153641.35897112,11092087,2,0.29,-0.28,0.0,0.0045978412963449955,-0.005041781347244978,0.05843471735715866,0.03297239542007446,0.0,0.0,0.004476820584386587,0.0,0.0,0.0,0.0
1683153641.45898914,11192105,2,0.29,-0.28,359.99,0.005311753135174513,-0.007964159362018108,0.10554381459951401,-0.4349919259548187,0.0,0.0,-0.048160336911678314,0.0,0.0,0.0,0.0
1683153641.55891299,11292029,2,0.28,-0.28,359.99,0.008106342516839504,-0.010078733786940575,0.13847403228282928,-0.5024362206459045,0.0,0.0,-0.08116194605827332,0.0,0.0,0.0,0.0
1683153641.65892410,11392040,2,0.28,-0.27,359.99,0.009528527967631817,-0.01263786293566227,0.16171902418136597,-0.2418563812971115,0.0,0.0,-0.09683029353618622,0.0,0.0,0.0,0.0
1683153641.75891709,11492033,2,0.29,-0.27,359.98,0.011729116551578045,-0.015639036893844604,0.17754146456718445,-0.06382976472377777,0.0,0.0,-0.10356896370649338,0.0,0.0,0.0,0.0
1683153641.85898519,11592101,2,0.28,-0.27,359.99,0.013105043210089207,-0.01766926236450672,0.1874590814113617,0.027669254690408707,0.0,0.0,-0.1047896072268486,0.0,0.0,0.0,0.0
1683153641.95896411,11692080,2,0.29,-0.27,359.98,0.014452225528657436,-0.022344069555401802,0.19422490894794464,0.054309163242578506,0.0,0.0,-0.10383649170398712,0.0,0.0,0.0,0.0
1683153642.05896521,11792081,2,0.29,-0.27,359.98,0.016561036929488182,-0.023729320615530014,0.19964882731437683,0.09983422607183456,0.0,0.0,-0.09607724100351334,0.0,0.0,0.0,0.0
1683153642.15896702,11892083,2,0.28,-0.28,359.99,0.01712656393647194,-0.02700205147266388,0.20212742686271667,0.11691810190677643,0.0,0.0,-0.088731549680233,0.0,0.0,0.0,0.0
1683153642.25897002,11992086,2,0.28,-0.27,359.99,0.018092595040798187,-0.02760022133588791,0.20039314031600952,0.03865066543221474,0.0,0.0,-0.08788002282381058,0.0,0.0,0.0,0.0
1683153642.35898709,12092103,2,0.29,-0.26,359.98,0.018062682822346687,-0.03114180639386177,0.1966879814863205,-0.03338082879781723,0.0,0.0,-0.0905524343252182,0.0,0.0,0.0,0.0
1683153642.45896602,12192082,2,0.3,-0.26,359.99,0.019226934760808945,-0.031016260385513306,0.1929721236228943,-0.05272373929619789,0.0,0.0,-0.09363473951816559,0.0,0.0,0.0,0.0
1683153642.55892110,12292037,2,0.3,-0.25,359.99,0.017918908968567848,-0.0325036495923996,0.18768566846847534,-0.0475323386490345,0.0,0.0,-0.09662260860204697,0.0,0.0,0.0,0.0
1683153642.65891314,12392029,2,0.32,-0.24,359.99,0.01783507876098156,-0.03112582303583622,0.18250644207000732,-0.031689371913671494,0.0,0.0,-0.09853240102529526,0.0,0.0,0.0,0.0
1683153642.75897098,12492087,2,0.33,-0.23,359.99,0.01680312305688858,-0.030485974624753,0.17667947709560394,-0.011110590770840645,0.0,0.0,-0.09908392280340195,0.0,0.0,0.0,0.0
1683153642.85898900,12592105,2,0.34,-0.22,359.99,0.01613355427980423,-0.028555160388350487,0.1722419261932373,0.02444949746131897,0.0,0.0,-0.09623442590236664,0.0,0.0,0.0,0.0
1683153642.95896006,12692076,2,0.35000000000000003,-0.22,359.98,0.014056096784770489,-0.026783358305692673,0.16476212441921234,-0.003908103331923485,0.0,0.0,-0.09929333627223969,0.0,0.0,0.0,0.0
1683153643.05896997,12792086,2,0.4,-0.2,203.93,0.011330711655318737,-0.02164633199572563,0.1563022881746292,-0.07062216848134995,0.0,0.0,-0.10647522658109665,0.0,0.0,0.0,0.0
1683153643.15897107,12892087,2,0.38,-0.21,203.87,0.007884548977017403,-0.015402580611407757,0.1470426768064499,-0.10221455246210098,0.0,0.0,-0.11512069404125214,0.0,0.0,0.0,0.0
1683153643.25898004,12992096,2,0.37,-0.2,203.71,0.004020208492875099,-0.01069688145071268,0.13892604410648346,-0.10378428548574448,0.0,0.0,-0.12341304123401642,0.0,0.0,0.0,0.0
1683153643.35892320,13092039,2,0.36,-0.21,203.49,0.0001841688936110586,-0.0059339990839362144,0.12977290153503418,-0.10652892291545868,0.0,0.0,-0.13344097137451172,0.0,0.0,0.0,0.0
1683153643.45892310,13192039,2,0.36,-0.2,203.26,-0.0009132297127507627,-0.0020336625166237354,0.12108855694532394,-0.1210760623216629,0.0,0.0,-0.14437490701675415,0.0,0.0,0.0,0.0
1683153643.55891609,13292032,2,0.35000000000000003,-0.2,203.08,-0.00454468559473753,0.0011395391775295138,0.11410415172576904,-0.11544400453567505,0.0,0.0,-0.1547713726758957,0.0,0.0,0.0,0.0
1683153643.65898204,13392098,2,0.35000000000000003,-0.2,202.91,-0.0058638183400034904,0.003406952368095517,0.10637626051902771,-0.11700243502855301,0.0,0.0,-0.16615915298461914,0.0,0.0,0.01,0.0
1683153643.75898314,13492099,2,0.35000000000000003,-0.2,202.76,-0.00877404771745205,0.006186240818351507,0.09463171660900116,-0.16802570223808289,0.0,0.0,-0.1834419071674347,0.0,0.0,0.01,0.0
1683153643.85896420,13592080,2,0.35000000000000003,-0.19,202.65,-0.009081977419555187,0.008703446947038174,0.08387039601802826,-0.19559010863304138,0.0,0.0,-0.20044490694999695,0.0,0.0,0.0,0.0
1683153643.95895910,13692075,2,0.35000000000000003,-0.19,202.58,-0.01034944411367178,0.010166512802243233,0.07351791113615036,-0.1753341406583786,0.0,0.0,-0.21663223206996918,0.0,0.0,0.01,0.0
1683153644.05897117,13792087,2,0.35000000000000003,-0.18,202.56,-0.011172128841280937,0.012312578968703747,0.0654468759894371,-0.1471031904220581,0.0,0.0,-0.2299533635377884,0.0,0.0,0.0,0.0
1683153644.15892220,13892038,2,0.35000000000000003,-0.18,202.58,-0.011739690788090229,0.013055316172540188,0.06032930314540863,-0.09472513198852539,0.0,0.0,-0.2392881214618683,0.0,0.0,0.0,0.0
1683153644.25895000,13992066,2,0.35000000000000003,-0.18,202.62,-0.011126436293125153,0.014959540218114853,0.05596119537949562,-0.06538130342960358,0.0,0.0,-0.24724088609218597,0.0,0.0,0.0,0.0
1683153644.35892415,14092040,2,0.35000000000000003,-0.18,202.66,-0.010942143388092518,0.016370370984077454,0.04973900690674782,-0.07478474080562592,0.0,0.0,-0.2563244700431824,0.0,0.0,0.0,0.0
1683153644.45891809,14192034,2,0.35000000000000003,-0.17,202.70000000000002,-0.010839429683983326,0.016787009313702583,0.043819498270750046,-0.09762869775295258,0.0,0.0,-0.26677843928337097,0.0,0.0,0.0,0.0
1683153644.55897403,14292090,2,0.34,-0.17,202.76,-0.010148508474230766,0.01780838705599308,0.036714840680360794,-0.13262948393821716,0.0,0.0,-0.28046831488609314,0.0,0.0,-0.01,0.0
1683153644.65897918,14392095,2,0.34,-0.17,202.81,-0.01045653410255909,0.018726935610175133,0.02861015498638153,-0.1540166586637497,0.0,0.0,-0.29441773891448975,0.0,0.0,-0.01,0.0
1683153644.75897408,14492090,2,0.35000000000000003,-0.16,202.84,-0.01066133938729763,0.01860285922884941,0.020010802894830704,-0.16572891175746918,0.0,0.0,-0.3105643093585968,0.0,0.0,0.0,0.0
1683153644.85897017,14592086,2,0.35000000000000003,-0.14,202.86,-0.010191998444497585,0.019758814945816994,0.012176469899713993,-0.16952699422836304,0.0,0.0,-0.3258172571659088,0.0,0.0,0.0,0.0
1683153644.95896506,14692081,2,0.36,-0.14,202.86,-0.008811268024146557,0.018723666667938232,0.006268505472689867,-0.12855808436870575,0.0,0.0,-0.3373875021934509,0.0,0.0,0.0,0.0
1683153645.05898905,14792105,2,0.36,-0.14,202.84,-0.006778982933610678,0.020642289891839027,0.0015447390032932162,-0.08610303699970245,0.0,0.0,-0.3465329110622406,-0.01,0.0,0.0,0.0
1683153645.15891409,14892030,2,0.36,-0.13,202.83,-0.006019438151270151,0.019327936694025993,-0.003100263886153698,-0.07166287302970886,0.0,0.0,-0.35493677854537964,-0.01,0.0,0.0,0.0
1683153645.25891113,14992027,2,0.37,-0.13,202.81,-0.003548954613506794,0.019655641168355942,-0.005639241077005863,-0.04923253133893013,0.0,0.0,-0.36007124185562134,-0.01,0.0,0.0,0.0
1683153645.35891509,15092031,2,0.38,-0.12,202.8,-0.0013076603645458817,0.01783379726111889,-0.00670863501727581,-0.016533350571990013,0.0,0.0,-0.3629356920719147,-0.01,0.0,0.0,0.0
1683153645.45897412,15192090,2,0.38,-0.12,202.79,0.0009970664978027344,0.017749270424246788,-0.007678203284740448,0.0058371881023049355,0.0,0.0,-0.36345019936561584,-0.01,0.0,0.0,0.0
1683153645.55897212,15292088,2,0.4,-0.12,202.77,0.0017121246783062816,0.015836110338568687,-0.01018041092902422,-0.0022211994510143995,0.0,0.0,-0.3656659424304962,-0.02,0.0,0.0,0.0
1683153645.65896106,15392077,2,0.4,-0.11,202.76,0.003479543374851346,0.016493365168571472,-0.012238463386893272,-0.022355498746037483,0.0,0.0,-0.3685263395309448,-0.02,0.0,0.0,0.0
1683153645.75897408,15492090,2,0.41000000000000003,-0.13,202.76,0.0015326985158026218,0.01253820676356554,-0.013890127651393414,-0.022210799157619476,0.0,0.0,-0.37049174308776855,-0.02,0.0,0.0,0.0
1683153645.85897803,15592094,2,0.4,-0.13,202.77,0.0069891116581857204,0.014700832776725292,-0.017871621996164322,-0.056067999452352524,0.0,0.0,-0.3774377703666687,-0.02,0.0,0.0,0.0
1683153645.95891500,15692031,2,0.42,-0.13,202.78,0.0021862657740712166,0.012013869360089302,-0.022263668477535248,-0.08893661201000214,0.0,0.0,-0.38512203097343445,-0.02,0.0,0.0,0.0
1683153646.05893707,15792053,2,0.41000000000000003,-0.13,202.79,0.003906756639480591,0.011732364073395729,-0.029806796461343765,-0.12960538268089294,0.0,0.0,-0.39812591671943665,-0.02,0.0,0.0,0.0
1683153646.15891910,15892035,2,0.42,-0.14,202.77,0.003941305913031101,0.008976793847978115,-0.03538824990391731,-0.13671666383743286,0.0,0.0,-0.4089002013206482,-0.02,0.0,0.02,0.0
1683153646.25891209,15992028,2,0.42,-0.14,202.70000000000002,0.006712314672768116,0.010521573014557362,-0.04070425406098366,-0.12803611159324646,0.0,0.0,-0.42125192284584045,-0.02,0.0,0.05,0.0
1683153646.35898399,16092100,2,0.43,-0.14,202.63,0.00012894946848973632,0.005860369186848402,-0.04470578581094742,-0.11037600040435791,0.0,0.0,-0.4307427406311035,-0.02,0.0,0.05,0.0
1683153646.45896816,16192084,2,0.43,-0.15,202.59,0.00790455937385559,0.009303746744990349,-0.04864219203591347,-0.09194140881299973,0.0,0.0,-0.44029906392097473,-0.03,0.0,0.04,0.0
1683153646.55895901,16292075,2,0.44,-0.14,202.56,0.0027327004354447126,0.004039324354380369,-0.0518537200987339,-0.08753135055303574,0.0,0.0,-0.4492223560810089,-0.03,0.0,0.02,0.0
1683153646.65896511,16392081,2,0.45,-0.15,202.58,0.005907274782657623,0.007491134572774172,-0.05693477392196655,-0.10317239165306091,0.0,0.0,-0.46041586995124817,-0.03,0.0,-0.01,0.0
1683153646.75897312,16492089,2,0.46,-0.15,202.68,-0.0015332918846979737,0.001173307653516531,-0.059610653668642044,-0.09479475766420364,0.0,0.0,-0.4687424302101135,-0.03,0.0,-0.06,0.0
1683153646.85898614,16592102,2,0.47000000000000003,-0.17,202.81,0.004769621416926384,0.0029786210507154465,-0.06015537679195404,-0.041391242295503616,0.0,0.0,-0.4722384512424469,-0.03,0.0,-0.07,0.0
1683153646.95892310,16692039,2,0.46,-0.15,202.9,0.003391444683074951,-0.000495557498652488,-0.059266045689582825,-0.011655486188828945,0.0,0.0,-0.4751211702823639,-0.03,0.0,-0.04,0.0
1683153647.05892515,16792041,2,0.47000000000000003,-0.17,202.98000000000002,0.0012413799995556474,-0.00024857884272933006,-0.05529426783323288,0.033912938088178635,0.0,0.0,-0.47186699509620667,-0.03,0.0,-0.05,0.0
1683153647.15891600,16892032,2,0.46,-0.17,203.02,0.0064655630849301815,0.0007478839834220707,-0.05429309979081154,0.027318885549902916,0.0,0.0,-0.4728555381298065,-0.03,0.0,-0.04,0.0
1683153647.25896907,16992085,2,0.47000000000000003,-0.17,203.02,0.00017860997468233109,-0.0025302902795374393,-0.05133204162120819,0.030332764610648155,0.0,0.0,-0.46935009956359863,-0.03,0.0,-0.05,0.0
1683153647.35897899,17092095,2,0.46,-0.17,203.02,0.0043769641779363155,-0.0008317328756675124,-0.04824488237500191,0.05328628420829773,0.0,0.0,-0.4654131829738617,-0.03,0.0,-0.04,0.0
1683153647.45896316,17192079,2,0.47000000000000003,-0.17,203.02,0.0017929309979081154,-0.0037738962564617395,-0.046753108501434326,0.03591631352901459,0.0,0.0,-0.4631606340408325,-0.03,0.0,-0.04,0.0
1683153647.55896616,17292082,2,0.46,-0.18,203.0,0.001949494006112218,-0.0027357020881026983,-0.04219086840748787,0.06149696931242943,0.0,0.0,-0.4559082090854645,-0.03,0.0,-0.03,0.0
1683153647.65896797,17392084,2,0.47000000000000003,-0.19,202.99,0.004054359160363674,-0.005284156650304794,-0.038478072732686996,0.07702655345201492,0.0,0.0,-0.4500157833099365,-0.03,0.0,-0.02,0.0
1683153647.75898004,17492096,2,0.47000000000000003,-0.2,202.96,0.00019915854500140995,-0.005579144693911076,-0.032649096101522446,0.0968599021434784,0.0,0.0,-0.4399535059928894,-0.03,0.0,-0.01,0.0
1683153647.85893703,17592053,2,0.46,-0.2,202.94,0.004399048630148172,-0.0075556933879852295,-0.024922294542193413,0.1452922821044922,0.0,0.0,-0.42615392804145813,-0.03,0.0,-0.02,0.0
1683153647.95891118,17692027,2,0.47000000000000003,-0.19,202.93,0.001252821646630764,-0.007172145415097475,-0.020091844722628593,0.1243729442358017,0.0,0.0,-0.4169926643371582,-0.03,0.0,-0.02,0.0
1683153648.05891919,17792035,2,0.47000000000000003,-0.2,202.92000000000002,0.004674860741943121,-0.009552819654345512,-0.014425523579120636,0.10731970518827438,0.0,0.0,-0.40589001774787903,-0.03,0.0,-0.02,0.0
1683153648.15898705,17892103,2,0.49,-0.19,202.91,0.004466051235795021,-0.00849878415465355,-0.008388721384108067,0.11120837181806564,0.0,0.0,-0.39547571539878845,-0.03,0.0,-0.02,0.0
1683153648.25897598,17992092,2,0.49,-0.21,202.91,0.005121731664985418,-0.011049922555685043,-0.00408144248649478,0.08198010176420212,0.0,0.0,-0.3881337344646454,-0.03,0.0,-0.02,0.0
1683153648.35896206,18092078,2,0.49,-0.2,202.91,0.006694470997899771,-0.009952133521437645,-0.0016220472753047943,0.05434449017047882,0.0,0.0,-0.3821304738521576,-0.03,0.0,-0.02,0.0
1683153648.45896912,18192085,2,0.48,-0.21,202.91,0.005356466397643089,-0.012480425648391247,0.0017880925443023443,0.05981443077325821,0.0,0.0,-0.3747704327106476,-0.03,0.0,-0.01,0.0
1683153648.55896711,18292083,2,0.48,-0.21,202.9,0.008205479942262173,-0.010916752740740776,0.003233934985473752,0.037017643451690674,0.0,0.0,-0.37188220024108887,-0.03,0.0,-0.01,0.0
1683153648.65891314,18392029,2,0.48,-0.22,202.9,0.006605511996895075,-0.012521582655608654,0.0021293784957379103,-0.019895924255251884,0.0,0.0,-0.373549222946167,-0.03,0.01,-0.01,0.0
1683153648.75892115,18492037,2,0.48,-0.22,202.88,0.0068962909281253815,-0.01239063497632742,-0.0001672249927651137,-0.043932728469371796,0.0,0.0,-0.37566137313842773,-0.02,0.01,-0.01,0.0
1683153648.85891104,18592027,2,0.48,-0.22,202.87,0.005773217882961035,-0.013058964163064957,-0.0028337512630969286,-0.06154600903391838,0.0,0.0,-0.38108646869659424,-0.02,0.01,-0.01,0.0
1683153648.95891118,18692027,2,0.49,-0.22,202.87,0.004113109316676855,-0.013416801579296589,-0.007512838579714298,-0.09610780328512192,0.0,0.0,-0.3896295130252838,-0.02,0.01,-0.01,0.0
1683153649.05897808,18792094,2,0.48,-0.22,202.87,0.004751076456159353,-0.013377152383327484,-0.00895326305180788,-0.07942210137844086,0.0,0.0,-0.3946228325366974,-0.02,0.01,-0.02,0.0
1683153649.15898299,18892099,2,0.48,-0.22,202.89000000000001,0.0020130507182329893,-0.01440866757184267,-0.008564646355807781,-0.02592124417424202,0.0,0.0,-0.3961259722709656,-0.02,0.01,-0.03,0.0
1683153649.25895715,18992073,2,0.48,-0.22,202.92000000000002,0.002515446161851287,-0.01343278307467699,-0.006814133375883102,0.026043159887194633,0.0,0.0,-0.3939550518989563,-0.02,0.01,-0.03,0.0
1683153649.35897207,19092088,2,0.47000000000000003,-0.22,202.94,-0.0010658324463292956,-0.013376117683947086,-0.006193569861352444,0.04762420058250427,0.0,0.0,-0.3911171555519104,-0.02,0.01,-0.03,0.0
1683153649.45897007,19192086,2,0.47000000000000003,-0.23,202.96,-0.003178858896717429,-0.012005118653178215,-0.006416234187781811,0.03731101006269455,0.0,0.0,-0.38885176181793213,-0.02,0.01,-0.02,0.0
1683153649.55891299,19292029,2,0.47000000000000003,-0.23,202.97,-0.0054105231538414955,-0.01158067211508751,-0.006964299362152815,-0.010062708519399166,0.0,0.0,-0.39143744111061096,-0.02,0.01,-0.04,0.0
1683153649.65892315,19392039,2,0.47000000000000003,-0.23,203.0,-0.006403877399861813,-0.012173819355666637,-0.007674523163586855,-0.03713858500123024,0.0,0.0,-0.3938066363334656,-0.02,0.01,-0.04,0.0
1683153649.75891709,19492033,2,0.47000000000000003,-0.23,203.03,-0.006818026769906282,-0.011548278853297234,-0.008252855390310287,-0.02425423264503479,0.0,0.0,-0.39541810750961304,-0.02,0.01,-0.04,0.0
1683153649.85891819,19592034,2,0.47000000000000003,-0.23,203.05,-0.007058382034301758,-0.011203760281205177,-0.00810158345848322,-0.0029420156497508287,0.0,0.0,-0.3949853777885437,-0.02,0.0,-0.04,0.0
1683153649.95897818,19692094,2,0.47000000000000003,-0.23,203.04,-0.006698461249470711,-0.010599366389214993,-0.0059793079271912575,0.03323112428188324,0.0,0.0,-0.39179325103759766,-0.02,0.0,-0.02,0.0
1683153650.05897307,19792089,2,0.46,-0.23,203.05,-0.0071313753724098206,-0.011157200671732426,-0.004372718278318644,0.04653320088982582,0.0,0.0,-0.3884071707725525,-0.02,0.0,-0.03,0.0
1683153650.15896702,19892083,2,0.47000000000000003,-0.23,203.04,-0.007001045625656843,-0.01062626950442791,-0.0016065132804214954,0.06329116225242615,0.0,0.0,-0.38239628076553345,-0.02,0.0,-0.03,0.0
1683153650.25896716,19992083,2,0.47000000000000003,-0.23,203.03,-0.007203144486993551,-0.011503721587359905,0.0010187117150053382,0.04774351418018341,0.0,0.0,-0.3799339234828949,-0.02,0.0,-0.03,0.0
1683153650.35897112,20092087,2,0.46,-0.24,203.03,-0.008355986326932907,-0.012098057195544243,0.001652837498113513,0.003463278990238905,0.0,0.0,-0.37946903705596924,-0.02,0.0,-0.03,0.0
1683153650.45891905,20192035,2,0.46,-0.24,203.03,-0.009506378322839737,-0.01175146084278822,0.0017770740669220686,-0.0009613113943487406,0.0,0.0,-0.37856027483940125,-0.02,0.0,-0.03,0.0
1683153650.55892301,20292039,2,0.46,-0.23,203.02,-0.00935604702681303,-0.012015003710985184,-0.00029626794275827706,-0.04050937294960022,0.0,0.0,-0.3830665647983551,-0.02,0.0,-0.02,0.0
1683153650.65891004,20392026,2,0.45,-0.23,203.02,-0.010337365791201591,-0.010986966080963612,-0.003975026775151491,-0.10668711364269257,0.0,0.0,-0.392524778842926,-0.02,0.0,-0.02,0.0
1683153650.75891709,20492033,2,0.45,-0.23,203.01,-0.009821686893701553,-0.011598223820328712,-0.006261331029236317,-0.11993201822042465,0.0,0.0,-0.40167805552482605,-0.02,0.0,-0.03,0.0
1683153650.85898018,20592096,2,0.45,-0.23,203.02,-0.009928366169333458,-0.010245965793728828,-0.008571697399020195,-0.09992879629135132,0.0,0.0,-0.40987300872802734,-0.02,0.0,-0.03,0.0
1683153650.95897698,20692093,2,0.44,-0.22,203.04,-0.009333004243671894,-0.011776652187108994,-0.009355814196169376,-0.06633218377828598,0.0,0.0,-0.41538646817207336,-0.02,0.0,-0.03,0.0
1683153651.05896902,20792085,2,0.44,-0.23,203.05,-0.009383176453411579,-0.00997858215123415,-0.010893275961279869,-0.040853776037693024,0.0,0.0,-0.4199047386646271,-0.01,0.0,-0.03,0.0
1683153651.15898919,20892105,2,0.43,-0.23,203.08,-0.00949915498495102,-0.01054427120834589,-0.012210741639137268,-0.04504243656992912,0.0,0.0,-0.4252776503562927,-0.01,0.0,-0.04,0.0
1683153651.25898218,20992098,2,0.43,-0.23,203.12,-0.009241645224392414,-0.008876391686499119,-0.014545409940183163,-0.06788185983896255,0.0,0.0,-0.002718346193432808,-0.01,0.0,-0.04,267.93
1683153651.35891604,21092032,2,0.42,-0.22,203.14000000000001,-0.009436873719096184,-0.008372249081730843,-0.015729423612356186,-0.07907088845968246,0.0,0.0,-0.010013984516263008,-0.01,0.0,-0.04,267.93
1683153651.45894814,21192064,2,0.43,-0.21,203.16,-0.009163289330899715,-0.005894186440855265,-0.018589667975902557,-0.08489886671304703,0.022263769060373306,-0.008182398043572903,-0.01829765923321247,-0.01,0.0,-0.04,267.93
1683153651.55891109,21292027,2,0.42,-0.21,203.18,-0.009961371310055256,-0.006577705033123493,-0.021883957087993622,-0.09651238471269608,0.022263769060373306,-0.008182398043572903,-0.02757643349468708,-0.01,0.0,-0.04,267.93
1683153651.65891004,21392026,2,0.43,-0.21,203.18,-0.010350871831178665,-0.004595410078763962,-0.02438466250896454,-0.11469358205795288,0.022263769060373306,-0.024547195062041283,-0.03892146050930023,-0.01,0.0,-0.04,267.93
1683153651.75897098,21492087,2,0.42,-0.2,203.18,-0.010834724642336369,-0.004668709821999073,-0.0245913565158844,-0.08403997868299484,0.022263769060373306,-0.024547195062041283,-0.04494158923625946,-0.01,0.0,-0.05,267.93
1683153651.85898304,21592099,2,0.43,-0.2,203.20000000000002,-0.011066642589867115,-0.003508311230689287,-0.02551252581179142,-0.03347351402044296,0.04452753812074661,-0.024547195062041283,-0.04910580813884735,-0.01,0.0,-0.05,267.93
1683153651.95895910,21692075,2,0.42,-0.21,203.22,-0.00921118538826704,-0.002939206548035145,-0.02667761780321598,-0.03617317974567413,0.04452753812074661,-0.024547195062041283,-0.05404461920261383,-0.01,0.0,-0.05,267.93
1683153652.05897713,21792093,2,0.43,-0.21,203.24,-0.008247549645602703,-0.001638972433283925,-0.025777099654078484,-0.015082367695868015,0.055659420788288116,-0.03272959217429161,-0.05532516539096832,-0.01,0.0,-0.05,267.93
1683153652.15897417,21892090,2,0.42,-0.22,203.26,-0.007926074787974358,-0.0008627348579466343,-0.02481338009238243,0.018782438710331917,0.055659420788288116,-0.03272959217429161,-0.054525092244148254,-0.01,0.0,-0.04,267.93
1683153652.25897717,21992093,2,0.42,-0.22,203.25,-0.008425762876868248,-0.0005578739219345152,-0.023101868107914925,0.027270875871181488,0.06679131090641022,-0.03272959217429161,-0.053195878863334656,-0.01,0.0,-0.04,267.93
1683153652.35892701,22092043,2,0.43,-0.21,203.24,-0.008418135344982147,8.09388657216914e-05,-0.0227753147482872,0.02503584511578083,0.06679131090641022,-0.03272959217429161,-0.0517968088388443,-0.01,0.0,-0.04,267.93
1683153652.45891809,22192034,2,0.42,-0.21,203.23000000000002,-0.008677099831402302,6.994766590651125e-05,-0.021995121613144875,0.019930288195610046,0.07792319357395172,-0.04091199114918709,-0.05047239363193512,-0.01,0.0,-0.04,267.93
1683153652.55891109,22292027,2,0.42,-0.2,203.21,-0.008023874834179878,0.00012178278848296031,-0.01875869743525982,0.05367795750498772,0.07792319357395172,-0.04091199114918709,-0.04447154700756073,-0.01,0.0,-0.04,267.93
1683153652.65896916,22392085,2,0.42,-0.2,203.21,-0.007772803772240877,0.0007976474589668214,-0.014706418849527836,0.09991112351417542,0.07792319357395172,-0.04091199114918709,-0.03580673038959503,-0.01,0.0,-0.04,267.93
1683153652.75898504,22492101,2,0.42,-0.2,203.22,-0.007955431938171387,0.0002843551628757268,-0.011800401844084263,0.09454016387462616,0.07792319357395172,-0.04091199114918709,-0.02862243540585041,-0.01,0.0,-0.04,267.93
1683153652.85896206,22592078,2,0.42,-0.2,203.22,-0.0065636360086500645,0.0013855354627594352,-0.010492484085261822,0.053646020591259,0.08905507624149323,-0.049094390124082565,-0.024731772020459175,-0.01,0.0,-0.04,267.93
1683153652.95897698,22692093,2,0.42,-0.19,203.21,-0.006627329625189304,0.0017213289393112063,-0.008527088910341263,0.017997190356254578,0.08905507624149323,-0.049094390124082565,-0.022642629221081734,-0.01,0.0,-0.03,267.93
1683153653.05897498,22792091,2,0.41000000000000003,-0.19,203.21,-0.006460369098931551,0.001765663386322558,-0.007649283856153488,0.020138006657361984,0.10018695890903473,-0.049094390124082565,-0.01909436471760273,-0.01,0.0,-0.03,267.93
1683153653.15891504,22892031,2,0.41000000000000003,-0.19,203.17000000000002,-0.007660090923309326,0.002193956170231104,-0.005903175566345453,0.04336833581328392,0.10018695890903473,-0.049094390124082565,-0.014220790937542915,-0.01,0.0,-0.02,267.93
1683153653.25892210,22992038,2,0.41000000000000003,-0.19,203.13,-0.00726496335119009,0.0014564995653927326,-0.00436816131696105,0.05702531710267067,0.12245073169469833,-0.05727678909897804,-0.008711861446499825,-0.01,0.0,-0.01,267.93
1683153653.35891819,23092034,2,0.41000000000000003,-0.18,203.09,-0.00817500613629818,0.0030184988863766193,-0.0022510166745632887,0.04880163446068764,0.12245073169469833,-0.05727678909897804,-0.004819856956601143,-0.01,0.0,-0.01,267.93
1683153653.45891404,23192030,2,0.4,-0.18,203.05,-0.007896792143583298,0.003516885219141841,-0.0025811363011598587,0.01364067941904068,0.13358262181282043,-0.06545918434858322,-0.003905193880200386,-0.01,0.0,0.0,267.93
1683153653.55897617,23292092,2,0.4,-0.18,203.03,-0.008290663361549377,0.004325212445110083,-0.0018487292109057307,0.0006775520741939545,0.13358262181282043,-0.06545918434858322,-0.002604382112622261,-0.01,0.0,0.0,267.93
1683153653.65898204,23392098,2,0.4,-0.17,203.01,-0.008632008917629719,0.0034031302202492952,-0.0018222540384158492,0.011286789551377296,0.14471450448036194,-0.06545918434858322,-0.0007966030389070511,-0.01,0.0,-0.01,267.93
1683153653.75898218,23492098,2,0.4,-0.17,203.01,-0.008220530115067959,0.004872545599937439,-0.001963755115866661,0.005255815573036671,0.14471450448036194,-0.06545918434858322,-0.00039257295429706573,-0.01,0.0,-0.01,267.93
1683153653.85898209,23592098,2,0.4,-0.17,203.01,-0.00867508351802826,0.004293245729058981,-0.0020606755279004574,-0.006955230608582497,0.15584638714790344,-0.0736415833234787,-0.0007751751691102982,-0.01,0.0,-0.01,267.93
1683153653.95896816,23692084,2,0.4,-0.17,203.01,-0.008425583131611347,0.0060066841542720795,-0.0015474145766347647,0.0027889807242900133,0.15584638714790344,-0.0736415833234787,0.0003757309168577194,-0.01,0.0,0.0,267.93
1683153654.05897498,23792091,2,0.4,-0.18,203.02,-0.009101559408009052,0.005985627882182598,-0.00017725843645166606,0.02828191965818405,0.16697826981544495,-0.0736415833234787,0.003404242917895317,-0.01,0.0,-0.01,267.93
1683153654.15894818,23892064,2,0.4,-0.18,203.02,-0.008726740255951881,0.007246021647006273,0.0011402879608795047,0.050784457474946976,0.16697826981544495,-0.0736415833234787,0.008130235597491264,-0.01,0.0,-0.01,267.93
1683153654.25891113,23992027,2,0.4,-0.17,203.03,-0.008277686312794685,0.006699010264128447,0.0017694064881652594,0.03764192759990692,0.17811015248298645,-0.0736415833234787,0.010153038427233696,-0.01,0.0,-0.01,267.93
1683153654.35891318,24092029,2,0.4,-0.18,203.03,-0.008136996999382973,0.008550113998353481,0.0028954821173101664,0.007061515003442764,0.17811015248298645,-0.0736415833234787,0.010825259611010551,-0.01,0.0,-0.01,267.93
1683153654.45897508,24192091,2,0.4,-0.18,203.03,-0.008261005394160748,0.008068574592471123,0.0037531149573624134,0.008388262242078781,0.17811015248298645,-0.08182398229837418,0.012425495311617851,-0.01,0.0,-0.01,267.93
1683153654.55897617,24292092,2,0.39,-0.17,203.03,-0.008565491065382957,0.009464623406529427,0.004932369105517864,0.03188701719045639,0.17811015248298645,-0.08182398229837418,0.01627577655017376,-0.01,0.0,-0.01,267.93
1683153654.65896010,24392076,2,0.39,-0.17,203.04,-0.007639516610652208,0.008605591021478176,0.006168502848595381,0.05188428610563278,0.18924203515052795,-0.08182398229837418,0.02096049301326275,-0.01,0.0,-0.01,267.93
1683153654.75897408,24492090,2,0.39,-0.17,203.04,-0.007115705404430628,0.009293066337704659,0.006546169985085726,0.03353242203593254,0.18924203515052795,-0.08182398229837418,0.022881193086504936,-0.01,0.0,-0.01,267.93
1683153654.85897112,24592087,2,0.39,-0.17,203.05,-0.006952901370823383,0.009077520109713078,0.005932224914431572,0.002183030592277646,0.21150580048561096,-0.09000638127326965,0.023219628259539604,-0.01,0.0,-0.01,267.93
1683153654.95891309,24692029,2,0.39,-0.16,203.05,-0.00683604646474123,0.010390524752438068,0.005227253772318363,-0.0153171606361866,0.21150580048561096,-0.09000638127326965,0.022133274003863335,-0.01,0.0,-0.01,267.93
1683153655.05892015,24792036,2,0.39,-0.16,203.05,-0.00522538973018527,0.010050191543996334,0.00413465453311801,-0.04738354682922363,0.22263768315315247,-0.09818878024816513,0.017609400674700737,-0.01,0.0,-0.01,267.93
1683153655.15891099,24892027,2,0.39,-0.16,203.03,-0.004988576751202345,0.011113227345049381,0.0026247715577483177,-0.061493806540966034,0.22263768315315247,-0.09818878024816513,0.013385487720370293,-0.01,0.0,0.0,267.93
1683153655.25891113,24992027,2,0.39,-0.16,203.01,-0.004141485318541527,0.011158605106174946,0.0008430722518824041,-0.053396712988615036,0.23376958072185516,-0.11455357819795609,0.008949680253863335,-0.01,0.0,0.0,267.93
1683153655.35896111,25092077,2,0.39,-0.16,203.0,-0.0060796067118644714,0.01255829632282257,-0.0015565416542813182,-0.05227871984243393,0.23376958072185516,-0.11455357819795609,0.0045214127749204636,-0.01,0.0,0.0,267.93
1683153655.45898700,25192103,2,0.39,-0.17,202.99,-0.005650110077112913,0.013256176374852657,-0.0037118112668395042,-0.04487012326717377,0.24490146338939667,-0.12273597717285156,0.0004316996783018112,-0.02,0.0,0.0,267.93
1683153655.55896020,25292076,2,0.39,-0.17,202.99,-0.005724823102355003,0.013965411111712456,-0.0038134839851409197,-0.008980191312730312,0.24490146338939667,-0.12273597717285156,0.0005357395857572556,-0.02,0.0,0.0,267.93
1683153655.65897012,25392086,2,0.39,-0.17,202.99,-0.006523526273667812,0.014189403504133224,-0.004515578038990498,0.027547888457775116,0.24490146338939667,-0.12273597717285156,0.002178443595767021,-0.02,0.0,0.0,267.93
1683153655.75897098,25492087,2,0.39,-0.16,203.01,-0.0067355758510529995,0.014819392934441566,-0.0034898065496236086,0.020837189629673958,0.24490146338939667,-0.12273597717285156,0.002516014501452446,-0.02,0.0,-0.01,267.93
1683153655.85891819,25592034,2,0.39,-0.16,203.03,-0.007029574364423752,0.01530004758387804,-0.00367568782530725,0.011542079970240593,0.256033331155777,-0.12273597717285156,0.003343893215060234,-0.02,0.0,-0.01,267.93
1683153655.95892906,25692045,2,0.39,-0.16,203.05,-0.00634685019031167,0.015147744677960873,-0.004556035622954369,-0.005106609780341387,0.256033331155777,-0.12273597717285156,0.0019374024122953415,-0.02,0.0,-0.01,267.93
1683153656.05891514,25792031,2,0.38,-0.15,203.07,-0.007178293541073799,0.016148200258612633,-0.00467346515506506,-0.023595767095685005,0.26716524362564087,-0.12273596972227097,0.00014467351138591766,-0.02,0.0,-0.01,267.93
1683153656.15891600,25892032,2,0.39,-0.14,203.07,-0.006061031948775053,0.016532553359866142,-0.004332049284130335,-0.0124053368344903,0.26716524362564087,-0.12273596972227097,-0.0004041958600282669,-0.02,0.0,-0.01,267.93
1683153656.25896907,25992085,2,0.39,-0.14,203.06,-0.00640886090695858,0.01834348775446415,-0.004865804221481085,-0.025331642478704453,0.2782971262931824,-0.13091836869716644,-0.003604339435696602,-0.02,0.0,0.0,267.93
1683153656.35899019,26092106,2,0.39,-0.14,203.05,-0.005588851403445005,0.017973391339182854,-0.005822995211929083,-0.03961333632469177,0.2782971262931824,-0.13091836869716644,-0.0066234637051820755,-0.02,0.0,0.0,267.93
1683153656.45897102,26192087,2,0.39,-0.14,203.03,-0.005160794593393803,0.019061218947172165,-0.005167297087609768,-0.010489095002412796,0.3005608916282654,-0.13091836869716644,-0.006663547828793526,-0.02,0.0,0.0,267.93
1683153656.55896807,26292084,2,0.39,-0.14,203.02,-0.004767953883856535,0.01840006746351719,-0.004555889405310154,0.0157193411141634,0.3005608916282654,-0.13091836869716644,-0.005566703155636787,-0.02,0.0,0.0,267.93
1683153656.65896702,26392083,2,0.39,-0.13,203.01,-0.00362445879727602,0.02069038152694702,-0.0050323642790317535,0.02138153463602066,0.3005608916282654,-0.13091836869716644,-0.0041342247277498245,-0.02,0.0,0.0,267.93
1683153656.75892210,26492038,2,0.39,-0.14,202.99,-0.0036824403796344995,0.020350242033600807,-0.006157467141747475,-0.004250996746122837,0.3005608916282654,-0.13091836869716644,-0.006065385416150093,-0.02,0.0,0.0,267.93
1683153656.85891509,26592031,2,0.39,-0.14,202.98000000000002,-0.0020126993767917156,0.021582359448075294,-0.0070712147280573845,-0.0267938282340765,0.3228246569633484,-0.13091836869716644,-0.007853107526898384,-0.02,0.0,0.0,267.93
1683153656.95891118,26692027,2,0.39,-0.13,202.97,-0.0020906145218759775,0.021889042109251022,-0.008556146174669266,-0.012083141133189201,0.3228246569633484,-0.13091836869716644,-0.008299993351101875,-0.02,0.0,0.0,267.93
1683153657.05892015,26792036,2,0.39,-0.14,202.97,-0.0012738634832203388,0.022734379395842552,-0.009803851135075092,-0.00834085512906313,0.3339565396308899,-0.13091836869716644,-0.00932653434574604,-0.02,0.0,0.0,267.93
1683153657.15895605,26892072,2,0.39,-0.13,202.96,-0.0017501470865681767,0.021720297634601593,-0.008595130406320095,-0.0026849298737943172,0.3339565396308899,-0.13091836869716644,-0.009413199499249458,-0.02,0.0,0.0,267.93
1683153657.25897908,26992095,2,0.39,-0.13,202.96,-0.0009512038668617606,0.02226613648235798,-0.008577358908951283,0.010484393686056137,0.3562203049659729,-0.13910076022148132,-0.008505957201123238,-0.02,0.0,0.0,267.93
1683153657.35896420,27092080,2,0.39,-0.13,202.95000000000002,-0.0014631719095632434,0.022183187305927277,-0.008493342436850071,0.005730773322284222,0.3562203049659729,-0.13910076022148132,-0.008699404075741768,-0.02,0.0,0.0,267.93
1683153657.45896411,27192080,2,0.39,-0.13,202.95000000000002,-0.00148927909322083,0.022610684856772423,-0.009248298592865467,-0.013150961138308048,0.3673521876335144,-0.13910076022148132,-0.010259287431836128,-0.02,0.0,0.0,267.93
1683153657.55897117,27292087,2,0.39,-0.13,202.96,-0.0006788825849071145,0.02260386385023594,-0.009254331700503826,-0.01489295344799757,0.3673521876335144,-0.13910076022148132,-0.011083798483014107,-0.02,0.0,0.0,267.93
1683153657.65898418,27392100,2,0.39,-0.13,202.96,-0.0007463240763172507,0.023281419649720192,-0.010377625934779644,-0.01781855896115303,0.3896159529685974,-0.13910076022148132,-0.013054655864834785,-0.02,0.0,0.0,267.93
1683153657.75891709,27492033,2,0.39,-0.13,202.97,0.0008177215931937099,0.022859949618577957,-0.01068471185863018,-0.03014233149588108,0.3896159529685974,-0.13910076022148132,-0.01576288230717182,-0.02,0.0,0.0,267.93
1683153657.85891318,27592029,2,0.39,-0.13,202.98000000000002,-0.00012550484098028392,0.024683650583028793,-0.011452131904661655,-0.019299263134598732,0.4118797183036804,-0.13910076022148132,-0.016846762970089912,-0.02,0.0,0.0,267.93
1683153657.95891213,27692028,2,0.4,-0.13,202.98000000000002,0.0005639582523144782,0.02424020692706108,-0.011592923663556576,0.007264722138643265,0.4118797183036804,-0.13910076022148132,-0.01592339761555195,-0.02,0.0,0.0,267.93
1683153658.05897212,27792088,2,0.4,-0.14,202.98000000000002,-0.0005408728029578924,0.024597493931651115,-0.012220065109431744,0.011535348370671272,0.4230116009712219,-0.13910076022148132,-0.015789346769452095,-0.02,0.0,0.0,267.93
1683153658.15898204,27892098,2,0.4,-0.14,202.97,0.00011045499559259042,0.02504504658281803,-0.012318544089794159,-0.0006021314766258001,0.4230116009712219,-0.13910076022148132,-0.016279445961117744,-0.02,0.0,0.0,267.93
1683153658.25895905,27992075,2,0.4,-0.14,202.96,-0.0012814924120903015,0.024884440004825592,-0.01268687378615141,-0.012979093007743359,0.44527536630630493,-0.13910076022148132,-0.01785491593182087,-0.02,0.0,0.0,267.93
1683153658.35896897,28092085,2,0.4,-0.14,202.94,-0.0019477603491395712,0.02508939616382122,-0.013428807258605957,-0.021924039348959923,0.44527536630630493,-0.13910076022148132,-0.019589172676205635,-0.02,0.0,0.0,267.93
1683153658.45898318,28192099,2,0.4,-0.14,202.93,-0.001378155080601573,0.025161627680063248,-0.012771254405379295,-0.011446877382695675,0.44527536630630493,-0.13910076022148132,-0.020207272842526436,-0.02,0.0,0.0,267.93
1683153658.55897999,28292096,2,0.41000000000000003,-0.14,202.93,-0.0008921202388592064,0.024448078125715256,-0.013428428210318089,-0.012746626511216164,0.44527536630630493,-0.13910076022148132,-0.02189512737095356,-0.02,0.0,0.0,267.93
1683153658.65891814,28392034,2,0.41000000000000003,-0.14,202.94,-0.0012307141441851854,0.024421721696853638,-0.014001957140862942,-0.019131682813167572,0.4675391614437103,-0.13091836869716644,-0.023485200479626656,-0.02,0.0,0.0,267.93
1683153658.75891900,28492035,2,0.41000000000000003,-0.14,202.95000000000002,-0.0009283623658120632,0.025014545768499374,-0.014671046286821365,-0.023168446496129036,0.4675391614437103,-0.13091836869716644,-0.025981144979596138,-0.02,0.0,0.0,267.93
1683153658.85891414,28592030,2,0.42,-0.13,202.95000000000002,0.0001441749045625329,0.02547483518719673,-0.01470453292131424,-0.020359035581350327,0.48980292677879333,-0.13910076022148132,-0.027335183694958687,-0.02,0.0,0.0,267.93
1683153658.95897913,28692095,2,0.42,-0.14,202.95000000000002,-0.00023193791275843978,0.0245305597782135,-0.013389169238507748,0.0010222563287243247,0.48980292677879333,-0.13910076022148132,-0.027206556871533394,-0.02,0.0,0.0,267.93
1683153659.05897999,28792096,2,0.41000000000000003,-0.14,202.94,0.002200203249230981,0.023810142651200294,-0.013067592866718769,0.002031385200098157,0.5009347796440125,-0.13910076022148132,-0.02777762897312641,-0.02,0.0,0.0,267.93
1683153659.15897512,28892091,2,0.41000000000000003,-0.15,202.94,0.0004779707232955843,0.023636411875486374,-0.012515650130808353,-0.00340667343698442,0.5009347796440125,-0.13910076022148132,-0.028241978958249092,-0.02,0.0,0.0,267.93
1683153659.25897098,28992087,2,0.42,-0.15,202.95000000000002,0.00033956082188524306,0.022525815293192863,-0.01183018833398819,0.011061100289225578,0.512066662311554,-0.13910076022148132,-0.026770995929837227,-0.02,0.0,0.0,267.93
1683153659.35896897,29092085,2,0.42,-0.15,202.95000000000002,-0.00045336870243772864,0.02325074002146721,-0.010943799279630184,0.032006487250328064,0.512066662311554,-0.13910076022148132,-0.02393864281475544,-0.02,0.0,0.0,267.93
1683153659.45891500,29192031,2,0.42,-0.15,202.94,-0.0016309393104165792,0.02205733023583889,-0.011299489066004753,0.02704399637877941,0.5231985449790955,-0.13910076022148132,-0.022382812574505806,-0.02,0.0,0.0,267.93
1683153659.55892706,29292043,2,0.42,-0.15,202.92000000000002,-0.0022536912001669407,0.02239716425538063,-0.011905720457434654,0.00419302424415946,0.5231985449790955,-0.13910076022148132,-0.022379295900464058,-0.02,0.0,0.0,267.93
1683153659.65891504,29392031,2,0.42,-0.15,202.9,-0.0027344548143446445,0.020939739421010017,-0.011441029608249664,-0.004629045724868774,0.5343304872512817,-0.13910076022148132,-0.022438691928982735,-0.02,0.0,0.0,267.93
1683153659.75891399,29492030,2,0.42,-0.14,202.9,-0.0018899516435340047,0.020611274987459183,-0.011317726224660873,-0.011057383380830288,0.5343304872512817,-0.13910076022148132,-0.02346624620258808,-0.02,0.0,0.01,267.93
1683153659.85898519,29592101,2,0.42,-0.14,202.88,-0.0022497803438454866,0.019585393369197845,-0.01133555918931961,-0.0277554951608181,0.5565942525863647,-0.13910076022148132,-0.02603738196194172,-0.02,0.0,0.01,267.93
1683153659.95898008,29692096,2,0.42,-0.14,202.86,-0.0023305597715079784,0.02057904750108719,-0.011904008686542511,-0.040745459496974945,0.5565942525863647,-0.13910076022148132,-0.029506998136639595,-0.02,0.0,0.01,267.93
1683153660.05896306,29792079,2,0.42,-0.13,202.85,-0.0023255401756614447,0.019130853936076164,-0.012003911659121513,-0.02568228542804718,0.5565942525863647,-0.13910076022148132,-0.030759291723370552,-0.02,0.0,0.01,267.93
1683153660.15896606,29892082,2,0.42,-0.13,202.83,-0.0005197987775318325,0.019543983042240143,-0.011358426883816719,0.0030932791996747255,0.5565942525863647,-0.13910076022148132,-0.03043551929295063,-0.02,0.0,0.01,267.93
1683153660.25897098,29992087,2,0.42,-0.13,202.82,-1.7117677998612635e-05,0.017994113266468048,-0.009697559289634228,0.030770640820264816,0.5677261352539062,-0.13910076022148132,-0.02748243696987629,-0.02,0.0,0.01,267.93
1683153660.35896206,30092078,2,0.42,-0.13,202.82,-0.00026514226919971406,0.01739071123301983,-0.008841097354888916,0.02895503118634224,0.5677261352539062,-0.13910076022148132,-0.026539700105786324,-0.02,0.0,0.01,267.93
1683153660.45890999,30192026,2,0.43,-0.14,202.82,-0.00026326163788326085,0.01643991470336914,-0.009677167050540447,0.004325097426772118,0.5899899005889893,-0.13091836869716644,-0.026245074346661568,-0.02,0.0,0.01,267.93
1683153660.55890107,30292017,2,0.43,-0.14,202.8,-0.0005385800031945109,0.015865884721279144,-0.00924416072666645,0.0007361525786109269,0.5899899005889893,-0.13091836869716644,-0.02615724690258503,-0.02,0.0,0.01,267.93
1683153660.65890098,30392017,2,0.43,-0.14,202.78,-0.000637647754047066,0.015459894202649593,-0.009749050252139568,0.005041592288762331,0.6011217832565308,-0.13091836869716644,-0.024976329877972603,-0.02,0.0,0.01,267.93
1683153660.75896406,30492080,2,0.43,-0.13,202.77,-0.000845865870360285,0.016641903668642044,-0.008778168819844723,0.02495330199599266,0.6011217832565308,-0.13091836869716644,-0.0224392581731081,-0.02,0.0,0.01,267.93
1683153660.85896707,30592083,2,0.43,-0.13,202.76,4.0555136365583166e-05,0.01588320918381214,-0.009195592254400253,0.019134873524308205,0.6122536659240723,-0.13910076022148132,-0.02158181555569172,-0.02,0.0,0.01,267.93
1683153660.95895219,30692068,2,0.44,-0.13,202.76,-0.0008633339311927557,0.015323158353567123,-0.00980510376393795,0.002349700778722763,0.6122536659240723,-0.13910076022148132,-0.02129991538822651,-0.02,0.0,0.01,267.93
1683153661.05895519,30792071,2,0.44,-0.13,202.76,-0.00011697768059093505,0.015279882587492466,-0.010327398777008057,-0.02051353082060814,0.6233855485916138,-0.13910076022148132,-0.023758040741086006,-0.02,0.0,0.01,267.93
1683153661.15895820,30892074,2,0.44,-0.13,202.77,0.0005393861792981625,0.015539786778390408,-0.010278407484292984,-0.028217371553182602,0.6233855485916138,-0.13910076022148132,-0.025359826162457466,-0.02,0.0,0.01,267.93
1683153661.25896406,30992080,2,0.44,-0.13,202.78,0.00031250447500497103,0.014556658454239368,-0.010881276801228523,-0.008504773490130901,0.6345174312591553,-0.1472831666469574,-0.025279181078076363,-0.02,0.0,0.01,267.93
1683153661.35890198,31092018,2,0.45,-0.14,202.79,-0.00014774258306715637,0.014730590395629406,-0.011117860674858093,0.0036894744262099266,0.6345174312591553,-0.1472831666469574,-0.02514021284878254,-0.02,0.0,0.01,267.93
1683153661.45890212,31192018,2,0.45,-0.14,202.79,0.0005923971766605973,0.013088534586131573,-0.010325534269213676,0.02160000056028366,0.6456493139266968,-0.15546555817127228,-0.022696005180478096,-0.02,0.0,0.01,267.93
1683153661.55889916,31292015,2,0.46,-0.14,202.79,0.00010195891809416935,0.012635255232453346,-0.010753042064607143,0.01572497747838497,0.6456493139266968,-0.15546555817127228,-0.022624211385846138,-0.02,0.0,0.01,267.93
1683153661.65896010,31392076,2,0.46,-0.14,202.79,0.00036108915810473263,0.011952267028391361,-0.012142232619225979,-0.016109995543956757,0.6456493139266968,-0.15546555817127228,-0.024629073217511177,-0.02,0.0,0.01,267.93
1683153661.75897312,31492089,2,0.46,-0.14,202.79,0.0009602903155609965,0.010430331341922283,-0.012010976672172546,-0.036920215934515,0.6456493139266968,-0.15546555817127228,-0.027974801138043404,-0.02,0.0,0.01,267.93
1683153661.85897017,31592086,2,0.47000000000000003,-0.14,202.78,5.5738022638252005e-05,0.009981959126889706,-0.012369286268949509,-0.03249485790729523,0.6567811965942383,-0.15546555817127228,-0.029857711866497993,-0.02,0.0,0.01,267.93
1683153661.95895100,31692067,2,0.46,-0.13,202.78,0.0019497328903526068,0.010343065485358238,-0.013160593807697296,-0.0049662222154438496,0.6567811965942383,-0.15546555817127228,-0.029703812673687935,-0.02,0.0,0.01,267.93
1683153662.05895805,31792074,2,0.46,-0.13,202.78,0.0017024977132678032,0.00996641255915165,-0.012113346718251705,0.008725437335669994,0.6679130792617798,-0.16364794969558716,-0.02954687364399433,-0.02,0.0,0.01,267.93
1683153662.15896416,31892080,2,0.47000000000000003,-0.13,202.77,0.0033428198657929897,0.009069840423762798,-0.012000559829175472,-0.00526729691773653,0.6679130792617798,-0.16364794969558716,-0.030781852081418037,-0.02,0.0,0.01,267.93
1683153662.25889897,31992015,2,0.47000000000000003,-0.13,202.76,0.0037456850986927748,0.009124284610152245,-0.010908374562859535,-0.011048564687371254,0.6790449619293213,-0.16364794969558716,-0.031729862093925476,-0.02,0.0,0.01,267.93
1683153662.35890007,32092016,2,0.46,-0.13,202.75,0.004805334378033876,0.007585520390421152,-0.009627023711800575,-0.007383795455098152,0.6790449619293213,-0.16364794969558716,-0.03243689239025116,-0.02,0.0,0.01,267.93
1683153662.45890903,32192025,2,0.47000000000000003,-0.13,202.74,0.006144488230347633,0.008004238829016685,-0.008887670002877712,0.009269880130887032,0.6901768445968628,-0.17183035612106323,-0.03115903027355671,-0.02,0.0,0.01,267.93
1683153662.55896997,32292086,2,0.46,-0.13,202.72,0.0070787821896374226,0.007228132337331772,-0.007424967363476753,0.017956076189875603,0.6901768445968628,-0.17183035612106323,-0.030137764289975166,-0.02,0.0,0.01,267.93
1683153662.65896511,32392081,2,0.46,-0.12,202.71,0.008510044775903225,0.007566946092993021,-0.0068107177503407,0.0194261334836483,0.7124406099319458,-0.17183035612106323,-0.028239207342267036,-0.02,0.0,0.01,267.93
1683153662.75895309,32492069,2,0.46,-0.13,202.70000000000002,0.009094541892409325,0.006147064734250307,-0.006073492579162121,0.0360538549721241,0.7124406099319458,-0.17183035612106323,-0.02487458474934101,-0.02,0.0,0.01,267.93
1683153662.85895801,32592074,2,0.46,-0.13,202.69,0.010750668123364449,0.006550063379108906,-0.0049083963967859745,0.049940045922994614,0.7235724925994873,-0.1800127476453781,-0.020425336435437202,-0.02,0.0,0.01,267.93
1683153662.95895910,32692075,2,0.46,-0.13,202.69,0.010391009971499443,0.004654094576835632,-0.0042341323569417,0.052533481270074844,0.7235724925994873,-0.1800127476453781,-0.01602874882519245,-0.02,0.0,0.01,267.93
1683153663.05890512,32792021,2,0.46,-0.13,202.70000000000002,0.0111397635191679,0.005839059595018625,-0.0033828585874289274,0.04387013614177704,0.7347043752670288,-0.1800127476453781,-0.012254880741238594,-0.02,0.0,0.01,267.93
1683153663.15889907,32892015,2,0.46,-0.13,202.70000000000002,0.011227044276893139,0.005345916375517845,-0.002514273626729846,0.04680638760328293,0.7347043752670288,-0.1800127476453781,-0.007485495880246162,-0.02,0.0,0.01,267.93
1683153663.25890017,32992016,2,0.46,-0.13,202.69,0.011972752399742603,0.005921739153563976,-0.002289088675752282,0.05321012809872627,0.7569681406021118,-0.1800127476453781,-0.002498256042599678,-0.02,0.0,0.01,267.93
1683153663.35890412,33092020,2,0.46,-0.13,202.69,0.012713753618299961,0.006013553123921156,-0.001063013100065291,0.06484635174274445,0.7569681406021118,-0.1800127476453781,0.004004014655947685,-0.02,0.0,0.01,267.93
1683153663.45897317,33192089,2,0.46,-0.13,202.70000000000002,0.013126897625625134,0.00605689687654376,7.828533853171393e-05,0.06241930276155472,0.7569681406021118,-0.1800127476453781,0.009307844564318657,-0.02,0.0,0.01,267.93
1683153663.55897307,33292089,2,0.46,-0.13,202.71,0.012957856990396976,0.004952192306518555,0.0009540660539641976,0.04966873303055763,0.7569681406021118,-0.1800127476453781,0.014219684526324272,-0.02,0.0,0.01,267.93
1683153663.65895009,33392066,2,0.46,-0.13,202.71,0.012843362055718899,0.005035797134041786,0.0019527440890669823,0.04531480371952057,0.7681000232696533,-0.1800127476453781,0.018640322610735893,-0.02,0.0,0.01,267.93
1683153663.75895405,33492070,2,0.46,-0.13,202.73000000000002,0.013304189778864384,0.0047810254618525505,0.0026500767562538385,0.042370107024908066,0.7681000232696533,-0.1800127476453781,0.023172063753008842,-0.02,0.0,0.01,267.93
1683153663.85896707,33592083,2,0.45,-0.13,202.73000000000002,0.012983541935682297,0.004375328775495291,0.003737356048077345,0.04476635530591011,0.7792319059371948,-0.1800127476453781,0.027637971565127373,-0.02,0.0,0.01,267.93
1683153663.95894909,33692065,2,0.46,-0.13,202.73000000000002,0.013435710221529007,0.005032674875110388,0.0047190822660923,0.02867812290787697,0.7792319059371948,-0.1800127476453781,0.03001387231051922,-0.02,0.0,0.01,267.93
1683153664.05890203,33792018,2,0.46,-0.13,202.73000000000002,0.01254526898264885,0.005695051047950983,0.0047622984275221825,0.015032857656478882,0.7903637886047363,-0.1800127476453781,0.03224082291126251,-0.02,0.0,0.01,267.93
1683153664.15890718,33892023,2,0.46,-0.13,202.73000000000002,0.013333379290997982,0.005059914663434029,0.004704792983829975,0.0199732705950737,0.7903637886047363,-0.1800127476453781,0.03479214012622833,-0.02,0.0,0.01,267.93
1683153664.25890613,33992022,2,0.46,-0.13,202.74,0.013394656591117382,0.0051569766364991665,0.00550359720364213,0.01917618326842785,0.8014956712722778,-0.1881951540708542,0.036719873547554016,-0.02,0.0,0.01,267.93
1683153664.35896611,34092082,2,0.46,-0.13,202.75,0.01397005096077919,0.005283691920340061,0.0058472417294979095,0.02205614186823368,0.8014956712722778,-0.1881951540708542,0.03936256468296051,-0.02,0.0,0.01,267.93
1683153664.45897198,34192088,2,0.46,-0.13,202.76,0.013539266772568226,0.005313563626259565,0.005484345369040966,0.02112971432507038,0.8126275539398193,-0.1881951540708542,0.041208043694496155,-0.02,0.0,0.01,267.93
1683153664.55894804,34292064,2,0.46,-0.13,202.77,0.012307531200349331,0.005433177575469017,0.005080964416265488,0.005889034364372492,0.8126275539398193,-0.1881951540708542,0.041724130511283875,-0.02,0.0,0.01,267.93
1683153664.65895414,34392070,2,0.46,-0.13,202.78,0.013345318846404552,0.006050019524991512,0.004304591100662947,-0.004835791885852814,0.8237594366073608,-0.19637754559516907,0.04163582623004913,-0.02,0.0,0.01,267.93
1683153664.75896120,34492077,2,0.45,-0.13,202.8,0.01257296558469534,0.00523506011813879,0.004746230784803629,0.009371270425617695,0.8237594366073608,-0.19637754559516907,0.04360412061214447,-0.02,0.0,0.01,267.93
1683153664.85896516,34592081,2,0.45,-0.12,202.8,0.014585982076823711,0.005957971327006817,0.0060220384038984776,0.0432073175907135,0.8348913192749023,-0.20455993711948395,0.04802487790584564,-0.02,0.0,0.01,267.93
1683153664.95889902,34692015,2,0.45,-0.12,202.81,0.013873458839952946,0.006231003440916538,0.0076169236563146114,0.06142023205757141,0.8348913192749023,-0.20455993711948395,0.05319054424762726,-0.02,0.0,0.01,267.93
1683153665.05890799,34792024,2,0.45,-0.12,202.81,0.013099602423608303,0.006164648104459047,0.007408096920698881,0.06058449670672417,0.8460232019424438,-0.20455993711948395,0.05831463634967804,-0.02,0.0,0.01,267.93
1683153665.15890217,34892018,2,0.45,-0.12,202.81,0.013534526340663433,0.006644607055932283,0.007923259399831295,0.03843972086906433,0.8460232019424438,-0.20455993711948395,0.060994043946266174,-0.02,0.0,0.01,267.93
1683153665.25897503,34992091,2,0.45,-0.12,202.82,0.014710407704114914,0.006618260871618986,0.00869295559823513,0.011063464917242527,0.8571550846099854,-0.21274234354496002,0.06229253113269806,-0.02,0.0,0.0,267.93
1683153665.35897207,35092088,2,0.45,-0.11,202.83,0.014937438070774078,0.007135307416319847,0.009008778259158134,0.0033691064454615116,0.8571550846099854,-0.21274234354496002,0.06332571804523468,-0.02,0.0,0.0,267.93
1683153665.45894909,35192065,2,0.45,-0.12,202.85,0.014820178039371967,0.006208573468029499,0.010161200538277626,0.0007277728873305023,0.8682869672775269,-0.2209247350692749,0.06385956704616547,-0.02,0.0,0.0,267.93
1683153665.55896020,35292076,2,0.45,-0.12,202.88,0.016040559858083725,0.006862814538180828,0.009152728132903576,-0.01596083492040634,0.8682869672775269,-0.2209247350692749,0.06234239041805267,-0.02,0.0,0.0,267.93
1683153665.65895700,35392073,2,0.45,-0.12,202.89000000000001,0.015215224586427212,0.0054583800956606865,0.008954653516411781,-0.022833794355392456,0.8682869672775269,-0.22910714149475098,0.061143770813941956,-0.02,0.0,0.0,267.93
1683153665.75895119,35492067,2,0.45,-0.12,202.91,0.015773052349686623,0.007088098209351301,0.009069469757378101,0.005546866916120052,0.8682869672775269,-0.22910714149475098,0.06282968819141388,-0.02,0.0,0.0,267.93
1683153665.85890818,35592024,2,0.44,-0.12,202.91,0.01582031138241291,0.0058247800916433334,0.009867638349533081,0.026588017120957375,0.8794188499450684,-0.23728953301906586,0.06486307084560394,-0.02,0.0,0.0,267.93
1683153665.95889902,35692015,2,0.45,-0.12,202.92000000000002,0.015673646703362465,0.006151153706014156,0.010808014310896397,0.034201618283987045,0.8794188499450684,-0.23728953301906586,0.06793384253978729,-0.02,0.0,0.0,267.93
1683153666.05890417,35792020,2,0.45,-0.12,202.92000000000002,0.01599591225385666,0.005361044313758612,0.011097060516476631,0.03571271896362305,0.8905507326126099,-0.24547193944454193,0.07057078182697296,-0.02,0.0,0.0,267.93
1683153666.15897703,35892093,2,0.44,-0.12,202.93,0.015438001602888107,0.005743198096752167,0.011086629703640938,0.02208244800567627,0.8905507326126099,-0.24547193944454193,0.07237900793552399,-0.02,0.0,0.0,267.93
1683153666.25895715,35992073,2,0.44,-0.12,202.93,0.016148226335644722,0.005602208897471428,0.01162833534181118,0.022986408323049545,0.9016826748847961,-0.2536543309688568,0.0749974399805069,-0.02,0.0,0.0,267.93
1683153666.35895014,36092066,2,0.43,-0.13,202.93,0.016321800649166107,0.006436179857701063,0.012258059345185757,0.02310851588845253,0.9016826748847961,-0.2536543309688568,0.07695190608501434,-0.02,0.0,0.0,267.93
1683153666.45895720,36192073,2,0.43,-0.13,202.93,0.01740223541855812,0.006303694564849138,0.012819784693419933,0.017131216824054718,0.9239464402198792,-0.2618367373943329,0.07876716554164886,-0.02,0.0,0.0,267.93
1683153666.55895805,36292074,2,0.43,-0.12,202.93,0.01675150729715824,0.007108584977686405,0.012470884248614311,0.012002583593130112,0.9239464402198792,-0.2618367373943329,0.07992829382419586,-0.02,0.0,0.0,267.93
1683153666.65895009,36392066,2,0.42,-0.12,202.93,0.01700899749994278,0.007441417314112186,0.012024709954857826,-0.0005683999042958021,0.9350783228874207,-0.27820152044296265,0.07997836172580719,-0.02,0.0,0.0,267.93
1683153666.75892305,36492039,2,0.42,-0.11,202.93,0.016292963176965714,0.007780919317156076,0.011810226365923882,0.008126994594931602,0.9350783228874207,-0.27820152044296265,0.08177249133586884,-0.02,0.0,0.0,267.93
1683153666.85890198,36592018,2,0.42,-0.1,202.94,0.016697661951184273,0.008345317095518112,0.012490118853747845,0.03591151535511017,0.9350783228874207,-0.27820152044296265,0.08548940718173981,-0.02,0.0,0.0,267.93
1683153666.95890212,36692018,2,0.42,-0.1,202.95000000000002,0.016015324741601944,0.00887629296630621,0.013125145807862282,0.03765496611595154,0.9350783228874207,-0.27820152044296265,0.08819319307804108,-0.02,0.0,0.0,267.93
1683153667.05896401,36792080,2,0.41000000000000003,-0.1,202.95000000000002,0.01660279370844364,0.009646921418607235,0.01247701421380043,0.013464946299791336,0.9462102055549622,-0.2863839268684387,0.08895368874073029,-0.02,0.0,0.0,267.93
1683153667.15896702,36892083,2,0.41000000000000003,-0.1,202.96,0.01600458472967148,0.011340471915900707,0.012419440783560276,0.008531882427632809,0.9462102055549622,-0.2863839268684387,0.0905178040266037,-0.02,0.0,0.0,267.93
1683153667.25895214,36992068,2,0.41000000000000003,-0.1,202.97,0.016067884862422943,0.011719511821866035,0.013084299862384796,0.013606369495391846,0.9462102055549622,-0.3027487099170685,0.09182260930538177,-0.02,0.0,0.0,267.93
1683153667.35896206,37092078,2,0.41000000000000003,-0.1,202.98000000000002,0.016353176906704903,0.012779629789292812,0.010968192480504513,-0.015058208256959915,0.9462102055549622,-0.3027487099170685,0.08983899652957916,-0.02,0.0,0.0,267.93
1683153667.45895815,37192074,2,0.41000000000000003,-0.1,202.98000000000002,0.015148228965699673,0.013472507707774639,0.009749820455908775,-0.0350971557199955,0.9462102055549622,-0.31093111634254456,0.08750157058238983,-0.02,0.0,0.0,267.93
1683153667.55896306,37292079,2,0.41000000000000003,-0.1,202.99,0.015530258417129517,0.014312216080725193,0.008383689448237419,-0.028235511854290962,0.9462102055549622,-0.31093111634254456,0.08559177815914154,-0.02,0.0,0.0,267.93
1683153667.65890908,37392025,2,0.41000000000000003,-0.1,203.0,0.014323122799396515,0.014766247943043709,0.007552141789346933,-0.025439133867621422,0.9573420882225037,-0.3272958993911743,0.08339561522006989,-0.02,0.0,0.0,267.93
1683153667.75890207,37492018,2,0.4,-0.09,203.01,0.01371028646826744,0.016401851549744606,0.006280589383095503,-0.008634605444967747,0.9573420882225037,-0.3272958993911743,0.08336980640888214,-0.02,0.0,0.0,267.93
1683153667.85890412,37592020,2,0.4,-0.09,203.01,0.012495921924710274,0.017914021387696266,0.005831719376146793,0.025523310527205467,0.9684739708900452,-0.3354783058166504,0.0859142392873764,-0.02,0.0,0.0,267.93
1683153667.95896912,37692085,2,0.41000000000000003,-0.09,203.02,0.012834648601710796,0.019071314483880997,0.005220834165811539,0.04734274744987488,0.9684739708900452,-0.3354783058166504,0.08974774181842804,-0.02,0.0,0.0,267.93
1683153668.05897212,37792088,2,0.4,-0.1,203.02,0.012848286889493465,0.021353475749492645,0.006303767208009958,0.057688433676958084,0.9796058535575867,-0.34366071224212646,0.09441269934177399,-0.02,0.0,0.0,267.93
1683153668.15895915,37892075,2,0.4,-0.09,203.04,0.012273057363927364,0.022048508748412132,0.006767940241843462,0.058317672461271286,0.9796058535575867,-0.34366071224212646,0.09918816387653351,-0.02,0.0,0.0,267.93
1683153668.25895810,37992074,2,0.4,-0.09,203.04,0.012082661502063274,0.023265646770596504,0.0058164410293102264,0.04375505819916725,0.9907377362251282,-0.3600254952907562,0.10269774496555328,-0.02,0.0,0.0,267.93
1683153668.35895801,38092074,2,0.4,-0.09,203.05,0.011639083735644817,0.022872425615787506,0.005216545891016722,0.02101723477244377,0.9907377362251282,-0.3600254952907562,0.10455550253391266,-0.02,0.0,0.0,267.93
1683153668.45891213,38192028,2,0.4,-0.1,203.05,0.01235914882272482,0.024080228060483932,0.005381452850997448,0.010342331603169441,1.0130014419555664,-0.3682079017162323,0.10619767010211945,-0.02,0.0,0.0,267.93
1683153668.55889916,38292015,2,0.4,-0.09,203.06,0.012860013172030449,0.02301684580743313,0.005606974475085735,0.010040594264864922,1.0130014419555664,-0.3682079017162323,0.1075751930475235,-0.02,0.0,0.0,267.93
1683153668.65890217,38392018,2,0.4,-0.09,203.07,0.012076985090970993,0.024730749428272247,0.006090232636779547,0.021545544266700745,1.0352652072906494,-0.3763903081417084,0.11034370958805084,-0.02,0.0,0.0,267.93
1683153668.75891399,38492030,2,0.41000000000000003,-0.09,203.09,0.010755587369203568,0.024629874154925346,0.006809520535171032,0.030215539038181305,1.0352652072906494,-0.3763903081417084,0.11308814585208893,-0.02,0.0,0.0,267.93
1683153668.85896516,38592081,2,0.4,-0.09,203.11,0.011507806368172169,0.025901710614562035,0.006527575198560953,0.012487219646573067,1.046397089958191,-0.38457268476486206,0.11367733776569366,-0.02,0.0,0.0,267.93
1683153668.95896411,38692080,2,0.4,-0.09,203.12,0.010603005066514015,0.026284605264663696,0.005724429618567228,0.004956584423780441,1.046397089958191,-0.38457268476486206,0.11487074196338654,-0.02,0.0,0.0,267.93
1683153669.05895209,38792068,2,0.39,-0.09,203.13,0.010607798583805561,0.02652398683130741,0.004473281558603048,-0.020572075620293617,1.0575289726257324,-0.4009374976158142,0.11214311420917511,-0.02,0.0,0.0,267.93
1683153669.15896320,38892079,2,0.39,-0.1,203.14000000000001,0.009678906761109829,0.027180291712284088,0.0031142933294177055,-0.05604543536901474,1.0575289726257324,-0.4009374976158142,0.10734213888645172,-0.02,0.0,0.0,267.93
1683153669.25895905,38992075,2,0.38,-0.09,203.15,0.01134498231112957,0.02944151498377323,0.0023696108255535364,-0.05196281522512436,1.079792857170105,-0.41730228066444397,0.10394786298274994,-0.02,0.0,0.0,267.93
1683153669.35895205,39092068,2,0.39,-0.09,203.16,0.0096895107999444,0.02909565344452858,0.0011999057605862617,-0.04412582889199257,1.079792857170105,-0.41730228066444397,0.09998394548892975,-0.02,0.0,0.0,267.93
1683153669.45890212,39192018,2,0.39,-0.09,203.16,0.008196328766644001,0.029719194397330284,0.00010107791604241356,-0.048678699880838394,1.0909247398376465,-0.42548468708992004,0.09540142118930817,-0.02,0.0,0.0,267.93
