timestamp,TimeUS,DesRoll,Roll,DesPitch,Pitch,DesYaw,Yaw,ErrRP,ErrYaw,AEKF
1683153639.25949502,8992611,0.0,0.44,0.0,0.01,0.0,0.0,1.0,1.0,0
1683153639.35930514,9092421,0.0,0.44,0.0,0.01,208.59,208.6,1.0,0.8,0
1683153639.45939302,9192509,0.0,0.44,0.0,0.02,208.56,208.57,0.8,0.64,0
1683153639.55938816,9292504,0.0,0.44,0.0,0.02,208.65,208.66,0.8,0.51,0
1683153639.65939999,9392516,0.0,0.46,0.0,-0.01,208.75,208.76,0.51,0.41000000000000003,0
1683153639.75937414,9492490,0.0,0.48,0.0,-0.05,208.29,208.3,0.51,0.35000000000000003,0
1683153639.85928798,9592404,0.0,0.49,0.0,-0.08,207.74,207.75,0.41000000000000003,0.3,0
1683153639.95922399,9692340,0.0,0.49,0.0,-0.1,207.39000000000001,207.4,0.41000000000000003,0.25,0
1683153640.05925298,9792369,0.0,0.48,0.0,-0.11,207.11,207.12,0.32,0.21,0
1683153640.15929914,9892415,0.0,0.48,0.0,-0.12,206.79,206.8,0.32,0.18,0
1683153640.25942516,9992541,0.0,0.47000000000000003,0.0,-0.12,206.4,206.41,0.26,0.16,0
1683153640.35945702,10092573,0.0,0.47000000000000003,0.0,-0.13,206.07,206.08,0.26,0.14,0
1683153640.45949221,10192608,0.0,0.46,0.0,-0.13,205.85,205.86,0.21,0.12,0
1683153640.55945706,10292573,0.0,0.46,0.0,-0.13,205.53,205.54,0.21,0.11,0
1683153640.65947509,10392591,0.0,0.45,0.0,-0.14,205.28,205.29,0.16,0.1,0
1683153640.75944710,10492563,0.0,0.45,0.0,-0.14,205.09,205.1,0.16,0.08,0
1683153640.85939717,10592513,0.0,0.45,0.0,-0.14,204.95000000000002,204.96,0.13,0.07,0
1683153640.95937204,10692488,0.0,0.44,0.0,-0.14,204.77,204.78,0.13,0.06,0
1683153641.05935597,10792472,0.0,0.44,0.0,-0.14,204.56,204.57,0.1,0.06,0
1683153641.15953207,10892648,0.0,0.43,0.0,-0.14,204.45000000000002,204.46,0.1,0.05,0
1683153641.25946903,10992585,-0.07,0.3,-0.12,-0.38,0.0,0.0,0.08,0.05,3
1683153641.35968113,11092797,-0.03,0.3,-0.06,-0.38,0.0,0.0,0.08,0.05,3
1683153641.45970607,11192822,-0.01,0.3,-0.03,-0.38,359.99,0.0,0.06,0.04,3
1683153641.55973101,11292847,0.0,0.3,-0.01,-0.38,359.99,0.0,0.06,0.04,3
1683153641.65970707,11392823,0.0,0.3,0.0,-0.38,359.99,0.0,0.05,0.03,3
1683153641.75945616,11492572,0.0,0.29,0.0,-0.38,359.99,0.0,0.05,0.03,3
1683153641.85940409,11592520,0.0,0.29,0.0,-0.38,359.99,0.0,0.04,0.02,3
1683153641.95936799,11692484,0.0,0.29,0.0,-0.37,359.99,0.0,0.04,0.02,3
1683153642.05946112,11792577,0.0,0.29,0.0,-0.37,359.99,0.0,0.03,0.02,3
1683153642.15952897,11892645,0.0,0.29,0.0,-0.36,359.99,0.0,0.03,0.02,3
1683153642.25971103,11992827,0.0,0.29,0.0,-0.36,0.0,0.0,0.02,0.02,3
1683153642.35970998,12092826,0.0,0.3,0.0,-0.35000000000000003,359.99,0.0,0.02,0.01,3
1683153642.45974016,12192856,0.0,0.3,0.0,-0.34,0.0,0.0,0.02,0.01,3
1683153642.55971503,12292831,0.0,0.31,0.0,-0.33,0.0,0.0,0.02,0.01,3
1683153642.65945601,12392572,0.0,0.32,0.0,-0.31,0.0,0.0,0.01,0.01,3
1683153642.75938916,12492505,0.0,0.33,0.0,-0.3,0.0,0.0,0.01,0.01,3
1683153642.85938311,12592499,0.0,0.33,0.0,-0.28,0.0,0.0,0.01,0.01,3
1683153642.95944309,12692559,0.0,0.34,0.0,-0.26,0.0,0.0,0.01,0.01,3
1683153643.05949616,12792612,0.02,0.38,0.0,-0.24,203.9,203.91,0.01,0.01,3
1683153643.15953517,12892651,0.01,0.37,0.0,-0.25,203.84,203.85,0.01,0.01,3
1683153643.25954318,12992659,0.0,0.37,0.0,-0.24,203.67000000000002,203.68,0.0,0.01,3
1683153643.35952711,13092643,0.0,0.36,0.0,-0.24,203.46,203.47,0.0,0.01,3
1683153643.45971298,13192829,0.0,0.36,0.0,-0.23,203.24,203.25,0.0,0.01,3
1683153643.55945611,13292572,0.0,0.36,0.0,-0.23,203.06,203.07,0.0,0.01,3
1683153643.65942001,13392536,0.0,0.36,0.0,-0.23,202.9,202.91,0.0,0.01,3
1683153643.75938320,13492499,0.0,0.36,0.0,-0.22,202.74,202.75,0.0,0.01,3
1683153643.85945606,13592572,0.0,0.36,0.0,-0.22,202.63,202.64000000000001,0.0,0.01,3
1683153643.95950413,13692620,0.0,0.36,0.0,-0.22,202.56,202.57,0.0,0.01,3
1683153644.05950403,13792620,0.0,0.36,0.0,-0.22,202.54,202.55,0.0,0.01,3
1683153644.15954518,13892661,0.0,0.36,0.0,-0.22,202.56,202.57,0.0,0.01,3
1683153644.25951505,13992631,0.0,0.36,0.0,-0.22,202.6,202.61,0.0,0.0,3
1683153644.35973811,14092854,0.0,0.35000000000000003,0.0,-0.23,202.64000000000001,202.65,0.0,0.0,3
1683153644.45946813,14192584,0.0,0.35000000000000003,0.0,-0.23,202.68,202.69,0.0,0.01,3
1683153644.55941701,14292533,0.0,0.36,0.0,-0.23,202.74,202.75,0.0,0.01,3
1683153644.65939808,14392514,0.0,0.36,0.0,-0.23,202.78,202.79,0.0,0.01,3
1683153644.75945020,14492566,0.0,0.37,0.0,-0.23,202.82,202.83,0.0,0.01,3
1683153644.85948706,14592603,0.0,0.37,0.0,-0.23,202.83,202.84,0.0,0.01,3
1683153644.95948005,14692596,0.0,0.37,0.0,-0.22,202.82,202.83,0.0,0.0,3
1683153645.05950499,14792621,0.0,0.38,0.0,-0.22,202.8,202.81,0.0,0.0,3
1683153645.15982103,14892937,0.0,0.38,0.0,-0.22,202.78,202.79,0.0,0.0,3
1683153645.25972700,14992843,0.0,0.38,0.0,-0.22,202.75,202.76,0.0,0.0,3
1683153645.35940909,15092525,0.0,0.39,0.0,-0.22,202.73000000000002,202.74,0.0,0.0,3
1683153645.45940614,15192522,0.0,0.39,0.0,-0.22,202.72,202.73000000000002,0.0,0.0,3
1683153645.55938005,15292496,0.0,0.4,0.0,-0.22,202.70000000000002,202.71,0.0,0.0,3
1683153645.65945506,15392571,0.0,0.4,0.0,-0.22,202.69,202.70000000000002,0.0,0.0,3
1683153645.75951600,15492632,0.0,0.41000000000000003,0.0,-0.23,202.70000000000002,202.71,0.0,0.0,3
1683153645.85951018,15592626,0.0,0.4,0.0,-0.22,202.71,202.72,0.0,0.0,3
1683153645.95950699,15692623,0.0,0.41000000000000003,0.0,-0.23,202.72,202.73000000000002,0.0,0.0,3
1683153646.05953217,15792648,0.0,0.41000000000000003,0.0,-0.22,202.72,202.73000000000002,0.0,0.01,3
1683153646.15957904,15892695,0.0,0.42,0.0,-0.24,202.70000000000002,202.71,0.0,0.02,3
1683153646.25946498,15992581,0.0,0.42,0.0,-0.23,202.64000000000001,202.65,0.0,0.02,3
1683153646.35976505,16092881,0.0,0.42,0.0,-0.24,202.56,202.57,0.0,0.02,3
1683153646.45937514,16192491,0.0,0.41000000000000003,0.0,-0.25,202.52,202.53,0.0,0.02,3
1683153646.55944800,16292564,0.0,0.42,0.0,-0.24,202.5,202.51,0.0,0.03,3
1683153646.65949106,16392607,0.0,0.42,0.0,-0.23,202.52,202.53,0.0,0.04,3
1683153646.75949502,16492611,0.0,0.43,0.0,-0.24,202.62,202.63,0.0,0.03,3
1683153646.85949707,16592613,0.0,0.43,0.0,-0.25,202.75,202.76,0.0,0.03,3
1683153646.95951200,16692628,0.0,0.42,0.0,-0.23,202.84,202.85,0.0,0.03,3
1683153647.05950809,16792624,0.0,0.42,0.0,-0.24,202.91,202.92000000000002,0.0,0.02,3
1683153647.15962720,16892743,0.0,0.42,0.0,-0.23,202.96,202.97,0.0,0.02,3
1683153647.25975204,16992868,0.0,0.43,0.0,-0.24,202.97,202.98000000000002,0.0,0.02,3
1683153647.35939908,17092515,0.0,0.42,0.0,-0.24,202.98000000000002,202.99,0.0,0.01,3
1683153647.45950913,17192625,0.0,0.42,0.0,-0.23,202.98000000000002,202.99,0.0,0.01,3
1683153647.55948901,17292605,0.0,0.42,0.0,-0.24,202.97,202.98000000000002,0.0,0.01,3
1683153647.65950418,17392620,0.0,0.42,0.0,-0.22,202.97,202.98000000000002,0.0,0.01,3
1683153647.75951099,17492627,0.0,0.42,0.0,-0.23,202.94,202.95000000000002,0.0,0.01,3
1683153647.85953498,17592651,0.0,0.43,0.0,-0.23,202.91,202.92000000000002,0.0,0.01,3
1683153647.95949006,17692606,0.0,0.43,0.0,-0.22,202.91,202.92000000000002,0.0,0.01,3
1683153648.05945802,17792574,0.0,0.43,0.0,-0.23,202.9,202.91,0.0,0.0,3
1683153648.15983701,17892953,0.0,0.43,0.0,-0.22,202.9,202.91,0.0,0.0,3
1683153648.25940514,17992521,0.0,0.43,0.0,-0.22,202.91,202.92000000000002,0.0,0.0,3
1683153648.35945010,18092566,0.0,0.43,0.0,-0.22,202.92000000000002,202.93,0.0,0.0,3
1683153648.45948219,18192598,0.0,0.42,0.0,-0.22,202.91,202.92000000000002,0.0,0.0,3
1683153648.55950212,18292618,0.0,0.42,0.0,-0.22,202.92000000000002,202.93,0.0,0.0,3
1683153648.65948606,18392602,0.0,0.42,0.0,-0.21,202.92000000000002,202.93,0.0,0.0,3
1683153648.75953507,18492651,0.0,0.42,0.0,-0.22,202.91,202.92000000000002,0.0,0.0,3
1683153648.85967708,18592793,0.0,0.43,0.0,-0.21,202.91,202.92000000000002,0.0,0.0,3
1683153648.95971704,18692833,0.0,0.42,0.0,-0.21,202.91,202.92000000000002,0.0,0.0,3
1683153649.05996108,18793077,0.0,0.42,0.0,-0.21,202.92000000000002,202.93,0.0,0.0,3
1683153649.15945911,18892575,0.0,0.42,0.0,-0.21,202.96,202.97,0.0,0.0,3
1683153649.25945616,18992572,0.0,0.42,0.0,-0.21,202.99,203.0,0.0,0.0,3
1683153649.35950112,19092617,0.0,0.42,0.0,-0.21,203.01,203.02,0.0,0.0,3
1683153649.45950198,19192618,0.0,0.43,0.0,-0.2,203.03,203.04,0.0,0.01,3
1683153649.55958319,19292699,0.0,0.42,0.0,-0.2,203.05,203.06,0.0,0.01,3
1683153649.65953302,19392649,0.0,0.43,0.0,-0.2,203.07,203.08,0.0,0.0,3
1683153649.75950003,19492616,0.0,0.42,0.0,-0.2,203.11,203.12,0.0,0.0,3
1683153649.85945606,19592572,0.0,0.43,0.0,-0.2,203.13,203.14000000000001,0.0,0.01,3
1683153649.95977998,19692896,0.0,0.42,0.0,-0.19,203.12,203.13,0.0,0.01,3
1683153650.05966616,19792782,0.0,0.42,0.0,-0.19,203.12,203.13,0.0,0.0,3
1683153650.15978813,19892904,0.0,0.42,0.0,-0.19,203.11,203.12,0.0,0.0,3
1683153650.25972199,19992838,0.0,0.42,0.0,-0.18,203.11,203.12,0.0,0.0,3
1683153650.35950303,20092619,0.0,0.43,0.0,-0.18,203.11,203.12,0.0,0.0,3
1683153650.45950103,20192617,0.0,0.43,0.0,-0.18,203.11,203.12,0.0,0.0,3
1683153650.55951810,20292634,0.0,0.42,0.0,-0.18,203.11,203.12,0.0,0.0,3
1683153650.65948820,20392604,0.0,0.42,0.0,-0.18,203.12,203.13,0.0,0.0,3
1683153650.75945902,20492575,0.0,0.42,0.0,-0.18,203.12,203.13,0.0,0.01,3
1683153650.85977101,20592887,0.0,0.42,0.0,-0.18,203.12,203.13,0.0,0.0,3
1683153650.95969605,20692812,0.0,0.42,0.0,-0.18,203.14000000000001,203.15,0.0,0.0,3
1683153651.05966902,20792785,0.0,0.42,0.0,-0.18,203.16,203.17000000000002,0.0,0.01,3
1683153651.15978408,20892900,0.0,0.42,0.0,-0.18,203.18,203.19,0.0,0.01,3
1683153651.25952506,20992641,0.0,0.42,0.0,-0.18,203.21,203.22,0.0,0.0,3
1683153651.35950804,21092624,0.0,0.42,0.0,-0.18,203.23000000000002,203.24,0.0,0.0,3
1683153651.45952916,21192645,0.0,0.42,0.0,-0.18,203.25,203.26,0.0,0.0,3
1683153651.55949712,21292613,0.0,0.42,0.0,-0.18,203.27,203.28,0.0,0.0,3
1683153651.65945911,21392575,0.0,0.43,0.0,-0.17,203.28,203.29,0.0,0.0,3
1683153651.75940800,21492524,0.0,0.42,0.0,-0.17,203.28,203.29,0.0,0.0,3
1683153651.85939503,21592511,0.0,0.42,0.0,-0.17,203.3,203.31,0.0,0.0,3
1683153651.95966601,21692782,0.0,0.42,0.0,-0.17,203.32,203.33,0.0,0.0,3
1683153652.05974603,21792862,0.0,0.42,0.0,-0.17,203.34,203.35,0.0,0.01,3
1683153652.15955710,21892673,0.0,0.42,0.0,-0.17,203.36,203.37,0.0,0.01,3
1683153652.25951099,21992627,0.0,0.43,0.0,-0.17,203.36,203.37,0.0,0.01,3
1683153652.35951519,22092631,0.0,0.43,0.0,-0.16,203.34,203.35,0.0,0.01,3
1683153652.45949221,22192608,0.0,0.43,0.0,-0.16,203.33,203.34,0.0,0.01,3
1683153652.55945706,22292573,0.0,0.43,0.0,-0.16,203.32,203.33,0.0,0.01,3
1683153652.65941715,22392533,0.0,0.42,0.0,-0.16,203.32,203.33,0.0,0.0,3
1683153652.75938916,22492505,0.0,0.43,0.0,-0.16,203.33,203.34,0.0,0.01,3
1683153652.85967398,22592790,0.0,0.43,0.0,-0.16,203.33,203.34,0.0,0.01,3
1683153652.95978713,22692903,0.0,0.43,0.0,-0.15,203.33,203.34,0.0,0.01,3
1683153653.05951500,22792631,0.0,0.43,0.0,-0.15,203.31,203.32,0.0,0.01,3
1683153653.15956020,22892676,0.0,0.43,0.0,-0.15,203.28,203.29,0.0,0.01,3
1683153653.25952816,22992644,0.0,0.43,0.0,-0.15,203.24,203.25,0.0,0.01,3
1683153653.35949898,23092615,0.0,0.43,0.0,-0.15,203.20000000000002,203.21,0.0,0.01,3
1683153653.45945501,23192571,0.0,0.43,0.0,-0.15,203.16,203.17000000000002,0.0,0.01,3
1683153653.55941820,23292534,0.0,0.43,0.0,-0.15,203.12,203.13,0.0,0.01,3
1683153653.65939903,23392515,0.0,0.43,0.0,-0.14,203.11,203.12,0.0,0.01,3
1683153653.75981808,23492934,0.0,0.43,0.0,-0.14,203.1,203.11,0.0,0.01,3
1683153653.85973811,23592854,0.0,0.43,0.0,-0.15,203.1,203.11,0.0,0.01,3
1683153653.95950818,23692624,0.0,0.43,0.0,-0.15,203.1,203.11,0.0,0.01,3
1683153654.05949712,23792613,0.0,0.43,0.0,-0.14,203.1,203.11,0.0,0.01,3
1683153654.15960407,23892720,0.0,0.43,0.0,-0.14,203.11,203.12,0.0,0.0,3
1683153654.25943899,23992555,0.0,0.43,0.0,-0.14,203.11,203.12,0.0,0.0,3
1683153654.35944819,24092564,0.0,0.43,0.0,-0.14,203.1,203.11,0.0,0.0,3
1683153654.45941305,24192529,0.0,0.43,0.0,-0.13,203.11,203.12,0.0,0.0,3
1683153654.55938506,24292501,0.0,0.43,0.0,-0.13,203.11,203.12,0.0,0.0,3
1683153654.65945101,24392567,0.0,0.43,0.0,-0.13,203.11,203.12,0.0,0.0,3
1683153654.75950718,24492623,0.0,0.44,0.0,-0.13,203.12,203.13,0.0,0.0,3
1683153654.85972118,24592837,0.0,0.43,0.0,-0.13,203.12,203.13,0.0,0.0,3
1683153654.95973611,24692852,0.0,0.43,0.0,-0.13,203.12,203.13,0.0,0.0,3
1683153655.05954218,24792658,0.0,0.43,0.0,-0.12,203.12,203.13,0.0,0.0,3
1683153655.15954399,24892660,0.0,0.43,0.0,-0.12,203.11,203.12,0.0,0.0,3
1683153655.25945401,24992570,0.0,0.43,0.0,-0.12,203.09,203.1,0.0,0.0,3
1683153655.35940719,25092523,0.0,0.42,0.0,-0.12,203.08,203.09,0.0,0.0,3
1683153655.45942211,25192538,0.0,0.43,0.0,-0.12,203.07,203.08,0.0,0.0,3
1683153655.55946112,25292577,0.0,0.43,0.0,-0.12,203.06,203.07,0.0,0.0,3
1683153655.65948510,25392601,0.0,0.43,0.0,-0.12,203.07,203.08,0.0,0.01,3
1683153655.75971818,25492834,0.0,0.43,0.0,-0.12,203.08,203.09,0.0,0.0,3
1683153655.85958314,25592699,0.0,0.43,0.0,-0.12,203.09,203.1,0.0,0.0,3
1683153655.95953012,25692646,0.0,0.43,0.0,-0.13,203.11,203.12,0.0,0.01,3
1683153656.05950308,25792619,0.0,0.43,0.0,-0.13,203.12,203.13,0.0,0.01,3
1683153656.15961313,25892729,0.0,0.43,0.0,-0.12,203.12,203.13,0.0,0.01,3
1683153656.25942302,25992539,0.0,0.43,0.0,-0.13,203.11,203.12,0.0,0.01,3
1683153656.35946798,26092584,0.0,0.43,0.0,-0.13,203.1,203.11,0.0,0.01,3
1683153656.45946503,26192581,0.0,0.43,0.0,-0.13,203.08,203.09,0.0,0.01,3
1683153656.55948806,26292604,0.0,0.43,0.0,-0.13,203.06,203.07,0.0,0.01,3
1683153656.65971708,26392833,0.0,0.44,0.0,-0.13,203.04,203.05,0.0,0.01,3
1683153656.75951314,26492629,0.0,0.44,0.0,-0.13,203.02,203.03,0.0,0.01,3
1683153656.85952210,26592638,0.0,0.44,0.0,-0.13,203.0,203.01,0.0,0.0,3
1683153656.95943403,26692550,0.0,0.44,0.0,-0.13,202.99,203.0,0.0,0.0,3
1683153657.05946612,26792582,0.0,0.44,0.0,-0.14,202.97,202.98000000000002,0.0,0.0,3
1683153657.15952301,26892639,0.0,0.45,0.0,-0.13,202.97,202.98000000000002,0.0,0.0,3
1683153657.25940013,26992516,0.0,0.45,0.0,-0.14,202.96,202.97,0.0,0.0,3
1683153657.35946798,27092584,0.0,0.45,0.0,-0.14,202.95000000000002,202.96,0.0,0.0,3
1683153657.45948005,27192596,0.0,0.45,0.0,-0.14,202.95000000000002,202.96,0.0,0.0,3
1683153657.55972600,27292842,0.0,0.45,0.0,-0.14,202.95000000000002,202.96,0.0,0.01,3
1683153657.65972114,27392837,0.0,0.45,0.0,-0.14,202.96,202.97,0.0,0.0,3
1683153657.75952101,27492637,0.0,0.45,0.0,-0.14,202.96,202.97,0.0,0.0,3
1683153657.85949111,27592607,0.0,0.45,0.0,-0.14,202.97,202.98000000000002,0.0,0.0,3
1683153657.95945215,27692568,0.0,0.45,0.0,-0.14,202.97,202.98000000000002,0.0,0.0,3
1683153658.05941820,27792534,0.0,0.45,0.0,-0.13,202.96,202.97,0.0,0.0,3
1683153658.15947318,27892589,0.0,0.45,0.0,-0.14,202.95000000000002,202.96,0.0,0.0,3
1683153658.25966120,27992777,0.0,0.45,0.0,-0.14,202.94,202.95000000000002,0.0,0.0,3
1683153658.35973120,28092847,0.0,0.45,0.0,-0.14,202.92000000000002,202.93,0.0,0.0,3
1683153658.45950913,28192625,0.0,0.45,0.0,-0.14,202.92000000000002,202.93,0.0,0.01,3
1683153658.55951905,28292635,0.0,0.45,0.0,-0.14,202.92000000000002,202.93,0.0,0.0,3
1683153658.65953898,28392655,0.0,0.45,0.0,-0.14,202.92000000000002,202.93,0.0,0.01,3
1683153658.75951600,28492632,0.0,0.45,0.0,-0.14,202.92000000000002,202.93,0.0,0.01,3
1683153658.85945916,28592575,0.0,0.45,0.0,-0.14,202.92000000000002,202.93,0.0,0.0,3
1683153658.95941806,28692534,0.0,0.44,0.0,-0.14,202.91,202.92000000000002,0.0,0.01,3
1683153659.05940008,28792516,0.0,0.44,0.0,-0.15,202.91,202.92000000000002,0.0,0.01,3
1683153659.15979409,28892910,0.0,0.45,0.0,-0.15,202.91,202.92000000000002,0.0,0.0,3
1683153659.25973010,28992846,0.0,0.45,0.0,-0.15,202.91,202.92000000000002,0.0,0.0,3
1683153659.35950208,29092618,0.0,0.45,0.0,-0.15,202.9,202.91,0.0,0.0,3
1683153659.45950699,29192623,0.0,0.44,0.0,-0.15,202.9,202.91,0.0,0.01,3
1683153659.55952501,29292641,0.0,0.44,0.0,-0.15,202.89000000000001,202.9,0.0,0.0,3
1683153659.65950298,29392619,0.0,0.45,0.0,-0.15,202.87,202.88,0.0,0.0,3
1683153659.75945520,29492571,0.0,0.45,0.0,-0.16,202.85,202.86,0.0,0.0,3
1683153659.85942101,29592537,0.0,0.44,0.0,-0.16,202.84,202.85,0.0,0.0,3
1683153659.95940208,29692518,0.0,0.44,0.0,-0.16,202.82,202.83,0.0,0.0,3
1683153660.05981517,29792931,0.0,0.45,0.0,-0.16,202.8,202.81,0.0,0.0,3
1683153660.15953803,29892654,0.0,0.45,0.0,-0.17,202.79,202.8,0.0,0.0,3
1683153660.25949407,29992610,0.0,0.45,0.0,-0.17,202.78,202.79,0.0,0.0,3
1683153660.35952997,30092646,0.0,0.45,0.0,-0.17,202.78,202.79,0.0,0.0,3
1683153660.45952010,30192636,0.0,0.45,0.0,-0.18,202.77,202.78,0.0,0.0,3
1683153660.55948210,30292598,0.0,0.45,0.0,-0.18,202.76,202.77,0.0,0.0,3
1683153660.65946007,30392576,0.0,0.45,0.0,-0.19,202.75,202.76,0.0,0.0,3
1683153660.75941110,30492527,0.0,0.45,0.0,-0.19,202.74,202.75,0.0,0.01,3
1683153660.85938716,30592503,0.0,0.45,0.0,-0.19,202.72,202.73000000000002,0.0,0.0,3
1683153660.95965815,30692774,0.0,0.45,0.0,-0.19,202.72,202.73000000000002,0.0,0.0,3
1683153661.05966806,30792784,0.0,0.46,0.0,-0.19,202.72,202.73000000000002,0.0,0.0,3
1683153661.15971017,30892826,0.0,0.46,0.0,-0.18,202.71,202.72,0.0,0.0,3
1683153661.25968003,30992796,0.0,0.46,0.0,-0.19,202.72,202.73000000000002,0.0,0.0,3
1683153661.35968399,31092800,0.0,0.45,0.0,-0.19,202.72,202.73000000000002,0.0,0.0,3
1683153661.45967102,31192787,0.0,0.45,0.0,-0.19,202.72,202.73000000000002,0.0,0.01,3
1683153661.55971909,31292835,0.0,0.45,0.0,-0.19,202.72,202.73000000000002,0.0,0.01,3
1683153661.65972805,31392844,0.0,0.45,0.0,-0.2,202.72,202.73000000000002,0.0,0.0,3
1683153661.75964117,31492757,0.0,0.45,0.0,-0.2,202.72,202.73000000000002,0.0,0.0,3
1683153661.85988998,31593006,0.0,0.45,0.0,-0.2,202.71,202.72,0.0,0.0,3
1683153661.95968199,31692798,0.0,0.45,0.0,-0.2,202.71,202.72,0.0,0.0,3
1683153662.05969620,31792812,0.0,0.45,0.0,-0.21,202.71,202.72,0.0,0.0,3
1683153662.15987015,31892986,0.0,0.45,0.0,-0.21,202.70000000000002,202.71,0.0,0.0,3
1683153662.25951314,31992629,0.0,0.45,0.0,-0.2,202.70000000000002,202.71,0.0,0.0,3
1683153662.35947514,32092591,0.0,0.45,0.0,-0.21,202.70000000000002,202.71,0.0,0.01,3
1683153662.45938110,32192497,0.0,0.45,0.0,-0.21,202.69,202.70000000000002,0.0,0.0,3
1683153662.55941510,32292531,0.0,0.45,0.0,-0.21,202.68,202.69,0.0,0.0,3
1683153662.65939498,32392511,0.0,0.45,0.0,-0.21,202.66,202.67000000000002,0.0,0.0,3
1683153662.75964808,32492764,0.0,0.45,0.0,-0.21,202.64000000000001,202.65,0.0,0.0,3
1683153662.85971618,32592832,0.0,0.45,0.0,-0.21,202.64000000000001,202.65,0.0,0.0,3
1683153662.95970106,32692817,0.0,0.46,0.0,-0.21,202.64000000000001,202.65,0.0,0.01,3
1683153663.05971718,32792833,0.0,0.46,0.0,-0.21,202.64000000000001,202.65,0.0,0.01,3
1683153663.15954399,32892660,0.0,0.46,0.0,-0.21,202.64000000000001,202.65,0.0,0.01,3
1683153663.25948620,32992602,0.0,0.46,0.0,-0.2,202.64000000000001,202.65,0.0,0.01,3
1683153663.35938621,33092502,0.0,0.46,0.0,-0.2,202.65,202.66,0.0,0.0,3
1683153663.45940709,33192523,0.0,0.46,0.0,-0.21,202.64000000000001,202.65,0.0,0.0,3
1683153663.55939507,33292511,0.0,0.46,0.0,-0.21,202.64000000000001,202.65,0.0,0.01,3
1683153663.65944099,33392557,0.0,0.45,0.0,-0.21,202.64000000000001,202.65,0.0,0.01,3
1683153663.75946617,33492582,0.0,0.46,0.0,-0.21,202.65,202.66,0.0,0.01,3
1683153663.85970020,33592816,0.0,0.45,0.0,-0.21,202.65,202.66,0.0,0.0,3
1683153663.95970607,33692822,0.0,0.46,0.0,-0.21,202.65,202.66,0.0,0.0,3
1683153664.05951214,33792628,0.0,0.46,0.0,-0.21,202.65,202.66,0.0,0.01,3
1683153664.15955520,33892671,0.0,0.46,0.0,-0.22,202.65,202.66,0.0,0.01,3
1683153664.25943613,33992552,0.0,0.46,0.0,-0.22,202.66,202.67000000000002,0.0,0.01,3
1683153664.35941005,34092526,0.0,0.47000000000000003,0.0,-0.22,202.67000000000002,202.68,0.0,0.01,3
1683153664.45938611,34192502,0.0,0.46,0.0,-0.22,202.68,202.69,0.0,0.01,3
1683153664.55966210,34292778,0.0,0.46,0.0,-0.22,202.70000000000002,202.71,0.0,0.01,3
1683153664.65971208,34392828,0.0,0.47000000000000003,0.0,-0.22,202.71,202.72,0.0,0.01,3
1683153664.75970316,34492819,0.0,0.46,0.0,-0.22,202.72,202.73000000000002,0.0,0.01,3
1683153664.85970116,34592817,0.0,0.46,0.0,-0.22,202.73000000000002,202.74,0.0,0.0,3
1683153664.95951200,34692628,0.0,0.46,0.0,-0.22,202.73000000000002,202.74,0.0,0.0,3
1683153665.05950212,34792618,0.0,0.46,0.0,-0.23,202.73000000000002,202.74,0.0,0.01,3
1683153665.15980315,34892919,0.0,0.46,0.0,-0.23,202.73000000000002,202.74,0.0,0.01,3
1683153665.25941706,34992533,0.0,0.46,0.0,-0.23,202.73000000000002,202.74,0.0,0.01,3
1683153665.35938907,35092505,0.0,0.45,0.0,-0.23,202.74,202.75,0.0,0.01,3
1683153665.45944118,35192557,0.0,0.45,0.0,-0.23,202.75,202.76,0.0,0.01,3
1683153665.55948305,35292599,0.0,0.46,0.0,-0.22,202.77,202.78,0.0,0.01,3
1683153665.65970707,35392823,0.0,0.46,0.0,-0.22,202.78,202.79,0.0,0.01,3
1683153665.75971317,35492829,0.0,0.46,0.0,-0.22,202.79,202.8,0.0,0.01,3
1683153665.85953212,35592648,0.0,0.46,0.0,-0.22,202.8,202.81,0.0,0.0,3
1683153665.95948815,35692604,0.0,0.46,0.0,-0.22,202.8,202.81,0.0,0.0,3
1683153666.05946016,35792576,0.0,0.46,0.0,-0.22,202.8,202.81,0.0,0.0,3
1683153666.15983105,35892947,0.0,0.47000000000000003,0.0,-0.22,202.8,202.81,0.0,0.0,3
1683153666.25938106,35992497,0.0,0.47000000000000003,0.0,-0.22,202.79,202.8,0.0,0.0,3
1683153666.35951018,36092626,0.0,0.47000000000000003,0.0,-0.22,202.79,202.8,0.0,0.0,3
1683153666.45946908,36192585,0.0,0.47000000000000003,0.0,-0.22,202.79,202.8,0.0,0.0,3
1683153666.55949306,36292609,0.0,0.47000000000000003,0.0,-0.22,202.78,202.79,0.0,0.0,3
1683153666.65948510,36392601,0.0,0.47000000000000003,0.0,-0.22,202.77,202.78,0.0,0.0,3
1683153666.75951409,36492630,0.0,0.47000000000000003,0.0,-0.22,202.77,202.78,0.0,0.0,3
1683153666.85971308,36592829,0.0,0.46,0.0,-0.22,202.77,202.78,0.0,0.0,3
1683153666.95944619,36692562,0.0,0.46,0.0,-0.22,202.77,202.78,0.0,0.0,3
1683153667.05940914,36792525,0.0,0.46,0.0,-0.21,202.77,202.78,0.0,0.0,3
1683153667.15946198,36892578,0.0,0.46,0.0,-0.21,202.77,202.78,0.0,0.0,3
1683153667.25943208,36992548,0.0,0.46,0.0,-0.21,202.77,202.78,0.0,0.0,3
1683153667.35947609,37092592,0.0,0.46,0.0,-0.21,202.77,202.78,0.0,0.01,3
1683153667.45947599,37192592,0.0,0.46,0.0,-0.21,202.77,202.78,0.0,0.0,3
1683153667.55970001,37292816,0.0,0.46,0.0,-0.21,202.77,202.78,0.0,0.01,3
1683153667.65974617,37392862,0.0,0.46,0.0,-0.22,202.78,202.79,0.0,0.01,3
1683153667.75971603,37492832,0.0,0.46,0.0,-0.22,202.8,202.81,0.0,0.01,3
1683153667.85980701,37592923,0.0,0.46,0.0,-0.21,202.8,202.81,0.0,0.01,3
1683153667.95976210,37692878,0.0,0.46,0.0,-0.21,202.81,202.82,0.0,0.01,3
1683153668.05966616,37792782,0.0,0.46,0.0,-0.21,202.82,202.83,0.0,0.01,3
1683153668.15979004,37892906,0.0,0.46,0.0,-0.21,202.83,202.84,0.0,0.01,3
1683153668.25972414,37992840,0.0,0.46,0.0,-0.21,202.84,202.85,0.0,0.01,3
1683153668.35970902,38092825,0.0,0.45,0.0,-0.21,202.84,202.85,0.0,0.01,3
1683153668.45985413,38192970,0.0,0.45,0.0,-0.21,202.85,202.86,0.0,0.01,3
1683153668.55972505,38292841,0.0,0.45,0.0,-0.21,202.85,202.86,0.0,0.01,3
1683153668.65992999,38393046,0.0,0.45,0.0,-0.21,202.86,202.87,0.0,0.01,3
1683153668.75945616,38492572,0.0,0.45,0.0,-0.21,202.87,202.88,0.0,0.01,3
1683153668.85941219,38592528,0.0,0.45,0.0,-0.21,202.88,202.89000000000001,0.0,0.01,3
1683153668.95938015,38692496,0.0,0.45,0.0,-0.21,202.89000000000001,202.9,0.0,0.01,3
1683153669.05944204,38792558,0.0,0.45,0.0,-0.21,202.89000000000001,202.9,0.0,0.01,3
1683153669.15952897,38892645,0.0,0.45,0.0,-0.21,202.9,202.91,0.0,0.01,3
1683153669.25949311,38992609,0.0,0.45,0.0,-0.21,202.9,202.91,0.0,0.01,3
1683153669.35950017,39092616,0.0,0.45,0.0,-0.21,202.91,202.92000000000002,0.0,0.01,3
1683153669.45950818,39192624,0.0,0.45,0.0,-0.21,202.92000000000002,202.93,0.0,0.01,3
1683153669.55971503,39292831,0.0,0.45,0.0,-0.21,202.92000000000002,202.93,0.0,0.01,3
1683153669.65980315,39392919,0.0,0.45,0.0,-0.21,202.92000000000002,202.93,0.0,0.01,3
1683153669.75974202,39492858,0.0,0.45,0.0,-0.21,202.92000000000002,202.93,0.0,0.01,3
1683153669.85937905,39592495,0.0,0.44,0.0,-0.2,202.93,202.94,0.0,0.0,3
1683153669.95944619,39692562,0.0,0.45,0.0,-0.2,202.93,202.94,0.0,0.01,3
1683153670.05949306,39792609,0.0,0.45,0.0,-0.2,202.94,202.95000000000002,0.0,0.01,3
1683153670.15955210,39892668,0.0,0.45,0.0,-0.2,202.94,202.95000000000002,0.0,0.01,3
1683153670.25948811,39992604,0.0,0.46,0.0,-0.2,202.95000000000002,202.96,0.0,0.01,3
1683153670.35950208,40092618,0.0,0.45,0.0,-0.19,202.95000000000002,202.96,0.0,0.01,3
1683153670.45948410,40192600,0.0,0.45,0.0,-0.19,202.96,202.97,0.0,0.0,3
1683153670.55945420,40292570,0.0,0.45,0.0,-0.19,202.97,202.98000000000002,0.0,0.0,3
1683153670.65975904,40392875,0.0,0.46,0.0,-0.19,202.98000000000002,202.99,0.0,0.0,3
1683153670.75939417,40492510,0.0,0.45,0.0,-0.19,202.98000000000002,202.99,0.0,0.0,3
1683153670.85946298,40592579,0.0,0.46,0.0,-0.19,202.98000000000002,202.99,0.0,0.0,3
1683153670.95947313,40692589,0.0,0.45,0.0,-0.19,202.98000000000002,202.99,0.0,0.0,3
1683153671.05949116,40792607,0.0,0.46,0.0,-0.19,202.99,203.0,0.0,0.01,3
1683153671.15954614,40892662,0.0,0.46,0.0,-0.19,202.99,203.0,0.0,0.01,3
1683153671.25949717,40992613,0.0,0.46,0.0,-0.19,203.0,203.01,0.0,0.01,3
1683153671.35948300,41092599,0.0,0.46,0.0,-0.19,203.01,203.02,0.0,0.0,3
1683153671.45944810,41192564,0.0,0.45,0.0,-0.19,203.0,203.01,0.0,0.01,3
1683153671.55977201,41292888,0.0,0.46,0.0,-0.18,203.01,203.02,0.0,0.01,3
1683153671.65937710,41392493,0.0,0.46,0.0,-0.18,203.02,203.03,0.0,0.0,3
1683153671.75946116,41492577,0.0,0.46,0.0,-0.18,203.02,203.03,0.0,0.0,3
1683153671.85948610,41592602,0.0,0.46,0.0,-0.18,203.02,203.03,0.0,0.0,3
1683153671.95949101,41692607,0.0,0.46,0.0,-0.18,203.02,203.03,0.0,0.0,3
1683153672.05949712,41792613,0.0,0.46,0.0,-0.18,203.02,203.03,0.0,0.0,3
1683153672.15958118,41892697,0.0,0.47000000000000003,0.0,-0.18,203.02,203.03,0.0,0.0,3
1683153672.25947905,41992595,0.0,0.47000000000000003,0.0,-0.18,203.01,203.02,0.0,0.0,3
1683153672.35944319,42092559,0.0,0.47000000000000003,0.0,-0.18,203.01,203.02,0.0,0.0,3
1683153672.45975518,42192871,0.0,0.48,0.0,-0.18,203.01,203.02,0.0,0.0,3
1683153672.55937600,42292492,0.0,0.48,0.0,-0.18,203.01,203.02,0.0,0.0,3
1683153672.65951419,42392630,0.0,0.48,0.0,-0.18,203.01,203.02,0.0,0.0,3
1683153672.75947618,42492592,0.0,0.48,0.0,-0.18,203.01,203.02,0.0,0.0,3
1683153672.85949206,42592608,0.0,0.48,0.0,-0.18,203.0,203.01,0.0,0.0,3
1683153672.95948410,42692600,0.0,0.47000000000000003,0.0,-0.18,203.0,203.01,0.0,0.01,3
1683153673.05951214,42792628,0.0,0.48,0.0,-0.18,203.01,203.02,0.0,0.0,3
1683153673.15955520,42892671,0.0,0.48,0.0,-0.18,203.01,203.02,0.0,0.01,3
1683153673.25944209,42992558,0.0,0.48,0.0,-0.18,203.01,203.02,0.0,0.01,3
1683153673.35941005,43092526,0.0,0.47000000000000003,0.0,-0.19,203.02,203.03,0.0,0.01,3
1683153673.45937514,43192491,0.0,0.47000000000000003,0.0,-0.18,203.02,203.03,0.0,0.01,3
1683153673.55966902,43292785,0.0,0.47000000000000003,0.0,-0.18,203.02,203.03,0.0,0.0,3
1683153673.65974116,43392857,0.0,0.47000000000000003,0.0,-0.18,203.01,203.02,0.0,0.0,3
1683153673.75950313,43492619,0.0,0.47000000000000003,0.0,-0.18,203.01,203.02,0.0,0.01,3
1683153673.85949802,43592614,0.0,0.47000000000000003,0.0,-0.18,203.01,203.02,0.0,0.01,3
1683153673.95950413,43692620,0.0,0.47000000000000003,0.0,-0.18,203.02,203.03,0.0,0.01,3
1683153674.05948710,43792603,0.0,0.46,0.0,-0.18,203.02,203.03,0.0,0.01,3
1683153674.15962219,43892738,0.0,0.47000000000000003,0.0,-0.18,203.03,203.04,0.0,0.01,3
1683153674.25940204,43992518,0.0,0.47000000000000003,0.0,-0.18,203.04,203.05,0.0,0.01,3
1683153674.35939217,44092508,0.0,0.47000000000000003,0.0,-0.18,203.05,203.06,0.0,0.01,3
1683153674.45966816,44192784,0.0,0.47000000000000003,0.0,-0.19,203.05,203.06,0.0,0.01,3
1683153674.55969310,44292809,0.0,0.47000000000000003,0.0,-0.18,203.06,203.07,0.0,0.01,3
1683153674.65950203,44392618,0.0,0.46,0.0,-0.18,203.05,203.06,0.0,0.01,3
1683153674.75955606,44492672,0.0,0.46,0.0,-0.19,203.05,203.06,0.0,0.01,3
1683153674.85951519,44592631,0.0,0.47000000000000003,0.0,-0.19,203.05,203.06,0.0,0.01,3
1683153674.95963216,44692748,0.0,0.46,0.0,-0.2,203.03,203.04,0.0,0.01,3
1683153675.05974007,44792856,0.0,0.47000000000000003,0.0,-0.2,203.03,203.04,0.0,0.01,3
1683153675.15979314,44892909,0.0,0.46,0.0,-0.19,203.03,203.04,0.0,0.01,3
1683153675.25963712,44992753,0.0,0.46,0.0,-0.19,203.04,203.05,0.0,0.01,3
1683153675.35989404,45093010,0.0,0.46,0.0,-0.2,203.04,203.05,0.0,0.0,3
1683153675.45950198,45192618,0.0,0.47000000000000003,0.0,-0.2,203.05,203.06,0.0,0.0,3
1683153675.55951619,45292632,0.0,0.47000000000000003,0.0,-0.2,203.04,203.05,0.0,0.0,3
1683153675.65949798,45392614,0.0,0.47000000000000003,0.0,-0.2,203.04,203.05,0.0,0.01,3
1683153675.75951600,45492632,0.0,0.47000000000000003,0.0,-0.2,203.04,203.05,0.0,0.0,3
1683153675.85949898,45592615,0.0,0.47000000000000003,0.0,-0.21,203.05,203.06,0.0,0.0,3
1683153675.95945120,45692567,0.0,0.47000000000000003,0.0,-0.21,203.05,203.06,0.0,0.0,3
1683153676.05942512,45792541,0.0,0.47000000000000003,0.0,-0.21,203.06,203.07,0.0,0.0,3
1683153676.15947914,45892595,0.0,0.47000000000000003,0.0,-0.21,203.06,203.07,0.0,0.0,3
1683153676.25966215,45992778,0.0,0.47000000000000003,0.0,-0.21,203.06,203.07,0.0,0.0,3
1683153676.35971117,46092827,0.0,0.48,0.0,-0.21,203.07,203.08,0.0,0.0,3
1683153676.45970607,46192822,0.0,0.48,0.0,-0.21,203.07,203.08,0.0,0.0,3
1683153676.55971503,46292831,0.0,0.48,0.0,-0.22,203.07,203.08,0.0,0.0,3
1683153676.65953803,46392654,0.0,0.48,0.0,-0.22,203.07,203.08,0.0,0.0,3
1683153676.75949907,46492615,0.0,0.48,0.0,-0.22,203.07,203.08,0.0,0.0,3
1683153676.85946608,46592582,0.0,0.48,0.0,-0.22,203.07,203.08,0.0,0.01,3
1683153676.95942307,46692539,0.0,0.48,0.0,-0.22,203.07,203.08,0.0,0.0,3
1683153677.05938816,46792504,0.0,0.48,0.0,-0.22,203.06,203.07,0.0,0.01,3
1683153677.15980911,46892925,0.0,0.48,0.0,-0.22,203.06,203.07,0.0,0.0,3
1683153677.25972319,46992839,0.0,0.48,0.0,-0.22,203.05,203.06,0.0,0.0,3
1683153677.35971618,47092832,0.0,0.48,0.0,-0.22,203.04,203.05,0.0,0.0,3
1683153677.45972300,47192839,0.0,0.49,0.0,-0.22,203.04,203.05,0.0,0.0,3
1683153677.55952716,47292643,0.0,0.49,0.0,-0.22,203.04,203.05,0.0,0.01,3
1683153677.65948915,47392605,0.0,0.49,0.0,-0.22,203.04,203.05,0.0,0.01,3
1683153677.75945210,47492568,0.0,0.49,0.0,-0.22,203.04,203.05,0.0,0.0,3
1683153677.85951209,47592628,0.0,0.49,0.0,-0.23,203.04,203.05,0.0,0.0,3
1683153677.95940113,47692517,0.0,0.49,0.0,-0.22,203.04,203.05,0.0,0.0,3
1683153678.05945611,47792572,0.0,0.49,0.0,-0.22,203.04,203.05,0.0,0.0,3
1683153678.15953207,47892648,0.0,0.49,0.0,-0.22,203.04,203.05,0.0,0.0,3
1683153678.25970912,47992825,0.0,0.49,0.0,-0.23,203.04,203.05,0.0,0.01,3
1683153678.35970807,48092824,0.0,0.49,0.0,-0.23,203.04,203.05,0.0,0.01,3
1683153678.45953012,48192646,0.0,0.49,0.0,-0.23,203.04,203.05,0.0,0.0,3
1683153678.55948615,48292602,0.0,0.49,0.0,-0.23,203.03,203.04,0.0,0.0,3
1683153678.65946007,48392576,0.0,0.49,0.0,-0.22,203.02,203.03,0.0,0.01,3
1683153678.75940108,48492517,0.0,0.49,0.0,-0.22,203.02,203.03,0.0,0.01,3
1683153678.85963416,48592750,0.0,0.49,0.0,-0.22,203.01,203.02,0.0,0.01,3
1683153678.95970416,48692820,0.0,0.49,0.0,-0.22,203.0,203.01,0.0,0.0,3
1683153679.05966401,48792780,0.0,0.49,0.0,-0.22,202.98000000000002,202.99,0.0,0.0,3
1683153679.16002011,48893136,0.0,0.49,0.0,-0.23,202.98000000000002,202.99,0.0,0.0,3
1683153679.25971699,48992833,0.0,0.49,0.0,-0.23,202.97,202.98000000000002,0.0,0.0,3
1683153679.35952020,49092636,0.0,0.49,0.0,-0.23,202.97,202.98000000000002,0.0,0.0,3
1683153679.45970106,49192817,0.0,0.5,0.0,-0.22,202.96,202.97,0.0,0.0,3
1683153679.55982900,49292945,0.0,0.49,0.0,-0.22,202.96,202.97,0.0,0.0,3
1683153679.65975618,49392872,0.0,0.49,0.0,-0.22,202.95000000000002,202.96,0.0,0.0,3
1683153679.75970602,49492822,0.0,0.49,0.0,-0.22,202.95000000000002,202.96,0.0,0.0,3
1683153679.85966802,49592784,0.0,0.49,0.0,-0.22,202.95000000000002,202.96,0.0,0.0,3
1683153679.95968318,49692799,0.0,0.49,0.0,-0.22,202.95000000000002,202.96,0.0,0.0,3
1683153680.05970597,49792822,0.0,0.49,0.0,-0.22,202.95000000000002,202.96,0.0,0.0,3
1683153680.15981317,49892929,0.0,0.49,0.0,-0.22,202.95000000000002,202.96,0.0,0.0,3
1683153680.25951815,49992634,0.0,0.49,0.0,-0.22,202.95000000000002,202.96,0.0,0.0,3
1683153680.35947800,50092594,0.0,0.5,0.0,-0.22,202.94,202.95000000000002,0.0,0.0,3
1683153680.45945621,50192572,0.0,0.5,0.0,-0.22,202.94,202.95000000000002,0.0,0.0,3
1683153680.55942416,50292540,0.0,0.5,0.0,-0.22,202.93,202.94,0.0,0.0,3
1683153680.65938306,50392499,0.0,0.49,0.0,-0.22,202.93,202.94,0.0,0.0,3
1683153680.75944400,50492560,0.0,0.5,0.0,-0.21,202.93,202.94,0.0,0.0,3
1683153680.85948110,50592597,0.0,0.5,0.0,-0.22,202.93,202.94,0.0,0.0,3
1683153680.95970798,50692824,0.0,0.49,0.0,-0.21,202.93,202.94,0.0,0.0,3
1683153681.05984402,50792960,0.0,0.5,0.0,-0.21,202.93,202.94,0.0,0.0,3
1683153681.15956020,50892676,0.0,0.5,0.0,-0.21,202.93,202.94,0.0,0.0,3
1683153681.25949812,50992614,0.0,0.49,0.0,-0.21,202.93,202.94,0.0,0.0,3
1683153681.35945916,51092575,0.0,0.49,0.0,-0.21,202.93,202.94,0.0,0.0,3
1683153681.45940709,51192523,0.0,0.49,0.0,-0.21,202.93,202.94,0.0,0.0,3
1683153681.55939412,51292510,0.0,0.49,0.0,-0.21,202.93,202.94,0.0,0.0,3
1683153681.65966320,51392779,0.0,0.49,0.0,-0.22,202.93,202.94,0.0,0.0,3
1683153681.75968409,51492800,0.0,0.49,0.0,-0.22,202.94,202.95000000000002,0.0,0.0,3
1683153681.85949016,51592606,0.0,0.49,0.0,-0.21,202.94,202.95000000000002,0.0,0.0,3
1683153681.95951509,51692631,0.0,0.49,0.0,-0.21,202.95000000000002,202.96,0.0,0.0,3
1683153682.05953217,51792648,0.0,0.49,0.0,-0.21,202.95000000000002,202.96,0.0,0.0,3
1683153682.15956497,51892681,0.0,0.5,0.0,-0.21,202.95000000000002,202.96,0.0,0.0,3
1683153682.25946712,51992583,0.0,0.5,0.0,-0.21,202.95000000000002,202.96,0.0,0.0,3
1683153682.35940099,52092517,0.0,0.5,0.0,-0.21,202.94,202.95000000000002,0.0,0.0,3
1683153682.45936799,52192484,0.0,0.5,0.0,-0.21,202.94,202.95000000000002,0.0,0.0,3
1683153682.55967212,52292788,0.0,0.49,0.0,-0.21,202.93,202.94,0.0,0.0,3
1683153682.65972710,52392843,0.0,0.48,0.0,-0.21,202.93,202.94,0.0,0.0,3
1683153682.75949597,52492612,0.0,0.48,0.0,-0.2,202.92000000000002,202.93,0.0,0.0,3
1683153682.85967898,52592795,0.0,0.48,0.0,-0.2,202.92000000000002,202.93,0.0,0.0,3
1683153682.95969510,52692811,0.0,0.48,0.0,-0.2,202.91,202.92000000000002,0.0,0.0,3
1683153683.05969000,52792806,0.0,0.49,0.0,-0.2,202.91,202.92000000000002,0.0,0.0,3
1683153683.15989208,52893008,0.0,0.49,0.0,-0.21,202.91,202.92000000000002,0.0,0.0,3
1683153683.25972819,52992844,0.0,0.49,0.0,-0.21,202.92000000000002,202.93,0.0,0.0,3
1683153683.35964012,53092756,0.0,0.48,0.0,-0.2,202.92000000000002,202.93,0.0,0.0,3
1683153683.45965505,53192771,0.0,0.48,0.0,-0.21,202.92000000000002,202.93,0.0,0.0,3
1683153683.55973411,53292850,0.0,0.48,0.0,-0.21,202.92000000000002,202.93,0.0,0.01,3
1683153683.65948319,53392599,0.0,0.48,0.0,-0.21,202.91,202.92000000000002,0.0,0.01,3
1683153683.75949597,53492612,0.0,0.48,0.0,-0.2,202.91,202.92000000000002,0.0,0.0,3
1683153683.85953808,53592654,0.0,0.48,0.0,-0.2,202.9,202.91,0.0,0.0,3
1683153683.95952106,53692637,0.0,0.47000000000000003,0.0,-0.21,202.9,202.91,0.0,0.0,3
1683153684.05947399,53792590,0.0,0.47000000000000003,0.0,-0.21,202.9,202.91,0.0,0.0,3
1683153684.15954304,53892659,0.0,0.47000000000000003,0.0,-0.22,202.91,202.92000000000002,0.0,0.0,3
1683153684.25939798,53992514,0.0,0.48,0.0,-0.22,202.91,202.92000000000002,0.0,0.0,3
1683153684.35943413,54092550,0.0,0.48,0.0,-0.22,202.91,202.92000000000002,0.0,0.0,3
1683153684.45948219,54192598,0.0,0.48,0.0,-0.23,202.91,202.92000000000002,0.0,0.0,3
1683153684.55970216,54292818,0.0,0.48,0.0,-0.22,202.91,202.92000000000002,0.0,0.0,3
1683153684.65972400,54392840,0.0,0.48,0.0,-0.22,202.9,202.91,0.0,0.0,3
1683153684.75952005,54492636,0.0,0.48,0.0,-0.22,202.9,202.91,0.0,0.0,3
1683153684.85972500,54592841,0.0,0.48,0.0,-0.23,202.9,202.91,0.0,0.0,3
1683153684.95979905,54692915,0.0,0.48,0.0,-0.22,202.89000000000001,202.9,0.0,0.0,3
1683153685.05974412,54792860,0.0,0.48,0.0,-0.22,202.89000000000001,202.9,0.0,0.0,3
1683153685.15975308,54892869,0.0,0.48,0.0,-0.23,202.88,202.89000000000001,0.0,0.01,3
1683153685.25984120,54992957,0.0,0.47000000000000003,0.0,-0.23,202.88,202.89000000000001,0.0,0.01,3
1683153685.35967803,55092794,0.0,0.47000000000000003,0.0,-0.23,202.88,202.89000000000001,0.0,0.01,3
1683153685.45998502,55193101,0.0,0.47000000000000003,0.0,-0.24,202.87,202.88,0.0,0.01,3
1683153685.55997801,55293094,0.0,0.47000000000000003,0.0,-0.23,202.86,202.87,0.0,0.01,3
1683153685.65974307,55392859,0.0,0.47000000000000003,0.0,-0.23,202.85,202.86,0.0,0.01,3
1683153685.75972414,55492840,0.0,0.47000000000000003,0.0,-0.23,202.84,202.85,0.0,0.01,3
1683153685.85981917,55592935,0.0,0.47000000000000003,0.0,-0.23,202.84,202.85,0.0,0.01,3
1683153685.95974803,55692864,0.0,0.47000000000000003,0.0,-0.23,202.84,202.85,0.0,0.01,3
1683153686.05970812,55792824,0.0,0.47000000000000003,0.0,-0.24,202.84,202.85,0.0,0.0,3
1683153686.15978909,55892905,0.0,0.46,0.0,-0.23,202.84,202.85,0.0,0.0,3
1683153686.25972700,55992843,0.0,0.46,0.0,-0.23,202.84,202.85,0.0,0.0,3
1683153686.35999417,56093110,0.0,0.46,0.0,-0.23,202.84,202.85,0.0,0.0,3
1683153686.45950603,56192622,0.0,0.46,0.0,-0.23,202.85,202.86,0.0,0.01,3
1683153686.55952120,56292637,0.0,0.46,0.0,-0.23,202.84,202.85,0.0,0.0,3
1683153686.65950608,56392622,0.0,0.47000000000000003,0.0,-0.23,202.83,202.84,0.0,0.0,3
1683153686.75946307,56492579,0.0,0.47000000000000003,0.0,-0.23,202.83,202.83,0.0,0.0,3
1683153686.85939908,56592515,0.0,0.47000000000000003,0.0,-0.23,202.82,202.83,0.0,0.0,3
1683153686.95938706,56692503,0.0,0.47000000000000003,0.0,-0.23,202.81,202.82,0.0,0.01,3
1683153687.05946302,56792579,0.0,0.47000000000000003,0.0,-0.23,202.8,202.81,0.0,0.01,3
1683153687.15954804,56892664,0.0,0.48,0.0,-0.23,202.79,202.8,0.0,0.01,3
1683153687.25971103,56992827,0.0,0.48,0.0,-0.22,202.79,202.8,0.0,0.01,3
1683153687.35984898,57092965,0.0,0.49,0.0,-0.22,202.78,202.79,0.0,0.01,3
1683153687.45974207,57192858,0.0,0.49,0.0,-0.22,202.77,202.78,0.0,0.01,3
1683153687.55973601,57292852,0.0,0.49,0.0,-0.21,202.77,202.78,0.0,0.01,3
1683153687.65945315,57392569,0.0,0.49,0.0,-0.21,202.76,202.77,0.0,0.01,3
1683153687.75941801,57492534,0.0,0.5,0.0,-0.21,202.76,202.77,0.0,0.01,3
1683153687.85938716,57592503,0.0,0.5,0.0,-0.21,202.75,202.76,0.0,0.01,3
1683153687.95944810,57692564,0.0,0.5,0.0,-0.21,202.75,202.76,0.0,0.01,3
1683153688.05950117,57792617,0.0,0.5,0.0,-0.21,202.74,202.75,0.0,0.01,3
1683153688.15980315,57892919,0.0,0.49,0.0,-0.21,202.74,202.75,0.0,0.0,3
1683153688.25971603,57992832,0.0,0.49,0.0,-0.21,202.74,202.75,0.0,0.0,3
1683153688.35974503,58092861,0.0,0.49,0.0,-0.21,202.74,202.75,0.0,0.01,3
1683153688.45971918,58192835,0.0,0.49,0.0,-0.21,202.74,202.75,0.0,0.01,3
1683153688.55945110,58292567,0.0,0.49,0.0,-0.21,202.75,202.76,0.0,0.0,3
1683153688.65941119,58392527,0.0,0.5,0.0,-0.21,202.75,202.76,0.0,0.0,3
1683153688.75940418,58492520,0.0,0.5,0.0,-0.21,202.75,202.76,0.0,0.01,3
1683153688.85946798,58592584,0.0,0.5,0.0,-0.2,202.75,202.75,0.0,0.02,3
1683153688.95950103,58692617,0.0,0.5,0.0,-0.2,202.75,202.74,0.0,0.01,3
1683153689.05951810,58792634,0.0,0.5,0.0,-0.2,202.75,202.72,0.0,0.01,3
1683153689.15955400,58892670,0.0,0.5,0.0,-0.2,202.75,202.71,0.0,0.01,3
1683153689.25953507,58992651,0.0,0.5,0.0,-0.2,202.75,202.70000000000002,0.01,0.01,3
1683153689.35978603,59092902,0.0,0.5,0.0,-0.2,202.75,202.69,0.01,0.01,3
1683153689.45975113,59192867,0.0,0.5,0.0,-0.2,202.75,202.67000000000002,0.01,0.01,3
1683153689.55973315,59292849,0.0,0.49,0.0,-0.21,202.75,202.66,0.01,0.01,3
1683153689.65964317,59392759,0.0,0.49,0.0,-0.21,202.75,202.66,0.01,0.01,3
1683153689.75962400,59492740,0.0,0.49,0.0,-0.21,202.75,202.65,0.01,0.01,3
1683153689.85970402,59592820,0.0,0.48,0.0,-0.21,202.75,202.65,0.01,0.01,3
1683153689.95968413,59692800,0.0,0.48,0.0,-0.21,202.75,202.65,0.01,0.01,3
1683153690.05969906,59792815,0.0,0.48,0.0,-0.21,202.75,202.65,0.01,0.01,3
1683153690.15980220,59892918,0.0,0.48,0.0,-0.21,202.75,202.65,0.01,0.01,3
1683153690.25972509,59992841,0.0,0.48,0.0,-0.22,202.75,202.65,0.01,0.01,3
1683153690.35946703,60092583,0.0,0.48,0.0,-0.22,202.75,202.64000000000001,0.01,0.01,3
1683153690.45978713,60192903,0.0,0.48,0.0,-0.22,202.75,202.64000000000001,0.01,0.01,3
1683153690.55972314,60292839,0.0,0.48,0.0,-0.22,202.75,202.64000000000001,0.01,0.01,3
1683153690.65979719,60392913,0.0,0.48,0.0,-0.21,202.63,202.64000000000001,0.01,0.01,3
1683153690.75976920,60492885,0.0,0.48,0.0,-0.21,202.62,202.63,0.01,0.01,3
1683153690.85980606,60592922,0.0,0.48,0.0,-0.22,202.62,202.63,0.01,0.01,3
1683153690.95978904,60692905,0.0,0.49,0.0,-0.22,202.62,202.63,0.01,0.01,3
1683153691.06002498,60793141,0.0,0.48,0.0,-0.22,202.62,202.63,0.01,0.01,3
1683153691.16004205,60893158,0.0,0.48,0.0,-0.22,202.63,202.63,0.01,0.0,3
1683153691.25946617,60992582,0.0,0.48,0.0,-0.22,202.63,202.63,0.01,0.0,3
1683153691.35944009,61092556,0.0,0.48,0.0,-0.22,202.63,202.64000000000001,0.01,0.01,3
1683153691.45938897,61192505,0.0,0.48,0.0,-0.22,202.63,202.63,0.01,0.01,3
1683153691.55952907,61292645,0.0,0.48,0.0,-0.22,202.63,202.63,0.01,0.01,3
1683153691.65950418,61392620,0.0,0.48,0.0,-0.22,202.63,202.65,0.01,0.01,3
1683153691.75952101,61492637,0.0,0.48,0.0,-0.23,202.63,202.6,0.01,0.0,3
1683153691.85951114,61592627,0.0,0.47000000000000003,0.0,-0.22,202.63,202.64000000000001,0.01,0.0,3
1683153691.95952201,61692638,0.0,0.45,0.0,-0.22,202.63,202.62,0.01,0.0,3
1683153692.05950308,61792619,0.0,0.5,0.0,-0.21,202.63,202.61,0.01,0.0,3
1683153692.15962601,61892742,0.0,0.42,0.0,-0.22,202.63,202.63,0.01,0.0,3
1683153692.25977015,61992886,0.0,0.44,0.0,-0.2,202.63,202.58,0.01,0.0,3
1683153692.35944915,62092565,0.0,0.43,0.0,-0.21,202.63,202.59,0.01,0.0,3
1683153692.45946503,62192581,0.0,0.45,0.0,-0.23,202.63,202.63,0.01,0.0,3
1683153692.55952001,62292636,0.0,0.4,0.0,-0.2,202.63,202.61,0.01,0.01,3
1683153692.65953612,62392652,0.0,0.43,0.0,-0.2,202.63,202.61,0.01,0.01,3
1683153692.75955009,62492666,0.0,0.45,0.0,-0.22,202.63,202.62,0.01,0.0,3
1683153692.85956311,62592679,0.0,0.48,0.0,-0.21,202.63,202.6,0.01,0.0,3
1683153692.95950317,62692619,0.0,0.44,0.0,-0.2,202.63,202.59,0.01,0.01,3
1683153693.05947900,62792595,0.0,0.48,0.0,-0.21,202.63,202.61,0.01,0.0,3
1683153693.15992498,62893041,0.0,0.38,0.0,-0.17,202.63,202.6,0.01,0.01,3
1683153693.25966501,62992781,0.02,0.31,0.02,-0.04,202.63,202.54,0.02,0.01,3
1683153693.35966706,63092783,0.25,0.27,0.19,0.26,202.63,202.47,0.02,0.02,3
1683153693.45972109,63192837,0.39,0.48,0.32,0.67,202.63,202.36,0.01,0.02,3
1683153693.55974007,63292856,0.41000000000000003,0.67,0.4,0.79,202.63,202.27,0.01,0.02,3
1683153693.65985107,63392967,0.32,0.6900000000000001,0.39,0.89,202.63,202.17000000000002,0.02,0.02,3
1683153693.75973320,63492849,0.22,0.49,0.36,0.81,202.63,202.07,0.02,0.02,3
1683153693.85971713,63592833,0.15,0.29,0.29,0.67,202.63,201.98000000000002,0.02,0.02,3
1683153693.95974398,63692860,0.15,0.18,0.18,0.46,202.63,201.89000000000001,0.02,0.02,3
1683153694.05982518,63792941,0.11,0.1,0.06,0.17,202.63,201.8,0.02,0.02,3
1683153694.15949917,63892615,0.11,0.16,0.02,-0.11,202.63,201.70000000000002,0.02,0.02,3
1683153694.25977802,63992894,0.09,0.19,0.01,-0.18,202.63,201.6,0.02,0.02,3
1683153694.35979104,64092907,-0.15,0.0,0.05,-0.14,202.63,201.51,0.02,0.02,3
1683153694.45982599,64192942,-0.49,-0.5,0.11,-0.02,202.63,201.43,0.02,0.02,3
1683153694.55982018,64292936,-0.49,-0.98,0.18,0.07,202.63,201.33,0.02,0.02,3
1683153694.65982008,64392936,-0.05,-0.7000000000000001,0.18,0.18,202.63,201.29,0.02,0.01,3
1683153694.76000810,64493124,0.42,0.08,-0.03,0.24,202.63,201.26,0.02,0.02,3
1683153694.85986614,64592982,0.77,0.67,-0.37,-0.08,202.63,201.25,0.02,0.02,3
1683153694.95983410,64692950,0.98,0.96,-0.9500000000000001,-0.59,202.63,201.23000000000002,0.02,0.03,3
1683153695.05973721,64792853,1.02,1.23,-1.8800000000000001,-1.49,202.63,201.21,0.03,0.02,3
1683153695.15987110,64892987,0.9500000000000001,1.3800000000000001,-2.11,-2.63,202.63,201.15,0.03,0.02,3
1683153695.25977802,64992894,0.78,1.28,-2.23,-2.52,202.63,201.11,0.03,0.02,3
1683153695.35980606,65092922,0.6,0.9,-2.02,-2.3000000000000003,202.63,201.1,0.03,0.02,3
1683153695.45979810,65192914,0.41000000000000003,0.48,-1.57,-2.02,202.63,201.08,0.03,0.02,3
1683153695.55982709,65292943,0.24,0.21,-0.93,-1.12,202.63,201.07,0.03,0.02,3
1683153695.65974617,65392862,0.13,-0.03,-0.16,-0.17,202.63,201.07,0.03,0.01,3
1683153695.75948215,65492598,0.07,-0.13,0.61,0.66,202.63,201.08,0.03,0.01,3
1683153695.85952806,65592644,0.07,-0.06,1.4000000000000001,1.51,202.63,201.09,0.05,0.01,3
1683153695.95945001,65692566,0.16,-0.09,2.2,2.33,202.63,201.08,0.05,0.01,3
1683153696.05949020,65792606,0.3,-0.06,2.9,3.09,202.63,201.1,0.05,0.01,3
1683153696.15958214,65892698,0.45,0.24,3.0700000000000003,3.67,202.63,201.13,0.05,0.01,3
1683153696.25954318,65992659,0.59,0.36,2.86,3.4,202.63,201.15,0.04,0.01,3
1683153696.35953999,66092656,0.71,0.58,2.41,2.72,202.63,201.19,0.04,0.02,3
1683153696.45955420,66192670,0.77,0.71,1.97,2.1,202.63,201.21,0.05,0.02,3
1683153696.55980706,66292923,0.77,0.78,1.5,1.55,202.63,201.27,0.05,0.03,3
1683153696.65948319,66392599,0.75,0.73,0.98,1.03,202.63,201.29,0.05,0.03,3
1683153696.75952601,66492642,0.67,0.7000000000000001,0.58,0.44,202.63,201.33,0.05,0.03,3
1683153696.85946298,66592579,0.56,0.53,0.41000000000000003,0.16,202.63,201.38,0.04,0.03,3
1683153696.95949101,66692607,0.49,0.49,0.33,0.24,202.63,201.42000000000002,0.04,0.03,3
1683153697.05952406,66792640,0.44,0.31,0.35000000000000003,0.21,202.63,201.48000000000002,0.04,0.03,3
1683153697.15962100,66892737,0.38,0.37,0.39,0.32,202.63,201.53,0.04,0.02,3
1683153697.25952911,66992645,0.33,0.27,0.43,0.41000000000000003,202.63,201.57,0.03,0.02,3
1683153697.35956407,67092680,0.28,0.22,0.51,0.49,202.63,201.62,0.03,0.02,3
1683153697.45980000,67192916,0.09,0.21,0.47000000000000003,0.53,202.63,201.67000000000002,0.03,0.02,3
1683153697.55960703,67292723,-0.01,-0.08,0.12,0.4,202.63,201.71,0.03,0.02,3
1683153697.65973997,67392856,-0.08,-0.02,-0.27,-0.19,202.63,201.75,0.03,0.02,3
1683153697.75969505,67492811,-0.13,-0.04,-0.45,-0.66,202.63,201.77,0.03,0.02,3
1683153697.85986209,67592978,-0.12,-0.15,-0.37,-0.62,202.63,201.81,0.04,0.03,3
1683153697.95968604,67692802,-0.08,0.04,0.0,-0.33,202.63,201.8,0.04,0.03,3
1683153698.05972815,67792844,-0.04,0.01,0.44,0.3,202.63,201.81,0.04,0.02,3
1683153698.15982604,67892942,-0.02,0.03,0.72,0.87,202.63,201.81,0.04,0.02,3
1683153698.25979710,67992913,-0.01,-0.02,0.87,0.9500000000000001,202.63,201.82,0.05,0.02,3
1683153698.35996914,68093085,0.02,-0.04,0.86,0.98,202.63,201.81,0.05,0.02,3
1683153698.46012616,68193242,0.1,0.18,0.81,0.84,202.63,201.78,0.05,0.02,3
1683153698.55983615,68292952,0.13,0.18,0.75,0.75,202.63,201.75,0.05,0.02,3
1683153698.65946603,68392582,0.16,0.11,0.7000000000000001,0.68,202.63,201.73000000000002,0.05,0.02,3
1683153698.75949407,68492610,0.17,0.14,0.65,0.6,202.63,201.69,0.05,0.02,3
1683153698.85952616,68592642,0.17,0.11,0.6,0.54,202.63,201.68,0.04,0.02,3
1683153698.95952797,68692644,0.16,0.07,0.5700000000000001,0.51,202.63,201.67000000000002,0.04,0.02,3
1683153699.05953908,68792655,0.15,0.14,0.54,0.52,202.63,201.65,0.04,0.03,3
1683153699.15964007,68892756,0.11,0.08,0.51,0.46,202.63,201.64000000000001,0.04,0.03,3
1683153699.25981116,68992927,0.07,-0.07,0.48,0.42,202.63,201.63,0.03,0.03,3
1683153699.35981107,69092927,0.01,0.0,0.47000000000000003,0.41000000000000003,202.63,201.61,0.03,0.03,3
1683153699.46012902,69193245,-0.01,0.1,0.47000000000000003,0.38,202.63,201.62,0.03,0.02,3
1683153699.55985904,69292975,0.0,0.0,0.44,0.41000000000000003,202.63,201.65,0.03,0.02,3
1683153699.65979218,69392908,0.0,0.03,0.43,0.38,202.63,201.64000000000001,0.03,0.02,3
1683153699.75978613,69492902,0.04,0.13,0.11,0.33,202.63,201.64000000000001,0.03,0.02,3
1683153699.85983109,69592947,0.1,0.21,-0.33,-0.21,202.63,201.67000000000002,0.03,0.03,3
1683153699.95990205,69693018,0.13,0.21,-0.5700000000000001,-0.8300000000000001,202.63,201.67000000000002,0.03,0.03,3
1683153700.05983615,69792952,0.13,0.21,-0.61,-0.91,202.63,201.65,0.02,0.03,3
1683153700.15985918,69892975,0.14,0.21,-0.49,-0.75,202.63,201.68,0.02,0.02,3
1683153700.25980401,69992920,0.16,0.22,-0.04,-0.4,202.63,201.70000000000002,0.02,0.02,3
1683153700.36005807,70093174,0.17,0.27,0.34,0.3,202.63,201.71,0.02,0.02,3
1683153700.45947218,70192588,0.17,0.24,0.58,0.75,202.63,201.76,0.02,0.01,3
1683153700.55949306,70292609,0.16,0.26,0.6900000000000001,0.85,202.63,201.78,0.02,0.01,3
1683153700.65950704,70392623,0.13,0.23,0.58,0.89,202.63,201.82,0.02,0.01,3
1683153700.75950909,70492625,0.14,0.2,0.37,0.58,202.63,201.87,0.02,0.02,3
1683153700.85951900,70592635,0.16,0.28,0.29,0.26,202.63,201.89000000000001,0.02,0.02,3
1683153700.95954013,70692656,0.2,0.21,0.23,0.28,202.63,201.93,0.02,0.02,3
1683153701.05953503,70792651,0.22,0.19,0.16,0.21,202.63,201.96,0.01,0.02,3
1683153701.15964508,70892761,0.24,0.29,0.34,0.17,202.63,202.0,0.01,0.02,3
1683153701.25982904,70992945,0.26,0.25,0.38,0.55,202.63,202.03,0.01,0.02,3
1683153701.35947514,71092591,0.28,0.23,0.44,0.55,202.63,202.04,0.01,0.02,3
1683153701.45979309,71192909,0.31,0.23,0.47000000000000003,0.52,202.63,202.07,0.01,0.02,3
1683153701.55975103,71292867,0.37,0.35000000000000003,0.47000000000000003,0.61,202.63,202.1,0.01,0.01,3
1683153701.65971303,71392829,0.45,0.45,0.49,0.52,202.63,202.17000000000002,0.01,0.01,3
1683153701.75973105,71492847,0.51,0.58,0.49,0.5,202.63,202.19,0.01,0.01,3
1683153701.85974002,71592856,0.55,0.53,0.49,0.5,202.63,202.27,0.01,0.01,3
1683153701.95971012,71692826,0.56,0.62,0.53,0.49,202.63,202.3,0.01,0.01,3
1683153702.05987906,71792995,0.56,0.49,0.55,0.55,202.63,202.38,0.01,0.01,3
1683153702.15985107,71892967,0.58,0.58,0.6,0.56,202.63,202.42000000000002,0.01,0.02,3
1683153702.25966620,71992782,0.5700000000000001,0.6900000000000001,0.6,0.64,202.63,202.47,0.01,0.01,3
1683153702.36003804,72093154,0.5700000000000001,0.61,0.62,0.67,202.63,202.52,0.01,0.01,3
1683153702.45980620,72192922,0.56,0.54,0.64,0.68,202.63,202.57,0.01,0.01,3
1683153702.55954218,72292658,0.61,0.6,0.6900000000000001,0.66,202.63,202.6,0.01,0.01,3
1683153702.65952611,72392642,0.63,0.55,0.73,0.73,202.63,202.62,0.01,0.01,3
1683153702.75955105,72492667,0.62,0.61,0.77,0.8200000000000001,202.63,202.64000000000001,0.01,0.01,3
1683153702.85954618,72592662,0.5700000000000001,0.56,0.77,0.86,202.63,202.68,0.01,0.01,3
1683153702.95964503,72692761,0.51,0.58,0.79,0.8300000000000001,202.63,202.67000000000002,0.01,0.01,3
1683153703.05953002,72792646,0.44,0.4,0.75,0.86,202.63,202.69,0.01,0.01,3
1683153703.15950418,72892620,0.4,0.39,0.75,0.77,202.63,202.68,0.01,0.02,3
1683153703.25982213,72992938,0.37,0.29,0.68,0.78,202.63,202.70000000000002,0.01,0.02,3
1683153703.35980010,73092916,0.35000000000000003,0.24,0.68,0.75,202.63,202.67000000000002,0.01,0.02,3
1683153703.45955110,73192667,0.28,0.33,0.66,0.7000000000000001,202.63,202.67000000000002,0.01,0.02,3
1683153703.55952907,73292645,0.23,0.14,0.66,0.67,202.63,202.66,0.01,0.02,3
1683153703.65958214,73392698,-0.12,0.0,0.6,0.67,202.63,202.62,0.01,0.02,3
1683153703.75952005,73492636,-0.4,-0.49,0.4,0.52,202.63,202.59,0.01,0.02,3
1683153703.85962701,73592743,-0.51,-0.81,0.1,0.18,202.63,202.59,0.01,0.03,3
1683153703.95952606,73692642,-0.52,-0.64,-0.67,-0.16,202.63,202.57,0.01,0.03,3
1683153704.05942202,73792538,-0.37,-0.68,-1.4000000000000001,-1.34,202.63,202.54,0.01,0.02,3
1683153704.16002512,73893141,-0.18,-0.16,-1.48,-2.1,202.63,202.47,0.01,0.02,3
1683153704.25951004,73992626,0.0,0.05,-1.25,-1.67,202.63,202.46,0.02,0.02,3
1683153704.35950804,74092624,0.16,0.21,-0.87,-1.1,202.63,202.44,0.02,0.02,3
1683153704.45953608,74192652,0.28,0.37,-0.22,-0.54,202.63,202.41,0.02,0.02,3
1683153704.55955601,74292672,0.34,0.37,0.48,0.42,202.63,202.4,0.02,0.01,3
1683153704.65951204,74392628,0.34,0.45,0.84,1.22,202.63,202.39000000000001,0.03,0.01,3
1683153704.75962901,74492745,0.33,0.32,0.84,1.28,202.63,202.4,0.03,0.01,3
1683153704.85953212,74592648,0.32,0.33,0.71,1.04,202.63,202.39000000000001,0.04,0.02,3
1683153704.95940709,74692523,0.39,0.39,0.51,0.75,199.97,199.73000000000002,0.04,0.02,3
1683153705.05979609,74792912,0.36,0.37,0.3,0.42,199.97,199.79,0.04,0.02,3
1683153705.15987611,74892992,0.39,0.49,0.42,0.22,199.97,199.94,0.04,0.02,3
1683153705.25980115,74992917,0.44,0.47000000000000003,0.8300000000000001,0.59,199.97,200.04,0.04,0.02,3
1683153705.35981607,75092932,0.5,0.56,1.04,1.21,199.97,200.12,0.04,0.02,3
1683153705.45983410,75192950,0.56,0.71,1.1,1.31,199.97,200.14000000000001,0.06,0.01,3
1683153705.55984116,75292957,0.6,0.71,1.02,1.25,199.97,200.13,0.06,0.01,3
1683153705.65986919,75392985,0.65,0.68,0.87,1.07,199.97,200.14000000000001,0.05,0.01,3
1683153705.75982618,75492942,0.65,0.78,0.7000000000000001,0.74,199.97,200.16,0.05,0.01,3
1683153705.85974002,75592856,0.6,0.71,0.56,0.55,199.97,200.20000000000002,0.05,0.01,3
1683153705.96005702,75693173,0.42,0.68,0.44,0.42,199.97,200.24,0.05,0.01,3
1683153706.05977416,75792890,0.18,0.33,0.32,0.31,199.97,200.26,0.06,0.01,3
1683153706.15983915,75892955,0.0,0.0,-0.12,0.14,199.97,200.25,0.06,0.01,3
1683153706.25988412,75993000,-0.11,-0.18,-1.04,-0.5,199.97,200.20000000000002,0.06,0.01,3
1683153706.35971403,76092830,-0.19,-0.25,-2.2,-1.9100000000000001,199.97,200.16,0.06,0.01,3
1683153706.45970917,76192825,-0.21,-0.26,-3.4,-3.35,199.97,200.14000000000001,0.06,0.01,3
1683153706.55974102,76292857,-0.17,-0.34,-3.98,-4.55,199.97,200.1,0.06,0.0,3
1683153706.65975618,76392872,-0.11,-0.17,-4.18,-4.71,199.97,200.0,0.06,0.0,3
1683153706.75966907,76492785,0.01,-0.05,-4.18,-4.37,199.97,199.83,0.06,0.0,3
1683153706.86002612,76593142,0.18,0.07,-3.94,-4.2,199.97,199.62,0.06,0.0,3
1683153706.95975113,76692867,0.35000000000000003,0.26,-3.75,-3.64,199.97,199.32,0.06,0.0,3
1683153707.05952001,76792636,0.5,0.54,-3.48,-3.3000000000000003,199.97,198.98000000000002,0.06,0.0,3
1683153707.15960598,76892722,0.62,0.62,-3.21,-3.04,199.97,198.51,0.06,0.0,3
1683153707.25954008,76992656,0.77,0.7000000000000001,-3.09,-2.7,199.97,198.09,0.05,0.0,3
1683153707.35953403,77092650,0.9,0.9500000000000001,-3.5100000000000002,-2.81,199.97,197.73000000000002,0.05,0.01,3
1683153707.45949602,77192612,0.98,1.1400000000000001,-3.48,-3.47,199.97,197.4,0.06,0.01,3
1683153707.55981612,77292932,1.04,1.1400000000000001,-3.0100000000000002,-3.18,199.97,197.0,0.06,0.01,3
1683153707.65942216,77392538,1.09,1.28,-2.72,-2.19,199.97,196.75,0.05,0.01,3
1683153707.75947905,77492595,1.11,1.2,-2.27,-1.9000000000000001,199.97,196.65,0.05,0.01,3
1683153707.85952115,77592637,1.09,1.1500000000000001,-1.6300000000000001,-1.56,199.97,196.67000000000002,0.05,0.01,3
1683153707.95952702,77692643,1.11,0.9400000000000001,-0.88,-0.67,199.97,196.79,0.05,0.01,3
1683153708.05951715,77792633,1.1500000000000001,0.89,-0.07,0.15,199.97,197.0,0.06,0.01,3
1683153708.15963912,77892755,1.1500000000000001,0.85,0.52,0.99,199.97,197.18,0.06,0.01,3
1683153708.25951314,77992629,1.2,1.04,0.87,1.42,199.97,197.4,0.05,0.01,3
1683153708.35961103,78092727,1.24,1.05,0.98,1.43,199.79,197.65,0.05,0.01,3
1683153708.45982909,78192945,1.22,1.1400000000000001,0.75,1.35,198.79,197.86,0.05,0.01,3
1683153708.55973506,78292851,1.2,1.0,0.45,0.75,197.39000000000001,197.9,0.05,0.01,3
1683153708.65978312,78392899,1.1400000000000001,1.11,0.38,0.23,196.28,197.69,0.04,0.01,3
1683153708.75975800,78492874,0.97,0.91,0.73,0.31,196.0,197.29,0.04,0.01,3
1683153708.85981202,78592928,0.77,0.77,1.3,1.04,196.0,196.89000000000001,0.04,0.01,3
1683153708.95974517,78692861,0.59,0.38,1.98,1.8900000000000001,196.0,196.56,0.04,0.0,3
1683153709.05982804,78792944,0.42,0.37,2.65,2.67,196.0,196.18,0.03,0.01,3
1683153709.15984511,78892961,0.29,0.18,2.86,3.36,196.0,195.82,0.03,0.01,3
1683153709.25983620,78992952,0.18,0.12,2.73,3.15,196.0,195.48000000000002,0.03,0.01,3
1683153709.36005807,79093174,0.07,0.09,2.34,2.66,196.0,195.15,0.03,0.01,3
1683153709.45974016,79192856,-0.26,-0.14,1.73,1.94,196.0,194.84,0.03,0.01,3
1683153709.55979919,79292915,-0.59,-0.64,1.67,1.16,196.0,194.57,0.03,0.0,3
1683153709.65977001,79392886,-0.8,-1.01,1.59,1.26,196.0,194.32,0.03,0.0,3
1683153709.75969601,79492812,-0.73,-0.9500000000000001,1.23,1.3800000000000001,196.0,194.1,0.03,0.0,3
1683153709.85970616,79592822,-0.3,-0.74,0.75,0.7000000000000001,196.0,193.95000000000002,0.03,0.0,3
1683153709.95972300,79692839,0.22,0.15,0.8,0.13,196.0,193.87,0.03,0.01,3
1683153710.05971813,79792834,0.53,0.78,1.22,0.64,196.0,193.78,0.03,0.01,3
1683153710.15984511,79892961,0.7000000000000001,0.66,1.82,1.37,196.0,193.73000000000002,0.03,0.01,3
1683153710.25979805,79992914,0.72,0.88,2.52,2.27,196.0,193.66,0.03,0.01,3
1683153710.35972905,80092845,0.62,0.61,3.27,3.0500000000000003,196.0,193.53,0.03,0.01,3
1683153710.45952702,80192643,0.45,0.36,4.04,3.96,196.0,193.42000000000002,0.03,0.01,3
1683153710.55951715,80292633,0.31,0.26,4.43,4.62,196.0,193.32,0.03,0.01,3
1683153710.65953612,80392652,0.16,-0.05,4.3500000000000005,4.71,196.0,193.3,0.03,0.01,3
1683153710.75952315,80492639,0.0,-0.14,4.01,4.11,196.0,193.31,0.03,0.01,3
1683153710.85955405,80592670,-0.05,-0.11,3.5100000000000002,3.5700000000000003,196.0,193.39000000000001,0.02,0.01,3
1683153710.95972919,80692845,-0.08,-0.35000000000000003,2.93,2.83,196.0,193.43,0.02,0.01,3
1683153711.05956602,80792682,-0.04,-0.13,2.35,2.17,196.0,193.46,0.02,0.02,3
1683153711.15957403,80892690,-0.04,-0.2,1.81,1.54,196.0,193.53,0.02,0.02,3
1683153711.25946808,80992584,-0.04,-0.17,1.36,1.05,196.0,193.58,0.02,0.01,3
1683153711.35947800,81092594,-0.03,-0.18,1.03,0.6900000000000001,196.0,193.58,0.02,0.01,3
1683153711.45953417,81192650,-0.08,-0.07,0.81,0.55,196.0,193.53,0.02,0.01,3
1683153711.55955815,81292674,-0.12,-0.14,0.71,0.41000000000000003,196.0,193.45000000000002,0.02,0.01,3
1683153711.65954018,81392656,-0.21,-0.24,0.68,0.44,196.0,193.42000000000002,0.02,0.01,3
1683153711.75960803,81492724,-0.31,-0.33,0.75,0.53,196.0,193.44,0.02,0.01,3
1683153711.85981297,81592929,-0.37,-0.55,0.8300000000000001,0.64,196.0,193.51,0.01,0.01,3
1683153711.95986605,81692982,-0.47000000000000003,-0.44,0.92,0.78,196.0,193.65,0.01,0.01,3
1683153712.05983710,81792953,-0.48,-0.56,0.98,0.84,196.0,193.82,0.01,0.01,3
1683153712.15990520,81893021,-0.46,-0.5700000000000001,1.05,0.97,196.0,194.02,0.01,0.01,3
1683153712.25979900,81992915,-0.42,-0.39,1.11,0.99,196.0,194.26,0.01,0.01,3
1683153712.35979700,82092913,-0.4,-0.36,1.16,1.11,196.0,194.47,0.01,0.01,3
1683153712.45982409,82192940,-0.4,-0.51,1.18,1.1400000000000001,196.0,194.61,0.01,0.02,3
1683153712.55992007,82293036,-0.45,-0.55,1.19,1.05,196.0,194.74,0.01,0.02,3
1683153712.65972209,82392838,-0.47000000000000003,-0.43,1.18,1.1300000000000001,196.0,194.83,0.01,0.03,3
1683153712.75970507,82492821,-0.51,-0.67,1.17,1.12,196.0,194.89000000000001,0.01,0.02,3
1683153712.85981011,82592926,-0.52,-0.5,1.16,1.08,196.0,194.95000000000002,0.01,0.02,3
1683153712.95976019,82692876,-0.45,-0.32,1.1,1.11,196.0,195.04,0.01,0.02,3
1683153713.05970502,82792821,-0.33,-0.45,1.0,0.97,196.0,195.08,0.01,0.02,3
1683153713.15979719,82892913,-0.22,-0.17,0.88,0.85,196.0,195.1,0.01,0.02,3
1683153713.25974298,82992859,-0.07,-0.04,0.75,0.75,196.0,195.08,0.01,0.02,3
1683153713.36002207,83093138,-0.02,0.04,0.65,0.62,196.0,195.02,0.01,0.02,3
1683153713.45981717,83192933,0.08,-0.08,0.55,0.42,196.0,194.96,0.01,0.02,3
1683153713.55961108,83292727,0.14,0.24,0.43,0.44,196.0,194.92000000000002,0.01,0.02,3
1683153713.65954900,83392665,0.18,0.22,0.36,0.24,196.0,194.86,0.01,0.02,3
1683153713.75948811,83492604,0.31,0.29,0.3,0.23,196.0,194.83,0.01,0.01,3
1683153713.85953808,83592654,0.35000000000000003,0.43,0.29,0.29,196.0,194.81,0.02,0.01,3
1683153713.95947719,83692593,0.39,0.33,0.34,0.21,196.0,194.83,0.02,0.02,3
1683153714.05949211,83792608,0.46,0.44,0.32,0.43,196.0,194.79,0.01,0.02,3
1683153714.15962315,83892739,0.44,0.43,0.4,0.34,196.0,194.78,0.01,0.02,3
1683153714.25980806,83992924,0.48,0.39,0.38,0.39,196.0,194.76,0.01,0.02,3
1683153714.35955215,84092668,0.34,0.41000000000000003,0.39,0.49,196.0,194.70000000000002,0.01,0.02,3
1683153714.45960712,84192723,0.28,0.46,0.41000000000000003,0.39,196.0,194.65,0.01,0.02,3
1683153714.55954409,84292660,0.15,0.16,0.39,0.46,196.0,194.62,0.01,0.02,3
1683153714.65962100,84392737,0.11,0.13,0.4,0.4,196.0,194.56,0.01,0.02,3
1683153714.75952721,84492643,0.11,0.21,0.4,0.4,196.0,194.51,0.01,0.02,3
1683153714.85945320,84592569,0.12,0.03,0.37,0.37,196.0,194.44,0.01,0.02,3
