timestamp,TimeUS,I,Status,GMS,GWk,NSats,HDop,Lat,Lng,Alt,Spd,GCrs,VZ,Yaw,U
1683153639.59899998,9332116,0,3,340857599,2260,14,1.6500000000000001,42.6892579,-84.4889544,268.88,0.011180341243743896,153.43495178222656,-0.04100000113248825,0.0,1
1683153639.79908800,9532204,0,3,340857799,2260,14,1.6500000000000001,42.689257999999995,-84.4889544,268.86,0.019924860447645187,197.52557373046875,-0.04000000283122063,0.0,1
1683153639.99910307,9732219,0,3,340857999,2260,14,0.89,42.689258099999996,-84.4889544,268.84000000000003,0.014317820779979229,204.775146484375,-0.026000000536441803,0.0,1
1683153640.19926906,9932385,0,3,340858199,2260,14,0.89,42.6892583,-84.4889543,268.81,0.019235385581851006,152.10272216796875,-0.04800000041723251,0.0,1
1683153640.39913416,10132250,0,3,340858399,2260,14,0.89,42.6892583,-84.4889543,268.8,0.015231546945869923,203.1986083984375,-0.04400000348687172,0.0,1
1683153640.59916997,10332286,0,3,340858599,2260,14,0.89,42.6892584,-84.4889542,268.77,0.033600594848394394,126.52885437011719,-0.009000000543892384,0.0,1
1683153640.79923010,10532346,0,3,340858799,2260,14,0.89,42.6892585,-84.4889541,268.75,0.037947334349155426,198.43495178222656,-0.05000000074505806,0.0,1
1683153641.01923704,10752353,0,3,340858999,2260,14,0.89,42.689258599999995,-84.4889541,268.75,0.012649111449718475,288.4349365234375,0.027000000700354576,0.0,1
1683153641.21915317,10952269,0,3,340859199,2260,14,0.89,42.689258699999996,-84.4889541,268.73,0.047518420964479446,171.52883911132812,-0.09800000488758087,0.0,1
1683153641.41921902,11152335,0,3,340859399,2260,14,0.89,42.6892588,-84.4889541,268.72,0.008544004522264004,110.55603790283203,-0.013000000268220901,0.0,1
1683153641.61931014,11352426,0,3,340859599,2260,14,0.89,42.689259,-84.4889541,268.72,0.003000000026077032,270.0,-0.02800000086426735,0.0,1
1683153641.81950307,11552619,0,3,340859799,2260,14,0.89,42.6892591,-84.4889541,268.71,0.03244996443390846,236.3099365234375,-0.020000001415610313,0.0,1
1683153642.03974009,11772856,0,3,340859999,2260,14,0.89,42.689259199999995,-84.4889542,268.69,0.02617250569164753,133.4518280029297,0.003000000026077032,0.0,1
1683153642.20015001,11933266,0,3,340860199,2260,14,0.89,42.6892594,-84.4889542,268.67,0.009055386297404766,6.34019136428833,-0.0010000000474974513,0.0,1
1683153642.41928506,12152401,0,3,340860399,2260,14,0.89,42.6892595,-84.4889542,268.65,0.0022360680159181356,153.43495178222656,-0.007000000216066837,0.0,1
1683153642.61948919,12352605,0,3,340860599,2260,14,0.89,42.6892596,-84.4889542,268.65,0.00412310566753149,75.96375274658203,0.01600000075995922,0.0,1
1683153642.81932497,12552441,0,3,340860799,2260,14,0.89,42.6892596,-84.4889542,268.66,0.022627418860793114,225.0,-0.024000000208616257,0.0,1
1683153642.99997997,12733096,0,3,340860999,2260,14,0.89,42.6892596,-84.4889542,268.66,0.014764823950827122,241.69924926757812,-0.036000002175569534,0.0,1
1683153643.19990110,12933017,0,3,340861199,2260,14,0.89,42.6892596,-84.4889542,268.67,0.04933558776974678,17.70042610168457,0.05000000074505806,0.0,1
1683153643.41932011,13152436,0,3,340861399,2260,14,0.89,42.6892597,-84.4889541,268.67,0.009899495169520378,225.0,0.0,0.0,1
1683153643.59986806,13332984,0,3,340861599,2260,14,0.89,42.6892597,-84.4889541,268.68,0.008602325804531574,35.53767776489258,-0.02500000037252903,0.0,1
1683153643.79984713,13532963,0,3,340861799,2260,14,0.89,42.6892597,-84.48895399999999,268.7,0.02801785245537758,182.04541015625,0.009000000543892384,0.0,1
1683153643.99986005,13732976,0,3,340861999,2260,14,0.89,42.6892597,-84.48895399999999,268.71,0.027166156098246574,263.6598205566406,-0.005000000353902578,0.0,1
1683153644.21929002,13952406,0,3,340862199,2260,14,0.89,42.6892597,-84.48895399999999,268.71,0.014866068959236145,199.65383911132812,-0.09600000083446503,0.0,1
1683153644.39927006,14132386,0,3,340862399,2260,14,0.89,42.6892596,-84.48895399999999,268.7,0.006000000052154064,0.0,-0.01100000087171793,0.0,1
1683153644.61951399,14352630,0,3,340862599,2260,14,0.89,42.6892594,-84.48895399999999,268.66,0.02280350960791111,344.744873046875,0.036000002175569534,0.0,1
1683153644.81914401,14552260,0,3,340862799,2260,14,0.89,42.689259199999995,-84.48895399999999,268.62,0.024331049993634224,99.46231842041016,0.03800000250339508,0.0,1
1683153645.01937103,14752487,0,3,340862999,2260,14,0.89,42.6892591,-84.48895399999999,268.62,0.09651943296194077,304.01934814453125,-0.09400000423192978,0.0,1
1683153645.21946001,14952576,0,3,340863199,2260,14,0.89,42.6892591,-84.4889541,268.64,0.12182775139808655,138.32740783691406,0.018000001087784767,0.0,1
1683153645.41969013,15152806,0,3,340863399,2260,14,0.89,42.689259299999996,-84.48895399999999,268.6,0.09362158179283142,336.7210388183594,0.09400000423192978,0.0,1
1683153645.61969304,15352809,0,3,340863599,2260,14,0.89,42.6892595,-84.4889542,268.59000000000003,0.0751664862036705,176.18592834472656,-0.07600000500679016,0.0,1
1683153645.79917216,15532288,0,3,340863799,2260,14,0.89,42.6892596,-84.4889544,268.61,0.019026298075914383,183.01280212402344,-0.0860000029206276,0.0,1
1683153645.99991202,15733028,0,3,340863999,2260,14,0.89,42.689259799999995,-84.48895449999999,268.6,0.1326386034488678,185.6246337890625,-0.35100001096725464,0.0,1
1683153646.20002198,15933138,0,3,340864199,2260,14,0.89,42.68926,-84.4889547,268.63,0.05500909313559532,181.04164123535156,-0.12800000607967377,0.0,1
1683153646.39934015,16132456,0,3,340864399,2260,14,0.89,42.6892602,-84.4889549,268.66,0.0300665944814682,3.814074754714966,0.08000000566244125,0.0,1
1683153646.59932899,16332445,0,3,340864599,2260,14,0.89,42.689260399999995,-84.48895499999999,268.67,0.10938464850187302,14.290323257446289,0.22800001502037048,0.0,1
1683153646.79919720,16532313,0,3,340864799,2260,14,0.89,42.689260999999995,-84.48895519999999,268.6,0.17181968688964844,190.3943328857422,-0.4520000219345093,0.0,1
1683153647.01945806,16752574,0,3,340864999,2260,14,0.89,42.6892613,-84.4889554,268.61,0.12371338158845901,20.339221954345703,0.1469999998807907,0.0,1
1683153647.19987702,16932993,0,3,340865199,2260,14,0.89,42.689261599999995,-84.4889556,268.61,0.11428473889827728,344.2611999511719,0.17900000512599945,0.0,1
1683153647.39929509,17132411,0,3,340865399,2260,14,0.89,42.6892621,-84.4889558,268.57,0.08132036030292511,134.5017852783203,0.10100000351667404,0.0,1
1683153647.59917116,17332287,0,3,340865599,2260,14,0.89,42.6892628,-84.4889561,268.54,0.0868331789970398,298.9264221191406,-0.030000001192092896,0.0,1
1683153647.81942105,17552537,0,3,340865799,2260,14,0.89,42.689263499999996,-84.48895639999999,268.48,0.09247703105211258,21.571306228637695,0.07400000095367432,0.0,1
1683153648.03931618,17772432,0,3,340865999,2260,14,0.89,42.6892639,-84.4889566,268.47,0.01969771645963192,293.9624938964844,0.09300000220537186,0.0,1
1683153648.21971011,17952826,0,3,340866199,2260,14,0.89,42.6892643,-84.4889568,268.45,0.018027758225798607,93.17982482910156,-0.04700000211596489,0.0,1
1683153648.41940713,18152523,0,3,340866399,2260,14,0.89,42.6892646,-84.48895689999999,268.44,0.013892443850636482,30.256439208984375,-0.0010000000474974513,0.0,1
1683153648.61964798,18352764,0,3,340866599,2260,14,0.89,42.6892649,-84.4889571,268.42,0.01910497434437275,6.009006023406982,0.03700000047683716,0.0,1
1683153648.81950307,18552619,0,3,340866799,2260,14,0.89,42.689265299999995,-84.4889573,268.4,0.03590264543890953,257.125,-0.032999999821186066,0.0,1
1683153648.99990010,18733016,0,3,340866999,2260,14,0.89,42.6892656,-84.4889575,268.38,0.009219544939696789,12.528807640075684,0.027000000700354576,0.0,1
1683153649.21972013,18952836,0,3,340867199,2260,14,0.89,42.689265899999995,-84.4889577,268.39,0.014560219831764698,74.05460357666016,0.017000000923871994,0.0,1
1683153649.41942120,19152537,0,3,340867399,2260,14,0.89,42.6892662,-84.4889578,268.37,0.04393176734447479,228.69139099121094,-0.07300000637769699,0.0,1
1683153649.61944318,19352559,0,3,340867599,2260,14,0.89,42.6892664,-84.4889579,268.37,0.02451530285179615,78.23170471191406,0.01100000087171793,0.0,1
1683153649.81950498,19552621,0,3,340867799,2260,14,0.89,42.689266599999996,-84.488958,268.37,0.0305941179394722,78.6900634765625,0.03700000047683716,0.0,1
1683153650.01952600,19752642,0,3,340867999,2260,14,0.89,42.6892668,-84.48895809999999,268.37,0.017720045521855354,106.38953399658203,0.029000001028180122,0.0,1
1683153650.21945715,19952573,0,3,340868199,2260,14,0.89,42.689267099999995,-84.4889582,268.36,0.03178049996495247,347.275634765625,-0.009000000543892384,0.0,1
1683153650.39915109,20132267,0,3,340868399,2260,14,0.89,42.689267199999996,-84.4889583,268.37,0.01004987582564354,354.2893981933594,0.0560000017285347,0.0,1
1683153650.61949611,20352612,0,3,340868599,2260,14,0.89,42.6892674,-84.4889584,268.36,0.02121320553123951,8.130102157592773,0.06400000303983688,0.0,1
1683153650.81956410,20552680,0,3,340868799,2260,14,0.89,42.6892675,-84.48895859999999,268.36,0.019646884873509407,284.7435607910156,0.014000000432133675,0.0,1
1683153651.01951098,20752627,0,3,340868999,2260,14,0.89,42.6892676,-84.4889587,268.36,0.03330165520310402,228.6522216796875,-0.02500000037252903,0.0,1
1683153651.21975899,20952875,0,3,340869199,2260,14,0.89,42.689267699999995,-84.48895879999999,268.36,0.03769615292549133,21.801406860351562,0.07100000232458115,0.0,1
1683153651.41943908,21152555,0,3,340869399,2260,14,0.89,42.6892679,-84.4889589,268.35,0.041725292801856995,224.02899169921875,-0.039000000804662704,0.0,1
1683153651.61952209,21352638,0,3,340869599,2260,14,0.89,42.6892679,-84.4889591,268.36,0.004000000189989805,0.0,0.026000000536441803,0.0,1
1683153651.81951904,21552635,0,3,340869799,2260,14,0.89,42.6892681,-84.4889591,268.35,0.02408318966627121,85.2363510131836,-0.009000000543892384,0.0,1
1683153652.01945114,21752567,0,3,340869999,2260,14,0.89,42.6892682,-84.4889592,268.35,0.011401754803955555,52.1250114440918,0.017000000923871994,0.0,1
1683153652.21940303,21952519,0,3,340870199,2260,14,0.89,42.689268299999995,-84.4889592,268.34000000000003,0.01100000087171793,180.0,0.03500000014901161,0.0,1
1683153652.41951108,22152627,0,3,340870399,2260,14,0.89,42.689268399999996,-84.48895929999999,268.34000000000003,0.01702938787639141,86.63353729248047,0.052000001072883606,0.0,1
1683153652.61950803,22352624,0,3,340870599,2260,14,0.89,42.689268399999996,-84.48895929999999,268.34000000000003,0.018867963925004005,57.99461364746094,0.0430000014603138,0.0,1
1683153652.81952310,22552639,0,3,340870799,2260,14,0.89,42.6892685,-84.4889594,268.33,0.010630146600306034,318.8140869140625,0.05900000408291817,0.0,1
1683153653.01976204,22752878,0,3,340870999,2260,14,0.89,42.6892686,-84.4889594,268.32,0.020615529268980026,320.9061279296875,0.03200000151991844,0.0,1
1683153653.21966410,22952780,0,3,340871199,2260,14,0.89,42.6892688,-84.48895949999999,268.31,0.013601471669971943,216.02737426757812,-0.02800000086426735,0.0,1
1683153653.41950607,23152622,0,3,340871399,2260,14,0.89,42.689268899999995,-84.4889596,268.31,0.014866068959236145,70.3461685180664,0.023000001907348633,0.0,1
1683153653.61951113,23352627,0,3,340871599,2260,14,0.89,42.689268999999996,-84.4889596,268.29,0.011401754803955555,344.744873046875,0.02500000037252903,0.0,1
1683153653.81945014,23552566,0,3,340871799,2260,14,0.89,42.6892691,-84.4889597,268.29,0.05333854630589485,30.41107749938965,0.08700000494718552,0.0,1
1683153654.03931999,23772436,0,3,340871999,2260,14,0.89,42.6892692,-84.4889597,268.28000000000003,0.03401470556855202,181.6846923828125,-0.02500000037252903,0.0,1
1683153654.21974015,23952856,0,3,340872199,2260,14,0.89,42.6892693,-84.4889597,268.28000000000003,0.01100000087171793,90.0,0.017000000923871994,0.0,1
1683153654.39932299,24132439,0,3,340872399,2260,14,0.89,42.6892693,-84.48895979999999,268.28000000000003,0.050209563225507736,44.19306564331055,0.0990000069141388,0.0,1
1683153654.61947203,24352588,0,3,340872599,2260,14,0.89,42.6892694,-84.48895979999999,268.27,0.014764823950827122,331.6992492675781,-0.017000000923871994,0.0,1
1683153654.81942105,24552537,0,3,340872799,2260,14,0.89,42.689269599999996,-84.4889599,268.27,0.012369317002594471,345.9637451171875,0.004000000189989805,0.0,1
1683153655.01980019,24752916,0,3,340872999,2260,14,0.89,42.6892697,-84.48895999999999,268.26,0.015000000596046448,233.13009643554688,-0.009000000543892384,0.0,1
1683153655.21949911,24952615,0,3,340873199,2260,14,0.89,42.6892698,-84.4889602,268.25,0.03330165147781372,318.6522216796875,0.01900000125169754,0.0,1
1683153655.41951299,25152629,0,3,340873399,2260,14,0.89,42.6892699,-84.4889603,268.25,0.005099019967019558,168.6900634765625,-0.006000000052154064,0.0,1
1683153655.61945200,25352568,0,3,340873599,2260,14,0.89,42.6892699,-84.4889603,268.26,0.015264337882399559,121.60749816894531,0.013000000268220901,0.0,1
1683153655.81939507,25552511,0,3,340873799,2260,14,0.89,42.68927,-84.4889603,268.25,0.028635641559958458,155.224853515625,-0.04400000348687172,0.0,1
1683153656.01974106,25752857,0,3,340873999,2260,14,0.89,42.689270099999995,-84.4889603,268.25,0.032893769443035126,199.5366668701172,-0.05300000309944153,0.0,1
1683153656.21952105,25952637,0,3,340874199,2260,14,0.89,42.689270199999996,-84.4889604,268.25,0.019026298075914383,266.9872131347656,0.05000000074505806,0.0,1
1683153656.41952300,26152639,0,3,340874399,2260,14,0.89,42.6892704,-84.4889604,268.24,0.017720045521855354,16.38953971862793,0.03500000014901161,0.0,1
1683153656.61941004,26352526,0,3,340874599,2260,14,0.89,42.6892704,-84.4889604,268.25,0.04753946140408516,22.249021530151367,0.09400000423192978,0.0,1
1683153656.81966114,26552777,0,3,340874799,2260,14,0.89,42.6892706,-84.4889604,268.22,0.019209373742341995,231.34019470214844,-0.02500000037252903,0.0,1
1683153657.01949906,26752615,0,3,340874999,2260,14,0.89,42.6892707,-84.4889604,268.21,0.01900000125169754,0.0,0.024000000208616257,0.0,1
1683153657.21951699,26952633,0,3,340875199,2260,14,0.89,42.6892709,-84.48896049999999,268.2,0.019723083823919296,329.5344543457031,0.07100000232458115,0.0,1
1683153657.41946220,27152578,0,3,340875399,2260,14,0.89,42.689271,-84.48896049999999,268.19,0.06177378073334694,29.054601669311523,0.12200000882148743,0.0,1
1683153657.61940098,27352517,0,3,340875599,2260,14,0.89,42.6892712,-84.48896049999999,268.18,0.03807886689901352,346.3287048339844,0.04400000348687172,0.0,1
1683153657.81972909,27552845,0,3,340875799,2260,14,0.89,42.689271399999996,-84.48896049999999,268.16,0.018027756363153458,356.8201599121094,0.05100000277161598,0.0,1
1683153658.01950598,27752622,0,3,340875999,2260,14,0.89,42.6892715,-84.48896049999999,268.16,0.035468295216560364,21.501434326171875,0.08300000429153442,0.0,1
1683153658.21948814,27952604,0,3,340876199,2260,14,0.89,42.6892717,-84.48896049999999,268.15,0.018867963925004005,147.99461364746094,-0.04700000211596489,0.0,1
1683153658.41974306,28152859,0,3,340876399,2260,14,0.89,42.6892717,-84.48896049999999,268.15,0.02420743741095066,141.7098388671875,0.04100000113248825,0.0,1
1683153658.61944818,28352564,0,3,340876599,2260,14,0.89,42.6892719,-84.4889604,268.15,0.03992493078112602,22.06789779663086,0.06200000271201134,0.0,1
1683153658.81950998,28552626,0,3,340876799,2260,14,0.89,42.6892721,-84.48896049999999,268.13,0.017492856830358505,329.0362548828125,0.05900000408291817,0.0,1
1683153659.01951408,28752630,0,3,340876999,2260,14,0.89,42.6892722,-84.48896049999999,268.12,0.012000000104308128,180.0,0.003000000026077032,0.0,1
1683153659.21944809,28952564,0,3,340877199,2260,14,0.89,42.6892723,-84.48896049999999,268.13,0.03634556755423546,7.907162666320801,0.055000003427267075,0.0,1
1683153659.41940618,29152522,0,3,340877399,2260,14,0.89,42.6892724,-84.48896049999999,268.11,0.00412310566753149,255.96377563476562,0.0,0.0,1
1683153659.61948705,29352603,0,3,340877599,2260,14,0.89,42.6892725,-84.48896049999999,268.1,0.019646884873509407,345.2564392089844,0.02800000086426735,0.0,1
1683153659.79986906,29532985,0,3,340877799,2260,14,0.89,42.6892727,-84.48896049999999,268.1,0.018601076677441597,53.746158599853516,0.014000000432133675,0.0,1
1683153660.01948500,29752601,0,3,340877999,2260,14,0.89,42.6892727,-84.48896049999999,268.1,0.013416407629847527,26.56505012512207,0.055000003427267075,0.0,1
1683153660.21977305,29952889,0,3,340878199,2260,14,0.89,42.6892728,-84.48896049999999,268.09000000000003,0.024186773225665092,82.8749771118164,0.029000001028180122,0.0,1
1683153660.39918709,30132303,0,3,340878399,2260,14,0.89,42.689273,-84.4889604,268.07,0.006708203814923763,116.5650405883789,0.012000000104308128,0.0,1
1683153660.61966014,30352776,0,3,340878599,2260,14,0.89,42.6892731,-84.4889604,268.06,0.0014142136787995696,225.0,0.02200000174343586,0.0,1
1683153660.81967711,30552793,0,3,340878799,2260,14,0.89,42.689273199999995,-84.48896049999999,268.04,0.019416488707065582,11.888657569885254,0.05900000408291817,0.0,1
1683153660.99931097,30732427,0,3,340878999,2260,14,0.89,42.689273299999996,-84.48896049999999,268.02,0.030528675764799118,238.3925018310547,-0.05400000140070915,0.0,1
1683153661.19914103,30932257,0,3,340879199,2260,14,0.89,42.6892734,-84.4889606,268.02,0.042438190430402756,325.5610046386719,0.08700000494718552,0.0,1
1683153661.41948009,31152596,0,3,340879399,2260,14,0.89,42.6892735,-84.48896069999999,268.0,0.029154760763049126,22.166345596313477,0.05700000375509262,0.0,1
1683153661.61948013,31352596,0,3,340879599,2260,14,0.89,42.6892735,-84.48896069999999,268.0,0.02385372295975685,56.976131439208984,0.07800000160932541,0.0,1
1683153661.79983711,31532953,0,3,340879799,2260,14,0.89,42.6892736,-84.48896069999999,267.98,0.07424284517765045,4.635463237762451,0.14000000059604645,0.0,1
1683153661.99964714,31732763,0,3,340879999,2260,14,0.89,42.6892737,-84.4889608,267.96,0.015652475878596306,296.5650634765625,0.005000000353902578,0.0,1
1683153662.19981909,31932935,0,3,340880199,2260,14,0.89,42.689273799999995,-84.4889608,267.94,0.005385165102779865,21.801406860351562,0.0010000000474974513,0.0,1
1683153662.41947699,32152593,0,3,340880399,2260,14,0.89,42.689273899999996,-84.4889609,267.92,0.009219544008374214,229.39871215820312,0.06400000303983688,0.0,1
1683153662.59982920,32332945,0,3,340880599,2260,14,0.89,42.6892741,-84.4889609,267.88,0.04410215839743614,3.9004933834075928,0.039000000804662704,0.0,1
1683153662.81945419,32552570,0,3,340880799,2260,14,0.89,42.6892742,-84.48896099999999,267.85,0.06957010924816132,18.43494987487793,0.09000000357627869,0.0,1
1683153663.01938820,32752504,0,3,340880999,2260,14,0.89,42.6892743,-84.48896099999999,267.82,0.008944272063672543,153.43495178222656,0.055000003427267075,0.0,1
1683153663.21947908,32952595,0,3,340881199,2260,14,0.89,42.689274499999996,-84.48896099999999,267.8,0.05990826338529587,33.424808502197266,0.049000002443790436,0.0,1
1683153663.41955209,33152668,0,3,340881399,2260,14,0.89,42.689274499999996,-84.48896099999999,267.8,0.032649654895067215,40.03025817871094,0.0860000029206276,0.0,1
1683153663.61948299,33352599,0,3,340881599,2260,14,0.89,42.6892746,-84.48896099999999,267.78000000000003,0.03801315650343895,35.36246109008789,0.05400000140070915,0.0,1
1683153663.81939602,33552512,0,3,340881799,2260,14,0.89,42.6892747,-84.48896099999999,267.77,0.02163330838084221,56.309932708740234,0.015000000596046448,0.0,1
1683153663.99918818,33732304,0,3,340881999,2260,14,0.89,42.6892748,-84.48896099999999,267.76,0.01100000087171793,0.0,0.06200000271201134,0.0,1
1683153664.21948504,33952601,0,3,340882199,2260,14,0.89,42.6892749,-84.4889611,267.74,0.0344383530318737,25.82098960876465,0.04500000178813934,0.0,1
1683153664.41949201,34152608,0,3,340882399,2260,14,0.89,42.689274999999995,-84.4889611,267.73,0.013928388245403767,68.96248626708984,0.00800000037997961,0.0,1
1683153664.61945415,34352570,0,3,340882599,2260,14,0.89,42.689275099999996,-84.48896119999999,267.72,0.005000000353902578,0.0,0.030000001192092896,0.0,1
1683153664.81939602,34552512,0,3,340882799,2260,14,0.89,42.6892752,-84.4889613,267.71,0.028635641559958458,24.77513885498047,0.05700000375509262,0.0,1
1683153665.01968908,34752805,0,3,340882999,2260,14,0.89,42.6892753,-84.4889613,267.7,0.05360037460923195,53.34388732910156,0.018000001087784767,0.0,1
1683153665.21969914,34952815,0,3,340883199,2260,14,0.89,42.6892754,-84.4889614,267.68,0.02147091180086136,242.241455078125,-0.06599999964237213,0.0,1
1683153665.41947317,35152589,0,3,340883399,2260,14,0.89,42.6892755,-84.4889615,267.7,0.025961510837078094,254.35775756835938,-0.10600000619888306,0.0,1
1683153665.61940503,35352521,0,3,340883599,2260,14,0.89,42.6892755,-84.4889616,267.69,0.05903388932347298,169.26109313964844,0.0,0.0,1
1683153665.79918909,35532305,0,3,340883799,2260,14,0.89,42.689275599999995,-84.48896169999999,267.67,0.023600848391652107,323.61566162109375,-0.03400000184774399,0.0,1
1683153666.01969719,35752813,0,3,340883999,2260,14,0.89,42.689275699999996,-84.4889618,267.65,0.02751363441348076,109.0934829711914,0.010000000707805157,0.0,1
1683153666.19931507,35932431,0,3,340884199,2260,14,0.89,42.6892758,-84.48896189999999,267.62,0.02376973070204258,112.24901580810547,-0.030000001192092896,0.0,1
1683153666.39932513,36132441,0,3,340884399,2260,14,0.89,42.689276,-84.488962,267.6,0.05060632899403572,330.39556884765625,0.04500000178813934,0.0,1
1683153666.59988499,36333001,0,3,340884599,2260,14,0.89,42.6892761,-84.4889622,267.59000000000003,0.03894868493080139,41.87786865234375,0.08400000631809235,0.0,1
1683153666.79917908,36532295,0,3,340884799,2260,14,0.89,42.6892761,-84.4889622,267.59000000000003,0.023345237597823143,99.86579895019531,0.05700000375509262,0.0,1
1683153667.01969099,36752807,0,3,340884999,2260,14,0.89,42.689276199999995,-84.4889623,267.57,0.034365683794021606,8.365885734558105,0.08700000494718552,0.0,1
1683153667.21947908,36952595,0,3,340885199,2260,14,0.89,42.689276199999995,-84.4889625,267.56,0.036000002175569534,180.0,-0.0010000000474974513,0.0,1
1683153667.41940498,37152521,0,3,340885399,2260,14,0.89,42.689276199999995,-84.4889626,267.54,0.027202943339943886,306.0273742675781,0.05400000140070915,0.0,1
1683153667.61949801,37352614,0,3,340885599,2260,14,0.89,42.689276299999996,-84.4889628,267.53000000000003,0.08900561928749084,0.6437456607818604,0.12400000542402267,0.0,1
1683153667.81948018,37552596,0,3,340885799,2260,14,0.89,42.6892764,-84.48896289999999,267.5,0.030675724148750305,340.9743957519531,0.07800000160932541,0.0,1
1683153667.99929714,37732413,0,3,340885999,2260,14,0.89,42.6892765,-84.488963,267.49,0.03634556755423546,277.90716552734375,-0.032999999821186066,0.0,1
1683153668.21913409,37952250,0,3,340886199,2260,14,0.89,42.6892766,-84.4889632,267.49,0.04539823904633522,352.4053649902344,0.05100000277161598,0.0,1
1683153668.41935420,38152470,0,3,340886399,2260,14,0.89,42.689276799999995,-84.4889633,267.48,0.05787054821848869,18.121858596801758,0.10500000417232513,0.0,1
1683153668.61944509,38352561,0,3,340886599,2260,14,0.89,42.689277,-84.4889634,267.45,0.021189622581005096,160.70994567871094,-0.0020000000949949026,0.0,1
1683153668.81965804,38552774,0,3,340886799,2260,14,0.89,42.6892771,-84.4889635,267.42,0.011180341243743896,153.43495178222656,0.005000000353902578,0.0,1
1683153669.01939511,38752511,0,3,340886999,2260,14,0.89,42.6892772,-84.4889637,267.42,0.06264982372522354,351.7405700683594,0.10500000417232513,0.0,1
1683153669.21937799,38952494,0,3,340887199,2260,14,0.89,42.689277399999995,-84.4889639,267.4,0.014422205276787281,213.69007873535156,0.0010000000474974513,0.0,1
1683153669.39982915,39132945,0,3,340887399,2260,14,0.89,42.689277499999996,-84.488964,267.39,0.012041594833135605,85.2363510131836,0.021000001579523087,0.0,1
1683153669.61946702,39352583,0,3,340887599,2260,14,0.89,42.6892777,-84.48896409999999,267.35,0.032388269901275635,278.88067626953125,-0.0020000000949949026,0.0,1
1683153669.79930115,39532417,0,3,340887799,2260,14,0.89,42.6892778,-84.48896429999999,267.35,0.027202943339943886,36.02737045288086,0.046000003814697266,0.0,1
1683153669.99927115,39732387,0,3,340887999,2260,14,0.89,42.6892779,-84.4889644,267.33,0.027166156098246574,96.34017944335938,0.03400000184774399,0.0,1
1683153670.21936297,39952479,0,3,340888199,2260,14,0.89,42.689278,-84.4889644,267.31,0.030000001192092896,126.8698959350586,-0.007000000216066837,0.0,1
1683153670.41944909,40152565,0,3,340888399,2260,14,0.89,42.6892782,-84.4889645,267.29,0.023430749773979187,219.8055877685547,-0.04400000348687172,0.0,1
1683153670.59988403,40333000,0,3,340888599,2260,14,0.89,42.6892783,-84.4889647,267.28000000000003,0.02692582458257675,344.9315185546875,0.020000001415610313,0.0,1
1683153670.79931307,40532429,0,3,340888799,2260,14,0.89,42.6892785,-84.48896479999999,267.27,0.017464250326156616,13.240519523620605,0.07500000298023224,0.0,1
1683153671.01936698,40752483,0,3,340888999,2260,14,0.89,42.6892786,-84.4889649,267.26,0.0375765897333622,25.201122283935547,0.11700000613927841,0.0,1
1683153671.21940517,40952521,0,3,340889199,2260,14,0.89,42.689278699999996,-84.488965,267.24,0.01486606989055872,132.273681640625,0.004000000189989805,0.0,1
1683153671.39998317,41133099,0,3,340889399,2260,14,0.89,42.6892788,-84.4889651,267.24,0.012041594833135605,221.633544921875,-0.018000001087784767,0.0,1
1683153671.61947298,41352589,0,3,340889599,2260,14,0.89,42.6892789,-84.48896529999999,267.23,0.031048350036144257,194.93142700195312,-0.05400000140070915,0.0,1
1683153671.79927516,41532391,0,3,340889799,2260,14,0.89,42.6892791,-84.4889654,267.21,0.05748913064599037,346.9306945800781,0.03700000047683716,0.0,1
1683153672.01935005,41752466,0,3,340889999,2260,14,0.89,42.6892792,-84.48896549999999,267.2,0.018867963925004005,122.00537109375,0.04000000283122063,0.0,1
1683153672.19918108,41932297,0,3,340890199,2260,14,0.89,42.689279299999995,-84.4889656,267.18,0.009055386297404766,263.6598205566406,0.012000000104308128,0.0,1
1683153672.39931202,42132428,0,3,340890399,2260,14,0.89,42.689279299999995,-84.4889657,267.18,0.00824621133506298,14.036242485046387,0.02200000174343586,0.0,1
1683153672.59928203,42332398,0,3,340890599,2260,14,0.89,42.689279299999995,-84.4889658,267.18,0.0360138900578022,358.40887451171875,0.07300000637769699,0.0,1
1683153672.79916406,42532280,0,3,340890799,2260,14,0.89,42.6892794,-84.4889659,267.17,0.03244996443390846,33.690067291259766,0.06300000101327896,0.0,1
1683153672.99916816,42732284,0,3,340890999,2260,14,0.89,42.6892794,-84.48896599999999,267.17,0.04200000315904617,0.0,0.08900000154972076,0.0,1
1683153673.19982600,42932942,0,3,340891199,2260,14,0.89,42.6892794,-84.4889661,267.17,0.02941088378429413,197.81890869140625,-0.06700000166893005,0.0,1
1683153673.39983916,43132955,0,3,340891399,2260,14,0.89,42.689279299999995,-84.4889663,267.19,0.011180341243743896,333.4349365234375,0.023000001907348633,0.0,1
1683153673.59926319,43332379,0,3,340891599,2260,14,0.89,42.689279299999995,-84.4889663,267.18,0.030016662552952766,29.98163604736328,0.07000000029802322,0.0,1
1683153673.79913712,43532253,0,3,340891799,2260,14,0.89,42.689279299999995,-84.4889664,267.19,0.06830812990665436,17.904447555541992,0.07400000095367432,0.0,1
1683153673.99920511,43732321,0,3,340891999,2260,14,0.89,42.689279299999995,-84.4889664,267.2,0.018248289823532104,80.53767395019531,0.027000000700354576,0.0,1
1683153674.21945500,43952571,0,3,340892199,2260,14,0.89,42.6892792,-84.48896649999999,267.21,0.012041594833135605,41.63353729248047,0.04000000283122063,0.0,1
1683153674.39983320,44132949,0,3,340892399,2260,14,0.89,42.6892791,-84.4889666,267.22,0.01612451672554016,172.87496948242188,0.006000000052154064,0.0,1
1683153674.59916902,44332285,0,3,340892599,2260,14,0.89,42.689279,-84.4889666,267.22,0.014560219831764698,74.05460357666016,0.010000000707805157,0.0,1
1683153674.79917097,44532287,0,3,340892799,2260,14,0.89,42.689279,-84.48896669999999,267.23,0.024698181077837944,58.24052047729492,0.0560000017285347,0.0,1
1683153675.01950312,44752619,0,3,340892999,2260,14,0.89,42.6892789,-84.48896669999999,267.22,0.017720045521855354,196.38954162597656,-0.023000001907348633,0.0,1
1683153675.21951103,44952627,0,3,340893199,2260,14,0.89,42.6892788,-84.4889668,267.24,0.013000000268220901,337.380126953125,0.05700000375509262,0.0,1
1683153675.41944814,45152564,0,3,340893399,2260,14,0.89,42.689278699999996,-84.4889669,267.24,0.00806225836277008,209.74488830566406,-0.012000000104308128,0.0,1
1683153675.61940408,45352520,0,3,340893599,2260,14,0.89,42.689278699999996,-84.488967,267.23,0.03298484534025192,194.0362548828125,-0.11700000613927841,0.0,1
1683153675.79974604,45532862,0,3,340893799,2260,14,0.89,42.6892785,-84.4889671,267.26,0.012083047069609165,245.55606079101562,-0.03800000250339508,0.0,1
1683153675.99979305,45732909,0,3,340893999,2260,14,0.89,42.6892785,-84.48896719999999,267.26,0.02202271670103073,357.3974304199219,-0.0020000000949949026,0.0,1
1683153676.19985509,45932971,0,3,340894199,2260,14,0.89,42.6892784,-84.4889673,267.26,0.01612451672554016,97.12501525878906,0.04500000178813934,0.0,1
1683153676.39915919,46132275,0,3,340894399,2260,14,0.89,42.6892783,-84.48896739999999,267.26,0.02147091180086136,332.241455078125,0.01900000125169754,0.0,1
1683153676.59919000,46332306,0,3,340894599,2260,14,0.89,42.6892782,-84.48896739999999,267.26,0.052354563027620316,151.47686767578125,-0.013000000268220901,0.0,1
1683153676.79926801,46532384,0,3,340894799,2260,14,0.89,42.689278099999996,-84.48896739999999,267.26,0.014035669155418873,184.08563232421875,0.009000000543892384,0.0,1
1683153677.01950598,46752622,0,3,340894999,2260,14,0.89,42.6892779,-84.4889675,267.28000000000003,0.06419502198696136,18.152706146240234,0.08100000023841858,0.0,1
1683153677.21943998,46952556,0,3,340895199,2260,14,0.89,42.6892779,-84.4889675,267.27,0.02024845778942108,20.2248592376709,0.02500000037252903,0.0,1
1683153677.39917397,47132290,0,3,340895399,2260,14,0.89,42.6892779,-84.4889675,267.28000000000003,0.033955853432416916,13.626994132995605,0.07000000029802322,0.0,1
1683153677.59922218,47332338,0,3,340895599,2260,14,0.89,42.6892778,-84.4889675,267.28000000000003,0.02475883811712265,43.36342239379883,0.06599999964237213,0.0,1
1683153677.81949615,47552612,0,3,340895799,2260,14,0.89,42.6892777,-84.4889675,267.28000000000003,0.044102154672145844,32.969398498535156,0.07700000703334808,0.0,1
1683153678.01946902,47752585,0,3,340895999,2260,14,0.89,42.6892777,-84.4889675,267.28000000000003,0.025079874321818352,23.498563766479492,0.01100000087171793,0.0,1
1683153678.21941400,47952530,0,3,340896199,2260,14,0.89,42.6892777,-84.4889675,267.28000000000003,0.03982461616396904,28.495637893676758,0.07000000029802322,0.0,1
1683153678.41965413,48152770,0,3,340896399,2260,14,0.89,42.6892776,-84.4889675,267.28000000000003,0.013152946718037128,98.74615478515625,0.05700000375509262,0.0,1
1683153678.61966705,48352783,0,3,340896599,2260,14,0.89,42.689277399999995,-84.4889675,267.29,0.03471311181783676,41.49646759033203,0.1120000034570694,0.0,1
1683153678.81969500,48552811,0,3,340896799,2260,14,0.89,42.689277399999995,-84.4889675,267.29,0.027730850502848625,25.641002655029297,0.0950000062584877,0.0,1
1683153678.99930215,48732418,0,3,340896999,2260,14,0.89,42.6892772,-84.4889675,267.29,0.039051249623298645,39.80556869506836,0.052000001072883606,0.0,1
1683153679.21939421,48952510,0,3,340897199,2260,14,0.89,42.6892772,-84.4889675,267.27,0.06369458884000778,22.135488510131836,0.1380000114440918,0.0,1
1683153679.41968417,49152800,0,3,340897399,2260,14,0.89,42.6892771,-84.4889675,267.28000000000003,0.05830952152609825,5.9061408042907715,0.07600000500679016,0.0,1
1683153679.61950207,49352618,0,3,340897599,2260,14,0.89,42.689276899999996,-84.4889675,267.29,0.04382921755313873,124.77782440185547,0.06599999964237213,0.0,1
1683153679.81916714,49552283,0,3,340897799,2260,14,0.89,42.689276799999995,-84.4889675,267.32,0.03125699982047081,352.6476135253906,0.04400000348687172,0.0,1
1683153680.01919198,49752308,0,3,340897999,2260,14,0.89,42.6892767,-84.4889675,267.35,0.05860034376382828,25.25316047668457,0.04500000178813934,0.0,1
1683153680.19972610,49932842,0,3,340898199,2260,14,0.89,42.6892766,-84.4889675,267.38,0.017804494127631187,321.8427734375,0.06599999964237213,0.0,1
1683153680.41948009,50152596,0,3,340898399,2260,14,0.89,42.6892765,-84.4889676,267.4,0.01345362514257431,311.9872131347656,0.021000001579523087,0.0,1
1683153680.61932802,50352444,0,3,340898599,2260,14,0.89,42.6892764,-84.4889676,267.44,0.034234486520290375,353.2901611328125,-0.026000000536441803,0.0,1
1683153680.79967904,50532795,0,3,340898799,2260,14,0.89,42.689276299999996,-84.4889675,267.47,0.027073971927165985,85.76360321044922,0.024000000208616257,0.0,1
1683153681.01921821,50752334,0,3,340898999,2260,14,0.89,42.6892761,-84.4889675,267.48,0.04257934167981148,350.5376892089844,0.07500000298023224,0.0,1
1683153681.21948004,50952596,0,3,340899199,2260,14,0.89,42.689276,-84.4889675,267.51,0.0450444221496582,92.5447998046875,0.07100000232458115,0.0,1
1683153681.41931319,51152429,0,3,340899399,2260,14,0.89,42.6892759,-84.48896739999999,267.51,0.030870698392391205,245.09524536132812,-0.06200000271201134,0.0,1
1683153681.60018420,51333300,0,3,340899599,2260,14,0.89,42.689275699999996,-84.48896739999999,267.53000000000003,0.02927456423640251,352.1466979980469,0.08700000494718552,0.0,1
1683153681.81941009,51552526,0,3,340899799,2260,14,0.89,42.689275599999995,-84.4889675,267.55,0.06053924560546875,337.6713562011719,-0.009000000543892384,0.0,1
1683153682.01924419,51752360,0,3,340899999,2260,14,0.89,42.6892755,-84.4889675,267.58,0.018248287960886955,350.5376892089844,0.027000000700354576,0.0,1
1683153682.21945310,51952569,0,3,340900199,2260,14,0.89,42.6892753,-84.4889675,267.6,0.004242640919983387,225.0,0.06599999964237213,0.0,1
1683153682.41948009,52152596,0,3,340900399,2260,14,0.89,42.6892752,-84.4889675,267.61,0.03101612627506256,69.22773742675781,0.015000000596046448,0.0,1
1683153682.59927797,52332394,0,3,340900599,2260,14,0.89,42.689274999999995,-84.48896739999999,267.66,0.04123105853796005,50.9061393737793,0.09800000488758087,0.0,1
1683153682.81964612,52552762,0,3,340900799,2260,14,0.89,42.6892748,-84.48896739999999,267.67,0.04601087048649788,271.245361328125,0.021000001579523087,0.0,1
1683153682.99921107,52732327,0,3,340900999,2260,14,0.89,42.6892747,-84.48896739999999,267.69,0.0072111026383936405,33.690067291259766,0.05100000277161598,0.0,1
1683153683.21931005,52952426,0,3,340901199,2260,14,0.89,42.689274499999996,-84.48896739999999,267.73,0.04176123067736626,16.699243545532227,-0.0020000000949949026,0.0,1
1683153683.41916299,53152279,0,3,340901399,2260,14,0.89,42.689274399999995,-84.4889673,267.76,0.017492856830358505,30.963756561279297,-0.04500000178813934,0.0,1
1683153683.61941600,53352532,0,3,340901599,2260,14,0.89,42.6892742,-84.48896719999999,267.8,0.021931713446974754,133.1523895263672,-0.017000000923871994,0.0,1
1683153683.81943798,53552554,0,3,340901799,2260,14,0.89,42.689274,-84.4889671,267.82,0.032280027866363525,163.81077575683594,-0.06700000166893005,0.0,1
1683153684.01928306,53752399,0,3,340901999,2260,14,0.89,42.689273899999996,-84.488967,267.85,0.01649242267012596,284.0362548828125,-0.036000002175569534,0.0,1
1683153684.21951914,53952635,0,3,340902199,2260,14,0.89,42.6892737,-84.488967,267.89,0.02280350960791111,254.74488830566406,0.04100000113248825,0.0,1
1683153684.39968801,54132804,0,3,340902399,2260,14,0.89,42.6892736,-84.4889669,267.9,0.041593268513679504,152.81887817382812,-0.03400000184774399,0.0,1
1683153684.61939716,54352513,0,3,340902599,2260,14,0.89,42.6892734,-84.4889669,267.94,0.012041594833135605,355.2363586425781,-0.013000000268220901,0.0,1
1683153684.79921412,54532330,0,3,340902799,2260,14,0.89,42.689273299999996,-84.4889668,267.97,0.024413112550973892,145.00796508789062,-0.009000000543892384,0.0,1
1683153685.01931715,54752433,0,3,340902999,2260,14,0.89,42.689273199999995,-84.48896669999999,267.99,0.023345237597823143,170.13418579101562,-0.05300000309944153,0.0,1
1683153685.21917415,54952290,0,3,340903199,2260,14,0.89,42.6892731,-84.4889666,267.99,0.04197618365287781,192.38076782226562,-0.07100000232458115,0.0,1
1683153685.41920018,55152316,0,3,340903399,2260,14,0.89,42.689273,-84.4889666,268.01,0.029000001028180122,0.0,0.0650000050663948,0.0,1
1683153685.59916806,55332284,0,3,340903599,2260,14,0.89,42.6892729,-84.48896649999999,268.04,0.014866068959236145,199.65383911132812,-0.012000000104308128,0.0,1
1683153685.79927421,55532390,0,3,340903799,2260,14,0.89,42.6892727,-84.4889664,268.07,0.012369317002594471,104.0362319946289,0.0010000000474974513,0.0,1
1683153686.01947403,55752590,0,3,340903999,2260,14,0.89,42.6892727,-84.4889663,268.07,0.020000001415610313,180.0,-0.07900000363588333,0.0,1
1683153686.21940303,55952519,0,3,340904199,2260,14,0.89,42.6892725,-84.4889662,268.11,0.007000000216066837,90.0,-0.03400000184774399,0.0,1
1683153686.41937017,56152486,0,3,340904399,2260,14,0.89,42.6892724,-84.4889661,268.12,0.02332380972802639,149.03623962402344,0.05400000140070915,0.0,1
1683153686.61965704,56352773,0,3,340904599,2260,14,0.89,42.6892724,-84.48896599999999,268.13,0.025495097041130066,11.309932708740234,0.017000000923871994,0.0,1
1683153686.79966807,56532784,0,3,340904799,2260,14,0.89,42.6892723,-84.4889659,268.15,0.04356604442000389,9.246112823486328,0.04000000283122063,0.0,1
1683153686.99966717,56732783,0,3,340904999,2260,14,0.89,42.6892722,-84.4889659,268.17,0.05232590436935425,315.0,0.06300000101327896,0.0,1
1683153687.21937108,56952487,0,3,340905199,2260,14,0.89,42.6892721,-84.4889658,268.18,0.028635641559958458,102.09474182128906,0.018000001087784767,0.0,1
1683153687.41941500,57152531,0,3,340905399,2260,14,0.89,42.6892719,-84.4889657,268.22,0.018601076677441597,53.746158599853516,0.03500000014901161,0.0,1
1683153687.61966920,57352785,0,3,340905599,2260,14,0.89,42.6892718,-84.4889657,268.25,0.06296825408935547,316.93060302734375,0.07400000095367432,0.0,1
1683153687.79931402,57532430,0,3,340905799,2260,14,0.89,42.6892717,-84.4889656,268.27,0.018027758225798607,93.17982482910156,0.030000001192092896,0.0,1
1683153687.99971819,57732834,0,3,340905999,2260,14,0.89,42.6892716,-84.48896549999999,268.29,0.04201190546154976,51.766170501708984,0.020000001415610313,0.0,1
1683153688.21936703,57952483,0,3,340906199,2260,14,0.89,42.6892715,-84.4889654,268.3,0.03624913841485977,335.5560302734375,0.06700000166893005,0.0,1
1683153688.39920211,58132318,0,3,340906399,2260,14,0.89,42.689271399999996,-84.4889654,268.32,0.024041632190346718,196.92752075195312,-0.032999999821186066,0.0,1
1683153688.61954498,58352661,0,3,340906599,2260,14,0.89,42.6892712,-84.48896529999999,268.35,0.01910497434437275,276.0090026855469,-0.03400000184774399,0.0,1
1683153688.81945801,58552574,0,3,340906799,2260,14,0.89,42.6892711,-84.48896529999999,268.38,0.031400639563798904,307.2348327636719,0.013000000268220901,0.0,1
1683153689.01937914,58752495,0,3,340906999,2260,14,0.89,42.689271,-84.4889652,268.39,0.03280244022607803,142.431396484375,-0.018000001087784767,0.0,1
1683153689.21941710,58952533,0,3,340907199,2260,14,0.89,42.689270799999996,-84.4889651,268.42,0.038288380950689316,49.236392974853516,0.07400000095367432,0.0,1
1683153689.41968513,59152801,0,3,340907399,2260,14,0.89,42.6892706,-84.4889649,268.44,0.015620499849319458,129.80557250976562,-0.007000000216066837,0.0,1
1683153689.61934400,59352460,0,3,340907599,2260,14,0.89,42.6892704,-84.48896479999999,268.46,0.021260293200612068,318.8140869140625,0.010000000707805157,0.0,1
1683153689.79927516,59532391,0,3,340907799,2260,14,0.89,42.6892703,-84.4889647,268.47,0.01612451672554016,330.255126953125,-0.023000001907348633,0.0,1
1683153690.01940608,59752522,0,3,340907999,2260,14,0.89,42.689270199999996,-84.4889645,268.48,0.023021729663014412,182.48956298828125,-0.0430000014603138,0.0,1
1683153690.21952009,59952636,0,3,340908199,2260,14,0.89,42.68927,-84.4889644,268.5,0.00806225836277008,352.8749694824219,0.032999999821186066,0.0,1
1683153690.39964414,60132760,0,3,340908399,2260,14,0.89,42.6892699,-84.48896429999999,268.51,0.031400639563798904,142.76515197753906,-0.013000000268220901,0.0,1
1683153690.61954618,60352662,0,3,340908599,2260,14,0.89,42.689269599999996,-84.48896409999999,268.53000000000003,0.030413813889026642,207.4075927734375,0.052000001072883606,0.0,1
1683153690.81920218,60552318,0,3,340908799,2260,14,0.89,42.689269499999995,-84.488964,268.54,0.017888544127345085,243.43496704101562,-0.04100000113248825,0.0,1
1683153691.01927710,60752393,0,3,340908999,2260,14,0.89,42.6892693,-84.4889639,268.57,0.0255538672208786,30.5792236328125,0.04800000041723251,0.0,1
1683153691.19926214,60932378,0,3,340909199,2260,14,0.89,42.6892691,-84.4889637,268.58,0.025079874321818352,156.50143432617188,-0.006000000052154064,0.0,1
1683153691.41953802,61152654,0,3,340909399,2260,14,0.89,42.689268899999995,-84.4889635,268.6,0.052611786872148514,188.7461700439453,-0.06300000101327896,0.0,1
1683153691.61916018,61352276,0,3,340909599,2260,14,0.89,42.6892687,-84.4889634,268.62,0.008602325804531574,125.53766632080078,-0.04800000041723251,0.0,1
1683153691.81922197,61552338,0,3,340909799,2260,14,0.89,42.6892686,-84.4889632,268.64,0.019924860447645187,342.47442626953125,0.05700000375509262,0.0,1
1683153692.01934004,61752456,0,3,340909999,2260,14,0.89,42.689268399999996,-84.488963,268.64,0.03162277862429619,198.43495178222656,0.010000000707805157,0.0,1
1683153692.21936107,61952477,0,3,340910199,2260,14,0.89,42.6892682,-84.48896289999999,268.68,0.0072111026383936405,146.30992126464844,0.01600000075995922,0.0,1
1683153692.41949916,62152615,0,3,340910399,2260,14,0.89,42.689268,-84.4889627,268.69,0.012041594833135605,184.76365661621094,0.029000001028180122,0.0,1
1683153692.59927106,62332387,0,3,340910599,2260,14,0.89,42.689267799999996,-84.4889625,268.71,0.021931713446974754,136.84759521484375,-0.05300000309944153,0.0,1
1683153692.81949401,62552610,0,3,340910799,2260,14,0.89,42.689267699999995,-84.48896239999999,268.72,0.026476405560970306,169.1144561767578,-0.049000002443790436,0.0,1
1683153693.01948309,62752599,0,3,340910999,2260,14,0.89,42.6892676,-84.4889622,268.74,0.03500000014901161,143.13009643554688,-0.05700000375509262,0.0,1
1683153693.19934511,62932461,0,3,340911199,2260,14,0.89,42.6892675,-84.488962,268.75,0.017464250326156616,336.3706359863281,-0.02200000174343586,0.0,1
1683153693.39935398,63132470,0,3,340911399,2260,14,0.89,42.6892674,-84.48896189999999,268.77,0.03178049996495247,65.85445404052734,-0.18800000846385956,0.0,1
1683153693.59922004,63332336,0,3,340911599,2260,14,0.89,42.6892674,-84.4889618,268.85,0.08728116005659103,274.60009765625,-0.625,0.0,1
1683153693.79923820,63532354,0,3,340911799,2260,14,0.89,42.689267199999996,-84.4889618,268.97,0.0070710680447518826,261.8699035644531,-0.5049999952316284,0.0,1
1683153693.99974799,63732864,0,3,340911999,2260,14,0.89,42.689267099999995,-84.4889618,269.08,0.044944413006305695,290.8544616699219,-0.5040000081062317,0.0,1
1683153694.21981311,63952929,0,3,340912199,2260,14,0.89,42.689267,-84.4889618,269.18,0.03801315650343895,26.56505012512207,-0.4410000145435333,0.0,1
1683153694.39968109,64132797,0,3,340912399,2260,14,0.89,42.689267,-84.48896169999999,269.27,0.023021729663014412,2.4895524978637695,-0.34200000762939453,0.0,1
1683153694.60012913,64333245,0,3,340912599,2260,14,0.89,42.6892667,-84.4889615,269.38,0.14616772532463074,145.8750457763672,-0.4750000238418579,0.0,1
1683153694.81954813,64552664,0,3,340912799,2260,14,0.89,42.6892663,-84.48896119999999,269.49,0.1807595044374466,149.03623962402344,-0.44600000977516174,0.0,1
1683153695.01935005,64752466,0,3,340912999,2260,14,0.89,42.689265999999996,-84.48896099999999,269.6,0.0806225836277008,172.87496948242188,-0.6860000491142273,0.0,1
1683153695.19935203,64932468,0,3,340913199,2260,14,0.89,42.6892657,-84.48896099999999,269.78000000000003,0.16015306115150452,177.49490356445312,-0.8450000286102295,0.0,1
1683153695.39984298,65132959,0,3,340913399,2260,14,0.89,42.6892655,-84.4889609,269.92,0.1365283876657486,211.82745361328125,-0.8940000534057617,0.0,1
1683153695.61935019,65352466,0,3,340913599,2260,14,0.89,42.6892652,-84.4889611,270.09000000000003,0.15809175372123718,213.38851928710938,-0.8820000290870667,0.0,1
1683153695.81955600,65552672,0,3,340913799,2260,14,0.89,42.689264699999995,-84.48896099999999,270.25,0.34622105956077576,167.4891357421875,-0.7760000228881836,0.0,1
1683153696.01927614,65752392,0,3,340913999,2260,14,0.89,42.689264099999995,-84.4889609,270.41,0.2420082837343216,179.5264892578125,-0.8800000548362732,0.0,1
1683153696.21922708,65952343,0,3,340914199,2260,14,0.89,42.6892637,-84.4889608,270.56,0.15408116579055786,178.14039611816406,-0.6780000329017639,0.0,1
1683153696.41928911,66152405,0,3,340914399,2260,14,0.89,42.6892633,-84.48896069999999,270.67,0.20687437057495117,174.7303466796875,-0.44200003147125244,0.0,1
1683153696.59931612,66332432,0,3,340914599,2260,14,0.89,42.689262899999996,-84.48896069999999,270.77,0.09767293184995651,222.5104522705078,-0.38200002908706665,0.0,1
1683153696.81937718,66552493,0,3,340914799,2260,14,0.89,42.6892627,-84.4889608,270.84000000000003,0.01004987582564354,264.2894287109375,-0.3150000274181366,0.0,1
1683153697.01944900,66752565,0,3,340914999,2260,14,0.89,42.6892626,-84.4889609,270.91,0.07224956899881363,311.633544921875,-0.020000001415610313,0.0,1
1683153697.21938109,66952497,0,3,340915199,2260,14,0.89,42.6892625,-84.48896099999999,270.92,0.09664884954690933,298.42120361328125,0.0950000062584877,0.0,1
1683153697.41946697,67152583,0,3,340915399,2260,14,0.89,42.6892624,-84.48896119999999,270.92,0.0806225836277008,316.0050964355469,0.24800001084804535,0.0,1
1683153697.59932017,67332436,0,3,340915599,2260,14,0.89,42.689262299999996,-84.4889614,270.89,0.15263356268405914,305.6685791015625,0.31800001859664917,0.0,1
1683153697.81928110,67552397,0,3,340915799,2260,14,0.89,42.689262299999996,-84.4889615,270.83,0.025019992142915726,182.29061889648438,0.3270000219345093,0.0,1
1683153698.01952219,67752638,0,3,340915999,2260,14,0.89,42.689262199999995,-84.4889616,270.77,0.13218925893306732,288.98321533203125,0.3620000183582306,0.0,1
1683153698.21948910,67952605,0,3,340916199,2260,14,0.89,42.6892621,-84.48896169999999,270.71,0.06303174048662186,131.7845001220703,0.3660000264644623,0.0,1
1683153698.41954803,68152664,0,3,340916399,2260,14,0.89,42.6892621,-84.48896169999999,270.62,0.06576474010944366,261.25384521484375,0.4090000092983246,0.0,1
1683153698.61958504,68352701,0,3,340916599,2260,14,0.89,42.6892621,-84.4889618,270.55,0.09377633780241013,338.08514404296875,0.30400002002716064,0.0,1
1683153698.81963110,68552747,0,3,340916799,2260,14,0.89,42.6892621,-84.48896189999999,270.5,0.06220128759741783,4.610649585723877,0.281000018119812,0.0,1
1683153699.01948214,68752598,0,3,340916999,2260,14,0.89,42.689262199999995,-84.48896189999999,270.48,0.12704724073410034,334.8468933105469,0.16600000858306885,0.0,1
1683153699.21953702,68952653,0,3,340917199,2260,14,0.89,42.689262299999996,-84.488962,270.45,0.09424436092376709,340.7960205078125,0.1940000057220459,0.0,1
1683153699.41981602,69152932,0,3,340917399,2260,14,0.89,42.6892624,-84.488962,270.42,0.0980612114071846,11.768288612365723,0.18200001120567322,0.0,1
1683153699.61929107,69352407,0,3,340917599,2260,14,0.89,42.6892624,-84.48896189999999,270.42,0.0940212830901146,1.2188751697540283,0.0950000062584877,0.0,1
1683153699.81921911,69552335,0,3,340917799,2260,14,0.89,42.6892624,-84.48896189999999,270.44,0.0434165894985199,38.45370864868164,-0.005000000353902578,0.0,1
1683153700.01928616,69752402,0,3,340917999,2260,14,0.89,42.689262299999996,-84.48896189999999,270.48,0.026627056300640106,34.28687286376953,-0.055000003427267075,0.0,1
1683153700.21933007,69952446,0,3,340918199,2260,14,0.89,42.689262199999995,-84.48896189999999,270.52,0.0741485059261322,10.097503662109375,-0.003000000026077032,0.0,1
1683153700.41935921,70152475,0,3,340918399,2260,14,0.89,42.689262199999995,-84.4889618,270.56,0.021095024421811104,58.5704345703125,-0.1380000114440918,0.0,1
1683153700.59981608,70332932,0,3,340918599,2260,14,0.89,42.689262,-84.4889618,270.62,0.05830951780080795,149.03623962402344,-0.12600000202655792,0.0,1
1683153700.81922102,70552337,0,3,340918799,2260,14,0.89,42.6892619,-84.48896169999999,270.67,0.0353553369641304,98.13009643554688,-0.1810000091791153,0.0,1
1683153701.01946402,70752580,0,3,340918999,2260,14,0.89,42.6892618,-84.48896169999999,270.73,0.03080584481358528,54.24610900878906,-0.18900001049041748,0.0,1
1683153701.19975305,70932869,0,3,340919199,2260,14,0.89,42.689261599999995,-84.48896169999999,270.81,0.03200000151991844,90.0,-0.10000000149011612,0.0,1
1683153701.41971016,71152826,0,3,340919399,2260,14,0.89,42.6892615,-84.48896169999999,270.85,0.03006659261882305,93.81407165527344,-0.14900000393390656,0.0,1
1683153701.61954498,71352661,0,3,340919599,2260,14,0.89,42.6892615,-84.48896169999999,270.9,0.04332435876131058,71.14684295654297,-0.17400000989437103,0.0,1
1683153701.81929398,71552410,0,3,340919799,2260,14,0.89,42.6892614,-84.48896169999999,270.95,0.036055512726306915,123.6900634765625,-0.08900000154972076,0.0,1
1683153702.01933599,71752452,0,3,340919999,2260,14,0.89,42.6892613,-84.48896169999999,270.98,0.04866209998726845,80.53767395019531,0.023000001907348633,0.0,1
1683153702.21935320,71952469,0,3,340920199,2260,14,0.89,42.6892612,-84.4889616,271.0,0.031400639563798904,37.234832763671875,-0.039000000804662704,0.0,1
1683153702.41918516,72152301,0,3,340920399,2260,14,0.89,42.689260999999995,-84.4889616,271.03000000000003,0.01077033020555973,68.1985855102539,0.02200000174343586,0.0,1
1683153702.61926317,72352379,0,3,340920599,2260,14,0.89,42.6892608,-84.4889616,271.05,0.033837851136922836,18.970407485961914,0.020000001415610313,0.0,1
1683153702.81933808,72552454,0,3,340920799,2260,14,0.89,42.6892607,-84.48896169999999,271.07,0.04976947233080864,337.5572509765625,-0.032999999821186066,0.0,1
1683153703.01936913,72752485,0,3,340920999,2260,14,0.89,42.6892606,-84.48896169999999,271.09000000000003,0.0375765897333622,25.201122283935547,-0.039000000804662704,0.0,1
1683153703.21928501,72952401,0,3,340921199,2260,14,0.89,42.689260499999996,-84.48896169999999,271.11,0.07653757184743881,331.0908203125,-0.023000001907348633,0.0,1
1683153703.41953111,73152647,0,3,340921399,2260,14,0.89,42.689260399999995,-84.4889618,271.13,0.08458133041858673,335.5560607910156,-0.036000002175569534,0.0,1
1683153703.61931205,73352428,0,3,340921599,2260,14,0.89,42.689260399999995,-84.48896189999999,271.16,0.027202943339943886,323.9726257324219,-0.18700000643730164,0.0,1
1683153703.81953812,73552654,0,3,340921799,2260,14,0.89,42.6892603,-84.48896189999999,271.19,0.032388269901275635,8.880658149719238,-0.16100001335144043,0.0,1
1683153704.01953316,73752649,0,3,340921999,2260,14,0.89,42.6892602,-84.488962,271.26,0.08621485531330109,322.0667419433594,-0.27300000190734863,0.0,1
1683153704.21961117,73952727,0,3,340922199,2260,14,0.89,42.6892602,-84.488962,271.33,0.0648459792137146,107.03775787353516,-0.39400002360343933,0.0,1
1683153704.41946507,74152581,0,3,340922399,2260,14,0.89,42.68926,-84.488962,271.45,0.03832753747701645,344.8760070800781,-0.34800001978874207,0.0,1
1683153704.61951900,74352635,0,3,340922599,2260,14,0.89,42.6892595,-84.488962,271.61,0.22846445441246033,159.50265502929688,-0.6430000066757202,0.0,1
1683153704.81954408,74552660,0,3,340922799,2260,14,0.89,42.689259299999996,-84.4889618,271.72,0.152839794754982,137.12109375,-0.6360000371932983,0.0,1
1683153705.01954603,74752662,0,3,340922999,2260,14,0.89,42.689259,-84.4889615,271.88,0.12742449343204498,98.57522583007812,-0.7850000262260437,0.0,1
1683153705.21951699,74952633,0,3,340923199,2260,14,0.89,42.6892588,-84.4889611,272.02,0.2504156529903412,126.22924041748047,-0.7070000171661377,0.0,1
1683153705.41957211,75152688,0,3,340923399,2260,14,0.89,42.6892585,-84.4889608,272.22,0.04522167891263962,54.904178619384766,-0.7980000376701355,0.0,1
1683153705.61956310,75352679,0,3,340923599,2260,14,0.89,42.6892585,-84.4889608,272.37,0.04501111060380936,1.2730300426483154,-0.5890000462532043,0.0,1
1683153705.81956506,75552681,0,3,340923799,2260,14,0.89,42.6892584,-84.4889609,272.53000000000003,0.14849242568016052,315.0,-0.6650000214576721,0.0,1
1683153706.01942706,75752543,0,3,340923999,2260,14,0.89,42.6892583,-84.48896099999999,272.69,0.05961543694138527,202.6938018798828,-0.6960000395774841,0.0,1
1683153706.21936107,75952477,0,3,340924199,2260,14,0.89,42.689257999999995,-84.48896119999999,272.87,0.09486833214759827,304.6951599121094,-0.6670000553131104,0.0,1
1683153706.41931701,76152433,0,3,340924399,2260,14,0.89,42.6892578,-84.4889613,273.03000000000003,0.1280820071697235,199.14227294921875,-0.5740000009536743,0.0,1
1683153706.61933613,76352452,0,3,340924599,2260,14,0.89,42.689257399999995,-84.4889614,273.13,0.17523127794265747,177.05593872070312,-0.36500000953674316,0.0,1
1683153706.81927204,76552388,0,3,340924799,2260,14,0.89,42.689257,-84.4889613,273.19,0.23286263644695282,165.06857299804688,-0.23000000417232513,0.0,1
1683153707.01922703,76752343,0,3,340924999,2260,14,0.89,42.689256199999996,-84.48896119999999,273.24,0.5221197605133057,174.83535766601562,-0.08400000631809235,0.0,1
1683153707.21929002,76952406,0,3,340925199,2260,14,0.89,42.6892553,-84.48896119999999,273.23,0.573223352432251,181.59947204589844,-0.06300000101327896,0.0,1
1683153707.40041018,77133526,0,3,340925399,2260,14,0.89,42.6892541,-84.4889611,273.25,0.6369183659553528,172.87496948242188,-0.003000000026077032,0.0,1
1683153707.61956620,77352682,0,3,340925599,2260,14,0.89,42.6892528,-84.48896099999999,273.24,0.698086678981781,179.0971221923828,0.15400001406669617,0.0,1
1683153707.81968307,77552799,0,3,340925799,2260,14,0.89,42.689251299999995,-84.48896119999999,273.23,0.9273257851600647,188.5582733154297,-0.015000000596046448,0.0,1
1683153708.01952314,77752639,0,3,340925999,2260,14,0.89,42.6892496,-84.4889615,273.22,0.8757408857345581,185.96449279785156,0.05400000140070915,0.0,1
1683153708.21952510,77952641,0,3,340926199,2260,14,0.89,42.6892478,-84.48896169999999,273.28000000000003,0.9256836175918579,185.7660369873047,-0.018000001087784767,0.0,1
1683153708.41954613,78152662,0,3,340926399,2260,14,0.89,42.6892462,-84.4889621,273.25,0.9051762819290161,193.54498291015625,0.06400000303983688,0.0,1
1683153708.61954498,78352661,0,3,340926599,2260,14,0.89,42.689244699999996,-84.4889626,273.19,0.8821168541908264,193.70542907714844,0.14300000667572021,0.0,1
1683153708.79926419,78532380,0,3,340926799,2260,14,0.89,42.6892431,-84.4889632,273.2,0.8459817171096802,197.68533325195312,0.006000000052154064,0.0,1
1683153709.01948905,78752605,0,3,340926999,2260,14,0.89,42.6892417,-84.4889639,273.16,0.8187167048454285,198.58985900878906,0.09100000560283661,0.0,1
1683153709.21946907,78952585,0,3,340927199,2260,14,0.89,42.6892405,-84.4889646,273.15000000000003,0.737474799156189,206.1481170654297,-0.03200000151991844,0.0,1
1683153709.41950011,79152616,0,3,340927399,2260,14,0.89,42.6892394,-84.4889654,273.11,0.7020000219345093,202.619873046875,0.02500000037252903,0.0,1
1683153709.61943817,79352554,0,3,340927599,2260,14,0.89,42.6892383,-84.4889659,273.13,0.5648115277290344,199.0123748779297,-0.05400000140070915,0.0,1
1683153709.81921411,79552330,0,3,340927799,2260,14,0.89,42.6892372,-84.4889664,273.16,0.569646418094635,197.25804138183594,-0.06200000271201134,0.0,1
1683153710.01932502,79752441,0,3,340927999,2260,14,0.89,42.689236099999995,-84.4889668,273.19,0.630634605884552,194.69732666015625,-0.07400000095367432,0.0,1
1683153710.20042109,79933537,0,3,340928199,2260,14,0.89,42.689235,-84.4889673,273.2,0.5718540549278259,203.60643005371094,-0.08900000154972076,0.0,1
1683153710.41953802,80152654,0,3,340928399,2260,14,0.89,42.6892341,-84.48896789999999,273.2,0.4931876063346863,203.29013061523438,0.10900000482797623,0.0,1
1683153710.61922717,80352343,0,3,340928599,2260,14,0.89,42.6892333,-84.48896839999999,273.18,0.4795539677143097,205.1757049560547,0.049000002443790436,0.0,1
1683153710.81929708,80552413,0,3,340928799,2260,14,0.89,42.6892327,-84.488969,273.16,0.296897292137146,215.40309143066406,0.08500000089406967,0.0,1
1683153711.01954818,80752664,0,3,340928999,2260,14,0.89,42.689232499999996,-84.4889694,273.12,0.20365658402442932,218.22044372558594,-0.020000001415610313,0.0,1
1683153711.19934607,80932462,0,3,340929199,2260,14,0.89,42.689232399999995,-84.4889697,273.11,0.1739080250263214,239.60128784179688,0.039000000804662704,0.0,1
1683153711.39934206,81132458,0,3,340929399,2260,14,0.89,42.6892323,-84.48897,273.08,0.14751271903514862,257.47119140625,0.018000001087784767,0.0,1
1683153711.59922910,81332345,0,3,340929599,2260,14,0.89,42.6892322,-84.4889704,273.09000000000003,0.12681089341640472,251.13641357421875,0.013000000268220901,0.0,1
1683153711.79923320,81532349,0,3,340929799,2260,14,0.89,42.6892322,-84.4889706,273.09000000000003,0.10751744359731674,251.5650634765625,0.08300000429153442,0.0,1
1683153711.99933720,81732453,0,3,340929999,2260,14,0.89,42.6892322,-84.4889709,273.07,0.10294173657894135,230.1231689453125,0.05400000140070915,0.0,1
1683153712.21955419,81952670,0,3,340930199,2260,14,0.89,42.6892321,-84.4889711,273.06,0.05381450057029724,221.98721313476562,0.08100000023841858,0.0,1
1683153712.40039802,82133514,0,3,340930399,2260,14,0.89,42.6892321,-84.4889712,273.06,0.02202271670103073,267.3974609375,0.0950000062584877,0.0,1
1683153712.59961200,82332728,0,3,340930599,2260,14,0.89,42.6892321,-84.4889713,273.07,0.017464250326156616,293.62939453125,0.09600000083446503,0.0,1
1683153712.80046415,82533580,0,3,340930799,2260,14,0.89,42.6892321,-84.4889713,273.07,0.046173591166734695,72.3498764038086,0.03500000014901161,0.0,1
1683153713.00046206,82733578,0,3,340930999,2260,14,0.89,42.6892322,-84.4889712,273.06,0.04936598241329193,83.01893615722656,0.032999999821186066,0.0,1
1683153713.21922302,82952339,0,3,340931199,2260,14,0.89,42.6892322,-84.4889711,273.08,0.08115417510271072,67.54306030273438,0.03700000047683716,0.0,1
1683153713.39963102,83132747,0,3,340931399,2260,14,0.89,42.6892323,-84.4889709,273.09000000000003,0.12253979593515396,63.853153228759766,0.027000000700354576,0.0,1
1683153713.61954212,83352658,0,3,340931599,2260,14,0.89,42.689232399999995,-84.48897079999999,273.1,0.12397580593824387,70.68814086914062,0.06100000441074371,0.0,1
1683153713.80038404,83533500,0,3,340931799,2260,14,0.89,42.689232499999996,-84.4889706,273.1,0.0868849828839302,101.95658111572266,-0.0690000057220459,0.0,1
1683153714.01920819,83752324,0,3,340931999,2260,14,0.89,42.689232499999996,-84.4889705,273.11,0.07702597975730896,91.48786163330078,-0.06000000238418579,0.0,1
1683153714.21921802,83952334,0,3,340932199,2260,14,0.89,42.6892326,-84.4889705,273.11,0.06726811826229095,101.14288330078125,-0.03800000250339508,0.0,1
1683153714.39923215,84132348,0,3,340932399,2260,14,0.89,42.6892327,-84.4889704,273.11,0.049000002443790436,90.0,-0.003000000026077032,0.0,1
1683153714.59930921,84332425,0,3,340932599,2260,14,0.89,42.6892327,-84.4889704,273.11,0.04801041632890701,91.1934814453125,0.024000000208616257,0.0,1
1683153714.81968617,84552802,0,3,340932799,2260,14,0.89,42.6892327,-84.4889704,273.11,0.0470956526696682,93.65221405029297,0.05700000375509262,0.0,1
1683153714.99936318,84732479,0,3,340932999,2260,14,0.89,42.6892327,-84.4889704,273.1,0.03807886689901352,76.32868194580078,0.06700000166893005,0.0,1
1683153715.21945119,84952567,0,3,340933199,2260,14,0.89,42.6892327,-84.4889704,273.08,0.06489992886781693,123.6900634765625,0.07300000637769699,0.0,1
1683153715.41951799,85152634,0,3,340933399,2260,14,0.89,42.6892326,-84.4889704,273.07,0.06512296944856644,183.52145385742188,-0.0010000000474974513,0.0,1
1683153715.59934521,85332461,0,3,340933599,2260,14,0.89,42.689232399999995,-84.4889705,273.08,0.0674462839961052,164.52134704589844,0.12000000476837158,0.0,1
1683153715.79936600,85532482,0,3,340933799,2260,14,0.89,42.6892322,-84.4889706,273.05,0.1247878223657608,186.4416046142578,0.10100000351667404,0.0,1
1683153716.00037718,85733493,0,3,340933999,2260,14,0.89,42.689231899999996,-84.4889707,273.05,0.1569235473871231,173.78076171875,0.0650000050663948,0.0,1
1683153716.19958711,85932703,0,3,340934199,2260,14,0.89,42.6892316,-84.4889707,273.03000000000003,0.28704357147216797,180.9980926513672,0.020000001415610313,0.0,1
