timestamp,TimeUS,I,Status,GMS,GWk,NSats,HDop,Lat,Lng,Alt,Spd,GCrs,VZ,Yaw,U
1666744971.19899988,1451509142,0,3,261789199,2233,12,1.08,42.730945399999996,-84.4903092,272.87,0.05830952152609825,112.16633605957031,-0.007000000216066837,0.0,1
1666744971.35792303,1451668065,0,3,261789399,2233,12,1.08,42.730944099999995,-84.49030959999999,272.7,0.06997142732143402,30.963756561279297,0.04200000315904617,0.0,1
1666744971.55794001,1451868082,0,3,261789599,2233,12,1.08,42.7309426,-84.4903102,272.51,0.05000000447034836,143.13009643554688,-0.014000000432133675,0.0,1
1666744971.77790904,1452088051,0,3,261789799,2233,12,1.08,42.730941099999995,-84.4903108,272.32,0.049648769199848175,161.20010375976562,0.07300000637769699,0.0,1
1666744971.95800495,1452268147,0,3,261789999,2233,12,1.08,42.7309396,-84.4903112,272.15,0.12280066311359406,173.4536895751953,0.03800000250339508,0.0,1
1666744972.15794301,1452468085,0,3,261790199,2233,12,1.08,42.730938099999996,-84.4903116,272.01,0.05968249589204788,211.2930450439453,-0.004000000189989805,0.0,1
1666744972.35799599,1452668138,0,3,261790399,2233,12,1.08,42.7309367,-84.4903121,271.86,0.037443291395902634,325.8855285644531,0.06599999964237213,0.0,1
1666744972.55793786,1452868080,0,3,261790599,2233,12,1.08,42.7309355,-84.4903126,271.72,0.06120457872748375,4.68589973449707,0.0990000069141388,0.0,1
1666744972.75794387,1453068086,0,3,261790799,2233,12,1.08,42.7309342,-84.4903131,271.57,0.015000000596046448,126.8698959350586,0.01600000075995922,0.0,1
1666744972.95791888,1453268061,0,3,261790999,2233,12,1.08,42.730932599999996,-84.4903137,271.34000000000003,0.09093404561281204,188.21922302246094,0.04700000211596489,0.0,1
1666744973.15794086,1453468083,0,3,261791199,2233,12,1.08,42.7309312,-84.4903142,271.19,0.051078375428915024,203.05130004882812,-0.03500000014901161,0.0,1
1666744973.35797286,1453668115,0,3,261791399,2233,12,1.08,42.7309299,-84.4903147,271.08,0.005000000353902578,53.13010025024414,0.03800000250339508,0.0,1
1666744973.55799103,1453868133,0,3,261791599,2233,12,1.08,42.7309285,-84.49031529999999,270.93,0.0687677264213562,229.12759399414062,-0.01900000125169754,0.0,1
1666744973.75794792,1454068090,0,3,261791799,2233,12,1.08,42.7309269,-84.4903159,270.76,0.023537207394838333,102.2647705078125,0.04800000041723251,0.0,1
1666744973.97794294,1454288085,0,3,261791999,2233,12,1.08,42.7309256,-84.49031629999999,270.64,0.03224903345108032,29.74488067626953,-0.00800000037997961,0.0,1
1666744974.15795588,1454468098,0,3,261792199,2233,12,1.08,42.7309245,-84.4903166,270.58,0.08558622002601624,313.5797424316406,0.11000000685453415,0.0,1
1666744974.35797000,1454668112,0,3,261792399,2233,12,1.08,42.730923499999996,-84.4903169,270.48,0.1047377735376358,42.678466796875,-0.014000000432133675,0.0,1
1666744974.55794501,1454868087,0,3,261792599,2233,12,1.08,42.7309226,-84.49031699999999,270.41,0.09604686498641968,14.470293045043945,0.0990000069141388,0.0,1
1666744974.75799704,1455068139,0,3,261792799,2233,12,1.08,42.730921599999995,-84.4903173,270.32,0.03801315650343895,243.43496704101562,-0.08900000154972076,0.0,1
1666744974.95801401,1455268156,0,3,261792999,2233,12,1.08,42.730920399999995,-84.49031769999999,270.22,0.035171013325452805,165.1735076904297,-0.08900000154972076,0.0,1
1666744975.15793490,1455468077,0,3,261793199,2233,12,1.08,42.730919199999995,-84.490318,270.1,0.09192388504743576,8.130102157592773,-0.021000001579523087,0.0,1
1666744975.35795808,1455668100,0,3,261793399,2233,12,1.08,42.7309184,-84.4903181,270.09000000000003,0.08502352982759476,358.652099609375,0.04800000041723251,0.0,1
1666744975.55798602,1455868128,0,3,261793599,2233,12,1.08,42.7309176,-84.4903183,270.04,0.05048762261867523,352.0303955078125,0.02200000174343586,0.0,1
1666744975.75793886,1456068081,0,3,261793799,2233,12,1.08,42.7309166,-84.4903186,269.95,0.05600893124938011,1.023030161857605,0.026000000536441803,0.0,1
1666744975.95802498,1456268167,0,3,261793999,2233,12,1.08,42.730915599999996,-84.49031889999999,269.85,0.051009804010391235,358.876708984375,0.03100000135600567,0.0,1
1666744976.15794206,1456468084,0,3,261794199,2233,12,1.08,42.7309147,-84.4903191,269.77,0.09708244353532791,18.621578216552734,-0.06300000101327896,0.0,1
1666744976.35797286,1456668115,0,3,261794399,2233,12,1.08,42.7309136,-84.4903193,269.67,0.06811755150556564,176.63352966308594,-0.08300000429153442,0.0,1
1666744976.55798888,1456868131,0,3,261794599,2233,12,1.08,42.7309124,-84.49031959999999,269.57,0.08823265135288239,215.31121826171875,0.052000001072883606,0.0,1
1666744976.75801492,1457068157,0,3,261794799,2233,11,1.08,42.7309115,-84.4903197,269.55,0.04455334320664406,170.96051025390625,-0.07700000703334808,0.0,1
1666744976.95797396,1457268116,0,3,261794999,2233,11,1.25,42.7309106,-84.4903197,269.54,0.07692204415798187,153.76805114746094,-0.06200000271201134,0.0,1
1666744977.17794394,1457488086,0,3,261795199,2233,11,1.25,42.7309098,-84.4903197,269.53000000000003,0.07679193466901779,171.76437377929688,-0.08800000697374344,0.0,1
1666744977.35804391,1457668186,0,3,261795399,2233,11,1.25,42.7309096,-84.4903195,269.58,0.12500400841236115,23.07822036743164,-0.1980000138282776,0.0,1
1666744977.55797696,1457868119,0,3,261795599,2233,11,1.25,42.7309093,-84.4903195,269.51,0.29502543807029724,12.528807640075684,-0.23500001430511475,0.0,1
1666744977.75801086,1458068153,0,3,261795799,2233,12,1.25,42.730908199999995,-84.4903204,269.35,0.16179309785366058,84.32463836669922,-0.5190000534057617,0.0,1
1666744977.95801997,1458268162,0,3,261795999,2233,12,1.08,42.7309072,-84.49032129999999,269.05,0.23269294202327728,22.48727798461914,-0.3630000054836273,0.0,1
1666744978.15801287,1458468155,0,3,261796199,2233,12,1.08,42.7309062,-84.4903226,268.68,0.40199753642082214,352.99871826171875,-0.2540000081062317,0.0,1
1666744978.35794997,1458668092,0,3,261796399,2233,12,1.08,42.7309045,-84.49032419999999,268.47,0.19856737554073334,85.66768646240234,-0.4410000145435333,0.0,1
1666744978.55800486,1458868147,0,3,261796599,2233,12,1.08,42.7309029,-84.4903253,268.33,0.15226949751377106,128.6010284423828,-0.22200001776218414,0.0,1
1666744978.75793505,1459068077,0,3,261796799,2233,12,1.08,42.730901599999996,-84.4903262,268.21,0.20424005389213562,130.6317138671875,-0.17000000178813934,0.0,1
1666744978.95799685,1459268139,0,3,261796999,2233,10,1.36,42.730900999999996,-84.4903267,268.1,0.25940895080566406,174.02566528320312,-0.12300000339746475,0.0,1
1666744979.15801287,1459468155,0,3,261797199,2233,10,1.36,42.7308999,-84.4903274,267.97,0.7627857327461243,160.94744873046875,-0.5220000147819519,0.0,1
1666744979.35795188,1459668094,0,3,261797399,2233,10,1.36,42.7308987,-84.4903283,267.8,0.5089449882507324,176.50791931152344,-0.20800000429153442,0.0,1
1666744979.55802488,1459868167,0,3,261797599,2233,11,1.36,42.7308965,-84.4903305,267.3,0.20750904083251953,259.44818115234375,0.13199999928474426,0.0,1
1666744979.75800705,1460068149,0,3,261797799,2233,11,1.36,42.730894899999996,-84.4903325,266.69,0.059439048171043396,167.36663818359375,0.08300000429153442,0.0,1
1666744979.95802999,1460268172,0,3,261797999,2233,11,1.12,42.7308945,-84.49033349999999,266.38,0.16204938292503357,358.5855712890625,0.14000000059604645,0.0,1
1666744980.15800905,1460468151,0,3,261798199,2233,11,1.12,42.730894,-84.4903339,266.14,0.092200867831707,126.6213150024414,0.04400000348687172,0.0,1
1666744980.35794187,1460668084,0,3,261798399,2233,11,1.12,42.7308934,-84.4903345,265.8,0.318006306886673,359.6396484375,0.24400001764297485,0.0,1
1666744980.55796385,1460868106,0,3,261798599,2233,11,1.12,42.7308927,-84.4903358,265.36,0.24930304288864136,339.820556640625,0.289000004529953,0.0,1
1666744980.75794506,1461068087,0,3,261798799,2233,11,1.12,42.730891199999995,-84.490337,264.89,0.0768439993262291,124.9309310913086,0.08300000429153442,0.0,1
1666744980.95795798,1461268100,0,3,261798999,2233,10,1.12,42.7308862,-84.49033999999999,263.92,0.2434953898191452,198.43495178222656,0.14100000262260437,0.0,1
1666744981.15795588,1461468098,0,3,261799199,2233,10,1.12,42.7308808,-84.4903439,262.8,0.013000000268220901,90.0,0.2900000214576721,0.0,1
1666744981.35801387,1461668156,0,3,261799399,2233,10,1.12,42.7308787,-84.4903459,262.19,0.10151354968547821,124.1596908569336,0.3290000259876251,0.0,1
1666744981.55795789,1461868100,0,3,261799599,2233,9,1.12,42.7308783,-84.49034639999999,261.95,0.09453042596578598,83.92753601074219,0.3880000114440918,0.0,1
1666744981.75800490,1462068147,0,3,261799799,2233,10,1.12,42.730878399999995,-84.4903465,261.84000000000003,0.10711676627397537,177.32456970214844,0.39000001549720764,0.0,1
1666744981.95794392,1462268086,0,3,261799999,2233,9,1.33,42.730877799999995,-84.49034689999999,261.66,0.1482970118522644,100.09749603271484,0.36400002241134644,0.0,1
1666744982.15795708,1462468099,0,3,261800199,2233,9,1.33,42.7308747,-84.49034929999999,261.0,0.36498355865478516,174.0238494873047,0.2840000092983246,0.0,1
1666744982.35794687,1462668089,0,3,261800399,2233,11,1.33,42.730872999999995,-84.4903509,260.6,0.6903311014175415,161.32882690429688,-0.020000001415610313,0.0,1
1666744982.55797696,1462868119,0,3,261800599,2233,9,1.33,42.7308727,-84.4903532,259.98,0.18895767629146576,185.77093505859375,0.26100000739097595,0.0,1
1666744982.75800204,1463068144,0,3,261800799,2233,10,1.33,42.7308728,-84.4903576,258.87,0.2971060574054718,223.36341857910156,0.30000001192092896,0.0,1
1666744982.95802188,1463268164,0,3,261800999,2233,11,1.12,42.7308733,-84.4903618,257.83,0.2593723237514496,277.7552185058594,0.5170000195503235,0.0,1
1666744983.15802193,1463468164,0,3,261801199,2233,10,1.12,42.7308741,-84.4903654,257.05,0.29054775834083557,211.77545166015625,0.18400001525878906,0.0,1
1666744983.35798097,1463668123,0,3,261801399,2233,9,1.12,42.7308732,-84.4903683,256.37,0.40152835845947266,221.87054443359375,0.28300002217292786,0.0,1
1666744983.55795693,1463868099,0,3,261801599,2233,11,1.12,42.7308722,-84.4903708,255.88,0.21228519082069397,219.8401336669922,0.16200000047683716,0.0,1
1666744983.75796890,1464068111,0,3,261801799,2233,11,1.12,42.7308717,-84.49037419999999,255.21,0.21341276168823242,241.75381469726562,0.23600001633167267,0.0,1
1666744983.95794392,1464268086,0,3,261801999,2233,11,1.29,42.7308717,-84.49037729999999,254.66,0.31864243745803833,234.06517028808594,0.2410000115633011,0.0,1
1666744984.15800500,1464468147,0,3,261802199,2233,10,1.29,42.7308722,-84.49038019999999,254.08,0.07209022343158722,293.72039794921875,0.19600000977516174,0.0,1
1666744984.35800195,1464668144,0,3,261802399,2233,9,1.29,42.7308726,-84.49038209999999,253.75,0.12935610115528107,289.41546630859375,0.2600000202655792,0.0,1
1666744984.55801296,1464868155,0,3,261802599,2233,11,1.29,42.7308727,-84.4903856,252.87,0.11542097479104996,232.03793334960938,0.31200000643730164,0.0,1
1666744984.75795984,1465068102,0,3,261802799,2233,11,1.29,42.730872999999995,-84.4903889,251.89000000000001,0.20162589848041534,43.191261291503906,0.2800000011920929,0.0,1
1666744984.95792794,1465268070,0,3,261802999,2233,11,1.12,42.7308735,-84.49039189999999,250.96,0.05948109179735184,153.004150390625,0.26600000262260437,0.0,1
1666744985.15793800,1465468080,0,3,261803199,2233,10,1.12,42.7308741,-84.4903945,250.19,0.10900459438562393,202.09423828125,0.28200000524520874,0.0,1
1666744985.35797095,1465668113,0,3,261803399,2233,11,1.12,42.7308762,-84.4903953,249.88,0.10900459438562393,179.47434997558594,0.23900000751018524,0.0,1
1666744985.55792785,1465868070,0,3,261803599,2233,11,1.12,42.730878399999995,-84.4903971,249.27,0.11709825694561005,187.85333251953125,0.2900000214576721,0.0,1
1666744985.75800395,1466068146,0,3,261803799,2233,10,1.12,42.7308804,-84.4903985,248.70000000000002,0.10264989733695984,125.08345794677734,0.17000000178813934,0.0,1
1666744985.95802402,1466268166,0,3,261803999,2233,10,1.12,42.7308818,-84.4903999,248.26000000000002,0.09902020543813705,123.0481185913086,0.16200000047683716,0.0,1
1666744986.15799499,1466468137,0,3,261804199,2233,11,1.12,42.730882799999996,-84.4904011,247.89000000000001,0.08697701245546341,70.52342224121094,0.18000000715255737,0.0,1
1666744986.35795593,1466668098,0,3,261804399,2233,10,1.12,42.730883,-84.4904025,247.41,0.18201375007629395,8.53076457977295,0.23400001227855682,0.0,1
1666744986.55793500,1466868077,0,3,261804599,2233,10,1.12,42.730882199999996,-84.4904042,246.66,0.022671569138765335,311.4236755371094,0.30400002002716064,0.0,1
1666744986.77800703,1467088149,0,3,261804799,2233,10,1.12,42.7308808,-84.490406,246.0,0.20696860551834106,174.45468139648438,0.18200001120567322,0.0,1
1666744986.95795393,1467268096,0,3,261804999,2233,10,1.1500000000000001,42.73088,-84.4904064,245.65,0.464660108089447,46.13355255126953,0.14600001275539398,0.0,1
1666744987.17795992,1467488102,0,3,261805199,2233,10,1.1500000000000001,42.7308792,-84.4904076,245.07,0.26196375489234924,13.240518569946289,0.49000000953674316,0.0,1
1666744987.35798287,1467668125,0,3,261805399,2233,10,1.1500000000000001,42.7308786,-84.49040959999999,244.44,0.12448293715715408,66.31790924072266,0.4410000145435333,0.0,1
1666744987.55800986,1467868152,0,3,261805599,2233,10,1.1500000000000001,42.730877799999995,-84.4904102,243.89000000000001,0.47930994629859924,49.23014831542969,0.44200003147125244,0.0,1
1666744987.75801301,1468068155,0,3,261805799,2233,10,1.1500000000000001,42.7308764,-84.4904104,243.54,0.128763347864151,353.7580871582031,0.687000036239624,0.0,1
1666744987.95802999,1468268172,0,3,261805999,2233,10,1.1500000000000001,42.7308744,-84.490411,243.14000000000001,0.18995264172554016,84.25938415527344,0.46400001645088196,0.0,1
1666744988.15790486,1468468047,0,3,261806199,2233,10,1.1500000000000001,42.7308725,-84.4904119,242.39000000000001,0.15570807456970215,98.49436950683594,0.6180000305175781,0.0,1
1666744988.35798502,1468668127,0,3,261806399,2233,10,1.1500000000000001,42.730871099999995,-84.4904123,242.01,0.3883555233478546,151.71922302246094,0.4650000333786011,0.0,1
1666744988.55795288,1468868095,0,3,261806599,2233,10,1.1500000000000001,42.7308696,-84.4904127,241.59,0.0502493791282177,47.41950607299805,0.6450000405311584,0.0,1
1666744988.75797200,1469068114,0,3,261806799,2233,10,1.1500000000000001,42.7308674,-84.49041319999999,241.11,0.5685534477233887,175.7635955810547,0.5830000042915344,0.0,1
1666744988.95797896,1469268121,0,3,261806999,2233,10,1.1500000000000001,42.730864,-84.4904146,240.59,0.6048619747161865,218.55625915527344,0.9760000705718994,0.0,1
1666744989.15799785,1469468140,0,3,261807199,2233,10,1.1500000000000001,42.7308616,-84.4904155,240.27,0.22722017765045166,154.4499053955078,0.5740000009536743,0.0,1
1666744989.35797286,1469668115,0,3,261807399,2233,10,1.1500000000000001,42.730858999999995,-84.490416,240.04,0.16879869997501373,158.45071411132812,0.6820000410079956,0.0,1
1666744989.55799890,1469868141,0,3,261807599,2233,10,1.1500000000000001,42.7308565,-84.4904164,239.83,0.07738862931728363,244.75946044921875,0.6300000548362732,0.0,1
1666744989.75796604,1470068108,0,3,261807799,2233,10,1.1500000000000001,42.730855,-84.490417,239.89000000000001,0.07083079218864441,239.4524383544922,0.48900002241134644,0.0,1
1666744989.95796204,1470268104,0,3,261807999,2233,10,1.1500000000000001,42.730852899999995,-84.4904193,239.41,0.23930107057094574,267.1256408691406,0.4310000240802765,0.0,1
1666744990.15792203,1470468064,0,3,261808199,2233,10,1.1500000000000001,42.7308509,-84.4904219,238.86,0.1710263192653656,217.87498474121094,0.49000000953674316,0.0,1
1666744990.35803604,1470668178,0,3,261808399,2233,10,1.1500000000000001,42.7308489,-84.4904229,238.62,0.21533462405204773,183.19459533691406,0.3700000047683716,0.0,1
1666744990.55797601,1470868118,0,3,261808599,2233,10,1.1500000000000001,42.730846899999996,-84.49042399999999,238.35,0.2670074999332428,270.4291687011719,0.51500004529953,0.0,1
1666744990.75799298,1471068135,0,3,261808799,2233,10,1.1500000000000001,42.730844999999995,-84.490425,238.20000000000002,0.19997000694274902,329.3310852050781,0.6410000324249268,0.0,1
1666744990.95796704,1471268109,0,3,261808999,2233,10,1.1500000000000001,42.7308442,-84.4904257,237.70000000000002,0.20661316812038422,296.4410400390625,0.8060000538825989,0.0,1
1666744991.15800190,1471468144,0,3,261809199,2233,10,1.1500000000000001,42.7308436,-84.4904263,237.15,0.23361936211585999,227.7758026123047,0.7000000476837158,0.0,1
1666744991.35797596,1471668118,0,3,261809399,2233,10,1.1500000000000001,42.7308427,-84.4904267,236.73000000000002,0.15654073655605316,207.38351440429688,0.5640000104904175,0.0,1
1666744991.55799794,1471868140,0,3,261809599,2233,10,1.1500000000000001,42.7308413,-84.4904272,236.55,0.09974467754364014,205.53744506835938,0.5010000467300415,0.0,1
1666744991.75794888,1472068091,0,3,261809799,2233,10,1.1500000000000001,42.73084,-84.49042779999999,236.35,0.14076931774616241,157.4427490234375,0.48100003600120544,0.0,1
1666744991.95801306,1472268155,0,3,261809999,2233,10,1.32,42.7308388,-84.4904282,236.20000000000002,0.19333133101463318,138.14495849609375,0.3760000169277191,0.0,1
1666744992.15801597,1472468158,0,3,261810199,2233,10,1.32,42.7308368,-84.49042899999999,235.94,0.23056671023368835,162.586669921875,0.4140000343322754,0.0,1
1666744992.35795999,1472668102,0,3,261810399,2233,10,1.32,42.7308354,-84.49042899999999,235.73000000000002,0.23805253207683563,99.18533325195312,0.46800002455711365,0.0,1
1666744992.55796385,1472868106,0,3,261810599,2233,9,1.32,42.7308349,-84.4904284,235.59,0.22615261375904083,139.1239013671875,0.3890000283718109,0.0,1
1666744992.75797391,1473068116,0,3,261810799,2233,9,1.32,42.7308345,-84.4904284,235.28,0.3125412166118622,39.54737854003906,0.6150000095367432,0.0,1
1666744992.95803499,1473268177,0,3,261810999,2233,9,1.36,42.730833399999995,-84.49042829999999,234.59,0.7273857593536377,76.40316009521484,0.18800000846385956,0.0,1
1666744993.15799785,1473468140,0,3,261811199,2233,9,1.36,42.730833,-84.49042759999999,234.37,0.1931035965681076,43.53119659423828,0.7690000534057617,0.0,1
1666744993.35794592,1473668088,0,3,261811399,2233,10,1.36,42.730832199999995,-84.4904284,233.83,0.19051772356033325,97.2369155883789,0.6800000071525574,0.0,1
1666744993.55801606,1473868158,0,3,261811599,2233,10,1.36,42.7308319,-84.4904282,233.63,0.37237751483917236,94.92974853515625,0.7200000286102295,0.0,1
1666744993.75801206,1474068154,0,3,261811799,2233,10,1.36,42.730832199999995,-84.4904277,233.5,0.2956298589706421,53.944122314453125,0.527999997138977,0.0,1
1666744993.95801687,1474268159,0,3,261811999,2233,10,1.36,42.7308321,-84.49042779999999,233.22,0.19573451578617096,172.3666534423828,0.5320000052452087,0.0,1
1666744994.17793202,1474488074,0,3,261812199,2233,9,1.36,42.730831099999996,-84.4904282,232.85,0.5338333249092102,191.56253051757812,0.43800002336502075,0.0,1
1666744994.35792303,1474668065,0,3,261812399,2233,12,1.36,42.7308307,-84.4904296,232.5,0.5819218754768372,303.0073547363281,1.027999997138977,0.0,1
1666744994.57795691,1474888099,0,3,261812599,2233,10,1.36,42.7308314,-84.4904306,232.37,0.09308598935604095,320.66729736328125,0.46800002455711365,0.0,1
1666744994.75801086,1475068153,0,3,261812799,2233,10,1.36,42.7308307,-84.4904313,232.11,0.3184273838996887,206.08224487304688,0.5520000457763672,0.0,1
1666744994.95795107,1475268093,0,3,261812999,2233,10,1.1500000000000001,42.7308295,-84.4904322,232.1,0.3410234749317169,208.7445526123047,0.4790000319480896,0.0,1
1666744995.15801787,1475468160,0,3,261813199,2233,10,1.1500000000000001,42.730827,-84.4904332,231.95000000000002,0.33630046248435974,188.0337371826172,0.3440000116825104,0.0,1
1666744995.35799289,1475668135,0,3,261813399,2233,10,1.1500000000000001,42.7308253,-84.4904342,231.98000000000002,0.15289539098739624,218.8939208984375,0.367000013589859,0.0,1
1666744995.55802393,1475868166,0,3,261813599,2233,10,1.1500000000000001,42.7308241,-84.4904351,231.96,0.2414000928401947,233.0826416015625,0.33500000834465027,0.0,1
1666744995.75804806,1476068190,0,3,261813799,2233,10,1.1500000000000001,42.730823799999996,-84.4904353,232.21,0.24782252311706543,263.04705810546875,0.21700000762939453,0.0,1
1666744995.95797086,1476268113,0,3,261813999,2233,10,1.1500000000000001,42.7308239,-84.49043569999999,232.54,0.5580368041992188,3.4930739402770996,0.1600000113248825,0.0,1
1666744996.15800500,1476468147,0,3,261814199,2233,10,1.1500000000000001,42.7308236,-84.4904359,232.46,0.14577379822731018,22.166345596313477,0.164000004529953,0.0,1
1666744996.35794497,1476668087,0,3,261814399,2233,10,1.1500000000000001,42.730822499999995,-84.4904361,232.28,0.2146671861410141,283.1946716308594,0.20000000298023224,0.0,1
1666744996.55796695,1476868109,0,3,261814599,2233,10,1.1500000000000001,42.7308208,-84.4904365,231.97,0.1320037990808487,294.6235656738281,0.242000013589859,0.0,1
1666744996.77796602,1477088108,0,3,261814799,2233,10,1.1500000000000001,42.7308198,-84.49043689999999,231.68,0.028635643422603607,294.775146484375,0.17500001192092896,0.0,1
1666744996.95800304,1477268145,0,3,261814999,2233,9,1.33,42.7308198,-84.49043739999999,231.43,0.019723083823919296,30.465545654296875,0.16300000250339508,0.0,1
1666744997.17797899,1477488121,0,3,261815199,2233,11,1.33,42.730818899999996,-84.4904383,231.14000000000001,0.08376156538724899,213.31063842773438,0.10300000756978989,0.0,1
1666744997.35801101,1477668153,0,3,261815399,2233,10,1.33,42.730818,-84.4904394,230.68,0.0580517016351223,317.7926940917969,0.13500000536441803,0.0,1
1666744997.55795288,1477868095,0,3,261815599,2233,10,1.33,42.7308179,-84.4904407,230.32,0.12387898564338684,206.35821533203125,0.09200000762939453,0.0,1
1666744997.75807786,1478068220,0,3,261815799,2233,10,1.33,42.730817699999996,-84.4904419,229.97,0.05445181578397751,134.2559356689453,-0.029000001028180122,0.0,1
1666744997.95793605,1478268078,0,3,261815999,2233,10,1.1500000000000001,42.7308168,-84.4904433,229.66,0.08940358459949493,36.35719680786133,-0.10300000756978989,0.0,1
1666744998.15796089,1478468103,0,3,261816199,2233,10,1.1500000000000001,42.7308136,-84.4904464,229.18,0.39943087100982666,186.32435607910156,0.1860000044107437,0.0,1
1666744998.35799384,1478668136,0,3,261816399,2233,9,1.1500000000000001,42.7308105,-84.4904486,228.96,0.19879890978336334,136.83447265625,0.164000004529953,0.0,1
1666744998.55799007,1478868132,0,3,261816599,2233,8,1.1500000000000001,42.7308094,-84.49044839999999,228.75,0.4957459270954132,65.19256591796875,-0.010000000707805157,0.0,1
1666744998.75798297,1479068125,0,3,261816799,2233,9,1.1500000000000001,42.730807899999995,-84.4904483,228.71,0.12972663342952728,130.93663024902344,0.17000000178813934,0.0,1
1666744998.95797205,1479268114,0,3,261816999,2233,9,1.16,42.730806799999996,-84.4904483,228.65,0.053665630519390106,116.5650405883789,0.08000000566244125,0.0,1
1666744999.15804100,1479468183,0,3,261817199,2233,9,1.16,42.7308054,-84.4904486,228.37,0.22682373225688934,151.85321044921875,-0.018000001087784767,0.0,1
1666744999.35797787,1479668120,0,3,261817399,2233,9,1.16,42.7308039,-84.4904486,228.03,0.7970796823501587,172.35784912109375,0.05300000309944153,0.0,1
1666744999.55793285,1479868075,0,3,261817599,2233,12,1.16,42.7308023,-84.4904486,228.06,0.4310835301876068,157.0631866455078,0.2800000011920929,0.0,1
1666744999.75800705,1480068149,0,3,261817799,2233,10,1.16,42.7308015,-84.4904485,227.88,0.18133947253227234,96.96825408935547,0.359000027179718,0.0,1
1666744999.95796704,1480268109,0,3,261817999,2233,9,2.0100000000000002,42.7308011,-84.49044909999999,227.83,0.20796635746955872,136.55868530273438,0.26200002431869507,0.0,1
1666745000.15802097,1480468163,0,3,261818199,2233,9,2.0100000000000002,42.730799999999995,-84.4904499,227.56,0.20664946734905243,137.35328674316406,0.534000039100647,0.0,1
1666745000.35800695,1480668149,0,3,261818399,2233,9,2.0100000000000002,42.7307991,-84.49045029999999,227.11,0.25300198793411255,162.2812042236328,0.49500003457069397,0.0,1
1666745000.55796504,1480868107,0,3,261818599,2233,9,2.0100000000000002,42.7307985,-84.4904506,226.56,0.18923267722129822,112.36366271972656,0.5480000376701355,0.0,1
1666745000.75795293,1481068095,0,3,261818799,2233,9,2.0100000000000002,42.7307984,-84.49045079999999,225.9,0.19109423458576202,114.41912841796875,0.656000018119812,0.0,1
1666745000.95796895,1481268111,0,3,261818999,2233,9,1.16,42.730798899999996,-84.4904512,224.99,0.4268782138824463,121.4931869506836,0.2200000137090683,0.0,1
1666745001.15796304,1481468105,0,3,261819199,2233,9,1.16,42.730798899999996,-84.490451,224.17000000000002,0.2035706341266632,105.67475891113281,0.33900001645088196,0.0,1
1666745001.35796595,1481668108,0,3,261819399,2233,10,1.16,42.7307987,-84.49045199999999,223.46,0.1458355337381363,137.7791748046875,0.36400002241134644,0.0,1
1666745001.55797791,1481868120,0,3,261819599,2233,9,1.16,42.7307986,-84.49045249999999,222.47,0.29321837425231934,160.26730346679688,0.2540000081062317,0.0,1
1666745001.75801301,1482068155,0,3,261819799,2233,9,1.16,42.7307977,-84.4904541,221.47,0.19728407263755798,134.7946319580078,0.38600000739097595,0.0,1
1666745001.95800996,1482268152,0,3,261819999,2233,9,1.3800000000000001,42.730797599999995,-84.490455,220.93,0.1086001917719841,143.23561096191406,0.4360000193119049,0.0,1
1666745002.15793800,1482468080,0,3,261820199,2233,9,1.3800000000000001,42.7307978,-84.4904557,220.35,0.07720103859901428,143.42697143554688,0.4010000228881836,0.0,1
1666745002.35802197,1482668164,0,3,261820399,2233,9,1.3800000000000001,42.7307984,-84.49045699999999,219.78,0.11624543368816376,338.2901306152344,0.5400000214576721,0.0,1
1666745002.55796099,1482868103,0,3,261820599,2233,8,1.3800000000000001,42.7307993,-84.4904581,219.22,0.2446630448102951,32.65079879760742,0.4190000295639038,0.0,1
1666745002.75797892,1483068121,0,3,261820799,2233,8,1.3800000000000001,42.730800099999996,-84.49045919999999,218.65,0.24716392159461975,2.0867772102355957,0.5360000133514404,0.0,1
1666745002.95803595,1483268178,0,3,261820999,2233,9,1.2,42.7307996,-84.4904612,217.69,0.2835930287837982,207.73973083496094,0.659000039100647,0.0,1
1666745003.15799785,1483468140,0,3,261821199,2233,10,1.2,42.7307983,-84.49046299999999,216.70000000000002,0.13892805576324463,200.65260314941406,0.6160000562667847,0.0,1
1666745003.35800004,1483668142,0,3,261821399,2233,9,1.2,42.730796999999995,-84.4904643,216.06,0.15815183520317078,166.84243774414062,0.5860000252723694,0.0,1
1666745003.55795884,1483868101,0,3,261821599,2233,9,1.2,42.7307977,-84.49046469999999,215.83,0.10417293757200241,176.69813537597656,0.581000030040741,0.0,1
1666745003.75802088,1484068163,0,3,261821799,2233,12,1.2,42.7307969,-84.49046609999999,215.77,0.12747550010681152,221.82017517089844,0.6440000534057617,0.0,1
1666745003.95797896,1484268121,0,3,261821999,2233,10,1.1500000000000001,42.730796399999996,-84.4904669,215.21,0.41756078600883484,208.7747344970703,0.6740000247955322,0.0,1
1666745004.15796304,1484468105,0,3,261822199,2233,10,1.1500000000000001,42.7307947,-84.4904682,214.47,0.48963865637779236,199.6931915283203,0.5139999985694885,0.0,1
1666745004.35800886,1484668151,0,3,261822399,2233,10,1.1500000000000001,42.7307936,-84.4904696,214.18,0.41282564401626587,221.95626831054688,0.6240000128746033,0.0,1
1666745004.55801988,1484868162,0,3,261822599,2233,10,1.1500000000000001,42.730792799999996,-84.490471,213.97,0.5945082306861877,198.43495178222656,0.4910000264644623,0.0,1
1666745004.75801897,1485068161,0,3,261822799,2233,12,1.1500000000000001,42.730791599999996,-84.4904725,213.81,0.5382211804389954,198.30030822753906,0.05400000140070915,0.0,1
1666745004.95797300,1485268115,0,3,261822999,2233,10,1.33,42.730791499999995,-84.4904742,213.19,0.3049098253250122,203.79078674316406,0.47300001978874207,0.0,1
1666745005.15796995,1485468112,0,3,261823199,2233,11,1.33,42.7307913,-84.4904761,212.85,0.7971863150596619,227.84718322753906,0.7570000290870667,0.0,1
1666745005.35791492,1485668057,0,3,261823399,2233,10,1.33,42.7307911,-84.4904775,212.73000000000002,0.3206244111061096,229.55377197265625,0.4650000333786011,0.0,1
1666745005.55796194,1485868104,0,3,261823599,2233,10,1.33,42.7307941,-84.490478,212.87,0.37820762395858765,216.50631713867188,0.3920000195503235,0.0,1
1666745005.75795388,1486068096,0,3,261823799,2233,10,1.33,42.7307941,-84.490479,212.61,0.5756049156188965,204.20506286621094,0.48500001430511475,0.0,1
1666745005.97796988,1486288112,0,3,261823999,2233,9,1.34,42.730793399999996,-84.4904803,212.13,0.22408927977085114,220.65676879882812,0.5490000247955322,0.0,1
1666745006.15802598,1486468168,0,3,261824199,2233,10,1.34,42.7307944,-84.49048169999999,211.57,0.3941941261291504,204.7447052001953,0.492000013589859,0.0,1
1666745006.35796595,1486668108,0,3,261824399,2233,10,1.34,42.7307944,-84.4904834,210.9,0.40301117300987244,214.2815399169922,0.46000000834465027,0.0,1
1666745006.55804086,1486868183,0,3,261824599,2233,11,1.34,42.7307959,-84.49048479999999,210.86,0.6366325616836548,340.73968505859375,0.13600000739097595,0.0,1
1666745006.75802302,1487068165,0,3,261824799,2233,10,1.34,42.7307967,-84.490487,210.48000000000002,0.9246712923049927,340.01690673828125,-0.9160000681877136,0.0,1
1666745006.95792890,1487268071,0,3,261824999,2233,10,1.3,42.7307997,-84.4904888,210.9,1.6216264963150024,333.08734130859375,-0.7950000166893005,0.0,1
1666745007.17799497,1487488137,0,3,261825199,2233,10,1.3,42.730798799999995,-84.49049219999999,210.58,1.3480905294418335,264.5516052246094,-0.4910000264644623,0.0,1
1666745007.35792589,1487668068,0,3,261825399,2233,10,1.3,42.7307992,-84.4904955,210.63,1.043977975845337,310.571533203125,-0.6930000185966492,0.0,1
1666745007.55797386,1487868116,0,3,261825599,2233,10,1.3,42.7308002,-84.49049819999999,210.46,1.3551476001739502,317.2428283691406,-0.20500001311302185,0.0,1
1666745007.75804090,1488068183,0,3,261825799,2233,11,1.3,42.7308014,-84.4905017,209.9,1.6549323797225952,320.664306640625,0.6210000514984131,0.0,1
1666745007.95800400,1488268146,0,3,261825999,2233,11,1.12,42.7308022,-84.4905047,209.4,0.740349292755127,315.27362060546875,0.09800000488758087,0.0,1
1666745008.15802193,1488468164,0,3,261826199,2233,10,1.12,42.7308042,-84.4905069,209.44,1.2226041555404663,315.2982482910156,0.531000018119812,0.0,1
1666745008.35795593,1488668098,0,3,261826399,2233,11,1.12,42.730806099999995,-84.49050969999999,209.32,0.8845750689506531,287.6361083984375,0.6510000228881836,0.0,1
1666745008.55804300,1488868185,0,3,261826599,2233,10,1.12,42.7308075,-84.49051209999999,209.34,0.5695656538009644,264.5596923828125,0.19500000774860382,0.0,1
1666745008.75803089,1489068173,0,3,261826799,2233,10,1.12,42.7308066,-84.49051419999999,209.07,0.5751956701278687,268.50567626953125,0.24300001561641693,0.0,1
1666745008.95803094,1489268173,0,3,261826999,2233,10,1.1500000000000001,42.7308076,-84.49051639999999,208.87,1.1243140697479248,314.71173095703125,0.9480000734329224,0.0,1
1666745009.15802407,1489468166,0,3,261827199,2233,10,1.1500000000000001,42.730809,-84.4905189,208.65,0.8613710403442383,296.02960205078125,0.6600000262260437,0.0,1
1666745009.35798597,1489668128,0,3,261827399,2233,10,1.1500000000000001,42.7308099,-84.4905193,208.5,0.7407705783843994,76.73290252685547,0.8540000319480896,0.0,1
1666745009.55801392,1489868156,0,3,261827599,2233,10,1.1500000000000001,42.7308088,-84.49051829999999,208.20000000000002,1.0512397289276123,154.77565002441406,0.9270000457763672,0.0,1
1666745009.75802803,1490068170,0,3,261827799,2233,10,1.1500000000000001,42.7308077,-84.49051829999999,208.02,0.6827547550201416,189.69686889648438,0.6630000472068787,0.0,1
1666745009.95803285,1490268175,0,3,261827999,2233,9,1.34,42.7308065,-84.4905175,207.89000000000001,0.9513664245605469,160.53656005859375,1.0220000743865967,0.0,1
1666745010.15805888,1490468201,0,3,261828199,2233,10,1.34,42.7308072,-84.49051539999999,208.32,1.0728304386138916,192.59832763671875,1.1980000734329224,0.0,1
1666745010.35802388,1490668166,0,3,261828399,2233,10,1.34,42.7308078,-84.490516,208.47,0.7997825145721436,240.48614501953125,1.658000111579895,0.0,1
1666745010.55796289,1490868105,0,3,261828599,2233,10,1.34,42.730809699999995,-84.49051709999999,208.78,0.6643613576889038,209.1886444091797,0.9300000667572021,0.0,1
1666745010.75797892,1491068121,0,3,261828799,2233,11,1.34,42.7308094,-84.4905187,208.47,0.11275194585323334,173.3792266845703,0.5820000171661377,0.0,1
1666745010.95799589,1491268138,0,3,261828999,2233,12,1.08,42.7308095,-84.49051949999999,208.69,0.21286851167678833,45.95166778564453,-0.51500004529953,0.0,1
1666745011.15797400,1491468116,0,3,261829199,2233,12,1.08,42.7308099,-84.4905203,209.15,0.04060788452625275,189.92625427246094,-0.8200000524520874,0.0,1
1666745011.35800791,1491668150,0,3,261829399,2233,11,1.08,42.7308102,-84.49052139999999,209.64000000000001,0.3526187837123871,281.1187438964844,-0.4300000071525574,0.0,1
1666745011.55798388,1491868126,0,3,261829599,2233,11,1.08,42.730809699999995,-84.490523,210.01,0.20012496411800385,257.0054016113281,-0.8040000200271606,0.0,1
1666745011.75798202,1492068124,0,3,261829799,2233,11,1.08,42.7308117,-84.490523,210.95000000000002,0.8013794422149658,15.562379837036133,-0.47600001096725464,0.0,1
1666745011.95801902,1492268161,0,3,261829999,2233,11,1.12,42.7308143,-84.49052329999999,211.98000000000002,0.5469597578048706,289.9920654296875,-0.9380000233650208,0.0,1
1666745012.15797901,1492468121,0,3,261830199,2233,10,1.12,42.730815,-84.4905242,212.0,0.22083932161331177,349.3006591796875,-0.7420000433921814,0.0,1
1666745012.35802197,1492668164,0,3,261830399,2233,11,1.12,42.7308151,-84.4905254,212.93,0.44364964962005615,219.97093200683594,-0.6710000038146973,0.0,1
1666745012.55799794,1492868140,0,3,261830599,2233,10,1.12,42.730815199999995,-84.4905264,214.54,0.6920188665390015,349.7618103027344,-0.7540000081062317,0.0,1
1666745012.75802302,1493068165,0,3,261830799,2233,9,1.12,42.730813,-84.4905283,215.63,0.477222204208374,264.4686279296875,-0.22200001776218414,0.0,1
1666745012.95801997,1493268162,0,3,261830999,2233,10,1.1500000000000001,42.7308119,-84.4905292,217.54,0.29761722683906555,36.25383758544922,-0.46000000834465027,0.0,1
1666745013.15794992,1493468092,0,3,261831199,2233,9,1.1500000000000001,42.7308125,-84.490529,220.17000000000002,1.1080816984176636,354.5106506347656,-0.5230000019073486,0.0,1
1666745013.35794997,1493668092,0,3,261831399,2233,10,1.1500000000000001,42.730811599999996,-84.49052979999999,222.11,0.2391694039106369,2.156562566757202,-0.2150000035762787,0.0,1
1666745013.55791903,1493868061,0,3,261831599,2233,8,1.1500000000000001,42.7308095,-84.4905304,223.89000000000001,0.2512468993663788,10.549612045288086,-0.17400000989437103,0.0,1
1666745013.75802493,1494068167,0,3,261831799,2233,8,1.1500000000000001,42.730806699999995,-84.4905314,225.88,0.12092973291873932,235.7843017578125,-0.203000009059906,0.0,1
1666745013.95800996,1494268152,0,3,261831999,2233,9,1.1500000000000001,42.7308071,-84.4905289,229.02,0.0810493752360344,80.77011108398438,-0.2550000250339508,0.0,1
1666745014.15800500,1494468147,0,3,261832199,2233,8,1.1500000000000001,42.730807,-84.4905295,231.62,0.8979454636573792,208.2489013671875,0.11800000816583633,0.0,1
1666745014.35797286,1494668115,0,3,261832399,2233,8,1.1500000000000001,42.7308082,-84.4905307,233.45000000000002,0.18895767629146576,227.35916137695312,-0.28300002217292786,0.0,1
1666745014.55800104,1494868143,0,3,261832599,2233,8,1.1500000000000001,42.730807999999996,-84.4905299,234.07,0.328324556350708,130.677001953125,-0.37400001287460327,0.0,1
1666745014.75793695,1495068079,0,3,261832799,2233,9,1.1500000000000001,42.730806799999996,-84.49052929999999,234.24,0.644715428352356,184.18060302734375,-0.31200000643730164,0.0,1
1666745014.95802402,1495268166,0,3,261832999,2233,8,1.36,42.7308063,-84.4905285,234.73000000000002,1.2890222072601318,158.94972229003906,-0.8050000667572021,0.0,1
1666745015.15798593,1495468128,0,3,261833199,2233,8,1.36,42.7308035,-84.4905282,234.98000000000002,1.9815232753753662,189.7332763671875,-0.2930000126361847,0.0,1
1666745015.35800004,1495668142,0,3,261833399,2233,8,1.36,42.7308011,-84.490529,235.38,0.40329891443252563,6.120547771453857,-0.07900000363588333,0.0,1
1666745015.55802894,1495868171,0,3,261833599,2233,8,1.36,42.730799999999995,-84.4905304,236.04,1.4118562936782837,184.7535400390625,-0.02500000037252903,0.0,1
1666745015.75800490,1496068147,0,3,261833799,2233,9,1.36,42.7307971,-84.4905321,236.43,0.8577389121055603,174.64833068847656,-0.41100001335144043,0.0,1
1666745015.95799804,1496268140,0,3,261833999,2233,9,1.1500000000000001,42.7307948,-84.4905331,237.08,0.8477907180786133,173.9060821533203,-0.4870000183582306,0.0,1
1666745016.15795994,1496468102,0,3,261834199,2233,9,1.1500000000000001,42.7307929,-84.490535,236.98000000000002,1.0161008834838867,230.2305450439453,0.15600000321865082,0.0,1
1666745016.35794401,1496668086,0,3,261834399,2233,10,1.1500000000000001,42.7307918,-84.49053669999999,237.16,1.3817051649093628,204.7288055419922,-0.20100000500679016,0.0,1
1666745016.55799103,1496868133,0,3,261834599,2233,10,1.1500000000000001,42.7307907,-84.49053769999999,237.25,0.5606799721717834,229.91966247558594,-0.27400001883506775,0.0,1
1666745016.75796199,1497068104,0,3,261834799,2233,10,1.1500000000000001,42.7307907,-84.4905388,237.36,0.40340182185173035,177.44256591796875,-0.5790000557899475,0.0,1
1666745016.95801497,1497268157,0,3,261834999,2233,10,1.1500000000000001,42.7307892,-84.4905398,237.31,0.5856364369392395,204.9459686279297,-0.12700000405311584,0.0,1
1666745017.17794800,1497488090,0,3,261835199,2233,9,1.1500000000000001,42.7307864,-84.4905407,236.88,1.0826084613800049,201.96849060058594,-0.281000018119812,0.0,1
1666745017.35797501,1497668117,0,3,261835399,2233,10,1.1500000000000001,42.7307831,-84.4905419,236.96,1.605276346206665,177.715087890625,-0.8520000576972961,0.0,1
1666745017.55802298,1497868165,0,3,261835599,2233,10,1.1500000000000001,42.7307804,-84.490543,237.02,1.313106656074524,192.89324951171875,-0.36000001430511475,0.0,1
1666745017.75797200,1498068114,0,3,261835799,2233,10,1.1500000000000001,42.730778799999996,-84.49054319999999,237.22,0.4176996648311615,116.74906921386719,-0.5320000052452087,0.0,1
1666745017.95794892,1498268091,0,3,261835999,2233,10,1.1500000000000001,42.730778,-84.4905431,237.14000000000001,0.8696585893630981,169.46533203125,-0.6060000061988831,0.0,1
1666745018.15797806,1498468120,0,3,261836199,2233,10,1.1500000000000001,42.7307779,-84.4905428,237.93,0.762410044670105,159.2592315673828,-0.9390000700950623,0.0,1
1666745018.35793495,1498668077,0,3,261836399,2233,10,1.1500000000000001,42.730776999999996,-84.4905433,237.71,0.7493530511856079,205.02613830566406,-0.4390000104904175,0.0,1
1666745018.55798602,1498868128,0,3,261836599,2233,10,1.1500000000000001,42.7307759,-84.4905441,237.85,1.2822246551513672,181.072509765625,-1.0830000638961792,0.0,1
1666745018.75800586,1499068148,0,3,261836799,2233,9,1.1500000000000001,42.7307738,-84.49054439999999,237.63,0.5369404554367065,189.86581420898438,-1.28000009059906,0.0,1
1666745018.95800304,1499268145,0,3,261836999,2233,9,1.1500000000000001,42.7307732,-84.490546,237.09,0.37865155935287476,214.7812957763672,-0.9490000605583191,0.0,1
1666745019.15803289,1499468175,0,3,261837199,2233,10,1.1500000000000001,42.7307736,-84.4905479,235.8,0.33514776825904846,210.0841522216797,-0.593000054359436,0.0,1
1666745019.35792804,1499668070,0,3,261837399,2233,10,1.1500000000000001,42.730774499999995,-84.4905489,235.43,0.19601021707057953,61.34288024902344,-0.7420000433921814,0.0,1
1666745019.55799794,1499868140,0,3,261837599,2233,10,1.1500000000000001,42.7307746,-84.49055039999999,234.53,0.4543236792087555,165.0767059326172,-0.6020000576972961,0.0,1
1666745019.75795889,1500068101,0,3,261837799,2233,10,1.1500000000000001,42.7307716,-84.49055159999999,233.49,1.184650182723999,199.0161590576172,0.07000000029802322,0.0,1
1666745019.95797992,1500268122,0,3,261837999,2233,9,1.1500000000000001,42.730770899999996,-84.4905526,232.92000000000002,0.09245540201663971,308.8533630371094,0.15700000524520874,0.0,1
1666745020.15800786,1500468150,0,3,261838199,2233,12,1.1500000000000001,42.7307705,-84.4905528,232.36,0.31048351526260376,194.93142700195312,0.3190000057220459,0.0,1
1666745020.37792397,1500688066,0,3,261838399,2233,12,1.1500000000000001,42.730770299999996,-84.4905522,232.08,0.7957670092582703,56.9489631652832,0.15600000321865082,0.0,1
1666745020.55796099,1500868103,0,3,261838599,2233,10,1.1500000000000001,42.730772099999996,-84.49055179999999,232.49,0.47198519110679626,210.42247009277344,0.4320000112056732,0.0,1
1666745020.75803089,1501068173,0,3,261838799,2233,9,1.1500000000000001,42.730771,-84.4905524,232.48000000000002,0.6933051943778992,203.45904541015625,0.203000009059906,0.0,1
1666745020.95796490,1501268107,0,3,261838999,2233,10,1.29,42.7307713,-84.4905531,232.4,1.1040494441986084,355.7406005859375,0.7040000557899475,0.0,1
1666745021.15805197,1501468194,0,3,261839199,2233,8,1.29,42.730770299999996,-84.4905528,231.74,1.3354209661483765,189.26483154296875,0.1810000091791153,0.0,1
1666745021.35802197,1501668164,0,3,261839399,2233,9,1.29,42.7307679,-84.4905517,230.55,0.8994321227073669,162.33055114746094,0.22800001502037048,0.0,1
1666745021.55798507,1501868127,0,3,261839599,2233,9,1.29,42.730766599999995,-84.4905515,230.06,0.3582652807235718,154.36474609375,0.597000002861023,0.0,1
1666745021.75802398,1502068166,0,3,261839799,2233,9,1.29,42.730765,-84.4905508,229.53,1.5275144577026367,166.29124450683594,-0.3410000205039978,0.0,1
1666745021.95802593,1502268168,0,3,261839999,2233,9,1.34,42.7307631,-84.4905497,228.78,0.8779351115226746,142.12501525878906,0.4220000207424164,0.0,1
1666745022.15800786,1502468150,0,3,261840199,2233,9,1.34,42.7307627,-84.49054819999999,228.52,0.8554589748382568,101.25738525390625,-0.1900000125169754,0.0,1
1666745022.35802603,1502668168,0,3,261840399,2233,9,1.34,42.7307631,-84.490545,228.64000000000001,1.964439868927002,93.85287475585938,-0.6760000586509705,0.0,1
1666745022.55798793,1502868130,0,3,261840599,2233,9,1.34,42.730764099999995,-84.4905394,228.99,2.972750663757324,88.03369903564453,-0.8800000548362732,0.0,1
1666745022.75799489,1503068137,0,3,261840799,2233,10,1.34,42.7307591,-84.49053719999999,229.04,5.128221035003662,173.28102111816406,-1.5940001010894775,0.0,1
1666745022.95792198,1503268064,0,3,261840999,2233,12,1.08,42.7307548,-84.4905347,229.16,2.9194674491882324,137.74874877929688,-0.24800001084804535,0.0,1
1666745023.15796494,1503468107,0,3,261841199,2233,9,1.08,42.7307497,-84.4905314,228.44,3.250345468521118,150.43003845214844,-0.2710000276565552,0.0,1
1666745023.35798502,1503668127,0,3,261841399,2233,8,1.08,42.730746599999996,-84.4905292,227.52,1.5887584686279297,132.67880249023438,0.8210000395774841,0.0,1
1666745023.55796504,1503868107,0,3,261841599,2233,9,1.08,42.730745399999996,-84.49052669999999,227.06,0.9528746604919434,102.30052947998047,1.2980000972747803,0.0,1
1666745023.75800204,1504068144,0,3,261841799,2233,9,1.08,42.7307467,-84.4905251,227.16,0.5417102575302124,135.8975067138672,0.6830000281333923,0.0,1
1666745023.95799589,1504268138,0,3,261841999,2233,9,1.34,42.730748,-84.4905248,226.86,0.4400693476200104,131.22267150878906,-0.0950000062584877,0.0,1
1666745024.15794587,1504468088,0,3,261842199,2233,9,1.34,42.7307504,-84.4905249,226.21,0.8088245391845703,38.72618865966797,-0.07700000703334808,0.0,1
1666745024.37800789,1504688150,0,3,261842399,2233,9,1.34,42.7307522,-84.4905252,225.68,0.2735617160797119,350.7442626953125,-0.11000000685453415,0.0,1
1666745024.55793786,1504868080,0,3,261842599,2233,9,1.34,42.7307525,-84.4905277,224.02,0.5496762990951538,338.66314697265625,0.05900000408291817,0.0,1
1666745024.75798297,1505068125,0,3,261842799,2233,9,1.34,42.7307523,-84.49052929999999,222.99,0.11738824844360352,188.8203887939453,-0.04400000348687172,0.0,1
1666745024.95801306,1505268155,0,3,261842999,2233,9,1.34,42.730752599999995,-84.49052999999999,222.28,0.45668482780456543,322.0260009765625,0.28700000047683716,0.0,1
1666745025.15799189,1505468134,0,3,261843199,2233,10,1.34,42.7307549,-84.49053219999999,222.37,0.8929463028907776,280.8443298339844,0.593000054359436,0.0,1
1666745025.35797596,1505668118,0,3,261843399,2233,10,1.34,42.730756,-84.49053359999999,222.1,0.6118055582046509,250.02490234375,-0.16900001466274261,0.0,1
1666745025.55791092,1505868053,0,3,261843599,2233,10,1.34,42.7307564,-84.49053359999999,221.48000000000002,0.9463598728179932,25.94229507446289,-0.06800000369548798,0.0,1
1666745025.75797105,1506068113,0,3,261843799,2233,10,1.34,42.7307555,-84.4905328,220.36,0.7867147326469421,46.854248046875,-0.023000001907348633,0.0,1
1666745025.95797300,1506268115,0,3,261843999,2233,10,1.1500000000000001,42.7307585,-84.4905326,221.02,1.009142279624939,244.65383911132812,0.4650000333786011,0.0,1
1666745026.15794206,1506468084,0,3,261844199,2233,10,1.1500000000000001,42.7307596,-84.4905347,221.1,0.7947232723236084,260.14654541015625,0.31300002336502075,0.0,1
1666745026.35802794,1506668170,0,3,261844399,2233,9,1.1500000000000001,42.7307607,-84.4905355,220.67000000000002,0.9312148690223694,1.2306544780731201,0.23000000417232513,0.0,1
1666745026.55802298,1506868165,0,3,261844599,2233,8,1.1500000000000001,42.730761099999995,-84.4905369,219.27,0.5085666179656982,7.683981895446777,0.36400002241134644,0.0,1
1666745026.75802207,1507068164,0,3,261844799,2233,9,1.1500000000000001,42.730763599999996,-84.4905395,218.36,0.5699561238288879,299.3084716796875,0.24000000953674316,0.0,1
1666745026.95799398,1507268136,0,3,261844999,2233,9,1.19,42.7307645,-84.49054149999999,217.35,0.8130541443824768,261.4413757324219,1.3420000076293945,0.0,1
1666745027.17798305,1507488125,0,3,261845199,2233,10,1.19,42.730765999999996,-84.490543,217.07,0.5747182369232178,325.5633544921875,0.8140000104904175,0.0,1
1666745027.35794806,1507668090,0,3,261845399,2233,10,1.19,42.7307664,-84.4905436,216.13,0.5665588974952698,274.2513427734375,1.1190000772476196,0.0,1
1666745027.55793500,1507868077,0,3,261845599,2233,9,1.19,42.7307638,-84.4905455,214.66,1.1734070777893066,256.29534912109375,2.4090001583099365,0.0,1
1666745027.75796199,1508068104,0,3,261845799,2233,10,1.19,42.730762299999995,-84.4905476,213.94,0.7609894871711731,238.377685546875,1.3280000686645508,0.0,1
1666745027.95800686,1508268149,0,3,261845999,2233,9,1.2,42.7307621,-84.4905491,213.81,1.0422908067703247,261.5589599609375,1.1140000820159912,0.0,1
1666745028.15803385,1508468176,0,3,261846199,2233,9,1.2,42.7307602,-84.49055109999999,213.22,0.7979373335838318,305.20379638671875,0.9500000476837158,0.0,1
1666745028.35797286,1508668115,0,3,261846399,2233,8,1.2,42.7307603,-84.49055299999999,212.95000000000002,0.3531586229801178,312.5901794433594,1.0500000715255737,0.0,1
1666745028.55800104,1508868143,0,3,261846599,2233,8,1.2,42.7307572,-84.4905551,212.18,0.11100450903177261,280.905029296875,0.4750000238418579,0.0,1
1666745028.75793505,1509068077,0,3,261846799,2233,8,1.2,42.730756199999995,-84.4905588,210.33,1.3972610235214233,358.89276123046875,1.5230001211166382,0.0,1
1666745028.95796990,1509268112,0,3,261846999,2233,9,1.34,42.7307586,-84.4905596,210.04,0.1617559939622879,248.98793029785156,0.5110000371932983,0.0,1
1666745029.15795207,1509468094,0,3,261847199,2233,10,1.34,42.7307598,-84.4905603,209.71,0.4766424298286438,314.14996337890625,0.5320000052452087,0.0,1
1666745029.35796499,1509668107,0,3,261847399,2233,10,1.34,42.730759299999995,-84.49056139999999,209.19,0.21554118394851685,325.2039794921875,0.34800001978874207,0.0,1
1666745029.55801988,1509868162,0,3,261847599,2233,9,1.34,42.730760499999995,-84.4905622,209.11,0.3478505611419678,325.3048400878906,0.6570000052452087,0.0,1
1666745029.75800800,1510068150,0,3,261847799,2233,10,1.34,42.7307584,-84.4905636,208.35,0.38856661319732666,346.6075134277344,0.48500001430511475,0.0,1
1666745029.95802808,1510268170,0,3,261847999,2233,10,1.1500000000000001,42.7307592,-84.4905637,207.62,0.4028809070587158,346.65362548828125,0.9130000472068787,0.0,1
1666745030.15799093,1510468133,0,3,261848199,2233,10,1.1500000000000001,42.7307682,-84.4905627,207.98000000000002,0.5228508710861206,43.06244659423828,0.734000027179718,0.0,1
1666745030.35793304,1510668075,0,3,261848399,2233,10,1.1500000000000001,42.7307693,-84.4905647,206.99,0.24839486181735992,346.9707946777344,0.8290000557899475,0.0,1
1666745030.55797601,1510868118,0,3,261848599,2233,10,1.1500000000000001,42.7307671,-84.4905673,206.03,0.40810415148735046,4.2156524658203125,0.8180000185966492,0.0,1
1666745030.75795197,1511068094,0,3,261848799,2233,10,1.1500000000000001,42.730768,-84.4905675,205.44,0.6476187109947205,22.80361557006836,0.4780000150203705,0.0,1
1666745030.95799398,1511268136,0,3,261848999,2233,10,1.1500000000000001,42.7307674,-84.4905679,204.44,0.2802802324295044,319.775634765625,1.0870000123977661,0.0,1
1666745031.15800095,1511468143,0,3,261849199,2233,10,1.1500000000000001,42.7307686,-84.490568,204.31,0.44723373651504517,17.300525665283203,0.5710000395774841,0.0,1
1666745031.35794997,1511668092,0,3,261849399,2233,9,1.1500000000000001,42.7307677,-84.4905686,203.75,0.4042227268218994,287.26947021484375,0.10300000756978989,0.0,1
1666745031.55795288,1511868095,0,3,261849599,2233,10,1.1500000000000001,42.7307682,-84.4905697,203.3,0.9507828950881958,333.6505432128906,0.843000054359436,0.0,1
1666745031.75802588,1512068168,0,3,261849799,2233,9,1.1500000000000001,42.7307682,-84.4905714,202.64000000000001,0.6206013560295105,228.5274658203125,0.1770000010728836,0.0,1
1666745031.95797086,1512268113,0,3,261849999,2233,10,1.1500000000000001,42.7307677,-84.4905732,202.8,0.8508067727088928,220.80581665039062,0.039000000804662704,0.0,1
1666745032.15800500,1512468147,0,3,261850199,2233,10,1.1500000000000001,42.730767,-84.4905749,202.86,0.2781726121902466,260.0636291503906,-0.07700000703334808,0.0,1
1666745032.35792494,1512668067,0,3,261850399,2233,10,1.1500000000000001,42.7307663,-84.49057619999999,202.63,0.6776762008666992,341.591796875,0.11700000613927841,0.0,1
1666745032.55798888,1512868131,0,3,261850599,2233,9,1.1500000000000001,42.7307645,-84.490578,202.06,0.5194661021232605,265.6943359375,0.2939999997615814,0.0,1
1666745032.75802302,1513068165,0,3,261850799,2233,11,1.1500000000000001,42.7307622,-84.4905806,201.68,0.47535356879234314,318.49658203125,0.1720000058412552,0.0,1
1666745032.95800304,1513268145,0,3,261850999,2233,10,1.1500000000000001,42.7307598,-84.4905825,201.13,0.0766615942120552,239.4207763671875,0.0990000069141388,0.0,1
1666745033.15796089,1513468103,0,3,261851199,2233,10,1.1500000000000001,42.7307579,-84.4905838,201.01,1.0096321105957031,210.60366821289062,-0.052000001072883606,0.0,1
1666745033.35802603,1513668168,0,3,261851399,2233,9,1.1500000000000001,42.7307543,-84.4905856,200.33,0.1617559939622879,248.98793029785156,0.15700000524520874,0.0,1
1666745033.55803394,1513868176,0,3,261851599,2233,9,1.1500000000000001,42.730754399999995,-84.490586,200.20000000000002,0.07984986156225204,202.06790161132812,0.03200000151991844,0.0,1
1666745033.75800490,1514068147,0,3,261851799,2233,8,1.1500000000000001,42.7307536,-84.4905871,199.78,0.4956793487071991,249.07867431640625,0.6910000443458557,0.0,1
1666745033.95798492,1514268127,0,3,261851999,2233,9,1.3800000000000001,42.7307535,-84.49058869999999,199.29,0.2573868930339813,315.0,0.612000048160553,0.0,1
1666745034.15800595,1514468148,0,3,261852199,2233,10,1.3800000000000001,42.730754499999996,-84.4905893,199.42000000000002,0.22350391745567322,266.1518249511719,0.4230000078678131,0.0,1
1666745034.37792301,1514688065,0,3,261852399,2233,10,1.3800000000000001,42.7307554,-84.4905907,199.36,0.5582374334335327,238.70181274414062,0.4350000321865082,0.0,1
1666745034.55800486,1514868147,0,3,261852599,2233,10,1.3800000000000001,42.730756299999996,-84.4905915,199.44,0.06905070692300797,349.9920349121094,0.06700000166893005,0.0,1
1666745034.75797606,1515068118,0,3,261852799,2233,10,1.3800000000000001,42.7307564,-84.4905922,199.56,0.9129737615585327,203.2233123779297,0.0020000000949949026,0.0,1
1666745034.95798302,1515268125,0,3,261852999,2233,9,1.34,42.730756,-84.4905934,199.78,0.26752570271492004,259.4461364746094,0.04200000315904617,0.0,1
1666745035.15794992,1515468092,0,3,261853199,2233,8,1.34,42.7307576,-84.4905938,199.63,0.6422623991966248,329.0821533203125,0.3140000104904175,0.0,1
1666745035.35800004,1515668142,0,3,261853399,2233,10,1.34,42.7307582,-84.4905948,199.12,0.05846366658806801,257.15228271484375,-0.11400000751018524,0.0,1
1666745035.55794597,1515868088,0,3,261853599,2233,10,1.34,42.7307585,-84.4905948,198.67000000000002,0.8011099100112915,14.383172035217285,0.43700000643730164,0.0,1
1666745035.75798106,1516068123,0,3,261853799,2233,10,1.34,42.7307589,-84.4905946,198.28,0.17788200080394745,218.60951232910156,0.09700000286102295,0.0,1
1666745035.95800185,1516268144,0,3,261853999,2233,9,1.34,42.7307582,-84.49059439999999,198.31,0.1833494007587433,145.4431915283203,-0.01100000087171793,0.0,1
1666745036.15797806,1516468120,0,3,261854199,2233,10,1.34,42.730758,-84.490594,197.99,0.4392220675945282,126.29591369628906,-0.06599999964237213,0.0,1
1666745036.35800886,1516668151,0,3,261854399,2233,10,1.34,42.730758099999996,-84.4905934,197.74,0.22428999841213226,23.93655014038086,0.1850000023841858,0.0,1
1666745036.55791593,1516868058,0,3,261854599,2233,10,1.34,42.7307589,-84.49059299999999,197.8,0.43901365995407104,174.51016235351562,0.2410000115633011,0.0,1
1666745036.75795102,1517068093,0,3,261854799,2233,10,1.34,42.7307577,-84.49059299999999,197.55,0.25006601214408875,165.4080352783203,0.08900000154972076,0.0,1
1666745036.95793700,1517268079,0,3,261854999,2233,9,1.37,42.730756299999996,-84.49059299999999,197.41,0.8813081979751587,183.12213134765625,0.06300000101327896,0.0,1
1666745037.17798305,1517488125,0,3,261855199,2233,9,1.37,42.7307525,-84.4905951,196.81,0.7830926179885864,195.9353485107422,0.22600001096725464,0.0,1
1666745037.37799191,1517688134,0,3,261855399,2233,10,1.37,42.7307507,-84.49059559999999,196.83,0.47152945399284363,171.2168731689453,0.20400001108646393,0.0,1
1666745037.55802703,1517868169,0,3,261855599,2233,8,1.37,42.730749499999995,-84.490596,197.0,0.7505971193313599,218.18295288085938,0.37400001287460327,0.0,1
1666745037.75796390,1518068106,0,3,261855799,2233,8,1.37,42.730748399999996,-84.4905964,196.92000000000002,0.6984168291091919,167.17755126953125,0.08300000429153442,0.0,1
1666745037.95803189,1518268174,0,3,261855999,2233,9,1.16,42.7307469,-84.4905967,196.59,0.42004409432411194,189.73143005371094,0.08000000566244125,0.0,1
1666745038.15796685,1518468109,0,3,261856199,2233,9,1.16,42.730745399999996,-84.4905967,196.6,1.229186773300171,187.00938415527344,-0.04700000211596489,0.0,1
1666745038.35799694,1518668139,0,3,261856399,2233,9,1.16,42.7307452,-84.49059609999999,196.51,0.5091837048530579,28.37696647644043,0.3320000171661377,0.0,1
1666745038.55792594,1518868068,0,3,261856599,2233,10,1.16,42.7307469,-84.4905955,196.59,0.14579439163208008,333.08343505859375,-0.33100003004074097,0.0,1
1666745038.75798798,1519068130,0,3,261856799,2233,9,1.16,42.730747699999995,-84.490596,196.46,0.7100704312324524,307.67681884765625,-0.5260000228881836,0.0,1
1666745038.95799589,1519268138,0,3,261856999,2233,11,1.11,42.7307485,-84.49059749999999,197.05,0.7432281374931335,263.2001037597656,-1.2080000638961792,0.0,1
1666745039.15799689,1519468139,0,3,261857199,2233,10,1.11,42.7307494,-84.49059799999999,197.64000000000001,0.7148496508598328,19.70234489440918,-1.378000020980835,0.0,1
1666745039.35800886,1519668151,0,3,261857399,2233,10,1.11,42.7307522,-84.49059729999999,198.97,0.8009775280952454,318.188232421875,-1.186000108718872,0.0,1
1666745039.55797601,1519868118,0,3,261857599,2233,10,1.11,42.7307535,-84.4905976,199.96,0.3129217326641083,274.3987121582031,-1.7750000953674316,0.0,1
1666745039.75806308,1520068205,0,3,261857799,2233,10,1.11,42.730754499999996,-84.4905979,200.25,0.8829734325408936,356.1686706542969,-1.0740000009536743,0.0,1
1666745039.95803094,1520268173,0,3,261857999,2233,10,1.11,42.7307564,-84.49059749999999,201.14000000000001,0.4067099988460541,240.22018432617188,-1.5140000581741333,0.0,1
1666745040.15794492,1520468087,0,3,261858199,2233,10,1.11,42.730756299999996,-84.49059779999999,201.51,0.4811590313911438,292.354248046875,-1.5910000801086426,0.0,1
1666745040.35796690,1520668109,0,3,261858399,2233,10,1.11,42.730754499999996,-84.4905988,202.20000000000002,0.3470706045627594,193.8360595703125,-1.527000069618225,0.0,1
1666745040.55799103,1520868133,0,3,261858599,2233,10,1.11,42.7307537,-84.4906006,202.8,0.7527875304222107,351.7514953613281,-2.140000104904175,0.0,1
1666745040.75802302,1521068165,0,3,261858799,2233,10,1.11,42.7307559,-84.4906015,203.16,1.9400876760482788,343.90045166015625,-1.665000081062317,0.0,1
1666745040.95798087,1521268123,0,3,261858999,2233,10,1.1500000000000001,42.730758099999996,-84.490603,203.16,1.8095359802246094,353.5269470214844,-1.4160000085830688,0.0,1
1666745041.15796590,1521468108,0,3,261859199,2233,11,1.1500000000000001,42.7307588,-84.4906053,203.1,1.2214930057525635,326.7912902832031,-0.8200000524520874,0.0,1
1666745041.35793591,1521668078,0,3,261859399,2233,11,1.1500000000000001,42.7307576,-84.49060829999999,203.26,1.040033221244812,249.63095092773438,-0.6050000190734863,0.0,1
1666745041.55799389,1521868136,0,3,261859599,2233,10,1.1500000000000001,42.7307576,-84.4906105,203.71,0.7857563495635986,296.69549560546875,-0.562000036239624,0.0,1
1666745041.75797391,1522068116,0,3,261859799,2233,10,1.1500000000000001,42.7307576,-84.4906122,203.94,0.49814456701278687,279.0085144042969,-0.11600000411272049,0.0,1
1666745041.95798993,1522268132,0,3,261859999,2233,9,1.34,42.7307566,-84.490613,204.32,0.7278633117675781,216.11419677734375,-0.21800000965595245,0.0,1
1666745042.15801907,1522468161,0,3,261860199,2233,10,1.34,42.730756199999995,-84.49061379999999,205.16,0.5679692029953003,264.13885498046875,-0.6490000486373901,0.0,1
1666745042.35796499,1522668107,0,3,261860399,2233,9,1.34,42.7307548,-84.4906141,207.12,0.8568320274353027,217.36474609375,-0.8840000629425049,0.0,1
1666745042.55797696,1522868119,0,3,261860599,2233,10,1.34,42.7307523,-84.4906149,209.91,0.21010713279247284,46.73570251464844,-1.2580000162124634,0.0,1
1666745042.75794697,1523068089,0,3,261860799,2233,10,1.34,42.730750799999996,-84.49061569999999,211.11,0.07343024015426636,29.35775375366211,-0.9030000567436218,0.0,1
1666745042.95794201,1523268084,0,3,261860999,2233,10,1.1500000000000001,42.730749499999995,-84.49061669999999,211.76,0.5127202272415161,257.7257385253906,-0.5570000410079956,0.0,1
1666745043.15802288,1523468165,0,3,261861199,2233,9,1.1500000000000001,42.730747199999996,-84.4906184,212.55,0.35825830698013306,184.80349731445312,-0.9150000214576721,0.0,1
1666745043.35795498,1523668097,0,3,261861399,2233,10,1.1500000000000001,42.730744699999995,-84.4906194,214.8,0.15764835476875305,119.65471649169922,-0.9700000286102295,0.0,1
1666745043.55799794,1523868140,0,3,261861599,2233,11,1.1500000000000001,42.730743,-84.4906199,216.19,0.3216240108013153,7.32388162612915,-0.6390000581741333,0.0,1
1666745043.75802588,1524068168,0,3,261861799,2233,10,1.1500000000000001,42.730740499999996,-84.49062119999999,216.86,0.5970008373260498,223.50685119628906,-0.24000000953674316,0.0,1
1666745043.95795798,1524268100,0,3,261861999,2233,10,1.1500000000000001,42.7307377,-84.4906223,218.59,0.20540934801101685,69.18277740478516,-0.19300000369548798,0.0,1
1666745044.15800405,1524468146,0,3,261862199,2233,10,1.1500000000000001,42.7307378,-84.4906211,219.71,0.3014249801635742,63.17992401123047,-0.1860000044107437,0.0,1
1666745044.35795093,1524668093,0,3,261862399,2233,10,1.1500000000000001,42.7307373,-84.4906204,220.83,0.4951010048389435,176.17822265625,-0.38200002908706665,0.0,1
1666745044.55796504,1524868107,0,3,261862599,2233,10,1.1500000000000001,42.7307371,-84.4906195,221.21,0.31484124064445496,163.57965087890625,-0.3230000138282776,0.0,1
1666745044.75802708,1525068169,0,3,261862799,2233,10,1.1500000000000001,42.730737,-84.49061909999999,221.19,0.13159407675266266,348.60467529296875,0.039000000804662704,0.0,1
1666745044.95796394,1525268106,0,3,261862999,2233,9,1.33,42.7307358,-84.49062049999999,220.41,1.1761263608932495,191.62521362304688,0.24400001764297485,0.0,1
