timestamp,TimeUS,Lat,Lng,Alt,RelHomeAlt,RelOriginAlt
1666744971.21326303,1451523405,42.730959399999996,-84.4903119,244.3300018310547,0.004759702831506729,-2.9752402305603027
1666744971.25327206,1451563414,42.730959299999995,-84.4903118,244.3300018310547,0.0051023103296756744,-2.974897623062134
1666744971.27839804,1451588540,42.7309592,-84.4903118,244.3300018310547,0.005424413830041885,-2.9745755195617676
1666744971.29329085,1451603433,42.7309591,-84.4903118,244.3300018310547,0.005778942257165909,-2.9742209911346436
1666744971.33319497,1451643337,42.730959,-84.4903118,244.3300018310547,0.006652746349573135,-2.9733471870422363
1666744971.37356091,1451683703,42.730958799999996,-84.49031169999999,244.3300018310547,0.0074144937098026276,-2.972585439682007
1666744971.37818694,1451688329,42.730958799999996,-84.49031169999999,244.3300018310547,0.007705364376306534,-2.972294569015503
1666744971.41371489,1451723857,42.730958699999995,-84.49031169999999,244.3300018310547,0.008319053798913956,-2.9716808795928955
1666744971.45327687,1451763419,42.7309585,-84.4903116,244.3300018310547,0.009373579174280167,-2.9706263542175293
1666744971.47820592,1451788348,42.7309585,-84.4903116,244.33999633789062,0.010103855282068253,-2.969896078109741
1666744971.49327993,1451803422,42.7309584,-84.4903116,244.33999633789062,0.010646257549524307,-2.969353675842285
1666744971.53326797,1451843410,42.7309583,-84.4903116,244.33999633789062,0.012028846889734268,-2.967971086502075
1666744971.57356787,1451883710,42.730958199999996,-84.49031149999999,244.33999633789062,0.012983474880456924,-2.9670164585113525
1666744971.57823300,1451888375,42.730958199999996,-84.49031149999999,244.33999633789062,0.013268385082483292,-2.966731548309326
1666744971.61364293,1451923785,42.730958,-84.49031149999999,244.33999633789062,0.014243040233850479,-2.965756893157959
1666744971.65325689,1451963399,42.7309579,-84.49031149999999,244.33999633789062,0.015634212642908096,-2.9643657207489014
1666744971.67823386,1451988376,42.7309578,-84.4903114,244.33999633789062,0.016560707241296768,-2.9634392261505127
1666744971.69323301,1452003375,42.7309577,-84.4903114,244.33999633789062,0.01716199889779091,-2.9628379344940186
1666744971.73321390,1452043356,42.730957599999996,-84.4903114,244.33999633789062,0.018735084682703018,-2.9612648487091064
1666744971.77359700,1452083739,42.7309574,-84.4903114,244.34999084472656,0.020227108150720596,-2.959772825241089
1666744971.77829599,1452088438,42.7309574,-84.4903114,244.34999084472656,0.02050844207406044,-2.959491491317749
1666744971.81364703,1452123789,42.7309573,-84.4903114,244.34999084472656,0.02051154151558876,-2.9594883918762207
1666744971.85328388,1452163426,42.7309571,-84.4903114,244.34999084472656,0.020858678966760635,-2.959141254425049
1666744971.87826395,1452188406,42.730957,-84.4903113,244.34999084472656,0.021164093166589737,-2.9588358402252197
1666744971.89320993,1452203352,42.730956899999995,-84.4903113,244.34999084472656,0.021493826061487198,-2.9585061073303223
1666744971.93331885,1452243461,42.7309568,-84.4903113,244.34999084472656,0.0222419835627079,-2.9577579498291016
1666744971.97353101,1452283673,42.7309566,-84.4903113,244.34999084472656,0.022101793438196182,-2.9578981399536133
1666744971.97830391,1452288446,42.7309566,-84.4903113,244.34999084472656,0.02231684699654579,-2.9576830863952637
1666744972.01364207,1452323784,42.7309564,-84.4903113,244.34999084472656,0.02228156104683876,-2.9577183723449707
1666744972.05325603,1452363398,42.7309562,-84.4903113,244.34999084472656,0.02267352119088173,-2.9573264122009277
1666744972.07831407,1452388456,42.7309561,-84.4903113,244.34999084472656,0.02295461669564247,-2.957045316696167
1666744972.09329295,1452403435,42.730956,-84.4903113,244.34999084472656,0.023273859173059464,-2.95672607421875
1666744972.13329792,1452443440,42.7309558,-84.4903113,244.34999084472656,0.023924503475427628,-2.956075429916382
1666744972.17357588,1452483718,42.7309556,-84.4903113,244.34999084472656,0.023988638073205948,-2.9560112953186035
1666744972.17837095,1452488513,42.7309556,-84.4903113,244.34999084472656,0.024244938045740128,-2.9557549953460693
1666744972.21364498,1452523787,42.7309554,-84.4903113,244.34999084472656,0.024413499981164932,-2.9555864334106445
1666744972.25322104,1452563363,42.7309552,-84.4903113,244.34999084472656,0.02474728599190712,-2.9552526473999023
1666744972.27824402,1452588386,42.730955099999996,-84.4903113,244.34999084472656,0.025038395076990128,-2.9549615383148193
1666744972.29337192,1452603514,42.730955,-84.4903113,244.34999084472656,0.025345001369714737,-2.9546549320220947
1666744972.33332396,1452643466,42.7309548,-84.4903114,244.34999084472656,0.02586141601204872,-2.9541385173797607
1666744972.37355399,1452683696,42.7309546,-84.4903114,244.34999084472656,0.025148306041955948,-2.9548516273498535
1666744972.37829089,1452688433,42.7309546,-84.4903114,244.34999084472656,0.025393161922693253,-2.954606771469116
1666744972.41367197,1452723814,42.730954399999995,-84.4903114,244.34999084472656,0.024748239666223526,-2.955251693725586
1666744972.45323801,1452763380,42.7309542,-84.4903114,244.34999084472656,0.024617347866296768,-2.9553825855255127
1666744972.47826505,1452788407,42.7309541,-84.4903114,244.34999084472656,0.02459040656685829,-2.955409526824951
1666744972.49329400,1452803436,42.730954,-84.49031149999999,244.34999084472656,0.02473965659737587,-2.9552602767944336
1666744972.53334689,1452843489,42.730953899999996,-84.49031149999999,244.34999084472656,0.02471533790230751,-2.955284595489502
1666744972.57351494,1452883657,42.7309537,-84.49031149999999,244.34999084472656,0.023133430629968643,-2.956866502761841
1666744972.57832789,1452888470,42.7309537,-84.49031149999999,244.34999084472656,0.02336326614022255,-2.956636667251587
1666744972.61367989,1452923822,42.7309535,-84.49031149999999,244.34999084472656,0.02188912406563759,-2.958110809326172
1666744972.65319204,1452963334,42.730953299999996,-84.49031149999999,244.34999084472656,0.020821724086999893,-2.9591782093048096
1666744972.67832685,1452988469,42.730953199999995,-84.4903116,244.34999084472656,0.020216617733240128,-2.9597833156585693
1666744972.69319701,1453003339,42.7309531,-84.4903116,244.34999084472656,0.020112428814172745,-2.9598875045776367
1666744972.73325396,1453043396,42.730953,-84.4903116,244.33999633789062,0.01953021064400673,-2.9604697227478027
1666744972.77369499,1453083837,42.7309528,-84.4903116,244.33999633789062,0.01809278503060341,-2.961907148361206
1666744972.77835202,1453088494,42.7309528,-84.4903116,244.33999633789062,0.018307600170373917,-2.9616923332214355
1666744972.81363893,1453123781,42.730952599999995,-84.4903116,244.33999633789062,0.01735464110970497,-2.9626452922821045
1666744972.85330606,1453163448,42.7309524,-84.49031169999999,244.33999633789062,0.016776476055383682,-2.963223457336426
1666744972.87839985,1453188542,42.7309523,-84.49031169999999,244.33999633789062,0.01648751273751259,-2.963512420654297
1666744972.89321494,1453203357,42.7309522,-84.49031169999999,244.33999633789062,0.016492042690515518,-2.963507890701294
1666744972.93320298,1453243345,42.730952099999996,-84.49031169999999,244.33999633789062,0.016214285045862198,-2.9637856483459473
1666744972.97355986,1453283702,42.7309519,-84.49031169999999,244.33999633789062,0.01492682471871376,-2.9650731086730957
1666744972.97827601,1453288418,42.7309519,-84.49031169999999,244.33999633789062,0.015127811580896378,-2.964872121810913
1666744973.01366401,1453323806,42.7309516,-84.49031169999999,244.33999633789062,0.014214430004358292,-2.965785503387451
1666744973.05321693,1453363359,42.730951399999995,-84.49031169999999,244.33999633789062,0.013670358806848526,-2.966329574584961
1666744973.07835197,1453388494,42.7309513,-84.49031169999999,244.33999633789062,0.013400468975305557,-2.966599464416504
1666744973.09321404,1453403356,42.7309512,-84.49031169999999,244.33999633789062,0.013404283672571182,-2.9665956497192383
1666744973.13322186,1453443364,42.7309511,-84.4903118,244.33999633789062,0.013200674206018448,-2.966799259185791
1666744973.17361093,1453483753,42.730950799999995,-84.4903118,244.33999633789062,0.012705717235803604,-2.967294216156006
1666744973.17825103,1453488393,42.730950799999995,-84.4903118,244.33999633789062,0.012893591076135635,-2.967106342315674
1666744973.21378493,1453523927,42.7309506,-84.4903118,244.33999633789062,0.012872610241174698,-2.9671273231506348
1666744973.25328493,1453563427,42.7309504,-84.4903119,244.33999633789062,0.013140592724084854,-2.9668593406677246
1666744973.27837992,1453588522,42.730950199999995,-84.4903119,244.33999633789062,0.013358984142541885,-2.9666409492492676
1666744973.29335189,1453603494,42.730950199999995,-84.4903119,244.33999633789062,0.01358548179268837,-2.966414451599121
1666744973.33326602,1453643408,42.73095,-84.490312,244.33999633789062,0.014054212719202042,-2.9659457206726074
1666744973.37354994,1453683692,42.7309497,-84.490312,244.33999633789062,0.013794813305139542,-2.96620512008667
1666744973.37823391,1453688376,42.7309497,-84.490312,244.33999633789062,0.01397315040230751,-2.966026782989502
1666744973.41364288,1453723785,42.7309495,-84.490312,244.33999633789062,0.013684187084436417,-2.966315746307373
1666744973.45332098,1453763463,42.7309493,-84.49031219999999,244.33999633789062,0.013755951076745987,-2.9662439823150635
1666744973.47820807,1453788350,42.7309492,-84.49031219999999,244.33999633789062,0.013852987438440323,-2.966146945953369
1666744973.49322987,1453803372,42.7309491,-84.49031219999999,244.33999633789062,0.014001760631799698,-2.9659981727600098
1666744973.53326702,1453843409,42.7309489,-84.49031219999999,244.33999633789062,0.014128122478723526,-2.965871810913086
1666744973.57361698,1453883759,42.7309487,-84.49031219999999,244.33999633789062,0.013810310512781143,-2.9661896228790283
1666744973.57831097,1453888453,42.7309487,-84.49031219999999,244.33999633789062,0.013978872448205948,-2.9660210609436035
1666744973.61374187,1453923884,42.7309485,-84.4903123,244.33999633789062,0.013889942318201065,-2.9661099910736084
1666744973.65331697,1453963459,42.7309483,-84.4903123,244.33999633789062,0.013885173946619034,-2.9661147594451904
1666744973.67831993,1453988462,42.7309482,-84.4903123,244.33999633789062,0.013920698314905167,-2.9660792350769043
1666744973.69329095,1454003433,42.7309481,-84.4903124,244.33999633789062,0.014059934765100479,-2.965939998626709
1666744973.73325896,1454043401,42.7309479,-84.4903124,244.33999633789062,0.014323625713586807,-2.9656763076782227
1666744973.77361608,1454083758,42.7309477,-84.4903125,244.33999633789062,0.013652477413415909,-2.9663474559783936
1666744973.77832007,1454088462,42.7309477,-84.4903125,244.33999633789062,0.013813409954309464,-2.9661865234375
1666744973.81363487,1454123777,42.7309475,-84.4903125,244.33999633789062,0.013022813946008682,-2.966977119445801
1666744973.85321593,1454163358,42.7309473,-84.4903125,244.33999633789062,0.012287769466638565,-2.967712163925171
1666744973.87826896,1454188411,42.730947099999995,-84.4903126,244.33999633789062,0.011905107647180557,-2.968094825744629
1666744973.89330506,1454203447,42.730947099999995,-84.4903126,244.33999633789062,0.011830959469079971,-2.9681689739227295
1666744973.93336701,1454243509,42.7309469,-84.4903126,244.33999633789062,0.01161876693367958,-2.96838116645813
1666744973.97356296,1454283705,42.7309467,-84.49031269999999,244.33999633789062,0.011282119899988174,-2.9687178134918213
1666744973.97838402,1454288526,42.7309467,-84.49031269999999,244.33999633789062,0.011433515697717667,-2.968566417694092
1666744974.01365995,1454323802,42.730946499999995,-84.49031269999999,244.33999633789062,0.011114511638879776,-2.9688854217529297
1666744974.05320406,1454363346,42.7309463,-84.49031269999999,244.33999633789062,0.010781679302453995,-2.9692182540893555
1666744974.07831287,1454388455,42.7309461,-84.4903128,244.33999633789062,0.010619077831506729,-2.9693808555603027
1666744974.09325290,1454403395,42.7309461,-84.4903128,244.33999633789062,0.010668192058801651,-2.969331741333008
1666744974.13326001,1454443402,42.730945899999995,-84.4903128,244.33999633789062,0.010450277477502823,-2.9695496559143066
1666744974.17350292,1454483645,42.7309456,-84.49031289999999,244.3300018310547,0.008833322674036026,-2.9711666107177734
1666744974.17832494,1454488467,42.7309456,-84.49031289999999,244.3300018310547,0.00897899642586708,-2.9710209369659424
1666744974.21370101,1454523843,42.730945399999996,-84.49031289999999,244.3300018310547,0.007463131099939346,-2.97253680229187
1666744974.25326896,1454563411,42.7309452,-84.490313,244.3300018310547,0.006441030651330948,-2.9735589027404785
1666744974.27835488,1454588497,42.7309451,-84.490313,244.3300018310547,0.005895528942346573,-2.974104404449463
1666744974.29345393,1454603596,42.730945,-84.4903131,244.3300018310547,0.005728874355554581,-2.974271059036255
1666744974.33323693,1454643379,42.730944799999996,-84.4903131,244.3300018310547,0.005015525966882706,-2.9749844074249268
1666744974.37355900,1454683701,42.7309446,-84.4903132,244.3300018310547,0.0038510896265506744,-2.976148843765259
1666744974.37832594,1454688468,42.7309446,-84.4903132,244.3300018310547,0.003985319286584854,-2.9760146141052246
1666744974.41361284,1454723755,42.7309444,-84.4903132,244.3300018310547,0.0032679177820682526,-2.976732015609741
1666744974.45336103,1454763503,42.730944199999996,-84.4903132,244.3300018310547,0.002525482326745987,-2.9774744510650635
1666744974.47827101,1454788413,42.730944099999995,-84.4903133,244.3300018310547,0.002154979854822159,-2.9778449535369873
1666744974.49320102,1454803343,42.730944,-84.4903133,244.3300018310547,0.0020705796778202057,-2.9779293537139893
1666744974.53320789,1454843350,42.7309438,-84.4903133,244.3300018310547,0.0015219785273075104,-2.978477954864502
1666744974.57353401,1454883676,42.730943599999996,-84.49031339999999,244.3199920654297,-0.0003970526158809662,-2.9803969860076904
1666744974.57830286,1454888445,42.730943599999996,-84.49031339999999,244.3199920654297,-0.0002680681645870209,-2.9802680015563965
1666744974.61360788,1454923750,42.7309434,-84.49031339999999,244.3199920654297,-0.002022828906774521,-2.982022762298584
1666744974.65333390,1454963476,42.7309432,-84.49031339999999,244.3199920654297,-0.003322448581457138,-2.9833223819732666
1666744974.67831707,1454988459,42.7309431,-84.4903135,244.3199920654297,-0.004094209522008896,-2.9840941429138184
1666744974.69318986,1455003332,42.730942999999996,-84.4903135,244.3199920654297,-0.004376258701086044,-2.9843761920928955
1666744974.73322892,1455043371,42.7309428,-84.4903135,244.3199920654297,-0.005142774432897568,-2.985142707824707
1666744974.77356386,1455083706,42.7309426,-84.4903136,244.3199920654297,-0.00550016388297081,-2.9855000972747803
1666744974.77823400,1455088376,42.7309426,-84.4903136,244.3199920654297,-0.005404319614171982,-2.9854042530059814
1666744974.81367493,1455123817,42.730942399999996,-84.4903136,244.3199920654297,-0.004967059940099716,-2.984966993331909
1666744974.85331893,1455163461,42.7309422,-84.4903137,244.3199920654297,-0.004437293857336044,-2.9844372272491455
1666744974.87838292,1455188525,42.7309421,-84.4903137,244.3199920654297,-0.004073228687047958,-2.9840731620788574
1666744974.89324784,1455203390,42.730942,-84.4903137,244.3199920654297,-0.0038007162511348724,-2.9838006496429443
1666744974.93321085,1455243353,42.7309419,-84.4903138,244.3199920654297,-0.0030160807073116302,-2.983016014099121
1666744974.97355485,1455283697,42.7309416,-84.4903138,244.3199920654297,-0.0015636347234249115,-2.9815635681152344
1666744974.97834587,1455288488,42.7309416,-84.4903138,244.3199920654297,-0.001468028873205185,-2.9814679622650146
1666744975.01374102,1455323883,42.7309414,-84.49031389999999,244.3199920654297,-2.2973865270614624e-05,-2.98002290725708
1666744975.05329704,1455363439,42.7309412,-84.49031389999999,244.3300018310547,0.0011798478662967682,-2.9788200855255127
1666744975.07826495,1455388407,42.730941099999995,-84.49031389999999,244.3300018310547,0.0019435025751590729,-2.9780564308166504
1666744975.09322596,1455403368,42.730941,-84.490314,244.3300018310547,0.002407226711511612,-2.977592706680298
1666744975.13329697,1455443439,42.7309408,-84.490314,244.3300018310547,0.0036462880671024323,-2.976353645324707
1666744975.17349386,1455483636,42.7309406,-84.49031409999999,244.3300018310547,0.004931602627038956,-2.9750683307647705
1666744975.17823291,1455488375,42.7309406,-84.49031409999999,244.3300018310547,0.005044136196374893,-2.9749557971954346
1666744975.21364903,1455523791,42.7309404,-84.49031409999999,244.3300018310547,0.005791816860437393,-2.974208116531372
1666744975.25327706,1455563419,42.7309401,-84.49031409999999,244.3300018310547,0.00613919273018837,-2.973860740661621
1666744975.27829599,1455588438,42.73094,-84.4903142,244.3300018310547,0.0063616372644901276,-2.9736382961273193
1666744975.29341888,1455603561,42.73094,-84.4903142,244.3300018310547,0.006548795849084854,-2.9734511375427246
1666744975.33325887,1455643401,42.7309398,-84.4903143,244.3300018310547,0.006974373012781143,-2.9730255603790283
1666744975.37355494,1455683697,42.7309395,-84.4903143,244.3300018310547,0.006691131740808487,-2.973308801651001
1666744975.37833405,1455688476,42.7309395,-84.4903143,244.3300018310547,0.006790075451135635,-2.973209857940674
1666744975.41368985,1455723832,42.730939299999996,-84.4903143,244.3300018310547,0.006415996700525284,-2.973583936691284
1666744975.45320892,1455763351,42.7309391,-84.4903144,244.3300018310547,0.00634375587105751,-2.973656177520752
1666744975.47827792,1455788420,42.730939,-84.4903144,244.3300018310547,0.006318721920251846,-2.9736812114715576
1666744975.49330306,1455803445,42.730939,-84.4903144,244.3300018310547,0.0064145661890506744,-2.973585367202759
1666744975.53329301,1455843435,42.7309388,-84.4903145,244.3300018310547,0.0066477395594120026,-2.9733521938323975
1666744975.57357597,1455883718,42.730938599999995,-84.4903145,244.3300018310547,0.006526622921228409,-2.973473310470581
1666744975.57832003,1455888462,42.730938599999995,-84.4903145,244.3300018310547,0.006639871746301651,-2.973360061645508
1666744975.61369705,1455923839,42.7309384,-84.49031459999999,244.3300018310547,0.006523285061120987,-2.9734766483306885
1666744975.65323400,1455963376,42.7309382,-84.49031459999999,244.3300018310547,0.006652507930994034,-2.9733474254608154
1666744975.67836499,1455988507,42.730938099999996,-84.4903147,244.3300018310547,0.006781015545129776,-2.9732189178466797
1666744975.69338989,1456003532,42.730937999999995,-84.4903147,244.3300018310547,0.0069126226007938385,-2.9730873107910156
1666744975.73336005,1456043502,42.7309378,-84.4903147,244.3300018310547,0.007312927395105362,-2.972687005996704
1666744975.77355504,1456083697,42.7309376,-84.4903148,244.3300018310547,0.007247839123010635,-2.972752094268799
1666744975.77839804,1456088540,42.7309376,-84.4903148,244.3300018310547,0.007354889065027237,-2.9726450443267822
1666744975.81373191,1456123874,42.730937399999995,-84.4903148,244.3300018310547,0.0073038674890995026,-2.97269606590271
1666744975.85320592,1456163348,42.7309372,-84.4903149,244.3300018310547,0.007593069225549698,-2.9724068641662598
1666744975.87835598,1456188498,42.7309371,-84.4903149,244.3300018310547,0.007844123989343643,-2.972155809402466
1666744975.89322591,1456203368,42.730937,-84.4903149,244.3300018310547,0.008018884807825089,-2.9719810485839844
1666744975.93329406,1456243436,42.730936899999996,-84.490315,244.3300018310547,0.008711729198694229,-2.9712882041931152
1666744975.97358108,1456283723,42.7309367,-84.490315,244.3300018310547,0.009193811565637589,-2.970806121826172
1666744975.97831702,1456288459,42.7309367,-84.490315,244.3300018310547,0.009319934993982315,-2.970679998397827
1666744976.01367092,1456323813,42.7309365,-84.490315,244.3300018310547,0.009605083614587784,-2.9703948497772217
1666744976.05321407,1456363356,42.730936299999996,-84.49031509999999,244.33999633789062,0.01030031219124794,-2.9696996212005615
1666744976.07828093,1456388423,42.730936199999995,-84.49031509999999,244.33999633789062,0.010760221630334854,-2.9692397117614746
1666744976.09326005,1456403402,42.7309361,-84.49031509999999,244.33999633789062,0.011073742061853409,-2.968926191329956
1666744976.13324785,1456443390,42.7309359,-84.4903152,244.33999633789062,0.011972103267908096,-2.9680278301239014
1666744976.17358899,1456483731,42.730935699999996,-84.4903152,244.33999633789062,0.013203058391809464,-2.966796875
1666744976.17831588,1456488458,42.730935699999996,-84.4903152,244.33999633789062,0.013319168239831924,-2.9666807651519775
1666744976.21370292,1456523845,42.7309355,-84.49031529999999,244.33999633789062,0.014624986797571182,-2.9653749465942383
1666744976.25326300,1456563405,42.7309353,-84.49031529999999,244.33999633789062,0.01608482375741005,-2.9639151096343994
1666744976.27830005,1456588442,42.7309352,-84.49031529999999,244.33999633789062,0.01698962226510048,-2.963010311126709
1666744976.29332685,1456603469,42.730935099999996,-84.4903154,244.33999633789062,0.017494354397058487,-2.962505578994751
1666744976.33324289,1456643385,42.730934999999995,-84.4903154,244.33999633789062,0.01895991340279579,-2.9610400199890137
1666744976.37355399,1456683696,42.7309347,-84.4903154,244.34999084472656,0.02117506042122841,-2.958824872970581
1666744976.37823200,1456688374,42.7309347,-84.4903155,244.34999084472656,0.021279964596033096,-2.9587199687957764
1666744976.41364098,1456723783,42.7309345,-84.4903155,244.34999084472656,0.023571167141199112,-2.9564287662506104
1666744976.45336986,1456763512,42.7309343,-84.4903155,244.34999084472656,0.026234302669763565,-2.953765630722046
1666744976.47828102,1456788423,42.7309342,-84.4903156,244.34999084472656,0.027844581753015518,-2.952155351638794
1666744976.49325585,1456803398,42.7309341,-84.4903156,244.34999084472656,0.028670940548181534,-2.951328992843628
1666744976.53330302,1456843445,42.7309339,-84.4903156,244.36000061035156,0.03126445785164833,-2.948735475540161
1666744976.57360291,1456883745,42.7309337,-84.4903157,244.36000061035156,0.03354683890938759,-2.946453094482422
1666744976.57823086,1456888373,42.7309337,-84.4903157,244.36000061035156,0.03366938605904579,-2.9463305473327637
1666744976.61366200,1456923804,42.7309334,-84.4903157,244.36000061035156,0.03500929847359657,-2.944990634918213
1666744976.65333104,1456963473,42.730933199999996,-84.49031579999999,244.36000061035156,0.0366918183863163,-2.943308115005493
1666744976.67826700,1456988409,42.7309331,-84.49031579999999,244.36000061035156,0.03780690208077431,-2.942193031311035
1666744976.69330597,1457003448,42.730933,-84.49031579999999,244.36000061035156,0.03840509429574013,-2.9415948390960693
1666744976.73325086,1457043393,42.7309328,-84.4903159,244.3699951171875,0.04014626517891884,-2.9398536682128906
1666744976.77357388,1457083716,42.7309325,-84.4903159,244.3699951171875,0.04254952445626259,-2.937450408935547
1666744976.77831101,1457088453,42.7309325,-84.49031599999999,244.3699951171875,0.042668018490076065,-2.9373319149017334
1666744976.81333899,1457123481,42.7309323,-84.49031599999999,244.3699951171875,0.044798050075769424,-2.93520188331604
1666744976.85317707,1457163319,42.7309321,-84.49031599999999,244.3699951171875,0.04725256934762001,-2.9327473640441895
1666744976.87832689,1457188469,42.730931899999995,-84.4903161,244.3699951171875,0.04891124740242958,-2.93108868598938
1666744976.89325786,1457203400,42.730931899999995,-84.4903161,244.3699951171875,0.04991975799202919,-2.9300801753997803
1666744976.93326998,1457243412,42.7309317,-84.4903161,244.37998962402344,0.05322900786995888,-2.9267709255218506
1666744976.97368503,1457283827,42.730931399999996,-84.4903161,244.37998962402344,0.05777445808053017,-2.9222254753112793
1666744976.97831798,1457288460,42.730931399999996,-84.4903161,244.37998962402344,0.058221492916345596,-2.921778440475464
1666744977.01364088,1457323783,42.7309312,-84.4903162,244.38999938964844,0.06298413872718811,-2.917015790939331
1666744977.05323505,1457363377,42.730931,-84.4903162,244.38999938964844,0.06949248909950256,-2.9105074405670166
1666744977.07835197,1457388494,42.730930799999996,-84.4903162,244.39999389648438,0.07417216897010803,-2.905827760696411
1666744977.09323788,1457403380,42.730930799999996,-84.4903162,244.39999389648438,0.07710090279579163,-2.9028990268707275
1666744977.13330793,1457443450,42.7309306,-84.4903162,244.4099884033203,0.08622971177101135,-2.893770217895508
1666744977.17364597,1457483788,42.7309304,-84.4903162,244.4199981689453,0.09692707657814026,-2.883072853088379
1666744977.17832589,1457488468,42.7309304,-84.4903162,244.4199981689453,0.09812512993812561,-2.8818747997283936
1666744977.21369505,1457523837,42.730930099999995,-84.4903162,244.42999267578125,0.10902562737464905,-2.87097430229187
1666744977.25326490,1457563407,42.7309299,-84.4903162,244.4499969482422,0.1233152449131012,-2.856684684753418
1666744977.27841401,1457588556,42.7309298,-84.4903162,244.45999145507812,0.13295570015907288,-2.8470442295074463
1666744977.29331207,1457603454,42.7309297,-84.4903162,244.45999145507812,0.13881364464759827,-2.841186285018921
1666744977.33328986,1457643432,42.730929499999995,-84.4903162,244.47999572753906,0.1561543047428131,-2.823845624923706
1666744977.37358403,1457683726,42.7309293,-84.4903162,244.5,0.17563310265541077,-2.8043668270111084
1666744977.37832785,1457688470,42.7309293,-84.4903162,244.5,0.17765489220619202,-2.802345037460327
1666744977.41372895,1457723871,42.7309291,-84.4903162,244.51998901367188,0.1947135031223297,-2.7852864265441895
1666744977.45320296,1457763345,42.730928899999995,-84.4903162,244.5399932861328,0.21492710709571838,-2.765072822570801
1666744977.47839403,1457788536,42.7309288,-84.4903162,244.54998779296875,0.2276538908481598,-2.7523460388183594
1666744977.49323297,1457803375,42.7309287,-84.4903162,244.55999755859375,0.23535719513893127,-2.744642734527588
1666744977.53333092,1457843473,42.7309285,-84.4903161,244.5800018310547,0.2562793791294098,-2.7237205505371094
1666744977.57352591,1457883668,42.730928299999995,-84.4903161,244.59999084472656,0.2773269712924957,-2.7026729583740234
1666744977.57844591,1457888588,42.730928299999995,-84.4903161,244.59999084472656,0.27983418107032776,-2.7001657485961914
1666744977.61367202,1457923814,42.7309282,-84.4903161,244.6199951171875,0.29745522141456604,-2.682544708251953
1666744977.65327692,1457963419,42.730928,-84.49031599999999,244.63999938964844,0.3179687559604645,-2.6620311737060547
1666744977.67829394,1457988436,42.7309279,-84.49031599999999,244.6599884033203,0.3308846056461334,-2.6491153240203857
1666744977.69326496,1458003407,42.7309279,-84.49031599999999,244.6599884033203,0.3383561670780182,-2.641643762588501
1666744977.73322701,1458043369,42.730927699999995,-84.4903159,244.67999267578125,0.3586391508579254,-2.6213607788085938
1666744977.77355599,1458083698,42.7309275,-84.4903159,244.6999969482422,0.377925306558609,-2.60207462310791
1666744977.77834201,1458088484,42.7309275,-84.4903159,244.70999145507812,0.3805355131626129,-2.5994644165039062
1666744977.81373787,1458123880,42.7309274,-84.4903159,244.72000122070312,0.39776936173439026,-2.582230567932129
1666744977.85327101,1458163413,42.730927199999996,-84.4903159,244.739990234375,0.4174725115299225,-2.5625274181365967
1666744977.87822604,1458188368,42.730927099999995,-84.4903159,244.75999450683594,0.4300176203250885,-2.5499823093414307
1666744977.89333701,1458203479,42.730927,-84.49031579999999,244.75999450683594,0.43742361664772034,-2.542576313018799
1666744977.93327308,1458243415,42.7309269,-84.49031579999999,244.77999877929688,0.45726194977760315,-2.522737979888916
1666744977.97355390,1458283696,42.7309267,-84.49031579999999,244.79998779296875,0.47557440400123596,-2.504425525665283
1666744977.97828293,1458288425,42.7309267,-84.49031579999999,244.79998779296875,0.47822943329811096,-2.501770496368408
1666744978.01364899,1458323791,42.730926499999995,-84.4903159,244.8199920654297,0.4937411844730377,-2.4862587451934814
1666744978.05329990,1458363442,42.7309264,-84.4903159,244.83999633789062,0.5118827223777771,-2.4681172370910645
1666744978.07827187,1458388414,42.7309263,-84.4903159,244.84999084472656,0.5230433344841003,-2.456956624984741
1666744978.09326100,1458403403,42.7309262,-84.4903159,244.84999084472656,0.529866635799408,-2.4501333236694336
1666744978.13325000,1458443392,42.7309261,-84.4903159,244.8699951171875,0.5461055636405945,-2.433894395828247
1666744978.17356706,1458483709,42.730925899999995,-84.49031599999999,244.87998962402344,0.5587286353111267,-2.421271324157715
1666744978.17820597,1458488348,42.730925899999995,-84.49031599999999,244.88999938964844,0.5611948370933533,-2.4188051223754883
1666744978.21374702,1458523889,42.7309258,-84.49031599999999,244.89999389648438,0.5707711577415466,-2.409228801727295
1666744978.25337696,1458563519,42.7309257,-84.4903161,244.9099884033203,0.5811309218406677,-2.398869037628174
1666744978.27830696,1458588449,42.7309256,-84.4903161,244.9099884033203,0.5875524878501892,-2.3924474716186523
1666744978.29330087,1458603443,42.7309255,-84.4903161,244.9199981689453,0.5917293429374695,-2.388270616531372
1666744978.33328485,1458643427,42.7309254,-84.4903161,244.92999267578125,0.6011518836021423,-2.378848075866699
1666744978.37361407,1458683756,42.7309252,-84.4903162,244.92999267578125,0.6071738600730896,-2.372826099395752
1666744978.37827086,1458688413,42.7309252,-84.4903162,244.92999267578125,0.6094591021537781,-2.3705408573150635
1666744978.41366506,1458723807,42.730925,-84.4903162,244.9399871826172,0.6165983080863953,-2.3634016513824463
1666744978.45327806,1458763420,42.7309248,-84.4903162,244.9499969482422,0.6258417963981628,-2.3541581630706787
1666744978.47837996,1458788522,42.730924699999996,-84.4903162,244.95999145507812,0.6317448019981384,-2.348255157470703
1666744978.49324203,1458803384,42.730924699999996,-84.4903162,244.95999145507812,0.6357421278953552,-2.3442578315734863
1666744978.53330803,1458843450,42.7309245,-84.4903162,244.97000122070312,0.646518886089325,-2.3334810733795166
1666744978.57356405,1458883706,42.7309242,-84.49031629999999,244.97999572753906,0.655284583568573,-2.3247153759002686
1666744978.57828307,1458888425,42.7309242,-84.49031629999999,244.97999572753906,0.6570591330528259,-2.3229408264160156
1666744978.61371398,1458923856,42.730923999999995,-84.49031629999999,244.989990234375,0.6645373702049255,-2.315462589263916
1666744978.65327907,1458963421,42.7309237,-84.49031629999999,245.0,0.6733807921409607,-2.306619167327881
1666744978.67831397,1458988456,42.7309236,-84.49031629999999,245.0,0.6788212656974792,-2.3011786937713623
1666744978.69325900,1459003401,42.730923499999996,-84.49031629999999,245.00999450683594,0.6823505759239197,-2.297649383544922
1666744978.73329806,1459043440,42.7309233,-84.4903164,245.01998901367188,0.6912176012992859,-2.2887823581695557
1666744978.77356887,1459083711,42.730923,-84.4903164,245.01998901367188,0.6983434557914734,-2.281656503677368
1666744978.77835107,1459088493,42.730923,-84.4903164,245.01998901367188,0.6999172568321228,-2.2800827026367188
1666744978.81369090,1459123833,42.730922799999995,-84.49031649999999,245.02999877929688,0.7061402201652527,-2.273859739303589
1666744978.85326505,1459163407,42.7309225,-84.49031649999999,245.0399932861328,0.7134882807731628,-2.2665116786956787
1666744978.87834692,1459188489,42.7309224,-84.49031649999999,245.0399932861328,0.7178613543510437,-2.262138605117798
1666744978.89322186,1459203364,42.730922299999996,-84.4903166,245.04998779296875,0.7208673357963562,-2.2591326236724854
1666744978.93327403,1459243416,42.7309221,-84.4903167,245.04998779296875,0.7279183268547058,-2.2520816326141357
1666744978.97368693,1459283829,42.7309218,-84.4903168,245.05999755859375,0.7334024310112,-2.2465975284576416
1666744978.97835493,1459288497,42.7309218,-84.4903168,245.05999755859375,0.7347008585929871,-2.2452991008758545
1666744979.01374793,1459323890,42.7309215,-84.49031699999999,245.05999755859375,0.7396687865257263,-2.2403311729431152
1666744979.05330992,1459363452,42.7309212,-84.4903171,245.0699920654297,0.7454411387443542,-2.2345588207244873
1666744979.07829905,1459388441,42.730921099999996,-84.49031719999999,245.0699920654297,0.749001681804657,-2.2309982776641846
1666744979.09325004,1459403392,42.730920999999995,-84.49031719999999,245.0800018310547,0.7513846755027771,-2.2286152839660645
1666744979.13330507,1459443447,42.7309208,-84.4903174,245.0800018310547,0.7563013434410095,-2.223698616027832
1666744979.17356706,1459483709,42.730920399999995,-84.49031749999999,245.0800018310547,0.7599243521690369,-2.2200756072998047
1666744979.17840385,1459488546,42.730920399999995,-84.49031749999999,245.08999633789062,0.7609540820121765,-2.219045877456665
1666744979.21367407,1459523816,42.7309201,-84.4903176,245.08999633789062,0.765697181224823,-2.2143027782440186
1666744979.25328803,1459563430,42.7309197,-84.4903178,245.09999084472656,0.7723149657249451,-2.2076849937438965
1666744979.27832198,1459588464,42.7309196,-84.4903178,245.09999084472656,0.7763811945915222,-2.2036187648773193
1666744979.29331589,1459603458,42.7309195,-84.4903179,245.09999084472656,0.7788733839988708,-2.2011265754699707
1666744979.33335900,1459643501,42.730919199999995,-84.490318,245.11000061035156,0.784946620464325,-2.1950533390045166
1666744979.37358189,1459683724,42.7309188,-84.4903181,245.1199951171875,0.790407121181488,-2.1895928382873535
1666744979.37837601,1459688518,42.7309188,-84.4903181,245.1199951171875,0.7912887930870056,-2.188711166381836
1666744979.41370201,1459723844,42.7309184,-84.49031819999999,245.1199951171875,0.796233594417572,-2.1837663650512695
1666744979.45328188,1459763424,42.730917999999996,-84.49031839999999,245.12998962402344,0.8018650412559509,-2.1781349182128906
1666744979.47827101,1459788413,42.7309178,-84.4903185,245.12998962402344,0.8052894473075867,-2.174710512161255
1666744979.49329686,1459803439,42.7309178,-84.4903185,245.12998962402344,0.8073250651359558,-2.1726748943328857
1666744979.53321099,1459843353,42.7309175,-84.4903185,245.13999938964844,0.8126079440116882,-2.1673920154571533
1666744979.57354999,1459883692,42.7309171,-84.4903186,245.13999938964844,0.8168899416923523,-2.1631100177764893
1666744979.57839584,1459888538,42.7309171,-84.4903186,245.13999938964844,0.8175572752952576,-2.162442684173584
1666744979.61364698,1459923789,42.730916799999996,-84.4903188,245.14999389648438,0.8205692172050476,-2.159430742263794
1666744979.65329504,1459963437,42.7309165,-84.49031889999999,245.14999389648438,0.8239879012107849,-2.1560120582580566
1666744979.67822003,1459988362,42.7309163,-84.490319,245.14999389648438,0.8259355425834656,-2.154064416885376
1666744979.69332385,1460003466,42.730916199999996,-84.490319,245.14999389648438,0.8270930647850037,-2.152906894683838
1666744979.73333001,1460043472,42.7309159,-84.4903191,245.14999389648438,0.8298572897911072,-2.1501426696777344
1666744979.77357507,1460083717,42.730915599999996,-84.4903192,245.1599884033203,0.8315955996513367,-2.148404359817505
1666744979.77822685,1460088369,42.730915599999996,-84.4903192,245.1599884033203,0.8320249915122986,-2.147974967956543
1666744979.81366706,1460123809,42.7309152,-84.49031939999999,245.1599884033203,0.8335394263267517,-2.14646053314209
1666744979.85326290,1460163405,42.730914899999995,-84.4903195,245.1599884033203,0.835598886013031,-2.1444010734558105
1666744979.87832689,1460188469,42.7309148,-84.4903195,245.1599884033203,0.8367685675621033,-2.1432313919067383
1666744979.89338207,1460203524,42.7309147,-84.49031959999999,245.1599884033203,0.837502658367157,-2.1424973011016846
1666744979.93321800,1460243360,42.730914399999996,-84.49031959999999,245.1599884033203,0.8391739726066589,-2.1408259868621826
1666744979.97356701,1460283709,42.7309141,-84.4903198,245.1599884033203,0.8396901488304138,-2.1403098106384277
1666744979.97829390,1460288436,42.7309141,-84.4903198,245.1599884033203,0.8399280905723572,-2.1400718688964844
1666744980.01362705,1460323769,42.730913799999996,-84.4903199,245.1699981689453,0.8401183485984802,-2.1398816108703613
1666744980.05334091,1460363483,42.7309136,-84.49032,245.1699981689453,0.8406051993370056,-2.139394760131836
1666744980.07836890,1460388511,42.7309134,-84.49032009999999,245.1699981689453,0.8408977389335632,-2.1391022205352783
1666744980.09331203,1460403454,42.7309133,-84.49032009999999,245.1699981689453,0.8411440253257751,-2.1388559341430664
1666744980.13328600,1460443428,42.730913099999995,-84.49032009999999,245.1699981689453,0.8416826128959656,-2.138317346572876
1666744980.17357087,1460483713,42.7309128,-84.4903203,245.1699981689453,0.8417033553123474,-2.138296604156494
1666744980.17827296,1460488415,42.7309128,-84.4903203,245.1699981689453,0.8418216109275818,-2.1381783485412598
1666744980.21370196,1460523844,42.730912499999995,-84.4903204,245.1699981689453,0.8418154120445251,-2.1381845474243164
1666744980.25322199,1460563364,42.7309123,-84.4903205,245.1699981689453,0.8421565890312195,-2.137843370437622
1666744980.27835894,1460588501,42.7309122,-84.4903205,245.1699981689453,0.8423179984092712,-2.1376819610595703
1666744980.29332185,1460603464,42.7309121,-84.4903205,245.1699981689453,0.8424682021141052,-2.1375317573547363
1666744980.33336091,1460643503,42.730911899999995,-84.49032059999999,245.1699981689453,0.8422831892967224,-2.137716770172119
1666744980.37354088,1460683683,42.7309116,-84.4903207,245.1699981689453,0.8408591151237488,-2.1391408443450928
1666744980.37841105,1460688553,42.7309116,-84.4903207,245.1699981689453,0.840984046459198,-2.1390159130096436
1666744980.41381693,1460723959,42.7309114,-84.49032079999999,245.1599884033203,0.8395518660545349,-2.1404480934143066
1666744980.45327997,1460763422,42.7309112,-84.490321,245.1599884033203,0.8384901881217957,-2.141509771347046
1666744980.47837901,1460788521,42.7309111,-84.4903211,245.1599884033203,0.8378269076347351,-2.1421730518341064
1666744980.49320292,1460803345,42.730911,-84.4903211,245.1599884033203,0.8375300765037537,-2.142469882965088
1666744980.53323603,1460843378,42.7309109,-84.4903211,245.1599884033203,0.836596667766571,-2.1434032917022705
1666744980.57356095,1460883703,42.7309106,-84.49032129999999,245.1599884033203,0.8348380923271179,-2.1451618671417236
1666744980.57837296,1460888515,42.7309106,-84.49032129999999,245.1599884033203,0.8349210619926453,-2.1450788974761963
1666744980.61373091,1460923873,42.7309104,-84.4903214,245.1599884033203,0.8332056403160095,-2.146794319152832
1666744980.65324807,1460963390,42.7309102,-84.4903215,245.1599884033203,0.8316931128501892,-2.1483068466186523
1666744980.67827106,1460988413,42.730910099999996,-84.4903216,245.1599884033203,0.8307403922080994,-2.149259567260742
1666744980.69324303,1461003385,42.730910099999996,-84.4903216,245.1599884033203,0.8302983641624451,-2.1497015953063965
1666744980.73340297,1461043545,42.7309099,-84.4903216,245.14999389648438,0.8288339972496033,-2.1511659622192383
1666744980.77364302,1461083785,42.7309096,-84.49032179999999,245.14999389648438,0.8269774317741394,-2.153022527694702
1666744980.77831197,1461088454,42.7309096,-84.49032179999999,245.14999389648438,0.8269891142845154,-2.153010845184326
1666744980.81370807,1461123850,42.7309094,-84.4903219,245.14999389648438,0.8257583975791931,-2.1542415618896484
1666744980.85324192,1461163384,42.7309092,-84.4903221,245.14999389648438,0.8247074484825134,-2.155292510986328
1666744980.87829995,1461188442,42.730909,-84.4903222,245.14999389648438,0.8241133093833923,-2.155886650085449
1666744980.89324594,1461203388,42.730909,-84.4903222,245.14999389648438,0.8239166140556335,-2.156083345413208
1666744980.93324900,1461243391,42.730908799999995,-84.4903223,245.14999389648438,0.8235720992088318,-2.1564278602600098
1666744980.97357607,1461283718,42.7309085,-84.49032249999999,245.14999389648438,0.8228666186332703,-2.1571333408355713
1666744980.97824788,1461288390,42.7309085,-84.49032249999999,245.14999389648438,0.8229705691337585,-2.157029390335083
1666744981.01372099,1461323863,42.7309081,-84.4903227,245.14999389648438,0.8224543929100037,-2.157545566558838
1666744981.05324697,1461363389,42.7309079,-84.49032299999999,245.14999389648438,0.8223399519920349,-2.1576600074768066
1666744981.07825804,1461388400,42.730907699999996,-84.4903231,245.14999389648438,0.8222848773002625,-2.157715082168579
1666744981.09326696,1461403409,42.730907599999995,-84.4903231,245.14999389648438,0.8222965598106384,-2.157703399658203
1666744981.13328791,1461443430,42.7309074,-84.4903233,245.14999389648438,0.8219751715660095,-2.158024787902832
1666744981.17373991,1461483882,42.730906999999995,-84.4903236,245.14999389648438,0.820206344127655,-2.1597936153411865
1666744981.17830300,1461488445,42.730906999999995,-84.4903236,245.14999389648438,0.8202585577964783,-2.1597414016723633
1666744981.21365094,1461523793,42.7309066,-84.49032389999999,245.13999938964844,0.8184351325035095,-2.161564826965332
1666744981.25334692,1461563489,42.7309063,-84.4903241,245.13999938964844,0.8168296217918396,-2.163170337677002
1666744981.27834201,1461588484,42.7309061,-84.4903243,245.13999938964844,0.8158227801322937,-2.164177179336548
1666744981.29332900,1461603471,42.730906,-84.4903243,245.13999938964844,0.8153323531150818,-2.1646676063537598
1666744981.33327794,1461643420,42.7309057,-84.4903245,245.13999938964844,0.8140813708305359,-2.1659185886383057
1666744981.37357092,1461683713,42.730905299999996,-84.49032489999999,245.13999938964844,0.8113376498222351,-2.1686623096466064
1666744981.37830997,1461688452,42.730905299999996,-84.49032489999999,245.13999938964844,0.8113431334495544,-2.168656826019287
1666744981.41366506,1461723807,42.7309049,-84.4903252,245.12998962402344,0.8086788058280945,-2.171321153640747
1666744981.45325398,1461763396,42.7309044,-84.4903255,245.12998962402344,0.8062455058097839,-2.1737544536590576
1666744981.47833204,1461788474,42.7309043,-84.4903257,245.12998962402344,0.8047928214073181,-2.1752071380615234
1666744981.49335098,1461803493,42.7309042,-84.4903258,245.12998962402344,0.8041192889213562,-2.1758806705474854
1666744981.53325486,1461843397,42.7309039,-84.490326,245.12998962402344,0.8023166060447693,-2.1776833534240723
1666744981.57356286,1461883705,42.7309035,-84.4903262,245.1199951171875,0.7987300753593445,-2.181269884109497
1666744981.57832003,1461888462,42.7309035,-84.4903262,245.1199951171875,0.798700749874115,-2.1812992095947266
1666744981.61367393,1461923816,42.7309031,-84.4903265,245.1199951171875,0.7953252196311951,-2.1846747398376465
1666744981.65320706,1461963349,42.7309027,-84.4903267,245.1199951171875,0.7924725413322449,-2.1875274181365967
1666744981.67840385,1461988546,42.7309025,-84.4903269,245.1199951171875,0.7907533049583435,-2.189246654510498
1666744981.69331408,1462003456,42.7309024,-84.490327,245.11000061035156,0.78988116979599,-2.1901187896728516
1666744981.73327994,1462043422,42.7309021,-84.4903272,245.11000061035156,0.7876798510551453,-2.1923201084136963
1666744981.77357888,1462083721,42.7309017,-84.49032749999999,245.11000061035156,0.7835695147514343,-2.1964304447174072
1666744981.77830887,1462088451,42.7309017,-84.49032749999999,245.11000061035156,0.7835201621055603,-2.1964797973632812
1666744981.81366205,1462123804,42.7309013,-84.4903278,245.09999084472656,0.7795936465263367,-2.200406312942505
1666744981.85331798,1462163460,42.730900899999995,-84.49032799999999,245.09999084472656,0.7761363387107849,-2.2038636207580566
1666744981.87832093,1462188463,42.7309007,-84.4903282,245.09999084472656,0.7739805579185486,-2.206019401550293
1666744981.89323997,1462203382,42.7309006,-84.4903283,245.09999084472656,0.7728866934776306,-2.207113265991211
1666744981.93323803,1462243380,42.730900299999995,-84.49032849999999,245.08999633789062,0.7699880003929138,-2.2100119590759277
1666744981.97359896,1462283741,42.7308999,-84.49032869999999,245.08999633789062,0.765155017375946,-2.2148449420928955
1666744981.97834897,1462288491,42.7308999,-84.49032869999999,245.08999633789062,0.7650758624076843,-2.2149240970611572
1666744982.01378798,1462323930,42.7308995,-84.4903289,245.08999633789062,0.7606191039085388,-2.2193808555603027
1666744982.05321503,1462363357,42.730899199999996,-84.4903291,245.0800018310547,0.7566620707511902,-2.2233378887176514
1666744982.07840800,1462388550,42.730899,-84.49032919999999,245.0800018310547,0.7543014883995056,-2.225698471069336
1666744982.09322095,1462403363,42.7308989,-84.4903293,245.0800018310547,0.7531580328941345,-2.226841926574707
1666744982.13321686,1462443359,42.7308987,-84.4903294,245.0800018310547,0.750349223613739,-2.2296507358551025
1666744982.17355895,1462483701,42.7308983,-84.4903296,245.0699920654297,0.7462219595909119,-2.2337779998779297
1666744982.17836189,1462488504,42.7308982,-84.4903296,245.0699920654297,0.7460960745811462,-2.2339038848876953
1666744982.21374893,1462523891,42.730897899999995,-84.4903298,245.0699920654297,0.742633044719696,-2.2373669147491455
1666744982.25324893,1462563391,42.7308975,-84.49033,245.05999755859375,0.7398454546928406,-2.240154504776001
1666744982.27839899,1462588541,42.730897299999995,-84.4903301,245.05999755859375,0.7381419539451599,-2.2418580055236816
1666744982.29329491,1462603437,42.7308972,-84.4903301,245.05999755859375,0.7373074889183044,-2.242692470550537
1666744982.33330894,1462643451,42.7308969,-84.4903302,245.05999755859375,0.7350077033042908,-2.244992256164551
1666744982.37356901,1462683711,42.7308965,-84.49033039999999,245.05999755859375,0.7326797842979431,-2.2473201751708984
1666744982.37820005,1462688342,42.7308965,-84.49033039999999,245.05999755859375,0.7326597571372986,-2.247340202331543
1666744982.41374207,1462723884,42.730896,-84.4903306,245.05999755859375,0.7314826846122742,-2.2485172748565674
1666744982.45331001,1462763452,42.7308956,-84.49033089999999,245.05999755859375,0.7309655547142029,-2.2490344047546387
1666744982.47823191,1462788374,42.7308954,-84.49033089999999,245.05999755859375,0.7308406233787537,-2.249159336090088
1666744982.49327898,1462803421,42.7308953,-84.49033089999999,245.05999755859375,0.7308885455131531,-2.2491114139556885
1666744982.53324485,1462843387,42.730895,-84.490331,245.05999755859375,0.7311272025108337,-2.248872756958008
1666744982.57365394,1462883796,42.7308946,-84.4903313,245.05999755859375,0.7306422591209412,-2.2493577003479004
1666744982.57823396,1462888376,42.7308946,-84.4903313,245.05999755859375,0.7307552695274353,-2.2492446899414062
1666744982.61365104,1462923793,42.7308942,-84.4903315,245.05999755859375,0.7302457690238953,-2.2497541904449463
1666744982.65328407,1462963426,42.7308938,-84.4903317,245.05999755859375,0.7305423617362976,-2.249457597732544
1666744982.67824292,1462988385,42.730893599999995,-84.49033179999999,245.05999755859375,0.7309934496879578,-2.249006509780884
1666744982.69325995,1463003402,42.7308935,-84.4903319,245.05999755859375,0.7313887476921082,-2.2486112117767334
1666744982.73326397,1463043406,42.7308932,-84.490332,245.05999755859375,0.7332507967948914,-2.24674916267395
1666744982.77358484,1463083727,42.7308928,-84.4903324,245.05999755859375,0.734163224697113,-2.2458367347717285
1666744982.77830791,1463088450,42.7308928,-84.4903324,245.05999755859375,0.7344500422477722,-2.2455499172210693
1666744982.81368589,1463123828,42.730892399999995,-84.4903327,245.05999755859375,0.7349852919578552,-2.2450146675109863
1666744982.85336089,1463163503,42.730892,-84.49033299999999,245.05999755859375,0.7367698550224304,-2.243230104446411
1666744982.87829995,1463188442,42.730891799999995,-84.4903332,245.05999755859375,0.7381040453910828,-2.241895914077759
1666744982.89327192,1463203414,42.7308917,-84.4903332,245.05999755859375,0.7391013503074646,-2.240898609161377
1666744982.93332386,1463243466,42.7308914,-84.49033349999999,245.0699920654297,0.7430498003959656,-2.236950159072876
1666744982.97360992,1463283752,42.7308911,-84.4903339,245.0699920654297,0.7459089159965515,-2.23409104347229
1666744982.97837591,1463288518,42.730891,-84.4903339,245.0699920654297,0.7464444041252136,-2.233555555343628
1666744983.01364493,1463323787,42.730890699999996,-84.4903343,245.0699920654297,0.7483794093132019,-2.2316205501556396
1666744983.05324292,1463363385,42.7308904,-84.49033469999999,245.0800018310547,0.751769483089447,-2.2282304763793945
1666744983.07830191,1463388444,42.7308902,-84.4903349,245.0800018310547,0.7539450526237488,-2.2260549068450928
1666744983.09329987,1463403442,42.730890099999996,-84.490335,245.0800018310547,0.7554032206535339,-2.2245967388153076
1666744983.13325405,1463443396,42.7308899,-84.49033519999999,245.08999633789062,0.76021808385849,-2.2197818756103516
1666744983.17355585,1463483698,42.730889499999996,-84.4903357,245.08999633789062,0.7648608088493347,-2.215139150619507
1666744983.17830205,1463488444,42.730889499999996,-84.4903357,245.08999633789062,0.7655059695243835,-2.214493989944458
1666744983.21363807,1463523780,42.7308892,-84.4903362,245.08999633789062,0.7693940997123718,-2.2106058597564697
1666744983.25331903,1463563461,42.7308889,-84.49033659999999,245.09999084472656,0.7746323943138123,-2.2053675651550293
1666744983.27829504,1463588437,42.7308887,-84.4903368,245.09999084472656,0.7779938578605652,-2.2020061016082764
1666744983.29343486,1463603577,42.7308886,-84.4903369,245.11000061035156,0.7800628542900085,-2.199937105178833
1666744983.33327389,1463643416,42.7308883,-84.4903372,245.11000061035156,0.7862734198570251,-2.1937265396118164
1666744983.37356901,1463683711,42.730888,-84.4903377,245.1199951171875,0.7916762232780457,-2.188323736190796
1666744983.37839699,1463688539,42.730888,-84.4903377,245.1199951171875,0.7924372553825378,-2.1875627040863037
1666744983.41369390,1463723836,42.730887599999996,-84.4903382,245.1199951171875,0.7965115904808044,-2.183488368988037
1666744983.45325089,1463763393,42.7308873,-84.49033879999999,245.12998962402344,0.8017160296440125,-2.178283929824829
1666744983.47831798,1463788460,42.7308872,-84.4903391,245.12998962402344,0.8051115870475769,-2.1748883724212646
1666744983.49320388,1463803346,42.7308871,-84.4903392,245.12998962402344,0.8072430491447449,-2.1727569103240967
1666744983.53328705,1463843429,42.7308868,-84.49033949999999,245.13999938964844,0.8116623759269714,-2.16833758354187
1666744983.57356405,1463883706,42.730886399999996,-84.4903401,245.13999938964844,0.8141314387321472,-2.1658685207366943
1666744983.57835698,1463888499,42.730886399999996,-84.4903401,245.13999938964844,0.8149034380912781,-2.1650965213775635
1666744983.61370993,1463923852,42.7308861,-84.4903406,245.13999938964844,0.8171996474266052,-2.1628003120422363
1666744983.65332007,1463963462,42.730885799999996,-84.4903411,245.14999389648438,0.8203820586204529,-2.1596179008483887
1666744983.67835307,1463988495,42.7308856,-84.49034139999999,245.14999389648438,0.822389543056488,-2.1576104164123535
1666744983.69333887,1464003481,42.7308855,-84.4903415,245.14999389648438,0.8237683176994324,-2.156231641769409
1666744983.73322892,1464043371,42.7308853,-84.49034189999999,245.14999389648438,0.827232301235199,-2.1527676582336426
1666744983.77359104,1464083733,42.7308849,-84.49034259999999,245.14999389648438,0.8288535475730896,-2.151146411895752
1666744983.77842188,1464088564,42.7308849,-84.49034259999999,245.14999389648438,0.8294786810874939,-2.1505212783813477
1666744983.81366897,1464123811,42.730884599999996,-84.4903432,245.1599884033203,0.8306693434715271,-2.1493306159973145
1666744983.85324502,1464163387,42.7308844,-84.4903437,245.1599884033203,0.8329371809959412,-2.1470627784729004
1666744983.87845492,1464188597,42.7308842,-84.490344,245.1599884033203,0.8343202471733093,-2.1456797122955322
1666744983.89321184,1464203354,42.7308841,-84.4903442,245.1599884033203,0.8353220820426941,-2.1446778774261475
1666744983.93320107,1464243343,42.730883899999995,-84.4903447,245.1599884033203,0.8381587862968445,-2.141841173171997
1666744983.97360992,1464283752,42.7308836,-84.4903453,245.1599884033203,0.839300811290741,-2.1406991481781006
1666744983.97831893,1464288461,42.7308835,-84.4903453,245.1599884033203,0.8397957682609558,-2.1402041912078857
1666744984.01377606,1464323918,42.730883299999995,-84.4903459,245.1699981689453,0.8408812880516052,-2.1391186714172363
1666744984.05326796,1464363410,42.730883,-84.4903465,245.1699981689453,0.8434755206108093,-2.1365244388580322
1666744984.07824492,1464388387,42.730882799999996,-84.4903468,245.1699981689453,0.8449723124504089,-2.1350276470184326
1666744984.09333706,1464403479,42.730882799999996,-84.490347,245.1699981689453,0.8458868861198425,-2.134113073348999
1666744984.13319397,1464443336,42.7308825,-84.4903475,245.1699981689453,0.8493227362632751,-2.1306772232055664
1666744984.17363501,1464483777,42.7308823,-84.49034809999999,245.17999267578125,0.8520330786705017,-2.12796688079834
1666744984.17823195,1464488374,42.730882199999996,-84.49034809999999,245.17999267578125,0.852395236492157,-2.1276047229766846
1666744984.21368504,1464523827,42.730882099999995,-84.49034859999999,245.17999267578125,0.8535289168357849,-2.1264710426330566
1666744984.25332499,1464563467,42.7308819,-84.4903491,245.17999267578125,0.854616105556488,-2.1253838539123535
1666744984.27829099,1464588433,42.7308817,-84.4903494,245.17999267578125,0.8552770018577576,-2.124722957611084
1666744984.29332185,1464603464,42.7308817,-84.4903495,245.17999267578125,0.8557655215263367,-2.124234437942505
1666744984.33323097,1464643373,42.730881499999995,-84.4903499,245.17999267578125,0.8571435809135437,-2.122856378555298
1666744984.37362099,1464683763,42.7308813,-84.49035049999999,245.17999267578125,0.8571338057518005,-2.122866153717041
1666744984.37822604,1464688368,42.7308813,-84.49035049999999,245.17999267578125,0.8573524355888367,-2.122647523880005
1666744984.41366196,1464723804,42.7308811,-84.4903509,245.17999267578125,0.857012927532196,-2.1229870319366455
1666744984.45332289,1464763465,42.730881,-84.4903514,245.17999267578125,0.8575240969657898,-2.1224758625030518
1666744984.47822690,1464788369,42.730880899999995,-84.49035169999999,245.17999267578125,0.8578516840934753,-2.122148275375366
1666744984.49325991,1464803402,42.7308808,-84.4903518,245.17999267578125,0.8581025004386902,-2.1218974590301514
1666744984.53329897,1464843441,42.7308807,-84.49035219999999,245.17999267578125,0.8595308661460876,-2.120469093322754
1666744984.57358789,1464883730,42.7308805,-84.4903527,245.1899871826172,0.8600894808769226,-2.119910478591919
1666744984.57834506,1464888487,42.7308805,-84.4903527,245.1899871826172,0.8602849841117859,-2.1197149753570557
1666744984.61364293,1464923785,42.7308804,-84.4903531,245.1899871826172,0.8606845736503601,-2.1193153858184814
1666744984.65326190,1464963404,42.7308802,-84.49035359999999,245.1899871826172,0.8623625636100769,-2.1176373958587646
1666744984.67833591,1464988478,42.7308801,-84.4903538,245.1899871826172,0.8633908629417419,-2.1166090965270996
1666744984.69332385,1465003466,42.7308801,-84.4903539,245.1899871826172,0.8639950156211853,-2.1160049438476562
1666744984.73332596,1465043468,42.7308799,-84.49035429999999,245.1899871826172,0.8661665320396423,-2.113833427429199
1666744984.77361202,1465083754,42.7308799,-84.4903547,245.1899871826172,0.8674842715263367,-2.112515687942505
1666744984.77837896,1465088521,42.7308798,-84.49035479999999,245.1899871826172,0.8676065802574158,-2.112393379211426
1666744984.81364202,1465123784,42.7308798,-84.4903551,245.1899871826172,0.8680586218833923,-2.111941337585449
1666744984.85322285,1465163365,42.730879699999996,-84.4903554,245.1899871826172,0.8691830039024353,-2.1108169555664062
1666744984.87828207,1465188424,42.7308796,-84.4903556,245.1899871826172,0.869905412197113,-2.1100945472717285
1666744984.89330792,1465203450,42.7308796,-84.4903557,245.1999969482422,0.870391309261322,-2.1096086502075195
1666744984.93332601,1465243468,42.7308795,-84.49035599999999,245.1999969482422,0.8721553683280945,-2.107844591140747
1666744984.97351503,1465283657,42.7308795,-84.4903564,245.1999969482422,0.8731679320335388,-2.1068320274353027
1666744984.97832108,1465288463,42.7308794,-84.4903564,245.1999969482422,0.8733901381492615,-2.10660982131958
1666744985.01368403,1465323826,42.7308794,-84.49035669999999,245.1999969482422,0.8739418387413025,-2.106058120727539
1666744985.05325007,1465363392,42.7308793,-84.490357,245.1999969482422,0.8754310011863708,-2.1045689582824707
1666744985.07834506,1465388487,42.7308793,-84.49035719999999,245.1999969482422,0.8764461874961853,-2.1035537719726562
1666744985.09334993,1465403492,42.7308792,-84.4903573,245.1999969482422,0.8771504759788513,-2.1028494834899902
1666744985.13329792,1465443440,42.730879099999996,-84.4903576,245.20999145507812,0.8812431693077087,-2.098756790161133
1666744985.17354608,1465483688,42.730879099999996,-84.49035789999999,245.20999145507812,0.8856286406517029,-2.0943713188171387
1666744985.17833686,1465488479,42.730879099999996,-84.490358,245.20999145507812,0.8859898447990417,-2.0940101146698
1666744985.21371293,1465523855,42.730879,-84.4903583,245.20999145507812,0.8889457583427429,-2.0910542011260986
1666744985.25322104,1465563363,42.7308789,-84.4903586,245.22000122070312,0.8929490447044373,-2.0870509147644043
1666744985.27836084,1465588503,42.7308789,-84.4903588,245.22000122070312,0.8955926299095154,-2.084407329559326
1666744985.29336596,1465603508,42.7308788,-84.49035889999999,245.22000122070312,0.8971511721611023,-2.0828487873077393
1666744985.33327389,1465643416,42.7308787,-84.49035909999999,245.22999572753906,0.9021548628807068,-2.0778450965881348
1666744985.37363386,1465683776,42.7308787,-84.4903595,245.22999572753906,0.9064192175865173,-2.073580741882324
1666744985.37835598,1465688498,42.7308787,-84.4903595,245.22999572753906,0.906956136226654,-2.0730438232421875
1666744985.41366100,1465723803,42.7308786,-84.4903598,245.22999572753906,0.9096667170524597,-2.070333242416382
1666744985.45332885,1465763471,42.7308786,-84.49036009999999,245.239990234375,0.9130203127861023,-2.0669796466827393
1666744985.47835207,1465788494,42.730878499999996,-84.4903602,245.239990234375,0.9152793288230896,-2.064720630645752
1666744985.49326491,1465803407,42.730878499999996,-84.49036029999999,245.239990234375,0.9167246222496033,-2.0632753372192383
1666744985.53323793,1465843380,42.730878399999995,-84.4903606,245.25,0.9213871359825134,-2.058612823486328
1666744985.57354593,1465883688,42.730878399999995,-84.4903609,245.25,0.9246508479118347,-2.055349111557007
1666744985.57834601,1465888488,42.730878399999995,-84.4903609,245.25,0.9252678751945496,-2.054732084274292
1666744985.61364889,1465923791,42.7308783,-84.4903612,245.25,0.9280127882957458,-2.0519871711730957
1666744985.65324998,1465963392,42.7308783,-84.49036149999999,245.25999450683594,0.9326762557029724,-2.047323703765869
1666744985.67847586,1465988618,42.7308783,-84.4903616,245.25999450683594,0.9356924891471863,-2.0443074703216553
1666744985.69323707,1466003379,42.7308782,-84.4903617,245.25999450683594,0.9375635981559753,-2.042436361312866
1666744985.73321104,1466043353,42.7308782,-84.4903619,245.26998901367188,0.943072497844696,-2.0369274616241455
1666744985.77364993,1466083792,42.7308782,-84.49036219999999,245.26998901367188,0.9474207758903503,-2.032579183578491
1666744985.77825785,1466088400,42.7308781,-84.49036219999999,245.26998901367188,0.9481877684593201,-2.0318121910095215
1666744985.81378007,1466123922,42.7308782,-84.4903624,245.27999877929688,0.9517387747764587,-2.028261184692383
1666744985.85330987,1466163452,42.7308781,-84.49036269999999,245.27999877929688,0.9573163390159607,-2.022683620452881
1666744985.87832689,1466188469,42.7308781,-84.4903628,245.2899932861328,0.9609338641166687,-2.019066095352173
1666744985.89328003,1466203422,42.7308781,-84.4903629,245.2899932861328,0.9631871581077576,-2.016812801361084
1666744985.93326688,1466243409,42.7308781,-84.490363,245.2899932861328,0.9692739844322205,-2.010725975036621
1666744985.97356892,1466283711,42.7308781,-84.4903633,245.29998779296875,0.9740681052207947,-2.005931854248047
1666744985.97828197,1466288424,42.7308781,-84.4903633,245.29998779296875,0.9749574065208435,-2.005042552947998
