timestamp,TimeUS,C,Q1,Q2,Q3,Q4
1666744971.21265101,1451522793,1,0.9893262982368469,-0.00641646096482873,0.009006868116557598,0.14529678225517273
1666744971.25262690,1451562769,1,0.9893324971199036,-0.006413636263459921,0.008984989486634731,0.1452561467885971
1666744971.27766085,1451587803,1,0.989336371421814,-0.006418679840862751,0.008978074416518211,0.14522993564605713
1666744971.29261804,1451602760,1,0.9893409013748169,-0.006409467197954655,0.00896455254405737,0.1452002078294754
1666744971.33260798,1451642750,1,0.9893446564674377,-0.006412769202142954,0.008963114582002163,0.1451747864484787
1666744971.37263584,1451682778,1,0.989355742931366,-0.006417417898774147,0.008938384242355824,0.14510035514831543
1666744971.37758493,1451687727,1,0.9893569946289062,-0.006412942428141832,0.008934147655963898,0.14509238302707672
1666744971.41264701,1451722789,1,0.9893651604652405,-0.006391560193151236,0.008905936032533646,0.14503948390483856
1666744971.45264792,1451762790,1,0.9893720746040344,-0.006372045259922743,0.008847597055137157,0.14499671757221222
1666744971.47760987,1451787752,1,0.9893745183944702,-0.006361270789057016,0.008839677087962627,0.1449807733297348
1666744971.49258685,1451802729,1,0.9893785715103149,-0.006348180118948221,0.00881634745746851,0.14495524764060974
1666744971.53261399,1451842756,1,0.9893866181373596,-0.006344339810311794,0.008770900778472424,0.1449032872915268
1666744971.57259989,1451882742,1,0.9893943667411804,-0.006315157283097506,0.008735316805541515,0.1448538899421692
1666744971.57761097,1451887753,1,0.9893956184387207,-0.006315354257822037,0.008728274144232273,0.1448456048965454
1666744971.61264396,1451922786,1,0.9894025921821594,-0.006294643506407738,0.00867379643023014,0.1448020190000534
1666744971.65263891,1451962781,1,0.9894117712974548,-0.006279113702476025,0.008620058186352253,0.14474326372146606
1666744971.67760992,1451987752,1,0.9894188046455383,-0.006263991352170706,0.008592386730015278,0.14469730854034424
1666744971.69264388,1452002786,1,0.9894247651100159,-0.0062563163228333,0.008578888140618801,0.14465777575969696
1666744971.73258400,1452042726,1,0.9894375205039978,-0.006249462720006704,0.008547250181436539,0.1445726603269577
1666744971.77260804,1452082750,1,0.9894520044326782,-0.0062368446961045265,0.008495794609189034,0.14447705447673798
1666744971.77758408,1452087726,1,0.9894528388977051,-0.006235966458916664,0.008493492379784584,0.14447155594825745
1666744971.81263590,1452122778,1,0.9894665479660034,-0.006231647916138172,0.008444842882454395,0.1443808525800705
1666744971.85263705,1452162779,1,0.9894775152206421,-0.006217036861926317,0.008403215557336807,0.14430855214595795
1666744971.87759495,1452187737,1,0.9894850254058838,-0.00620963703840971,0.00837267842143774,0.14425913989543915
1666744971.89263105,1452202773,1,0.9894904494285583,-0.006218039896339178,0.008354006335139275,0.14422260224819183
1666744971.93263507,1452242777,1,0.9894999861717224,-0.0062012504786252975,0.008339235559105873,0.1441589593887329
1666744971.97257900,1452282721,1,0.9895067811012268,-0.006199566647410393,0.00832899659872055,0.14411278069019318
1666744971.97763085,1452287773,1,0.9895090460777283,-0.0061977398581802845,0.008327349089086056,0.14409750699996948
1666744972.01259589,1452322738,1,0.9895175099372864,-0.0061882296577095985,0.008314751088619232,0.14404059946537018
1666744972.05264592,1452362788,1,0.9895252585411072,-0.006180849391967058,0.008296248503029346,0.14398862421512604
1666744972.07763505,1452387777,1,0.989531934261322,-0.006176285911351442,0.008285838179290295,0.14394345879554749
1666744972.09264588,1452402788,1,0.9895352721214294,-0.006184134632349014,0.008285986259579659,0.14392006397247314
1666744972.13263893,1452442781,1,0.9895411133766174,-0.006155828945338726,0.00828307680785656,0.1438816487789154
1666744972.17262197,1452482764,1,0.989548921585083,-0.006150120869278908,0.008277295157313347,0.1438283622264862
1666744972.17765784,1452487800,1,0.9895500540733337,-0.006146612111479044,0.008267025463283062,0.14382140338420868
1666744972.21261406,1452522756,1,0.9895594716072083,-0.006141772493720055,0.00825274083763361,0.143757626414299
1666744972.25260687,1452562749,1,0.989569902420044,-0.0061428542248904705,0.008244242519140244,0.143685981631279
1666744972.27763987,1452587782,1,0.989575207233429,-0.006157303228974342,0.008251253515481949,0.14364849030971527
1666744972.29263806,1452602780,1,0.9895806908607483,-0.006164925638586283,0.008234655484557152,0.14361141622066498
1666744972.33262491,1452642767,1,0.9895897507667542,-0.006158406380563974,0.008223609067499638,0.1435500681400299
1666744972.37263489,1452682777,1,0.9895994067192078,-0.00614786334335804,0.008195330388844013,0.14348547160625458
1666744972.37763786,1452687780,1,0.9896001219749451,-0.006146644242107868,0.008186561986804008,0.14348091185092926
1666744972.41262603,1452722768,1,0.989607036113739,-0.006148107349872589,0.008133409544825554,0.1434362530708313
1666744972.45261097,1452762753,1,0.9896162748336792,-0.00613506231456995,0.008128204382956028,0.1433732509613037
1666744972.47762108,1452787763,1,0.9896194934844971,-0.006137814372777939,0.008117776364088058,0.14335177838802338
1666744972.49260187,1452802744,1,0.9896230101585388,-0.006130437832325697,0.008098999969661236,0.14332862198352814
1666744972.53263402,1452842776,1,0.9896360635757446,-0.006129560060799122,0.008047396317124367,0.14324164390563965
1666744972.57263803,1452882780,1,0.989646852016449,-0.006131157744675875,0.008006837218999863,0.1431691199541092
1666744972.57765102,1452887793,1,0.9896484613418579,-0.00613224133849144,0.008001881651580334,0.14315833151340485
1666744972.61263299,1452922775,1,0.9896565675735474,-0.006138975732028484,0.007934915833175182,0.14310559630393982
1666744972.65258193,1452962724,1,0.9896670579910278,-0.006124650128185749,0.007885008119046688,0.14303655922412872
1666744972.67763805,1452987780,1,0.9896762371063232,-0.006124185398221016,0.007858771830797195,0.14297425746917725
1666744972.69261885,1453002761,1,0.9896818399429321,-0.006149571854621172,0.007846995256841183,0.14293506741523743
1666744972.73263288,1453042775,1,0.989692211151123,-0.006143550388514996,0.007817688398063183,0.14286500215530396
1666744972.77265000,1453082792,1,0.9897024631500244,-0.006142954807728529,0.007780275773257017,0.14279630780220032
1666744972.77764702,1453087789,1,0.9897038340568542,-0.006145284976810217,0.007783090695738792,0.14278627932071686
1666744972.81261992,1453122762,1,0.9897136688232422,-0.006138304248452187,0.007741721346974373,0.1427208036184311
1666744972.85262203,1453162764,1,0.9897237420082092,-0.006152158137410879,0.00769258476793766,0.14265306293964386
1666744972.87763596,1453187778,1,0.9897286891937256,-0.006157131865620613,0.007661772426217794,0.14262022078037262
1666744972.89258003,1453202722,1,0.9897313117980957,-0.006158910691738129,0.007646425627171993,0.14260275661945343
1666744972.93261290,1453242755,1,0.9897381663322449,-0.00614611990749836,0.007600029930472374,0.1425582319498062
1666744972.97263694,1453282779,1,0.9897435903549194,-0.006142683792859316,0.007560249418020248,0.14252279698848724
1666744972.97760606,1453287748,1,0.9897435307502747,-0.006141656544059515,0.007554570212960243,0.1425233632326126
1666744973.01262188,1453322764,1,0.9897478818893433,-0.0061294338665902615,0.00752117158845067,0.14249567687511444
1666744973.05264306,1453362785,1,0.9897546768188477,-0.006136834621429443,0.007474786136299372,0.14245034754276276
1666744973.07761192,1453387754,1,0.9897586107254028,-0.006137236952781677,0.007454244885593653,0.14242412149906158
1666744973.09257984,1453402722,1,0.98976069688797,-0.00612920755520463,0.007438454777002335,0.1424107551574707
1666744973.13261390,1453442756,1,0.9897665977478027,-0.006124590057879686,0.007409051991999149,0.1423717737197876
1666744973.17260885,1453482751,1,0.9897724986076355,-0.006114560179412365,0.007379321381449699,0.14233264327049255
1666744973.17761207,1453487754,1,0.9897739291191101,-0.006116519682109356,0.007378353271633387,0.14232242107391357
1666744973.21264195,1453522784,1,0.9897804856300354,-0.006119450554251671,0.0073648071847856045,0.1422775685787201
1666744973.25262594,1453562768,1,0.989789605140686,-0.006097370758652687,0.007318657357245684,0.14221742749214172
1666744973.27763605,1453587778,1,0.9897942543029785,-0.006109205540269613,0.0073152342811226845,0.14218485355377197
1666744973.29266405,1453602806,1,0.9897987246513367,-0.006108300294727087,0.007310700602829456,0.14215393364429474
1666744973.33262205,1453642764,1,0.9898089170455933,-0.006106937304139137,0.007286174222826958,0.14208409190177917
1666744973.37260795,1453682750,1,0.9898169636726379,-0.006120192352682352,0.007239697501063347,0.14203011989593506
1666744973.37758493,1453687727,1,0.9898194670677185,-0.006116288714110851,0.007229192648082972,0.14201311767101288
1666744973.41265202,1453722794,1,0.9898225665092468,-0.006112650502473116,0.007183099631220102,0.14199422299861908
1666744973.45264506,1453762787,1,0.9898297190666199,-0.0061240666545927525,0.007166173774749041,0.1419445276260376
1666744973.47758389,1453787726,1,0.9898324608802795,-0.006112968549132347,0.007156702224165201,0.1419263631105423
1666744973.49263000,1453802772,1,0.9898355007171631,-0.006113829556852579,0.007137804292142391,0.1419060379266739
1666744973.53263998,1453842782,1,0.9898412227630615,-0.006117017939686775,0.007107410579919815,0.1418677121400833
1666744973.57258487,1453882727,1,0.9898477792739868,-0.006132062058895826,0.007070410065352917,0.14182324707508087
1666744973.57763505,1453887777,1,0.9898484945297241,-0.006133871152997017,0.007060999516397715,0.14181864261627197
1666744973.61260891,1453922751,1,0.9898528456687927,-0.006146079860627651,0.007034785579890013,0.14178889989852905
1666744973.65263200,1453962774,1,0.989859402179718,-0.006152003072202206,0.007000984624028206,0.14174453914165497
1666744973.67764902,1453987791,1,0.9898650050163269,-0.0061508365906775,0.006984406150877476,0.14170609414577484
1666744973.69264698,1454002789,1,0.9898706674575806,-0.0061418539844453335,0.006966497749090195,0.14166806638240814
1666744973.73265004,1454042792,1,0.9898801445960999,-0.006161240395158529,0.006927732843905687,0.14160263538360596
1666744973.77263403,1454082776,1,0.9898865818977356,-0.006168981548398733,0.006902594584971666,0.14155855774879456
1666744973.77765608,1454087798,1,0.9898880124092102,-0.006164418067783117,0.006900963839143515,0.1415487825870514
1666744973.81259894,1454122741,1,0.9898945093154907,-0.006142078433185816,0.006853368133306503,0.14150656759738922
1666744973.85261703,1454162759,1,0.9899041056632996,-0.006143377628177404,0.0067946636117994785,0.14144249260425568
1666744973.87765598,1454187798,1,0.9899076819419861,-0.006125662475824356,0.006772826891392469,0.1414192169904709
1666744973.89265203,1454202794,1,0.9899112582206726,-0.0061242831870913506,0.006769342347979546,0.1413944810628891
1666744973.93264103,1454242783,1,0.9899178743362427,-0.006103823892772198,0.0067301588132977486,0.1413506418466568
1666744973.97265792,1454282800,1,0.9899305105209351,-0.006129599642008543,0.006679112557321787,0.1412637084722519
1666744973.97765803,1454287800,1,0.9899297952651978,-0.006105111911892891,0.006690936628729105,0.1412689983844757
1666744974.01258588,1454322728,1,0.9899244904518127,-0.006131754256784916,0.006658188533037901,0.14130669832229614
1666744974.05261397,1454362756,1,0.9899250268936157,-0.00611150823533535,0.006613872013986111,0.1413058191537857
1666744974.07762790,1454387770,1,0.9899256825447083,-0.006094762124121189,0.006590919103473425,0.14130307734012604
1666744974.09261394,1454402756,1,0.9899328947067261,-0.006075042765587568,0.006570854224264622,0.14125432074069977
1666744974.13264203,1454442784,1,0.9899539351463318,-0.006085950415581465,0.006501465570181608,0.1411093771457672
1666744974.17263389,1454482776,1,0.9899814128875732,-0.006078419741243124,0.00649093696847558,0.14091756939888
1666744974.17763686,1454487779,1,0.989984393119812,-0.006076778285205364,0.0064825573936104774,0.14089681208133698
1666744974.21267390,1454522816,1,0.9900094866752625,-0.006077061407268047,0.006443940103054047,0.14072220027446747
1666744974.25262690,1454562769,1,0.990020751953125,-0.006084424443542957,0.006403772160410881,0.14064432680606842
1666744974.27764702,1454587789,1,0.9900180697441101,-0.006074090488255024,0.006390856578946114,0.14066442847251892
1666744974.29261684,1454602759,1,0.9900177717208862,-0.0060455454513430595,0.0063867284916341305,0.1406678855419159
1666744974.33265495,1454642797,1,0.9900091290473938,-0.00592734245583415,0.00629665981978178,0.14073805510997772
1666744974.37264991,1454682792,1,0.9899867177009583,-0.005687474738806486,0.006151625886559486,0.14091156423091888
1666744974.37764788,1454687790,1,0.9899847507476807,-0.005623979493975639,0.006132686045020819,0.14092880487442017
1666744974.41264606,1454722788,1,0.9899824261665344,-0.00542846554890275,0.006029254756867886,0.1409575641155243
1666744974.45265293,1454762795,1,0.9899958968162537,-0.005425662267953157,0.00595904840156436,0.14086571335792542
1666744974.47766995,1454787812,1,0.9900013208389282,-0.005480457562953234,0.005862642079591751,0.14082948863506317
1666744974.49258494,1454802727,1,0.990012526512146,-0.005515926983207464,0.005740336142480373,0.1407545506954193
1666744974.53261304,1454842755,1,0.9900338053703308,-0.0053232572972774506,0.0057772803120315075,0.14061066508293152
1666744974.57265496,1454882797,1,0.9900193810462952,-0.005621741525828838,0.005783421918749809,0.14070044457912445
1666744974.57761407,1454887756,1,0.9900180101394653,-0.005453640129417181,0.005803312640637159,0.14071576297283173
1666744974.61263394,1454922776,1,0.9900044202804565,-0.0053491354919970036,0.005760615225881338,0.1408170759677887
1666744974.65265799,1454962800,1,0.9899569153785706,-0.005668299738317728,0.005805418360978365,0.14113642275333405
1666744974.67761493,1454987757,1,0.9899303913116455,-0.005750229116529226,0.0058289337903261185,0.1413182020187378
1666744974.69258904,1455002731,1,0.9899241924285889,-0.005671171471476555,0.006006335373967886,0.14135736227035522
1666744974.73259592,1455042738,1,0.9899134635925293,-0.0051595731638371944,0.0060250600799918175,0.14145110547542572
1666744974.77261686,1455082759,1,0.9899063110351562,-0.005619248375296593,0.005787871312350035,0.14149360358715057
1666744974.77762485,1455087767,1,0.9899194240570068,-0.00547385960817337,0.005584609694778919,0.14141562581062317
1666744974.81262708,1455122769,1,0.9899225831031799,-0.005585086066275835,0.005490324925631285,0.14139284193515778
1666744974.85264087,1455162783,1,0.9899100661277771,-0.005219276528805494,0.0054887752048671246,0.14149437844753265
1666744974.87762499,1455187767,1,0.9898961782455444,-0.005381513852626085,0.005578354001045227,0.14158189296722412
1666744974.89264703,1455202789,1,0.9898918271064758,-0.005683650262653828,0.005520401056855917,0.14160273969173431
1666744974.93260884,1455242751,1,0.989870011806488,-0.005430729128420353,0.005445085931569338,0.14176826179027557
1666744974.97261286,1455282755,1,0.9898357391357422,-0.005429985001683235,0.005537078715860844,0.14200390875339508
1666744974.97761989,1455287762,1,0.9898298382759094,-0.005496755242347717,0.00550747849047184,0.1420433521270752
1666744975.01262903,1455322771,1,0.9898043274879456,-0.0058283149264752865,0.005532015115022659,0.1422070413827896
1666744975.05264688,1455362789,1,0.9897887110710144,-0.005554141476750374,0.005447106901556253,0.14232997596263885
1666744975.07762504,1455387767,1,0.9897987246513367,-0.005382936913520098,0.005457690451294184,0.14226621389389038
1666744975.09260702,1455402749,1,0.9897915720939636,-0.005392523016780615,0.005357498303055763,0.1423197090625763
1666744975.13265491,1455442797,1,0.9898071885108948,-0.005465096794068813,0.005402157548815012,0.14220665395259857
1666744975.17258906,1455482731,1,0.98981112241745,-0.005345089826732874,0.0053216200321912766,0.14218677580356598
1666744975.17761707,1455487759,1,0.9898034930229187,-0.005231685005128384,0.00538026774302125,0.1422417312860489
1666744975.21261287,1455522755,1,0.9898025393486023,-0.005249454639852047,0.005283071659505367,0.14225158095359802
1666744975.25264192,1455562784,1,0.989770233631134,-0.005399972200393677,0.005255993455648422,0.142471581697464
1666744975.27762485,1455587767,1,0.9897622466087341,-0.005628567188978195,0.00527134770527482,0.1425175666809082
1666744975.29262996,1455602772,1,0.9897536039352417,-0.00554723059758544,0.005206341855227947,0.14258292317390442
1666744975.33265185,1455642794,1,0.9897489547729492,-0.005275240633636713,0.005048386286944151,0.1426311731338501
1666744975.37260199,1455682744,1,0.989741861820221,-0.0054848468862473965,0.0051934546791017056,0.1426672637462616
1666744975.37763786,1455687780,1,0.9897394180297852,-0.005405704956501722,0.005209972616285086,0.14268679916858673
1666744975.41263604,1455722778,1,0.9897491335868835,-0.005355188623070717,0.005109408870339394,0.14262497425079346
1666744975.45261407,1455762756,1,0.9897468090057373,-0.005207211244851351,0.005101976916193962,0.14264659583568573
1666744975.47764087,1455787783,1,0.9897609353065491,-0.005077418405562639,0.005015539936721325,0.14255641400814056
1666744975.49264407,1455802786,1,0.9897623658180237,-0.005246504209935665,0.0049744825810194016,0.14254209399223328
1666744975.53264499,1455842787,1,0.9897506237030029,-0.0053415000438690186,0.004877149593085051,0.14262306690216064
1666744975.57264805,1455882790,1,0.9897191524505615,-0.005345733370631933,0.004856910556554794,0.1428419053554535
1666744975.57766294,1455887805,1,0.9897196292877197,-0.005253716371953487,0.004817092791199684,0.14284326136112213
1666744975.61261606,1455922758,1,0.9897058606147766,-0.00499983923509717,0.004745556507259607,0.14295020699501038
1666744975.65261388,1455962756,1,0.9897094964981079,-0.005182425491511822,0.004778767935931683,0.1429174393415451
1666744975.67765307,1455987795,1,0.9897043108940125,-0.0049707405269145966,0.004801596514880657,0.14295998215675354
1666744975.69269300,1456002835,1,0.9897114038467407,-0.005047690588980913,0.004665255080908537,0.14291290938854218
1666744975.73265600,1456042798,1,0.9897111654281616,-0.005177744664251804,0.004664641804993153,0.14290982484817505
1666744975.77261686,1456082759,1,0.9897116422653198,-0.005314108449965715,0.00478621618822217,0.14289742708206177
1666744975.77764297,1456087785,1,0.9897063374519348,-0.005279480013996363,0.004683454986661673,0.14293915033340454
1666744975.81265402,1456122796,1,0.9897016286849976,-0.0052400571294128895,0.004752711858600378,0.14297069609165192
1666744975.85258508,1456162727,1,0.9896827936172485,-0.0049201506190001965,0.00464418763294816,0.1431160867214203
1666744975.87766790,1456187810,1,0.9896613359451294,-0.004993068054318428,0.0045880707912147045,0.1432635486125946
1666744975.89261293,1456202755,1,0.9896509647369385,-0.005189372226595879,0.004507464822381735,0.14333085715770721
1666744975.93261385,1456242756,1,0.9896397590637207,-0.004941421560943127,0.0044974093325436115,0.14341704547405243
1666744975.97264600,1456282788,1,0.9896119236946106,-0.004895072430372238,0.004489909391850233,0.1436110883951187
1666744975.97765398,1456287796,1,0.9896156787872314,-0.004949442110955715,0.004295040387660265,0.14358913898468018
1666744976.01267791,1456322820,1,0.9896018505096436,-0.004928942769765854,0.004114379175007343,0.14369063079357147
1666744976.05261588,1456362758,1,0.9895750880241394,-0.004872587509453297,0.004519123584032059,0.14386436343193054
1666744976.07760191,1456387744,1,0.989560067653656,-0.004738002549856901,0.004413906950503588,0.14397555589675903
1666744976.09258604,1456402728,1,0.9895305633544922,-0.004654353484511375,0.004256346728652716,0.14418543875217438
1666744976.13261294,1456442755,1,0.9894864559173584,-0.004451667424291372,0.004150278400629759,0.14449729025363922
1666744976.17264795,1456482790,1,0.9894413948059082,-0.004482243210077286,0.004165185149759054,0.1448044776916504
1666744976.17762494,1456487767,1,0.9894252419471741,-0.004603534936904907,0.0041580782271921635,0.1449110507965088
1666744976.21265292,1456522795,1,0.9893983006477356,-0.004684855695813894,0.003967630676925182,0.1450975388288498
1666744976.25264692,1456562789,1,0.9893492460250854,-0.004736118484288454,0.00403397623449564,0.14542804658412933
1666744976.27761793,1456587760,1,0.9893219470977783,-0.004791890271008015,0.004017973784357309,0.14561234414577484
1666744976.29264903,1456602791,1,0.9893053770065308,-0.005209971219301224,0.0039933049120008945,0.14571136236190796
1666744976.33260608,1456642748,1,0.9892643094062805,-0.00489416066557169,0.004010958597064018,0.14600025117397308
1666744976.37261295,1456682755,1,0.9892109632492065,-0.004503010772168636,0.004162329249083996,0.14636960625648499
1666744976.37762499,1456687767,1,0.9892099499702454,-0.004459308460354805,0.004142910707741976,0.14637835323810577
1666744976.41264796,1456722790,1,0.9891712665557861,-0.004606497939676046,0.0040235924534499645,0.1466381847858429
1666744976.45265102,1456762793,1,0.9890994429588318,-0.004518196452409029,0.003948849160224199,0.14712685346603394
1666744976.47761703,1456787759,1,0.989067792892456,-0.004760062787681818,0.0039624967612326145,0.1473313570022583
1666744976.49265599,1456802798,1,0.9890396595001221,-0.004820751026272774,0.0038889930583536625,0.14751997590065002
1666744976.53259301,1456842735,1,0.9889948964118958,-0.00447749113664031,0.003944247029721737,0.14782913029193878
1666744976.57265401,1456882796,1,0.9889271259307861,-0.004535634536296129,0.0038208391051739454,0.14828354120254517
1666744976.57759500,1456887737,1,0.988930881023407,-0.004621053580194712,0.0038176877424120903,0.14825570583343506
1666744976.61261702,1456922759,1,0.988893449306488,-0.004275158047676086,0.004071573726832867,0.1485087126493454
1666744976.65265203,1456962794,1,0.9888192415237427,-0.004843180533498526,0.0035816512536257505,0.14899751543998718
1666744976.67758894,1456987731,1,0.9888085126876831,-0.004783627577126026,0.003622388234362006,0.1490696519613266
1666744976.69263601,1457002778,1,0.9888022541999817,-0.004783474374562502,0.0036428256426006556,0.14911049604415894
1666744976.73265004,1457042792,1,0.9887673258781433,-0.004555895924568176,0.003411821788176894,0.14935435354709625
1666744976.77259398,1457082736,1,0.9887116551399231,-0.004430242348462343,0.0032793376594781876,0.14972934126853943
1666744976.77762604,1457087768,1,0.9887117147445679,-0.004351153504103422,0.0030118778813630342,0.14973697066307068
1666744976.81262493,1457122767,1,0.988690197467804,-0.003954320680350065,0.0026450089644640684,0.1498968005180359
1666744976.85258698,1457162729,1,0.9886490106582642,-0.00364638096652925,0.0022488003596663475,0.1501826047897339
1666744976.87765193,1457187794,1,0.9886237978935242,-0.0030080273281782866,0.0019707928877323866,0.15036629140377045
1666744976.89264607,1457202788,1,0.9886084794998169,-0.003659241134300828,0.0016624669078737497,0.150456503033638
1666744976.93265295,1457242795,1,0.9885657429695129,-0.003563479520380497,0.0011397860944271088,0.15074391663074493
1666744976.97265100,1457282793,1,0.988515317440033,-0.0026964391581714153,0.0006665487308055162,0.1510952115058899
1666744976.97765398,1457287796,1,0.9885030388832092,-0.0021315920166671276,8.49525022204034e-05,0.15118584036827087
1666744977.01258492,1457322727,1,0.9884858727455139,-0.00041312098619528115,0.0004962351522408426,0.15131168067455292
1666744977.05261588,1457362758,1,0.988457441329956,0.0018893711967393756,0.0009608767577446997,0.15148384869098663
1666744977.07765007,1457387792,1,0.9884375333786011,0.003081683302298188,0.0006281263777054846,0.15159597992897034
1666744977.09264994,1457402792,1,0.9884130954742432,0.004361182916909456,0.000996424350887537,0.15172189474105835
1666744977.13264990,1457442792,1,0.9883962869644165,0.006725225131958723,0.0016858228482306004,0.1517390012741089
1666744977.17264986,1457482792,1,0.9883747696876526,0.008096129633486271,0.0020084779243916273,0.15180820226669312
1666744977.17764091,1457487783,1,0.9883586168289185,0.008345277048647404,0.0019964948296546936,0.15190012753009796
1666744977.21263194,1457522774,1,0.9883543252944946,0.010047041811048985,0.002735149348154664,0.15181343257427216
1666744977.25262785,1457562770,1,0.988357663154602,0.011288582347333431,0.0020509804598987103,0.15171530842781067
1666744977.27765608,1457587798,1,0.9883307814598083,0.013119576498866081,0.0018097389256581664,0.15174616873264313
1666744977.29261589,1457602758,1,0.988341748714447,0.012560919858515263,0.0004881297645624727,0.15173174440860748
1666744977.33264303,1457642785,1,0.9883412718772888,0.013877425342798233,-0.0003231016453355551,0.15162056684494019
1666744977.37262797,1457682770,1,0.9883485436439514,0.014784594997763634,9.614041482564062e-05,0.15148794651031494
1666744977.37764597,1457687788,1,0.9883093237876892,0.016132822260260582,0.0006085906061343849,0.15160506963729858
1666744977.41264606,1457722788,1,0.9883793592453003,0.014945194125175476,0.00044759249431081116,0.15127025544643402
1666744977.45258594,1457762728,1,0.9883916974067688,0.01445497665554285,0.0005042177508585155,0.1512371301651001
1666744977.47766304,1457787805,1,0.9884354472160339,0.011883866041898727,-0.0001939333014888689,0.15117572247982025
1666744977.49261403,1457802756,1,0.9884576201438904,0.011332977563142776,0.00032222794834524393,0.15107280015945435
1666744977.53260994,1457842752,1,0.9885657429695129,0.006078843493014574,-3.6135541449766606e-05,0.1506679803133011
1666744977.57263994,1457882782,1,0.9886310696601868,0.0008126141037791967,0.00015077542047947645,0.15035943686962128
1666744977.57765508,1457887797,1,0.988642156124115,-0.00021124962950125337,-0.00040955274016596377,0.15028779208660126
1666744977.61264586,1457922788,1,0.988663375377655,-0.0046361819840967655,0.0011533391661942005,0.15007317066192627
1666744977.65264392,1457962786,1,0.988675594329834,-0.009199569933116436,0.002544702496379614,0.1497648060321808
1666744977.67761707,1457987759,1,0.9886698126792908,-0.011852018535137177,0.003679497865960002,0.14959265291690826
1666744977.69262695,1458002769,1,0.9886775612831116,-0.012616464868187904,0.004740367643535137,0.14944912493228912
1666744977.73262405,1458042766,1,0.9887089729309082,-0.014889041893184185,0.007446154020726681,0.14892077445983887
1666744977.77263784,1458082780,1,0.9887071251869202,-0.01659768633544445,0.010260085575282574,0.14858493208885193
1666744977.77763486,1458087777,1,0.9887151122093201,-0.015720374882221222,0.010867023840546608,0.14858388900756836
1666744977.81264496,1458122787,1,0.9887562990188599,-0.016810305416584015,0.0121881989762187,0.14808741211891174
1666744977.85264993,1458162792,1,0.9888079762458801,-0.016893958672881126,0.013094012625515461,0.14765489101409912
1666744977.87762403,1458187766,1,0.9888356924057007,-0.017175963148474693,0.012403151020407677,0.14749599993228912
1666744977.89264393,1458202786,1,0.9888697266578674,-0.01698676124215126,0.011960413306951523,0.14732639491558075
1666744977.93259406,1458242736,1,0.9889837503433228,-0.01495051197707653,0.010465117171406746,0.14689484238624573
1666744977.97261190,1458282754,1,0.9890915751457214,-0.012002449482679367,0.009463553316891193,0.14650684595108032
1666744977.97761798,1458287760,1,0.989113450050354,-0.012046627700328827,0.00906467903405428,0.1463804990053177
1666744978.01265192,1458322794,1,0.9892042875289917,-0.008833966217935085,0.008798670023679733,0.14601175487041473
1666744978.05263090,1458362773,1,0.9892998933792114,-0.005341211799532175,0.008718329481780529,0.1455373913049698
1666744978.07758689,1458387729,1,0.9893501400947571,-0.0037877182476222515,0.00905409175902605,0.14522382616996765
1666744978.09264493,1458402787,1,0.9893757700920105,-0.0026144215371459723,0.009238934144377708,0.1450633704662323
1666744978.13262296,1458442765,1,0.9894327521324158,-0.0008808278944343328,0.010303135961294174,0.1446235030889511
1666744978.17260003,1458482742,1,0.9894698262214661,-9.773652709554881e-05,0.012490993365645409,0.1441994458436966
1666744978.17759490,1458487737,1,0.9894812703132629,-0.000345358595950529,0.013097434304654598,0.14406634867191315
1666744978.21261787,1458522760,1,0.9894797801971436,6.470398511737585e-05,0.01536830049008131,0.14385272562503815
1666744978.25265503,1458562797,1,0.9894802570343018,0.001109761418774724,0.017218729481101036,0.14363525807857513
1666744978.27761292,1458587755,1,0.9895005226135254,0.0013808017829433084,0.017656108364462852,0.14344017207622528
1666744978.29263186,1458602774,1,0.9894938468933105,0.001766444998793304,0.01812535710632801,0.14342361688613892
1666744978.33264899,1458642791,1,0.9895146489143372,0.0016702045686542988,0.018252143636345863,0.1432650089263916
1666744978.37262893,1458682771,1,0.9895066618919373,0.00287596951238811,0.0182272270321846,0.143304243683815
1666744978.37763095,1458687773,1,0.9895161986351013,0.0031366439070552588,0.01850273087620735,0.14319729804992676
1666744978.41261292,1458722755,1,0.9895232319831848,0.004106803331524134,0.018057188019156456,0.14318126440048218
1666744978.45261502,1458762757,1,0.9895150065422058,0.004689930472522974,0.017863502725958824,0.14324446022510529
1666744978.47766089,1458787803,1,0.9895155429840088,0.004349108785390854,0.017500417307019234,0.14329634606838226
1666744978.49264693,1458802789,1,0.9895011782646179,0.0054790060967206955,0.017874570563435555,0.1433103084564209
1666744978.53265905,1458842801,1,0.17567645013332367,-0.016886141151189804,0.0043595898896455765,0.9842934608459473
1666744978.57264304,1458882785,1,0.17556244134902954,-0.01651359349489212,0.004938005469739437,0.984317421913147
1666744978.57765293,1458887795,1,0.17550747096538544,-0.01607278548181057,0.005105497781187296,0.9843336343765259
1666744978.61260486,1458922747,1,0.17540860176086426,-0.01587495394051075,0.0063764178194105625,0.9843470454216003
1666744978.65261197,1458962754,1,0.17547392845153809,-0.015245532616972923,0.009149405173957348,0.9843235015869141
1666744978.67765594,1458987798,1,0.17557334899902344,-0.014465066604316235,0.011368421837687492,0.9842944145202637
1666744978.69259501,1459002737,1,0.17561312019824982,-0.014187905937433243,0.012291393242776394,0.9842802882194519
1666744978.73263693,1459042779,1,0.1757633239030838,-0.013428062200546265,0.014930215664207935,0.9842276573181152
1666744978.77262497,1459082767,1,0.17574794590473175,-0.012950721196830273,0.016628503799438477,0.9842095375061035
1666744978.77766895,1459087811,1,0.17569464445114136,-0.012757005169987679,0.016793591901659966,0.9842187762260437
1666744978.81265306,1459122795,1,0.17556458711624146,-0.012717723846435547,0.01655411161482334,0.984246551990509
1666744978.85258389,1459162726,1,0.17520171403884888,-0.012598948553204536,0.01374485157430172,0.9843559861183167
1666744978.87764502,1459187787,1,0.17497135698795319,-0.012476097792387009,0.011618255637586117,0.9844259023666382
1666744978.89261198,1459202754,1,0.17470958828926086,-0.012472211383283138,0.009398842230439186,0.9844961762428284
1666744978.93264699,1459242789,1,0.17413434386253357,-0.012045134790241718,0.00474711274728179,0.9846367835998535
1666744978.97264791,1459282790,1,0.1734446883201599,-0.011327777057886124,0.00011572981020435691,0.9847784638404846
1666744978.97766304,1459287805,1,0.17340190708637238,-0.011185851879417896,-0.0005935592926107347,0.9847874641418457
1666744979.01265001,1459322792,1,0.1726878583431244,-0.010276605375111103,-0.004727208521217108,0.9849116206169128
1666744979.05263996,1459362782,1,0.1715039163827896,-0.009238277561962605,-0.008354545570909977,0.9851046800613403
1666744979.07762384,1459387766,1,0.17068523168563843,-0.008556338958442211,-0.011443004943430424,0.9852219820022583
1666744979.09261799,1459402760,1,0.17023266851902008,-0.008320215158164501,-0.01290906872600317,0.9852842092514038
1666744979.13261294,1459442755,1,0.1687997281551361,-0.00782835204154253,-0.017096787691116333,0.9854710102081299
1666744979.17264605,1459482788,1,0.16708657145500183,-0.007938827387988567,-0.020911071449518204,0.9856885075569153
1666744979.17760086,1459487743,1,0.16678817570209503,-0.00818229466676712,-0.02150900848209858,0.985724151134491
1666744979.21261597,1459522758,1,0.16536720097064972,-0.008767309598624706,-0.02320702373981476,0.9859200119972229
1666744979.25266790,1459562810,1,0.16394418478012085,-0.008970038965344429,-0.02372905984520912,0.9861434102058411
1666744979.27761793,1459587760,1,0.16307279467582703,-0.008907469920814037,-0.022842831909656525,0.9863093495368958
1666744979.29261088,1459602753,1,0.16251546144485474,-0.008948094211518764,-0.022201592102646828,0.9864156246185303
1666744979.33261299,1459642755,1,0.16115693747997284,-0.008653120137751102,-0.019407594576478004,0.9866999983787537
1666744979.37259889,1459682741,1,0.16035982966423035,-0.0087325070053339,-0.016465211287140846,0.9868826270103455
1666744979.37761998,1459687762,1,0.16031210124492645,-0.00800715945661068,-0.015761958435177803,0.9869080185890198
1666744979.41265488,1459722797,1,0.1596631556749344,-0.008370517753064632,-0.014165236614644527,0.9870344400405884
1666744979.45265293,1459762795,1,0.15918192267417908,-0.00817718356847763,-0.011950111947953701,0.9871430993080139
1666744979.47762299,1459787765,1,0.15898506343364716,-0.008048316463828087,-0.010237409733235836,0.9871950745582581
1666744979.49262404,1459802766,1,0.15890219807624817,-0.008243364281952381,-0.009260173887014389,0.9872164726257324
1666744979.53258586,1459842728,1,0.1586858034133911,-0.009333700872957706,-0.00760265626013279,0.9872557520866394
1666744979.57261300,1459882755,1,0.15895141661167145,-0.010583492927253246,-0.006377677898854017,0.9872090816497803
1666744979.57760501,1459887747,1,0.15883903205394745,-0.01046561449766159,-0.006503346376121044,0.9872276186943054
1666744979.61264992,1459922792,1,0.15911099314689636,-0.011267031542956829,-0.006317974533885717,0.9871761798858643
1666744979.65264106,1459962783,1,0.15941202640533447,-0.0119315255433321,-0.007535758428275585,0.9871112704277039
1666744979.67758799,1459987730,1,0.15969952940940857,-0.012428571470081806,-0.008745738305151463,0.9870486855506897
1666744979.69265294,1460002795,1,0.15968705713748932,-0.01260516420006752,-0.010170559398829937,0.987034797668457
1666744979.73266196,1460042804,1,0.16009485721588135,-0.013467309065163136,-0.012988975271582603,0.9869242906570435
1666744979.77258587,1460082728,1,0.16052545607089996,-0.013830929063260555,-0.016454370692372322,0.9867976307868958
1666744979.77759099,1460087733,1,0.1605522334575653,-0.014023156836628914,-0.016429077833890915,0.9867909550666809
1666744979.81261492,1460122757,1,0.1608436554670334,-0.0145488902926445,-0.018745670095086098,0.9866946339607239
1666744979.85264087,1460162783,1,0.16117724776268005,-0.015192783437669277,-0.0191611610352993,0.9866224527359009
1666744979.87764192,1460187784,1,0.16137467324733734,-0.015981392934918404,-0.0183775182813406,0.9865926504135132
1666744979.89263105,1460202773,1,0.16144594550132751,-0.016201231628656387,-0.018054701387882233,0.9865833520889282
1666744979.93265104,1460242793,1,0.1615111529827118,-0.017534203827381134,-0.016870694234967232,0.9865708947181702
1666744979.97258592,1460282728,1,0.16157105565071106,-0.01806577481329441,-0.013913028873503208,0.9865975975990295
1666744979.97764897,1460287791,1,0.16161279380321503,-0.01826084591448307,-0.013186287134885788,0.9865971803665161
1666744980.01261806,1460322760,1,0.1614380180835724,-0.01844751089811325,-0.01175958476960659,0.9866403341293335
1666744980.05261493,1460362757,1,0.1612277776002884,-0.018293367698788643,-0.009557140991091728,0.9867013692855835
1666744980.07765293,1460387795,1,0.16101665794849396,-0.01814665086567402,-0.008128960616886616,0.98675137758255
1666744980.09267187,1460402814,1,0.1608220338821411,-0.018146736547350883,-0.007967493496835232,0.9867843985557556
1666744980.13262200,1460442764,1,0.16027358174324036,-0.01823825016617775,-0.007328783627599478,0.986876904964447
1666744980.17264795,1460482790,1,0.15968087315559387,-0.017954867333173752,-0.007921996526420116,0.9869735836982727
1666744980.17763805,1460487780,1,0.15963837504386902,-0.01806720718741417,-0.008585359901189804,0.9869728684425354
1666744980.21263790,1460522780,1,0.15890692174434662,-0.017852243036031723,-0.009463301859796047,0.9870867729187012
1666744980.25261593,1460562758,1,0.1581563800573349,-0.01717090606689453,-0.01126803271472454,0.9872004389762878
1666744980.27763200,1460587774,1,0.1577976793050766,-0.016897358000278473,-0.011850578710436821,0.9872557520866394
1666744980.29259300,1460602735,1,0.15745766460895538,-0.01659013144671917,-0.012268096208572388,0.9873101711273193
1666744980.33265686,1460642799,1,0.15669623017311096,-0.01600937359035015,-0.012572437524795532,0.9874370694160461
1666744980.37259197,1460682734,1,0.15597417950630188,-0.015406494028866291,-0.012175077572464943,0.9875659346580505
1666744980.37765288,1460687795,1,0.15578725934028625,-0.01464543491601944,-0.012802232056856155,0.9875990748405457
1666744980.41264796,1460722790,1,0.15515825152397156,-0.015020736493170261,-0.011530956253409386,0.9877080917358398
1666744980.45263600,1460762778,1,0.15430258214473724,-0.014560933224856853,-0.010717335157096386,0.9878581762313843
1666744980.47765994,1460787802,1,0.15379437804222107,-0.013919539749622345,-0.01017985213547945,0.9879523515701294
1666744980.49261308,1460802755,1,0.15349319577217102,-0.013947898522019386,-0.009756159037351608,0.9880030751228333
1666744980.53264499,1460842787,1,0.15263918042182922,-0.01301666907966137,-0.008882158435881138,0.9881563186645508
1666744980.57264495,1460882787,1,0.1520235240459442,-0.011949480511248112,-0.007653312291949987,0.9882749915122986
1666744980.57765508,1460887797,1,0.15190666913986206,-0.011189701035618782,-0.007159690838307142,0.9883055686950684
1666744980.61267996,1460922822,1,0.15129119157791138,-0.010793312452733517,-0.005703585222363472,0.9884138703346252
1666744980.65262604,1460962768,1,0.15078385174274445,-0.009645320475101471,-0.0031882543116807938,0.9885145425796509
1666744980.67764807,1460987790,1,0.15050087869167328,-0.008735901676118374,-0.0017601451836526394,0.9885697364807129
1666744980.69262695,1461002769,1,0.15023311972618103,-0.008451447822153568,-0.0008912281482480466,0.9886140823364258
1666744980.73261499,1461042757,1,0.1497614085674286,-0.007499313913285732,0.0012026040349155664,0.9886929988861084
1666744980.77264595,1461082788,1,0.14939774572849274,-0.006644628010690212,0.002714370610192418,0.9887511134147644
1666744980.77760506,1461087747,1,0.14922834932804108,-0.007127497345209122,0.0022588344290852547,0.9887744784355164
1666744980.81264806,1461122790,1,0.14900031685829163,-0.006334643345326185,0.0035662942100316286,0.9888104200363159
1666744980.85264993,1461162792,1,0.14889658987522125,-0.0062932888977229595,0.004238734487444162,0.988823652267456
1666744980.87761688,1461187759,1,0.14888405799865723,-0.006554407998919487,0.00409684469923377,0.9888244271278381
1666744980.89258504,1461202727,1,0.1488431990146637,-0.006790434010326862,0.004539843648672104,0.9888270497322083
1666744980.93262100,1461242763,1,0.1489412635564804,-0.007059627212584019,0.0039859130047261715,0.9888128042221069
1666744980.97261405,1461282756,1,0.14935624599456787,-0.007668990641832352,0.0032635924872010946,0.98874831199646
1666744980.97761607,1461287758,1,0.14935943484306335,-0.008052181452512741,0.003483045846223831,0.9887440204620361
1666744981.01264501,1461322787,1,0.1496780514717102,-0.0076097710989415646,0.003015933558344841,0.9887009263038635
1666744981.05261993,1461362762,1,0.15010544657707214,-0.007088930811733007,0.0028084092773497105,0.9886406064033508
1666744981.07762504,1461387767,1,0.15044942498207092,-0.006872075609862804,0.002539373002946377,0.9885905385017395
1666744981.09264994,1461402792,1,0.15065865218639374,-0.006698906887322664,0.002650913782417774,0.9885596036911011
1666744981.13259006,1461442732,1,0.15120264887809753,-0.006703151855617762,0.0028003102634102106,0.9884760975837708
1666744981.17267990,1461482822,1,0.15197119116783142,-0.006605681963264942,0.003208443522453308,0.988357663154602
1666744981.17758894,1461487731,1,0.15202118456363678,-0.006766748148947954,0.003765858942642808,0.9883468747138977
1666744981.21264005,1461522782,1,0.15267328917980194,-0.006954829208552837,0.0038274622056633234,0.9882448315620422
1666744981.25265408,1461562796,1,0.15355145931243896,-0.006698678247630596,0.004884188529103994,0.9881058931350708
1666744981.27759504,1461587737,1,0.15424542129039764,-0.006442187819629908,0.004962367936968803,0.9879990816116333
1666744981.29266286,1461602805,1,0.15466618537902832,-0.0063575743697583675,0.005478721112012863,0.9879311323165894
1666744981.33264685,1461642789,1,0.15569166839122772,-0.006061343010514975,0.005767621099948883,0.9877702593803406
1666744981.37258601,1461682728,1,0.15689288079738617,-0.005896068178117275,0.005733815021812916,0.9875813722610474
1666744981.37763786,1461687780,1,0.15705926716327667,-0.005945172626525164,0.0056413160637021065,0.9875551462173462
1666744981.41261888,1461722761,1,0.1581978052854538,-0.005926575046032667,0.005149743519723415,0.9873762130737305
1666744981.45265889,1461762801,1,0.15956267714500427,-0.006068779155611992,0.0049429358914494514,0.9871567487716675
1666744981.47765493,1461787797,1,0.16061119735240936,-0.005791318602859974,0.006293931510299444,0.986980676651001
1666744981.49265289,1461802795,1,0.16114015877246857,-0.005907326005399227,0.00571844819933176,0.9868972897529602
1666744981.53265691,1461842799,1,0.1628524214029312,-0.005621424410492182,0.005677707027643919,0.9866181015968323
1666744981.57260489,1461882747,1,0.16455096006393433,-0.005172008648514748,0.005705665331333876,0.9863384962081909
1666744981.57765698,1461887799,1,0.1647130846977234,-0.005461242515593767,0.006129611283540726,0.9863073825836182
1666744981.61259699,1461922739,1,0.16629479825496674,-0.0055763921700417995,0.005252342205494642,0.986046314239502
1666744981.65261388,1461962756,1,0.168076753616333,-0.005938712973147631,0.004165575839579105,0.985747218132019
1666744981.67767501,1461987817,1,0.16916395723819733,-0.006373747251927853,0.004218680784106255,0.985558271408081
1666744981.69264984,1462002792,1,0.16988104581832886,-0.0065572247840464115,0.0036740098148584366,0.9854359030723572
1666744981.73262596,1462042768,1,0.17173469066619873,-0.007225970271974802,0.003024823497980833,0.9851120710372925
1666744981.77265406,1462082796,1,0.17363697290420532,-0.007888494059443474,0.002089498098939657,0.9847759008407593
1666744981.77764702,1462087789,1,0.17384260892868042,-0.007504218257963657,0.0010976173216477036,0.9847442507743835
1666744981.81258702,1462122729,1,0.17557787895202637,-0.008053326047956944,0.0004916989710181952,0.9844324588775635
1666744981.85262108,1462162763,1,0.17751149833202362,-0.008573790080845356,-0.002138737589120865,0.9840790629386902
1666744981.87765598,1462187798,1,0.17867352068424225,-0.00861798319965601,-0.0038464313838630915,0.9838631749153137
1666744981.89260507,1462202747,1,0.17945440113544464,-0.008950636722147465,-0.004768861457705498,0.9837139844894409
1666744981.93264794,1462242790,1,0.1812581866979599,-0.009583049453794956,-0.007642216514796019,0.983359158039093
1666744981.97263408,1462282776,1,0.18323947489261627,-0.011117029003798962,-0.01091238297522068,0.9829448461532593
1666744981.97764802,1462287790,1,0.18338701128959656,-0.0113059151917696,-0.010823887772858143,0.9829161763191223
1666744982.01266003,1462322802,1,0.1849423050880432,-0.012859456241130829,-0.014126915484666824,0.9825636744499207
1666744982.05258608,1462362728,1,0.18672798573970795,-0.014987732283771038,-0.01710856519639492,0.9821483492851257
1666744982.07765508,1462387797,1,0.18762649595737457,-0.0161548163741827,-0.019000861793756485,0.9819237589836121
1666744982.09262395,1462402766,1,0.18825651705265045,-0.016856174916028976,-0.01942852884531021,0.9817830324172974
1666744982.13259101,1462442733,1,0.18972903490066528,-0.018300818279385567,-0.02085486240684986,0.9814443588256836
1666744982.17264605,1462482788,1,0.19109077751636505,-0.019302736967802048,-0.02152050845324993,0.9811465740203857
1666744982.17765498,1462487797,1,0.1912950575351715,-0.019927291199564934,-0.0224403478205204,0.9810736775398254
1666744982.21265793,1462522800,1,0.19236648082733154,-0.020457632839679718,-0.02183425799012184,0.9808669090270996
1666744982.25263691,1462562779,1,0.19360417127609253,-0.0221009012311697,-0.02212434820830822,0.9805812239646912
1666744982.27764487,1462587787,1,0.19435127079486847,-0.023208647966384888,-0.022947726771235466,0.980388879776001
1666744982.29258585,1462602728,1,0.19474785029888153,-0.02373260073363781,-0.022914184257388115,0.9802983999252319
1666744982.33261800,1462642760,1,0.1957222819328308,-0.02476147934794426,-0.023202210664749146,0.9800720810890198
1666744982.37264895,1462682791,1,0.19679976999759674,-0.024877425283193588,-0.022128179669380188,0.9798781871795654
1666744982.37761188,1462687754,1,0.19697125256061554,-0.02416123077273369,-0.021431488916277885,0.9798771739006042
1666744982.41265202,1462722794,1,0.19766566157341003,-0.024107756093144417,-0.020342933014035225,0.9797618389129639
1666744982.45266986,1462762812,1,0.19856835901737213,-0.02299674041569233,-0.01846493035554886,0.9796432256698608
1666744982.47762489,1462787767,1,0.1990843117237091,-0.022259242832660675,-0.017271321266889572,0.9795773029327393
1666744982.49262786,1462802770,1,0.19932879507541656,-0.021921338513493538,-0.016677290201187134,0.9795454740524292
1666744982.53262186,1462842764,1,0.20000651478767395,-0.02078103832900524,-0.015579238533973694,0.9794502854347229
1666744982.57261801,1462882760,1,0.20068515837192535,-0.019691331312060356,-0.015137020498514175,0.9793409109115601
1666744982.57761598,1462887758,1,0.20086592435836792,-0.01887829601764679,-0.014388643205165863,0.9793311357498169
1666744982.61265087,1462922793,1,0.20127570629119873,-0.017520327121019363,-0.015532649122178555,0.9792547225952148
1666744982.65262604,1462962768,1,0.2017921507358551,-0.014920189045369625,-0.0155637813732028,0.9791910648345947
1666744982.67762589,1462987768,1,0.20209667086601257,-0.013447446748614311,-0.015800749883055687,0.9791457653045654
1666744982.69264507,1463002787,1,0.2022373378276825,-0.012652711011469364,-0.01557229645550251,0.9791309833526611
1666744982.73263192,1463042774,1,0.20250362157821655,-0.011107041500508785,-0.016026156023144722,0.9790873527526855
1666744982.77261686,1463082759,1,0.20271699130535126,-0.010222382843494415,-0.01586570031940937,0.9790554642677307
1666744982.77759600,1463087738,1,0.20275838673114777,-0.010423270054161549,-0.016034048050642014,0.9790420532226562
1666744982.81260991,1463122752,1,0.20285625755786896,-0.009700973518192768,-0.01539557334035635,0.9790394306182861
1666744982.85265207,1463162794,1,0.20300456881523132,-0.008646619506180286,-0.01580316387116909,0.9790120720863342
1666744982.87762499,1463187767,1,0.2030981481075287,-0.007918765768408775,-0.0156987477093935,0.9790005087852478
1666744982.89264488,1463202787,1,0.2031829059123993,-0.007739460561424494,-0.016337616369128227,0.978973925113678
1666744982.93264604,1463242788,1,0.20315945148468018,-0.006824917625635862,-0.01728636398911476,0.9789692759513855
1666744982.97258496,1463282727,1,0.20317266881465912,-0.006835585925728083,-0.018167685717344284,0.9789505004882812
1666744982.97762108,1463287763,1,0.20313957333564758,-0.007596723269671202,-0.01875542663037777,0.9789406657218933
1666744983.01261187,1463322754,1,0.2031230628490448,-0.00775043573230505,-0.019178099930286407,0.9789347052574158
1666744983.05264688,1463362789,1,0.2030351608991623,-0.008652037009596825,-0.019701415672898293,0.9789350032806396
1666744983.07763290,1463387775,1,0.2029659003019333,-0.00936580915004015,-0.019512981176376343,0.9789465665817261
1666744983.09264588,1463402788,1,0.20295654237270355,-0.009398635476827621,-0.019185461103916168,0.9789546728134155
1666744983.13262701,1463442769,1,0.20277057588100433,-0.009726358577609062,-0.017667682841420174,0.9790185689926147
1666744983.17264605,1463482788,1,0.20259204506874084,-0.009740237146615982,-0.015816017985343933,0.9790870547294617
1666744983.17765784,1463487800,1,0.20245711505413055,-0.010351286269724369,-0.01605786383152008,0.97910475730896
1666744983.21258807,1463522730,1,0.20223979651927948,-0.010091443546116352,-0.014598176814615726,0.9791752099990845
1666744983.25261402,1463562756,1,0.20189987123012543,-0.010511417873203754,-0.013928950764238834,0.9792507290840149
1666744983.27764487,1463587787,1,0.2016628384590149,-0.010466719046235085,-0.012692282907664776,0.9793168306350708
1666744983.29264688,1463602789,1,0.20153631269931793,-0.010820628143846989,-0.012892883270978928,0.9793363809585571
1666744983.33264089,1463642783,1,0.20113429427146912,-0.0109941978007555,-0.01176621112972498,0.9794313311576843
1666744983.37263989,1463682782,1,0.2008218616247177,-0.010590020567178726,-0.009355739690363407,0.9795258641242981
1666744983.37767291,1463687815,1,0.20075052976608276,-0.010571184568107128,-0.008617792278528214,0.9795474410057068
1666744983.41263294,1463722775,1,0.2003762423992157,-0.010148618370294571,-0.006313146557658911,0.9796460866928101
1666744983.45261407,1463762756,1,0.19996847212314606,-0.009584992192685604,-0.0024688150733709335,0.9797523617744446
1666744983.47763705,1463787779,1,0.19969728589057922,-0.008814286440610886,4.792741674464196e-05,0.9798179864883423
1666744983.49261189,1463802754,1,0.19948595762252808,-0.008862745948135853,0.0015525114722549915,0.9798593521118164
1666744983.53264284,1463842785,1,0.19898828864097595,-0.00831710547208786,0.005254042334854603,0.9799525141716003
1666744983.57262993,1463882772,1,0.19844631850719452,-0.007825381122529507,0.007896719500422478,0.9800487160682678
1666744983.57765388,1463887796,1,0.19840174913406372,-0.007277145050466061,0.007731897756457329,0.980063259601593
1666744983.61263394,1463922776,1,0.19787776470184326,-0.0074485368095338345,0.009658114053308964,0.9801508188247681
1666744983.65263200,1463962774,1,0.19734306633472443,-0.00712166354060173,0.00991335790604353,0.9802585244178772
1666744983.67765498,1463987797,1,0.19701378047466278,-0.006683417595922947,0.010582336224615574,0.9803208112716675
1666744983.69261694,1464002759,1,0.1967761218547821,-0.006656010635197163,0.01011478342115879,0.9803736805915833
1666744983.73259401,1464042736,1,0.19632646441459656,-0.0065583735704422,0.009847348555922508,0.9804672002792358
1666744983.77264500,1464082787,1,0.19589537382125854,-0.0064786216244101524,0.009610029868781567,0.980556309223175
1666744983.77765107,1464087793,1,0.1959202140569687,-0.0065627070143818855,0.009538832120597363,0.9805514812469482
1666744983.81265306,1464122795,1,0.19560746848583221,-0.006357877980917692,0.009188786149024963,0.9806185960769653
1666744983.85264492,1464162787,1,0.19537873566150665,-0.006278584245592356,0.008541258051991463,0.9806705713272095
1666744983.87766194,1464187804,1,0.1953151375055313,-0.005943665746599436,0.008164684288203716,0.9806885123252869
1666744983.89258504,1464202727,1,0.19526928663253784,-0.005493169650435448,0.007798946928232908,0.9807032942771912
1666744983.93262005,1464242762,1,0.19522365927696228,-0.004645435139536858,0.006653334945440292,0.9807251691818237
1666744983.97263288,1464282775,1,0.19515933096408844,-0.00382436765357852,0.005751270800828934,0.9807472229003906
1666744983.97761893,1464287761,1,0.19523772597312927,-0.003601283999159932,0.005918517708778381,0.9807314872741699
1666744984.01263785,1464322780,1,0.19513708353042603,-0.0033812974579632282,0.004898956976830959,0.9807578921318054
1666744984.05264497,1464362787,1,0.19507871568202972,-0.0029578732792288065,0.004028175491839647,0.9807748794555664
1666744984.07761502,1464387757,1,0.195123553276062,-0.002811690792441368,0.00370979867875576,0.9807676076889038
1666744984.09265399,1464402796,1,0.1950915902853012,-0.002533998806029558,0.0033057464752346277,0.9807761907577515
1666744984.13258600,1464442728,1,0.19519124925136566,-0.0025016656145453453,0.0027584200724959373,0.9807581305503845
1666744984.17261195,1464482754,1,0.19525806605815887,-0.002451583044603467,0.0026595918461680412,0.980745255947113
1666744984.17761993,1464487762,1,0.19539834558963776,-0.0019884477369487286,0.0030425619333982468,0.9807172417640686
1666744984.21264887,1464522791,1,0.19548454880714417,-0.0024461906868964434,0.0023136071395128965,0.9807010293006897
1666744984.25264597,1464562788,1,0.19569700956344604,-0.0023603595327585936,0.002052596304565668,0.9806594252586365
1666744984.27760386,1464587746,1,0.19583500921726227,-0.0027174297720193863,0.002140642376616597,0.9806307554244995
1666744984.29264808,1464602790,1,0.19596953690052032,-0.0026441137306392193,0.001956524094566703,0.9806044697761536
1666744984.33258796,1464642730,1,0.19620417058467865,-0.0031041831243783236,0.0024487513583153486,0.9805551171302795
1666744984.37261295,1464682755,1,0.19659429788589478,-0.0036671836860477924,0.0028335638344287872,0.9804739952087402
1666744984.37759304,1464687735,1,0.19675786793231964,-0.0037340063136070967,0.0028556883335113525,0.9804408550262451
1666744984.41261292,1464722755,1,0.1969873458147049,-0.004198722541332245,0.0030998368747532368,0.9803921580314636
1666744984.45265388,1464762796,1,0.19750052690505981,-0.004462029319256544,0.0031875281129032373,0.9802874326705933
1666744984.47759104,1464787733,1,0.19781596958637238,-0.004317833576351404,0.003160235472023487,0.9802245497703552
1666744984.49261498,1464802757,1,0.198028564453125,-0.004581278655678034,0.0033609732054173946,0.9801797866821289
1666744984.53265786,1464842800,1,0.19859826564788818,-0.00431384751573205,0.003544436302036047,0.980065107345581
1666744984.57262206,1464882764,1,0.19925731420516968,-0.004425536375492811,0.003767302492633462,0.9799299836158752
1666744984.57766104,1464887803,1,0.19933544099330902,-0.004697306547313929,0.0041622561402618885,0.979911208152771
1666744984.61261487,1464922757,1,0.1999417096376419,-0.0049751801416277885,0.004410570487380028,0.9797852635383606
1666744984.65264201,1464962784,1,0.20063938200473785,-0.006021853536367416,0.0052855717949569225,0.9796323776245117
1666744984.67766404,1464987806,1,0.2011413723230362,-0.006772441789507866,0.004938994999974966,0.9795263409614563
1666744984.69264507,1465002787,1,0.20141546428203583,-0.006991039961576462,0.005724634975194931,0.9794642329216003
1666744984.73265004,1465042792,1,0.20222467184066772,-0.007501486223191023,0.005832332652062178,0.9792930483818054
1666744984.77263594,1465082778,1,0.20309343934059143,-0.006894880440086126,0.005533612798899412,0.9791194200515747
1666744984.77765489,1465087797,1,0.20320962369441986,-0.006865471601486206,0.004814270883798599,0.9790993332862854
1666744984.81259108,1465122733,1,0.2040136158466339,-0.005793322343379259,0.005261211656033993,0.9789367914199829
1666744984.85261989,1465162762,1,0.20499828457832336,-0.004651660565286875,0.00458391522988677,0.9787405729293823
1666744984.87764907,1465187791,1,0.2056523710489273,-0.004376075696200132,0.003464658511802554,0.9786092042922974
1666744984.89265585,1465202798,1,0.205979585647583,-0.003797020297497511,0.0036204729694873095,0.9785422086715698
1666744984.93264604,1465242788,1,0.20697781443595886,-0.003375466214492917,0.002925307024270296,0.978335440158844
1666744984.97265100,1465282793,1,0.20788244903087616,-0.003500312101095915,0.0022274127695709467,0.9781450033187866
1666744984.97763705,1465287779,1,0.2080056518316269,-0.003854688024148345,0.002132176421582699,0.9781177043914795
1666744985.01262808,1465322770,1,0.2088758498430252,-0.003701013047248125,0.001918684458360076,0.9779332876205444
1666744985.05259991,1465362742,1,0.20979881286621094,-0.0033418689854443073,0.0010986559791490436,0.9777382612228394
1666744985.07764292,1465387785,1,0.2103656679391861,-0.0028145730029791594,0.0017457276117056608,0.9776171445846558
1666744985.09261203,1465402754,1,0.21072542667388916,-0.003014353569597006,0.0009007544140331447,0.9775402545928955
1666744985.13264990,1465442792,1,0.21155720949172974,-0.002603924600407481,0.0006138343014754355,0.9773619771003723
1666744985.17263985,1465482782,1,0.21235790848731995,-0.0022878400050103664,0.0007044553058221936,0.9771890044212341
1666744985.17764688,1465487789,1,0.21248330175876617,-0.0019851396791636944,0.001652253675274551,0.9771612882614136
1666744985.21265507,1465522797,1,0.213089719414711,-0.0022384589537978172,0.000926714448723942,0.9770296216011047
1666744985.25258803,1465562730,1,0.21383307874202728,-0.0023069672752171755,0.000920342281460762,0.9768670797348022
1666744985.27764487,1465587787,1,0.21412591636180878,-0.002538032829761505,0.0013351485831663013,0.976801872253418
1666744985.29261589,1465602758,1,0.21442213654518127,-0.002334206597879529,0.001096503809094429,0.9767376780509949
1666744985.33261395,1465642756,1,0.21501073241233826,-0.0021119359880685806,0.0013185571879148483,0.9766085147857666
1666744985.37264991,1465682792,1,0.2155545949935913,-0.002210216596722603,0.0012261876836419106,0.9764885306358337
1666744985.37764788,1465687790,1,0.21556895971298218,-0.0029841545037925243,0.0011723864590749145,0.9764833450317383
1666744985.41264296,1465722785,1,0.21608707308769226,-0.002570389537140727,0.0008375699981115758,0.9763703346252441
1666744985.45265007,1465762792,1,0.21660281717777252,-0.003052149433642626,-0.00031178773497231305,0.9762549996376038
1666744985.47761798,1465787760,1,0.2169007658958435,-0.003081931732594967,-0.0018063948955386877,0.9761871099472046
1666744985.49262691,1465802769,1,0.21702145040035248,-0.0035239525604993105,-0.0015726933488622308,0.9761592149734497
1666744985.53261685,1465842759,1,0.21744127571582794,-0.003884096397086978,-0.002691374160349369,0.9760619401931763
1666744985.57265186,1465882794,1,0.21785925328731537,-0.004131176508963108,-0.0038702795282006264,0.9759637713432312
1666744985.57762599,1465887768,1,0.21805334091186523,-0.004636193625628948,-0.0036560562439262867,0.9759190082550049
1666744985.61264300,1465922785,1,0.21821171045303345,-0.004008932504802942,-0.004098221193999052,0.9758846163749695
1666744985.65264988,1465962792,1,0.21851792931556702,-0.003678247332572937,-0.003350157057866454,0.9758202433586121
1666744985.67761493,1465987757,1,0.21872591972351074,-0.003536880249157548,-0.0023810062557458878,0.9757770299911499
1666744985.69262600,1466002768,1,0.21884895861148834,-0.003182368353009224,-0.0020941428374499083,0.9757513403892517
1666744985.73259401,1466042736,1,0.21910683810710907,-0.002890645759180188,-0.0009438575943931937,0.9756961464881897
1666744985.77261400,1466082756,1,0.2192905992269516,-0.0030278521589934826,-0.000398299191147089,0.9756547808647156
1666744985.77761889,1466087761,1,0.219231978058815,-0.0029480222146958113,-0.0009789224714040756,0.9756678342819214
1666744985.81264400,1466122786,1,0.21950434148311615,-0.0034080047626048326,-7.782372267683968e-05,0.9756055474281311
1666744985.85264802,1466162790,1,0.21960559487342834,-0.003865886013954878,6.725123967044055e-05,0.9755810499191284
1666744985.87759089,1466187733,1,0.2196337729692459,-0.003537339624017477,-0.00015266564150806516,0.9755759835243225
1666744985.89266300,1466202805,1,0.21964243054389954,-0.003901212476193905,-0.0004032872093375772,0.9755725860595703
1666744985.93261290,1466242755,1,0.2197071760892868,-0.0038890703581273556,-0.00113953638356179,0.9755574464797974
1666744985.97260785,1466282750,1,0.2198401391506195,-0.0037885881029069424,-0.0014917220687493682,0.9755274057388306
1666744985.97761202,1466287754,1,0.2197556048631668,-0.0035202030558139086,-0.000551700359210372,0.9755484461784363
1666744986.01261187,1466322754,1,0.2199060320854187,-0.0036458689719438553,-0.0011687440564855933,0.9755135178565979
1666744986.05264306,1466362785,1,0.2199041098356247,-0.0035411855205893517,-0.0004251600184943527,0.9755149483680725
1666744986.07763696,1466387779,1,0.2199259102344513,-0.0035699617583304644,-0.0008614255930297077,0.9755096435546875
