timestamp,TimeUS,C,Roll,Pitch,Yaw,VN,VE,VD,dPD,PN,PE,PD,GX,GY,GZ,OH
1666744971.21265101,1451522793,1,-0.5700000000000001,1.12,16.7,-0.2605840563774109,-0.07879256457090378,-0.05222192779183388,0.008954537101089954,35.512699127197266,24.218198776245117,3.0020689964294434,0.16,-0.03,0.16,247.32
1666744971.25262690,1451562769,1,-0.5700000000000001,1.12,16.69,-0.26195406913757324,-0.07884196937084198,-0.05129528045654297,0.0032576757948845625,35.496891021728516,24.222736358642578,3.0019209384918213,0.16,-0.03,0.16,247.32
1666744971.27766085,1451587803,1,-0.5700000000000001,1.12,16.69,-0.2632350027561188,-0.07905843108892441,-0.050909437239170074,-0.00045956706162542105,35.48707580566406,24.22522735595703,3.001736879348755,0.16,-0.03,0.16,247.32
1666744971.29261804,1451602760,1,-0.5700000000000001,1.12,16.69,-0.26435527205467224,-0.07964908331632614,-0.05076003447175026,-0.002771927509456873,35.481624603271484,24.226102828979492,3.0014896392822266,0.16,-0.03,0.16,247.32
1666744971.33260798,1451642750,1,-0.5700000000000001,1.12,16.69,-0.2669951915740967,-0.0801180750131607,-0.05013586953282356,-0.009401468560099602,35.46699905395508,24.228506088256836,3.0008575916290283,0.16,-0.03,0.16,247.32
1666744971.37263584,1451682778,1,-0.5700000000000001,1.12,16.68,-0.2697638273239136,-0.08123116940259933,-0.05035237595438957,-0.017328400164842606,35.45280075073242,24.230022430419922,2.9999947547912598,0.16,-0.03,0.16,247.32
1666744971.37758493,1451687727,1,-0.5700000000000001,1.11,16.68,-0.26974794268608093,-0.08099833875894547,-0.05029824376106262,-0.018230419605970383,35.45030212402344,24.230995178222656,3.0000598430633545,0.16,-0.03,0.16,247.32
1666744971.41264701,1451722789,1,-0.5700000000000001,1.11,16.67,-0.2693028748035431,-0.0802975445985794,-0.049948371946811676,-0.023230241611599922,35.43611145019531,24.236068725585938,2.999570846557617,0.16,-0.03,0.16,247.32
1666744971.45264792,1451762790,1,-0.5700000000000001,1.1,16.66,-0.27012890577316284,-0.08068152517080307,-0.04959361255168915,-0.025423122569918633,35.421226501464844,24.239633560180664,2.9986989498138428,0.16,-0.03,0.16,247.32
1666744971.47760987,1451787752,1,-0.5700000000000001,1.1,16.66,-0.2703915536403656,-0.08085896074771881,-0.04940452054142952,-0.02681898884475231,35.41199493408203,24.24156951904297,2.998079776763916,0.16,-0.03,0.16,247.32
1666744971.49258685,1451802729,1,-0.5700000000000001,1.1,16.66,-0.27114835381507874,-0.0811309739947319,-0.049285802990198135,-0.02771010808646679,35.40680694580078,24.2421875,2.9976203441619873,0.16,-0.03,0.16,247.32
1666744971.53261399,1451842756,1,-0.5700000000000001,1.09,16.65,-0.2724359333515167,-0.08182064443826675,-0.04896107688546181,-0.03059345856308937,35.39297866821289,24.243906021118164,2.9964540004730225,0.16,-0.03,0.16,247.32
1666744971.57259989,1451882742,1,-0.5700000000000001,1.09,16.65,-0.27410411834716797,-0.08239350467920303,-0.048921238631010056,-0.0333537794649601,35.37789535522461,24.246150970458984,2.9952921867370605,0.16,-0.02,0.16,247.32
1666744971.57761097,1451887753,1,-0.5700000000000001,1.09,16.65,-0.27350613474845886,-0.08182407170534134,-0.048830244690179825,-0.03332385793328285,35.374122619628906,24.248210906982422,2.9953439235687256,0.16,-0.02,0.16,247.32
1666744971.61264396,1451922786,1,-0.56,1.08,16.64,-0.27394887804985046,-0.08122134208679199,-0.04868908226490021,-0.03334542736411095,35.35837173461914,24.25217628479004,2.9944894313812256,0.16,-0.02,0.16,247.32
1666744971.65263891,1451962781,1,-0.56,1.08,16.64,-0.2753114104270935,-0.08096417784690857,-0.04850126802921295,-0.03316933661699295,35.341896057128906,24.25474739074707,2.993222713470459,0.16,-0.02,0.16,247.32
1666744971.67760992,1451987752,1,-0.56,1.07,16.63,-0.27646327018737793,-0.08133894950151443,-0.04831501469016075,-0.03370444476604462,35.331886291503906,24.256155014038086,2.9924044609069824,0.16,-0.02,0.16,247.32
1666744971.69264388,1452002786,1,-0.56,1.07,16.63,-0.27708685398101807,-0.08163779228925705,-0.048322100192308426,-0.03433377295732498,35.32637405395508,24.256542205810547,2.99186635017395,0.16,-0.02,0.16,247.32
1666744971.73258400,1452042726,1,-0.56,1.07,16.62,-0.27963289618492126,-0.08238714188337326,-0.047904498875141144,-0.035984788089990616,35.3111686706543,24.257511138916016,2.9904565811157227,0.16,-0.02,0.16,247.32
1666744971.77260804,1452082750,1,-0.56,1.06,16.6,-0.2818622291088104,-0.08354754745960236,-0.048365525901317596,-0.03808591887354851,35.296539306640625,24.25783920288086,2.9889984130859375,0.16,-0.02,0.16,247.32
1666744971.77758408,1452087726,1,-0.56,1.06,16.6,-0.2818056046962738,-0.08326492458581924,-0.048235610127449036,-0.038209568709135056,35.29400634765625,24.25847625732422,2.9888699054718018,0.16,-0.02,0.16,247.32
1666744971.81263590,1452122778,1,-0.56,1.06,16.59,-0.2826133966445923,-0.08334428071975708,-0.04743334278464317,-0.033734921365976334,35.275733947753906,24.261281967163086,2.9889276027679443,0.16,-0.02,0.16,247.32
1666744971.85263705,1452162779,1,-0.56,1.05,16.59,-0.2841721177101135,-0.08395914733409882,-0.04654531180858612,-0.020096974447369576,35.25716781616211,24.262847900390625,2.9886772632598877,0.16,-0.02,0.16,247.32
1666744971.87759495,1452187737,1,-0.56,1.05,16.580000000000002,-0.28508901596069336,-0.08424849808216095,-0.04613689333200455,-0.01331361848860979,35.24581527709961,24.263626098632812,2.988471269607544,0.16,-0.02,0.16,247.32
1666744971.89263105,1452202773,1,-0.56,1.05,16.580000000000002,-0.28606224060058594,-0.08442967385053635,-0.045792292803525925,-0.01016062218695879,35.2395133972168,24.263675689697266,2.9882125854492188,0.16,-0.02,0.16,247.32
1666744971.93263507,1452242777,1,-0.56,1.04,16.57,-0.2885453999042511,-0.08546941727399826,-0.045699648559093475,-0.007000591140240431,35.22261428833008,24.263843536376953,2.9876391887664795,0.16,-0.02,0.16,247.32
1666744971.97257900,1452282721,1,-0.56,1.04,16.56,-0.29062753915786743,-0.0859924703836441,-0.045544784516096115,-0.006621269509196281,35.20363235473633,24.264265060424805,2.98722243309021,0.16,-0.02,0.16,247.32
1666744971.97763085,1452287773,1,-0.56,1.04,16.56,-0.29062962532043457,-0.08539647608995438,-0.04520908743143082,-0.005901503376662731,35.19806671142578,24.265504837036133,2.9876015186309814,0.16,-0.02,0.16,247.32
1666744972.01259589,1452322738,1,-0.56,1.04,16.55,-0.2929479479789734,-0.08514858782291412,-0.04470742493867874,-0.001876878784969449,35.17684555053711,24.26710319519043,2.9877336025238037,0.16,-0.02,0.16,247.32
1666744972.05264592,1452362788,1,-0.56,1.04,16.55,-0.2953721880912781,-0.08578556030988693,-0.04444069042801857,0.001319650560617447,35.15566635131836,24.26764488220215,2.987483501434326,0.16,-0.02,0.16,247.32
1666744972.07763505,1452387777,1,-0.56,1.04,16.54,-0.2970893979072571,-0.0862150713801384,-0.0440700463950634,0.001404507551342249,35.14262771606445,24.267784118652344,2.9872617721557617,0.16,-0.02,0.16,247.32
1666744972.09264588,1452402788,1,-0.56,1.04,16.54,-0.2982819974422455,-0.08650175482034683,-0.043902911245822906,0.0007126126438379288,35.13521957397461,24.267452239990234,2.986964702606201,0.16,-0.02,0.16,247.32
1666744972.13263893,1452442781,1,-0.56,1.04,16.54,-0.3012327551841736,-0.08719092607498169,-0.043359775096178055,-0.0024434863589704037,35.116111755371094,24.26682472229004,2.9864864349365234,0.16,-0.02,0.16,247.32
1666744972.17262197,1452482764,1,-0.56,1.04,16.53,-0.30433326959609985,-0.08837715536355972,-0.0430356003344059,-0.005686008837074041,35.095523834228516,24.26613998413086,2.986039638519287,0.16,-0.02,0.16,247.32
1666744972.17765784,1452487800,1,-0.56,1.03,16.53,-0.3042289614677429,-0.08801151067018509,-0.04285631328821182,-0.0058671096339821815,35.08980178833008,24.266780853271484,2.986271858215332,0.16,-0.02,0.16,247.32
1666744972.21261406,1452522756,1,-0.56,1.03,16.52,-0.3065875470638275,-0.08877979218959808,-0.04210368171334267,-0.006471945904195309,35.06773376464844,24.26661491394043,2.9861466884613037,0.16,-0.02,0.16,247.32
1666744972.25260687,1452562749,1,-0.56,1.03,16.51,-0.30936816334724426,-0.08958567678928375,-0.041450317949056625,-0.0047619235701859,35.045658111572266,24.265548706054688,2.985921621322632,0.16,-0.02,0.16,247.32
1666744972.27763987,1452587782,1,-0.56,1.03,16.51,-0.3111254572868347,-0.09030736237764359,-0.0409238375723362,-0.003974204882979393,35.032142639160156,24.264732360839844,2.98573637008667,0.16,-0.02,0.16,247.32
1666744972.29263806,1452602780,1,-0.56,1.03,16.5,-0.3121396601200104,-0.09088929742574692,-0.0408022403717041,-0.004082186613231897,35.02473449707031,24.264007568359375,2.9855053424835205,0.16,-0.02,0.16,247.32
1666744972.33262491,1452642767,1,-0.56,1.03,16.5,-0.31497910618782043,-0.0926472619175911,-0.0407460480928421,-0.005550403613597155,35.004798889160156,24.26202392578125,2.985163927078247,0.16,-0.02,0.16,247.32
1666744972.37263489,1452682777,1,-0.56,1.03,16.490000000000002,-0.3175688087940216,-0.09393828362226486,-0.040443334728479385,-0.004799050744622946,34.98416519165039,24.260173797607422,2.985156536102295,0.16,-0.02,0.16,247.32
1666744972.37763786,1452687780,1,-0.56,1.02,16.490000000000002,-0.31700918078422546,-0.09376545995473862,-0.04024961590766907,-0.003990322817116976,34.97919464111328,24.260602951049805,2.9857077598571777,0.16,-0.02,0.16,247.32
1666744972.41262603,1452722768,1,-0.56,1.02,16.48,-0.3173585832118988,-0.09475196152925491,-0.040000781416893005,0.003361642360687256,34.958614349365234,24.25960922241211,2.9863486289978027,0.16,-0.02,0.16,247.32
1666744972.45261097,1452762753,1,-0.56,1.02,16.48,-0.31867387890815735,-0.09611612558364868,-0.039275359362363815,0.010766535066068172,34.9378662109375,24.25774574279785,2.986597776412964,0.16,-0.02,0.16,247.32
1666744972.47762108,1452787763,1,-0.56,1.02,16.47,-0.3197192847728729,-0.0973031222820282,-0.0392647348344326,0.01195714995265007,34.92518615722656,24.256437301635742,2.9866979122161865,0.16,-0.02,0.16,247.32
1666744972.49260187,1452802744,1,-0.56,1.01,16.47,-0.3205222189426422,-0.09791802614927292,-0.03945053368806839,0.011743661016225815,34.91815185546875,24.255456924438477,2.9866011142730713,0.16,-0.02,0.16,247.32
1666744972.53263402,1452842776,1,-0.56,1.01,16.46,-0.32222652435302734,-0.0996476337313652,-0.03909779712557793,0.010212806053459644,34.89932632446289,24.252779006958008,2.986706018447876,0.16,-0.02,0.16,247.32
1666744972.57263803,1452882780,1,-0.56,1.0,16.45,-0.3237723708152771,-0.10096276551485062,-0.03852485120296478,0.011072722263634205,34.8798942565918,24.250465393066406,2.987281322479248,0.16,-0.02,0.16,247.32
1666744972.57765102,1452887793,1,-0.56,1.0,16.45,-0.3227580189704895,-0.10066884756088257,-0.038344573229551315,0.012030252255499363,34.87547302246094,24.25092124938965,2.9880828857421875,0.16,-0.02,0.16,247.32
1666744972.61263299,1452922775,1,-0.56,1.0,16.45,-0.32267647981643677,-0.10112586617469788,-0.03774968534708023,0.021742327138781548,34.856449127197266,24.249921798706055,2.9895377159118652,0.16,-0.02,0.16,247.32
1666744972.65258193,1452962724,1,-0.56,0.99,16.44,-0.3230851888656616,-0.10218358039855957,-0.03719443082809448,0.03233566880226135,34.836822509765625,24.247940063476562,2.9906165599823,0.16,-0.02,0.16,247.32
1666744972.67763805,1452987780,1,-0.56,0.99,16.43,-0.32343578338623047,-0.10274076461791992,-0.03719396889209747,0.03474273160099983,34.824951171875,24.246606826782227,2.991225242614746,0.16,-0.02,0.16,247.32
1666744972.69261885,1453002761,1,-0.56,0.99,16.43,-0.3235795795917511,-0.10339595377445221,-0.037126876413822174,0.035263534635305405,34.81829833984375,24.245601654052734,2.9913766384124756,0.16,-0.02,0.16,247.32
1666744972.73263288,1453042775,1,-0.56,0.98,16.42,-0.324748158454895,-0.10490964353084564,-0.036270566284656525,0.03300242871046066,34.80059051513672,24.24288558959961,2.9919869899749756,0.16,-0.02,0.16,247.32
1666744972.77265000,1453082792,1,-0.56,0.98,16.41,-0.3250390291213989,-0.10569857060909271,-0.03597584739327431,0.02801574394106865,34.78172302246094,24.240610122680664,2.992607355117798,0.16,-0.02,0.16,247.32
1666744972.77764702,1453087789,1,-0.56,0.98,16.41,-0.32407045364379883,-0.10523024946451187,-0.035843659192323685,0.027575373649597168,34.777183532714844,24.241168975830078,2.9931933879852295,0.16,-0.02,0.16,247.32
1666744972.81261992,1453122762,1,-0.56,0.97,16.4,-0.32351598143577576,-0.10515327006578445,-0.03526841849088669,0.025522349402308464,34.757686614990234,24.240331649780273,2.994083881378174,0.16,-0.02,0.16,247.32
1666744972.85262203,1453162764,1,-0.5700000000000001,0.97,16.39,-0.32314109802246094,-0.1057496964931488,-0.03498440980911255,0.02400018461048603,34.73809051513672,24.23863410949707,2.9946932792663574,0.16,-0.02,0.16,247.32
1666744972.87763596,1453187778,1,-0.5700000000000001,0.96,16.39,-0.32316771149635315,-0.10643895715475082,-0.03502151370048523,0.021632272750139236,34.7259407043457,24.23737907409668,2.9949839115142822,0.16,-0.02,0.16,247.32
1666744972.89258003,1453202722,1,-0.5700000000000001,0.96,16.39,-0.3236076235771179,-0.1068306714296341,-0.03485843539237976,0.020155126228928566,34.71923065185547,24.23642349243164,2.9950013160705566,0.16,-0.02,0.16,247.32
1666744972.93261290,1453242755,1,-0.5700000000000001,0.96,16.38,-0.3242565095424652,-0.10787935554981232,-0.03471941873431206,0.014972584322094917,34.70135498046875,24.23388671875,2.9953055381774902,0.16,-0.02,0.16,247.32
1666744972.97263694,1453282779,1,-0.5700000000000001,0.9500000000000001,16.38,-0.3255184590816498,-0.1091124564409256,-0.03420111909508705,0.011982236057519913,34.6811408996582,24.231334686279297,2.9957659244537354,0.16,-0.02,0.16,247.32
1666744972.97760606,1453287748,1,-0.5700000000000001,0.9500000000000001,16.38,-0.3251592814922333,-0.10881076008081436,-0.03404952585697174,0.012044559232890606,34.67538070678711,24.23154640197754,2.996335744857788,0.16,-0.02,0.16,247.32
1666744973.01262188,1453322764,1,-0.5700000000000001,0.9500000000000001,16.38,-0.3260589838027954,-0.10938932746648788,-0.033970750868320465,0.013709642924368382,34.652610778808594,24.229713439941406,2.997196674346924,0.16,-0.02,0.16,247.32
1666744973.05264306,1453362785,1,-0.5700000000000001,0.9400000000000001,16.37,-0.32720333337783813,-0.11057983338832855,-0.033482883125543594,0.016308553516864777,34.62976837158203,24.22699546813965,2.997718095779419,0.16,-0.02,0.16,247.32
1666744973.07761192,1453387754,1,-0.5700000000000001,0.9400000000000001,16.37,-0.32837343215942383,-0.11097802966833115,-0.03337646275758743,0.015934782102704048,34.615699768066406,24.225149154663086,2.997971534729004,0.16,-0.02,0.16,247.32
1666744973.09257984,1453402722,1,-0.5700000000000001,0.9400000000000001,16.37,-0.32884252071380615,-0.11149556189775467,-0.03309650346636772,0.015384828671813011,34.608055114746094,24.223905563354492,2.997976541519165,0.16,-0.02,0.16,247.32
1666744973.13261390,1453442756,1,-0.5700000000000001,0.9400000000000001,16.36,-0.330631822347641,-0.11306033283472061,-0.033313214778900146,0.011425093747675419,34.587581634521484,24.220556259155273,2.9981541633605957,0.16,-0.02,0.16,247.32
1666744973.17260885,1453482751,1,-0.5700000000000001,0.93,16.36,-0.3322950005531311,-0.11432231962680817,-0.032755445688962936,0.007355059031397104,34.5654182434082,24.217252731323242,2.9981555938720703,0.16,-0.02,0.16,247.32
1666744973.17761207,1453487754,1,-0.5700000000000001,0.93,16.36,-0.33202967047691345,-0.11403733491897583,-0.03266189619898796,0.006689014378935099,34.55940246582031,24.21726417541504,2.9983794689178467,0.16,-0.02,0.16,247.32
1666744973.21264195,1453522784,1,-0.5700000000000001,0.93,16.35,-0.3330721855163574,-0.1148795634508133,-0.03248199447989464,0.0013453689171001315,34.535762786865234,24.214763641357422,2.9983062744140625,0.16,-0.02,0.16,247.32
1666744973.25262594,1453562768,1,-0.5700000000000001,0.92,16.34,-0.33483755588531494,-0.11621975153684616,-0.03225582838058472,-0.003815126372501254,34.512054443359375,24.211400985717773,2.9979867935180664,0.16,-0.02,0.16,247.32
1666744973.27763605,1453587778,1,-0.5700000000000001,0.92,16.34,-0.3358553349971771,-0.11700773239135742,-0.03208790719509125,-0.006890763528645039,34.49745178222656,24.20915412902832,2.9977331161499023,0.16,-0.02,0.16,247.32
1666744973.29266405,1453602806,1,-0.5700000000000001,0.92,16.34,-0.336434543132782,-0.11747480183839798,-0.03214196488261223,-0.008685284294188023,34.489688873291016,24.207752227783203,2.9975171089172363,0.16,-0.02,0.16,247.32
1666744973.33262205,1453642764,1,-0.5700000000000001,0.92,16.330000000000002,-0.3380920886993408,-0.11916650086641312,-0.0321439653635025,-0.013320675119757652,34.46832275390625,24.203792572021484,2.9969711303710938,0.16,-0.02,0.16,247.32
1666744973.37260795,1453682750,1,-0.5700000000000001,0.92,16.32,-0.3396211564540863,-0.11987748742103577,-0.03189210966229439,-0.015391223132610321,34.446014404296875,24.2001895904541,2.996643543243408,0.16,-0.01,0.16,247.32
1666744973.37758493,1453687727,1,-0.5700000000000001,0.91,16.32,-0.33896157145500183,-0.11942654103040695,-0.03177058696746826,-0.014944477938115597,34.44036865234375,24.200305938720703,2.996961832046509,0.16,-0.01,0.16,247.32
1666744973.41265202,1453722794,1,-0.5700000000000001,0.91,16.32,-0.33895063400268555,-0.11981619894504547,-0.0316758006811142,-0.0108450623229146,34.41763687133789,24.197998046875,2.9971325397491455,0.16,-0.01,0.16,247.32
1666744973.45264506,1453762787,1,-0.5700000000000001,0.91,16.31,-0.3395310640335083,-0.12100709229707718,-0.031173476949334145,-0.0059350221417844296,34.394752502441406,24.194780349731445,2.996976375579834,0.16,-0.01,0.16,247.32
1666744973.47758389,1453787726,1,-0.5700000000000001,0.91,16.31,-0.3400016725063324,-0.12167111784219742,-0.030905434861779213,-0.00465964013710618,34.38066864013672,24.192628860473633,2.996828317642212,0.16,-0.01,0.16,247.32
1666744973.49263000,1453802772,1,-0.5700000000000001,0.9,16.31,-0.340471476316452,-0.12180276960134506,-0.03098931349813938,-0.004681723192334175,34.373146057128906,24.191265106201172,2.99666690826416,0.16,-0.01,0.16,247.32
1666744973.53263998,1453842782,1,-0.5700000000000001,0.9,16.3,-0.34154626727104187,-0.12309134006500244,-0.030720073729753494,-0.004927986301481724,34.352481842041016,24.187435150146484,2.9964656829833984,0.16,-0.01,0.16,247.32
1666744973.57258487,1453882727,1,-0.58,0.9,16.3,-0.34259742498397827,-0.12368378043174744,-0.030381644144654274,-0.004016906023025513,34.33055877685547,24.18351173400879,2.996303081512451,0.16,-0.01,0.16,247.32
1666744973.57763505,1453887777,1,-0.58,0.9,16.3,-0.34198084473609924,-0.1232823058962822,-0.030300477519631386,-0.003975058440119028,34.32501983642578,24.183320999145508,2.9965145587921143,0.16,-0.01,0.16,247.32
1666744973.61260891,1453922751,1,-0.58,0.89,16.29,-0.3416336178779602,-0.1238517239689827,-0.03012937679886818,-0.003874440910294652,34.301979064941406,24.179872512817383,2.9964969158172607,0.16,-0.01,0.16,247.32
1666744973.65263200,1453962774,1,-0.58,0.89,16.29,-0.3416999876499176,-0.12446775287389755,-0.029792651534080505,-0.002020064974203706,34.27896499633789,24.175678253173828,2.9964303970336914,0.16,-0.01,0.16,247.32
1666744973.67764902,1453987791,1,-0.58,0.89,16.28,-0.3422470688819885,-0.125327467918396,-0.029835965484380722,-0.0016714485827833414,34.26482391357422,24.172943115234375,2.996328830718994,0.16,-0.01,0.16,247.32
1666744973.69264698,1454002789,1,-0.58,0.88,16.28,-0.3424515128135681,-0.12569046020507812,-0.0299044419080019,-0.0018546575447544456,34.25727081298828,24.17129135131836,2.996190309524536,0.16,-0.01,0.16,247.32
1666744973.73265004,1454042792,1,-0.58,0.88,16.27,-0.343230664730072,-0.12681536376476288,-0.02976343408226967,-0.0034349747002124786,34.2366943359375,24.16672134399414,2.9958584308624268,0.16,-0.01,0.16,247.32
1666744973.77263403,1454082776,1,-0.58,0.88,16.27,-0.3433919847011566,-0.12788552045822144,-0.029558617621660233,-0.004458426497876644,34.21514892578125,24.16276741027832,2.9957919120788574,0.16,-0.01,0.16,247.32
1666744973.77765608,1454087798,1,-0.58,0.88,16.27,-0.3425338864326477,-0.12745410203933716,-0.029418885707855225,-0.003793013747781515,34.2097053527832,24.162940979003906,2.9962103366851807,0.16,-0.01,0.16,247.32
1666744973.81259894,1454122741,1,-0.58,0.87,16.26,-0.34080541133880615,-0.12730346620082855,-0.028930259868502617,0.0021397958043962717,34.18793487548828,24.160795211791992,2.9969050884246826,0.16,-0.01,0.16,247.32
1666744973.85261703,1454162759,1,-0.58,0.87,16.25,-0.34066101908683777,-0.1273496150970459,-0.02865591272711754,0.011352474801242352,34.16596603393555,24.157711029052734,2.997523069381714,0.16,-0.01,0.16,247.32
1666744973.87765598,1454187798,1,-0.58,0.86,16.25,-0.340964138507843,-0.12716791033744812,-0.02858714759349823,0.014947962947189808,34.152626037597656,24.155731201171875,2.997849941253662,0.16,-0.01,0.16,247.32
1666744973.89265203,1454202794,1,-0.58,0.86,16.25,-0.3409987986087799,-0.12748271226882935,-0.02844054438173771,0.0164251197129488,34.14523696899414,24.15435791015625,2.9979002475738525,0.16,-0.01,0.16,247.32
1666744973.93264103,1454242783,1,-0.58,0.86,16.240000000000002,-0.3414543867111206,-0.1285163164138794,-0.028034627437591553,0.0160506758838892,34.12541580200195,24.150672912597656,2.9979984760284424,0.16,-0.01,0.16,247.32
1666744973.97265792,1454282800,1,-0.58,0.85,16.23,-0.34222161769866943,-0.12968561053276062,-0.027535246685147285,0.011517461389303207,34.10682678222656,24.1468563079834,2.9979238510131836,0.16,-0.01,0.16,247.32
1666744973.97765803,1454287800,1,-0.58,0.85,16.23,-0.34088441729545593,-0.12941013276576996,-0.028206145390868187,0.00994319561868906,34.10348129272461,24.146543502807617,2.998080015182495,0.16,-0.01,0.16,247.32
1666744974.01258588,1454322728,1,-0.58,0.85,16.240000000000002,-0.3406490087509155,-0.12818537652492523,-0.02752411551773548,0.005445903167128563,34.079681396484375,24.143953323364258,2.998295307159424,0.16,-0.01,0.16,247.32
1666744974.05261397,1454362756,1,-0.58,0.84,16.240000000000002,-0.34058547019958496,-0.1295294314622879,-0.027879828587174416,0.004528140649199486,34.055965423583984,24.140466690063477,2.998533010482788,0.16,-0.01,0.16,247.32
1666744974.07762790,1454387770,1,-0.58,0.84,16.240000000000002,-0.33978697657585144,-0.13028326630592346,-0.026970524340867996,0.0054620178416371346,34.0413932800293,24.138214111328125,2.9986281394958496,0.16,-0.01,0.16,247.32
1666744974.09261394,1454402756,1,-0.58,0.84,16.23,-0.34002456068992615,-0.1301594376564026,-0.027293721213936806,0.004913283511996269,34.03351974487305,24.136720657348633,2.998582124710083,0.16,-0.01,0.16,247.32
1666744974.13264203,1454442784,1,-0.58,0.8300000000000001,16.22,-0.3421562612056732,-0.1290731132030487,-0.027041412889957428,0.0042454395443201065,34.01264572143555,24.132831573486328,2.9987361431121826,0.16,-0.01,0.16,247.32
1666744974.17263389,1454482776,1,-0.58,0.8300000000000001,16.19,-0.3406125605106354,-0.13294625282287598,-0.026920003816485405,0.0064798085950315,33.99018478393555,24.128446578979492,2.9993398189544678,0.16,-0.01,0.16,247.32
1666744974.17763686,1454487779,1,-0.58,0.8300000000000001,16.19,-0.34030476212501526,-0.13190852105617523,-0.026776401326060295,0.007638435810804367,33.98439407348633,24.127965927124023,3.0000760555267334,0.16,-0.01,0.16,247.32
1666744974.21267390,1454522816,1,-0.58,0.8200000000000001,16.17,-0.34025585651397705,-0.1305876523256302,-0.027183188125491142,0.0182633213698864,33.96125411987305,24.123830795288086,3.0014610290527344,0.16,-0.01,0.16,247.32
1666744974.25262690,1454562769,1,-0.58,0.8200000000000001,16.16,-0.3377269208431244,-0.13271014392375946,-0.02719353698194027,0.02774539403617382,33.93816375732422,24.118867874145508,3.002366542816162,0.16,-0.01,0.16,247.32
1666744974.27764702,1454587789,1,-0.58,0.8200000000000001,16.16,-0.33690905570983887,-0.13140645623207092,-0.026674091815948486,0.030049525201320648,33.92418670654297,24.115774154663086,3.0028631687164307,0.16,-0.01,0.16,247.32
1666744974.29261684,1454602759,1,-0.58,0.8200000000000001,16.16,-0.3352188766002655,-0.1343470960855484,-0.026272622868418694,0.030451541766524315,33.916534423828125,24.113849639892578,3.002997398376465,0.16,-0.01,0.16,247.32
1666744974.33265495,1454642797,1,-0.5700000000000001,0.8,16.17,-0.33848148584365845,-0.13379041850566864,-0.02619875594973564,0.02764596790075302,33.89613342285156,24.10863494873047,3.0035884380340576,0.16,-0.01,0.16,247.32
1666744974.37264991,1454682792,1,-0.54,0.78,16.19,-0.3298434317111969,-0.1372533142566681,-0.02539222501218319,0.024439742788672447,33.87447738647461,24.10407066345215,3.004084825515747,0.16,-0.01,0.16,247.32
1666744974.37764788,1454687790,1,-0.53,0.78,16.2,-0.3276457190513611,-0.13626684248447418,-0.025840651243925095,0.02326279506087303,33.868743896484375,24.104095458984375,3.004425525665283,0.16,-0.01,0.16,247.32
1666744974.41264606,1454722788,1,-0.51,0.77,16.2,-0.32901397347450256,-0.13476821780204773,-0.0259409137070179,0.01836041919887066,33.84634017944336,24.10133934020996,3.0049901008605957,0.16,-0.01,0.16,247.32
1666744974.45265293,1454762795,1,-0.51,0.76,16.19,-0.32425880432128906,-0.13520027697086334,-0.025797082111239433,0.01678272895514965,33.8243293762207,24.09785270690918,3.0056121349334717,0.16,-0.01,0.16,247.32
1666744974.47766995,1454787812,1,-0.52,0.75,16.18,-0.32788363099098206,-0.13318447768688202,-0.02590647153556347,0.01569233648478985,33.81071472167969,24.095504760742188,3.0058956146240234,0.16,-0.01,0.16,247.32
1666744974.49258494,1454802727,1,-0.53,0.74,16.18,-0.33433201909065247,-0.12969692051410675,-0.024596719071269035,0.016100892797112465,33.803226470947266,24.094013214111328,3.005946397781372,0.16,-0.01,0.16,247.32
1666744974.53261304,1454842755,1,-0.51,0.74,16.16,-0.3318358063697815,-0.13251586258411407,-0.03366709500551224,0.004350538831204176,33.783180236816406,24.090099334716797,3.006354808807373,0.16,-0.01,0.16,247.32
1666744974.57265496,1454882797,1,-0.54,0.74,16.17,-0.33946681022644043,-0.13576075434684753,-0.016504602506756783,0.021527893841266632,33.76211929321289,24.08641242980957,3.0071823596954346,0.16,-0.01,0.16,247.32
1666744974.57761407,1454887756,1,-0.52,0.74,16.17,-0.334028035402298,-0.13474026322364807,-0.03519260138273239,0.0036552755627781153,33.75668716430664,24.08656883239746,3.007930040359497,0.16,-0.01,0.16,247.32
1666744974.61263394,1454922776,1,-0.51,0.73,16.18,-0.3290087580680847,-0.14110629260540009,-0.031199553981423378,0.016775814816355705,33.7352409362793,24.084186553955078,3.009523630142212,0.16,-0.01,0.16,247.32
1666744974.65265799,1454962800,1,-0.54,0.75,16.22,-0.33722350001335144,-0.1414719521999359,-0.015812857076525688,0.04099899157881737,33.71366500854492,24.080718994140625,3.0106353759765625,0.16,-0.01,0.16,247.32
1666744974.67761493,1454987757,1,-0.55,0.75,16.240000000000002,-0.3273940086364746,-0.13599877059459686,-0.007266391534358263,0.05122195929288864,33.700496673583984,24.07858657836914,3.011310338973999,0.16,-0.01,0.16,247.32
1666744974.69258904,1455002731,1,-0.54,0.77,16.240000000000002,-0.32465705275535583,-0.1292072981595993,-0.027702974155545235,0.030695881694555283,33.69337844848633,24.07712745666504,3.0115458965301514,0.16,-0.01,0.16,247.32
1666744974.73259592,1455042738,1,-0.48,0.76,16.26,-0.3278012275695801,-0.1319197565317154,-0.02135869488120079,0.03335966542363167,33.67438888549805,24.073434829711914,3.012176036834717,0.16,-0.01,0.16,247.32
1666744974.77261686,1455082759,1,-0.54,0.74,16.26,-0.31842872500419617,-0.12747284770011902,-0.012797687202692032,0.03364219143986702,33.65380859375,24.069753646850586,3.0122764110565186,0.16,0.0,0.16,247.32
1666744974.77762485,1455087767,1,-0.53,0.72,16.25,-0.3228207230567932,-0.1295953392982483,-0.02559109777212143,0.01902110129594803,33.648258209228516,24.069677352905273,3.012256145477295,0.16,0.0,0.16,247.32
1666744974.81262708,1455122769,1,-0.54,0.71,16.25,-0.319362074136734,-0.12951599061489105,-0.02520042099058628,0.003972845152020454,33.62619400024414,24.066539764404297,3.0116469860076904,0.16,0.0,0.16,247.32
1666744974.85264087,1455162783,1,-0.5,0.7000000000000001,16.26,-0.31523770093917847,-0.13833832740783691,-0.020199064165353775,-0.006262386683374643,33.604251861572266,24.06256675720215,3.0109455585479736,0.16,0.0,0.15,247.32
1666744974.87762499,1455187767,1,-0.51,0.72,16.27,-0.3211304843425751,-0.13561339676380157,-0.019109120592474937,-0.012294723652303219,33.5909423828125,24.05997085571289,3.010507583618164,0.16,0.0,0.15,247.32
1666744974.89264703,1455202789,1,-0.55,0.71,16.27,-0.3234683871269226,-0.13562923669815063,-0.013293307274580002,-0.00989431980997324,33.5836181640625,24.058269500732422,3.010206937789917,0.16,0.0,0.15,247.32
1666744974.93260884,1455242751,1,-0.52,0.7000000000000001,16.29,-0.3214423954486847,-0.13510951399803162,-0.02368277497589588,-0.026956573128700256,33.56397247314453,24.053722381591797,3.0093562602996826,0.16,0.0,0.15,247.32
1666744974.97261286,1455282755,1,-0.52,0.71,16.32,-0.3247206211090088,-0.1362946331501007,-0.023329220712184906,-0.03168252855539322,33.54235076904297,24.049541473388672,3.0081748962402344,0.16,0.0,0.15,247.32
1666744974.97761989,1455287762,1,-0.53,0.71,16.32,-0.3246133029460907,-0.13010455667972565,-0.023472405970096588,-0.03280037268996239,33.53615951538086,24.049455642700195,3.0078113079071045,0.16,0.0,0.15,247.32
1666744975.01262903,1455322771,1,-0.5700000000000001,0.72,16.34,-0.3188069462776184,-0.13621562719345093,-0.01915706694126129,-0.036344703286886215,33.5124397277832,24.046358108520508,3.006389617919922,0.16,0.0,0.15,247.32
1666744975.05264688,1455362789,1,-0.54,0.7000000000000001,16.36,-0.32168373465538025,-0.12948012351989746,-0.025895023718476295,-0.04693722352385521,33.48881912231445,24.042522430419922,3.005126714706421,0.16,0.0,0.15,247.32
1666744975.07762504,1455387767,1,-0.52,0.7000000000000001,16.35,-0.31154802441596985,-0.13175682723522186,-0.028593944385647774,-0.04986637458205223,33.474422454833984,24.03998374938965,3.004304885864258,0.16,0.0,0.15,247.32
1666744975.09260702,1455402749,1,-0.52,0.6900000000000001,16.36,-0.3122239410877228,-0.13345126807689667,-0.023304564878344536,-0.044411465525627136,33.4669303894043,24.03839111328125,3.003826141357422,0.16,0.0,0.15,247.32
1666744975.13265491,1455442797,1,-0.53,0.7000000000000001,16.34,-0.320052832365036,-0.1349664032459259,-0.017075611278414726,-0.03701750934123993,33.446468353271484,24.03419303894043,3.0024960041046143,0.16,0.0,0.15,247.32
1666744975.17258906,1455482731,1,-0.51,0.6900000000000001,16.34,-0.31292080879211426,-0.13209480047225952,-0.024598173797130585,-0.042630162090063095,33.424442291259766,24.029939651489258,3.001171350479126,0.16,0.0,0.15,247.32
1666744975.17761707,1455487759,1,-0.5,0.6900000000000001,16.35,-0.313668429851532,-0.1309874802827835,-0.02433605119585991,-0.04208310693502426,33.418697357177734,24.0299129486084,3.000959873199463,0.16,0.0,0.15,247.32
1666744975.21261287,1455522755,1,-0.5,0.68,16.35,-0.31687232851982117,-0.1317405253648758,-0.024221353232860565,-0.03974201902747154,33.395565032958984,24.026826858520508,3.000131368637085,0.16,0.0,0.15,247.32
1666744975.25264192,1455562784,1,-0.52,0.68,16.37,-0.3127387762069702,-0.13380010426044464,-0.023974483832716942,-0.029694922268390656,33.37298583984375,24.02291488647461,2.9997177124023438,0.16,0.0,0.15,247.32
1666744975.27762485,1455587767,1,-0.55,0.68,16.38,-0.3214457929134369,-0.1308334320783615,-0.017638852819800377,-0.01659407652914524,33.358978271484375,24.020418167114258,2.999443292617798,0.16,0.0,0.15,247.32
1666744975.29262996,1455602772,1,-0.54,0.68,16.39,-0.31608307361602783,-0.13001687824726105,-0.016493290662765503,-0.012062042020261288,33.351417541503906,24.018783569335938,2.999227523803711,0.16,0.0,0.15,247.32
1666744975.33265185,1455642794,1,-0.51,0.65,16.39,-0.31708037853240967,-0.13044774532318115,-0.027730708941817284,-0.01713138446211815,33.3316650390625,24.014490127563477,2.998682975769043,0.16,0.0,0.15,247.32
1666744975.37260199,1455682744,1,-0.53,0.67,16.4,-0.31256505846977234,-0.14249055087566376,-0.012939320877194405,0.00170535733923316,33.31011199951172,24.010211944580078,2.9983890056610107,0.16,0.0,0.15,247.32
1666744975.37763786,1455687780,1,-0.52,0.67,16.4,-0.3071451783180237,-0.1365182101726532,-0.030504649505019188,-0.014979459345340729,33.30452346801758,24.010066986083984,2.998680830001831,0.16,0.0,0.15,247.32
1666744975.41263604,1455722778,1,-0.52,0.66,16.39,-0.3170599639415741,-0.13137629628181458,-0.023287305608391762,-0.0006227377452887595,33.28267288208008,24.006866455078125,2.998892307281494,0.16,0.0,0.15,247.32
1666744975.45261407,1455762756,1,-0.5,0.66,16.39,-0.3028472065925598,-0.13585717976093292,-0.024286964908242226,0.004088835325092077,33.260658264160156,24.00284767150879,2.998821973800659,0.16,0.0,0.15,247.32
1666744975.47764087,1455787783,1,-0.49,0.65,16.38,-0.3047789931297302,-0.12946489453315735,-0.02642238140106201,0.003030685242265463,33.247615814208984,24.000329971313477,2.998744010925293,0.16,0.0,0.15,247.32
1666744975.49264407,1455802786,1,-0.51,0.64,16.38,-0.314717561006546,-0.12784436345100403,-0.018864858895540237,0.01065592560917139,33.240379333496094,23.998762130737305,2.9986019134521484,0.16,0.0,0.15,247.32
1666744975.53264499,1455842787,1,-0.52,0.64,16.39,-0.29961755871772766,-0.13379384577274323,-0.02155766449868679,0.005433174781501293,33.221153259277344,23.994436264038086,2.998231887817383,0.16,0.0,0.15,247.32
1666744975.57264805,1455882790,1,-0.52,0.63,16.42,-0.31348028779029846,-0.1325630247592926,-0.021841932088136673,0.0012794105568900704,33.20082473754883,23.99034881591797,2.9978981018066406,0.16,0.0,0.15,247.32
1666744975.57766294,1455887805,1,-0.51,0.63,16.42,-0.31455519795417786,-0.12417609989643097,-0.027211397886276245,-0.00429163035005331,33.19533920288086,23.990278244018555,2.99810528755188,0.16,0.0,0.15,247.32
1666744975.61261606,1455922758,1,-0.48,0.62,16.43,-0.29609739780426025,-0.13469766080379486,-0.027848584577441216,-0.004797796253114939,33.17403793334961,23.987051010131836,2.998093605041504,0.16,0.0,0.15,247.32
1666744975.65261388,1455962756,1,-0.5,0.62,16.43,-0.31100982427597046,-0.1305391639471054,-0.02479998953640461,-0.0019480083137750626,33.15261459350586,23.98310661315918,2.997805595397949,0.16,0.0,0.15,247.32
1666744975.67765307,1455987795,1,-0.48,0.62,16.43,-0.296985000371933,-0.13920332491397858,-0.030854085460305214,-0.009072614833712578,33.13962936401367,23.980527877807617,2.9975619316101074,0.16,0.0,0.15,247.32
1666744975.69269300,1456002835,1,-0.49,0.61,16.43,-0.29971572756767273,-0.13440683484077454,-0.024545159190893173,-0.00364916049875319,33.132816314697266,23.978897094726562,2.997384548187256,0.16,0.0,0.15,247.32
1666744975.73265600,1456042798,1,-0.51,0.61,16.43,-0.30410560965538025,-0.12837687134742737,-0.021756364032626152,-0.004327544942498207,33.113990783691406,23.97480583190918,2.9967739582061768,0.16,0.0,0.15,247.32
1666744975.77261686,1456082759,1,-0.52,0.62,16.42,-0.30137279629707336,-0.13090398907661438,-0.022655891254544258,-0.009207306429743767,33.09379959106445,23.970565795898438,2.996267318725586,0.16,0.0,0.15,247.32
1666744975.77764297,1456087785,1,-0.52,0.61,16.43,-0.30150124430656433,-0.1274440586566925,-0.020688891410827637,-0.0073015643283724785,33.088340759277344,23.970481872558594,2.9964585304260254,0.16,0.0,0.15,247.32
1666744975.81265402,1456122796,1,-0.51,0.62,16.43,-0.30209773778915405,-0.13538557291030884,-0.0260978601872921,-0.011271489784121513,33.06707000732422,23.967548370361328,2.996307134628296,0.16,0.0,0.15,247.32
1666744975.85258508,1456162727,1,-0.48,0.6,16.45,-0.29695791006088257,-0.13255590200424194,-0.018812192603945732,-0.003766340436413884,33.045894622802734,23.963462829589844,2.9958107471466064,0.16,0.0,0.15,247.32
1666744975.87766790,1456187810,1,-0.49,0.6,16.47,-0.29595252871513367,-0.1307201087474823,-0.022400518879294395,-0.008253959007561207,33.033180236816406,23.961021423339844,2.9954683780670166,0.16,0.0,0.15,247.32
1666744975.89261293,1456202755,1,-0.51,0.59,16.47,-0.289783775806427,-0.13471847772598267,-0.0116252601146698,0.0018463358283042908,33.026275634765625,23.959426879882812,2.9952380657196045,0.16,0.0,0.15,247.32
1666744975.93261385,1456242756,1,-0.48,0.59,16.48,-0.2840564250946045,-0.1257544904947281,-0.026412276551127434,-0.016545873135328293,33.00801086425781,23.95517921447754,2.994375228881836,0.16,0.0,0.15,247.32
1666744975.97264600,1456282788,1,-0.48,0.58,16.51,-0.281615674495697,-0.1330876499414444,-0.03073522262275219,-0.02620670199394226,32.988250732421875,23.951236724853516,2.9935271739959717,0.16,0.0,0.15,247.32
1666744975.97765398,1456287796,1,-0.49,0.56,16.5,-0.2906685471534729,-0.12427178770303726,-0.020503727719187737,-0.016213783994317055,32.982784271240234,23.95115852355957,2.9935669898986816,0.16,0.0,0.15,247.32
1666744976.01267791,1456322820,1,-0.49,0.54,16.52,-0.2886795997619629,-0.1256559044122696,-0.022157706320285797,-0.017384842038154602,32.961734771728516,23.94820213317871,2.9931137561798096,0.16,0.0,0.15,247.32
1666744976.05261588,1456362758,1,-0.47000000000000003,0.59,16.54,-0.2905837297439575,-0.13360926508903503,-0.016735326498746872,-0.012757488526403904,32.94073486328125,23.944364547729492,2.9922256469726562,0.16,0.0,0.14,247.32
1666744976.07760191,1456387744,1,-0.46,0.5700000000000001,16.55,-0.28583961725234985,-0.13333411514759064,-0.018130963668227196,-0.015448047779500484,32.92812728881836,23.941923141479492,2.9916880130767822,0.16,0.0,0.14,247.32
1666744976.09258604,1456402728,1,-0.45,0.55,16.57,-0.28284937143325806,-0.13036701083183289,-0.024340033531188965,-0.022468339651823044,32.92129898071289,23.94029998779297,2.9913289546966553,0.16,0.0,0.14,247.32
1666744976.13261294,1456442755,1,-0.43,0.54,16.61,-0.28865110874176025,-0.13186584413051605,-0.017674002796411514,-0.018154604360461235,32.90299987792969,23.936033248901367,2.9902923107147217,0.16,0.0,0.14,247.32
1666744976.17264795,1456482790,1,-0.43,0.54,16.65,-0.2823343575000763,-0.13500885665416718,-0.029747799038887024,-0.033290132880210876,32.88312530517578,23.932056427001953,2.9891040325164795,0.16,0.0,0.14,247.32
1666744976.17762494,1456487767,1,-0.45,0.54,16.66,-0.288244366645813,-0.13354718685150146,-0.019881268963217735,-0.02403401955962181,32.87750244140625,23.931989669799805,2.988804817199707,0.16,0.0,0.14,247.32
1666744976.21265292,1456522795,1,-0.46,0.52,16.68,-0.27833250164985657,-0.1252453625202179,-0.0393938347697258,-0.048368263989686966,32.85611343383789,23.929216384887695,2.987421751022339,0.16,0.0,0.14,247.32
1666744976.25264692,1456562789,1,-0.46,0.53,16.72,-0.27258628606796265,-0.12483564764261246,-0.03859766572713852,-0.05320724472403526,32.83512878417969,23.92567253112793,2.9858617782592773,0.16,0.0,0.14,247.32
1666744976.27761793,1456587760,1,-0.47000000000000003,0.53,16.740000000000002,-0.27621129155158997,-0.11557485908269882,-0.017848540097475052,-0.034970756620168686,32.82235336303711,23.923418045043945,2.9848670959472656,0.16,0.0,0.14,247.32
1666744976.29264903,1456602791,1,-0.52,0.53,16.75,-0.2722274363040924,-0.12373226135969162,-0.031082121655344963,-0.049138590693473816,32.815643310546875,23.9219913482666,2.9843358993530273,0.16,0.0,0.14,247.32
1666744976.33260608,1456642748,1,-0.48,0.53,16.78,-0.2721844017505646,-0.12379560619592667,-0.03366704657673836,-0.05331626906991005,32.79731750488281,23.91803550720215,2.982715129852295,0.16,0.0,0.14,247.32
1666744976.37261295,1456682755,1,-0.44,0.54,16.830000000000002,-0.2787139415740967,-0.1259196549654007,-0.025007374584674835,-0.046747803688049316,32.77656936645508,23.914169311523438,2.9808058738708496,0.16,0.0,0.14,247.32
1666744976.37762499,1456687767,1,-0.43,0.54,16.830000000000002,-0.27377086877822876,-0.1337837427854538,-0.024993853643536568,-0.04733932018280029,32.769927978515625,23.91408920288086,2.980264663696289,0.16,0.0,0.14,247.32
1666744976.41264796,1456722790,1,-0.45,0.53,16.86,-0.2759605646133423,-0.1313214898109436,-0.036152102053165436,-0.06398829072713852,32.745880126953125,23.9111328125,2.9779515266418457,0.16,0.0,0.14,247.32
1666744976.45265102,1456762793,1,-0.44,0.52,16.91,-0.2750195860862732,-0.11708343029022217,-0.02277059108018875,-0.060662947595119476,32.722469329833984,23.907533645629883,2.9752330780029297,0.16,0.0,0.14,247.32
1666744976.47761703,1456787759,1,-0.47000000000000003,0.52,16.94,-0.2724269926548004,-0.12166029214859009,-0.030955346301198006,-0.07380510866641998,32.708213806152344,23.905282974243164,2.973616123199463,0.16,0.0,0.14,247.32
1666744976.49265599,1456802798,1,-0.48,0.52,16.96,-0.27412453293800354,-0.12208306044340134,-0.025931883603334427,-0.07070408016443253,32.7007942199707,23.903911590576172,2.9727823734283447,0.16,0.0,0.14,247.32
1666744976.53259301,1456842735,1,-0.44,0.52,17.0,-0.27412983775138855,-0.11715202033519745,-0.030011774972081184,-0.07761488109827042,32.680450439453125,23.90001678466797,2.970120668411255,0.16,0.0,0.13,247.32
1666744976.57265401,1456882796,1,-0.44,0.51,17.05,-0.27444759011268616,-0.12828759849071503,-0.015599576756358147,-0.06302746385335922,32.65776062011719,23.895824432373047,2.967888593673706,0.16,0.0,0.13,247.32
1666744976.57759500,1456887737,1,-0.45,0.51,17.04,-0.2744731307029724,-0.11577319353818893,-0.0334169939160347,-0.07990610599517822,32.650272369384766,23.895288467407227,2.9676032066345215,0.16,0.0,0.13,247.32
1666744976.61261702,1456922759,1,-0.41000000000000003,0.53,17.07,-0.2751203775405884,-0.11918937414884567,-0.03426382318139076,-0.07128733396530151,32.62432098388672,23.891380310058594,2.9661295413970947,0.16,0.0,0.13,247.32
1666744976.65265203,1456962794,1,-0.48,0.48,17.13,-0.276774138212204,-0.13410848379135132,-0.02057972550392151,-0.04956017807126045,32.599117279052734,23.886701583862305,2.9642810821533203,0.16,0.0,0.13,247.32
1666744976.67758894,1456987731,1,-0.48,0.49,17.14,-0.2694928050041199,-0.12493138015270233,-0.030479561537504196,-0.05598364770412445,32.583736419677734,23.883840560913086,2.9630515575408936,0.16,0.0,0.13,247.32
1666744976.69263601,1457002778,1,-0.47000000000000003,0.49,17.14,-0.27026382088661194,-0.12221895158290863,-0.023262470960617065,-0.047184057533741,32.57568359375,23.882089614868164,2.9624006748199463,0.16,0.0,0.13,247.32
1666744976.73265004,1457042792,1,-0.45,0.46,17.17,-0.2673502564430237,-0.11466033011674881,-0.038769159466028214,-0.059613849967718124,32.55425262451172,23.877599716186523,2.960475444793701,0.16,0.0,0.13,247.32
1666744976.77259398,1457082736,1,-0.44,0.44,17.22,-0.2703843414783478,-0.12086950242519379,-0.02781347744166851,-0.04772580415010452,32.53080368041992,23.873355865478516,2.958240509033203,0.16,0.0,0.13,247.32
1666744976.77762604,1457087768,1,-0.44,0.41000000000000003,17.22,-0.25788870453834534,-0.10550179332494736,-0.03413049131631851,-0.05434228479862213,32.52349853515625,23.873077392578125,2.957674264907837,0.16,0.0,0.13,247.32
1666744976.81262493,1457122767,1,-0.4,0.36,17.240000000000002,-0.26385900378227234,-0.11431462317705154,-0.03803399205207825,-0.06234411150217056,32.49799346923828,23.870012283325195,2.9552981853485107,0.16,0.0,0.13,247.32
1666744976.85258698,1457162729,1,-0.37,0.31,17.27,-0.25616884231567383,-0.11609290540218353,-0.04371476173400879,-0.07376385480165482,32.473594665527344,23.866456985473633,2.9526124000549316,0.16,0.0,0.13,247.32
1666744976.87765193,1457187794,1,-0.3,0.27,17.29,-0.25145480036735535,-0.11815857887268066,-0.051062874495983124,-0.08298977464437485,32.45890808105469,23.86429214477539,2.9508163928985596,0.16,0.0,0.13,247.32
1666744976.89264607,1457202788,1,-0.38,0.25,17.3,-0.25561878085136414,-0.10776714235544205,-0.04307834059000015,-0.07539423555135727,32.451026916503906,23.862865447998047,2.949718952178955,0.16,0.0,0.13,247.32
1666744976.93265295,1457242795,1,-0.38,0.19,17.330000000000002,-0.2445490062236786,-0.10154708474874496,-0.04683395475149155,-0.08022323995828629,32.430233001708984,23.85947036743164,2.9462177753448486,0.16,0.0,0.13,247.32
1666744976.97265100,1457282793,1,-0.29,0.12,17.38,-0.23724965751171112,-0.08685318380594254,-0.06774140149354935,-0.10287375748157501,32.40725326538086,23.85671043395996,2.94203519821167,0.16,0.0,0.12,247.32
1666744976.97765398,1457287796,1,-0.23,0.04,17.39,-0.2530653774738312,-0.08461160957813263,-0.10649117827415466,-0.14177286624908447,32.399959564208984,23.85700798034668,2.9411251544952393,0.16,0.0,0.12,247.32
1666744977.01258492,1457322727,1,-0.03,0.06,17.400000000000002,-0.238414466381073,-0.08208096027374268,-0.1253095120191574,-0.16163869202136993,32.37442398071289,23.85590171813965,2.936382532119751,0.16,0.0,0.12,247.32
1666744977.05261588,1457362758,1,0.23,0.07,17.42,-0.24540559947490692,-0.08587243407964706,-0.15103782713413239,-0.19048911333084106,32.349979400634766,23.8543701171875,2.9298176765441895,0.16,0.0,0.12,247.32
1666744977.07765007,1457387792,1,0.35000000000000003,0.01,17.43,-0.24730849266052246,-0.07511355727910995,-0.16143228113651276,-0.20241376757621765,32.335205078125,23.853487014770508,2.925110101699829,0.16,0.0,0.12,247.32
1666744977.09264994,1457402792,1,0.51,0.03,17.45,-0.23907870054244995,-0.07828915864229202,-0.17974214255809784,-0.22119422256946564,32.327674865722656,23.852943420410156,2.9222536087036133,0.16,0.0,0.12,247.32
1666744977.13264990,1457442792,1,0.79,0.07,17.45,-0.24036380648612976,-0.07504094392061234,-0.21014796197414398,-0.25202271342277527,32.30712127685547,23.85177230834961,2.913146495819092,0.16,0.0,0.12,247.32
1666744977.17264986,1457482792,1,0.9500000000000001,0.08,17.46,-0.2424088418483734,-0.06435474008321762,-0.24989038705825806,-0.29304200410842896,32.28809356689453,23.850839614868164,2.9027225971221924,0.16,0.0,0.12,247.32
1666744977.17764091,1457487783,1,0.97,0.08,17.47,-0.2344081699848175,-0.038545724004507065,-0.22047632932662964,-0.2635633945465088,32.28407287597656,23.850988388061523,2.901055097579956,0.16,0.0,0.12,247.32
1666744977.21263194,1457522774,1,1.18,0.13,17.46,-0.23627986013889313,-0.04875953122973442,-0.2776607871055603,-0.3189428448677063,32.25757598876953,23.851093292236328,2.890364408493042,0.16,0.0,0.12,247.32
1666744977.25262785,1457562770,1,1.31,0.03,17.45,-0.22087882459163666,-0.02154424786567688,-0.2930130362510681,-0.3448880612850189,32.23224639892578,23.851240158081055,2.875877857208252,0.16,0.0,0.12,247.32
1666744977.27765608,1457587798,1,1.51,-0.02,17.45,-0.21092738211154938,-0.019550347700715065,-0.3108576536178589,-0.3699784278869629,32.217063903808594,23.85162925720215,2.866225242614746,0.16,0.0,0.12,247.32
1666744977.29261589,1457602758,1,1.43,-0.16,17.45,-0.21064935624599457,-0.009395156055688858,-0.34675464034080505,-0.40938130021095276,32.209136962890625,23.85186195373535,2.860196113586426,0.16,0.0,0.12,247.32
1666744977.33264303,1457642785,1,1.56,-0.27,17.43,-0.23386847972869873,-0.007983199320733547,-0.3566811680793762,-0.42730748653411865,32.1879997253418,23.85296058654785,2.842686891555786,0.16,0.0,0.12,247.32
1666744977.37262797,1457682770,1,1.67,-0.24,17.42,-0.23952902853488922,0.013836510479450226,-0.4035995602607727,-0.4846102297306061,32.165809631347656,23.854761123657227,2.8239009380340576,0.16,0.0,0.12,247.32
1666744977.37764597,1457687788,1,1.83,-0.21,17.43,-0.2205207794904709,0.04285763204097748,-0.38885432481765747,-0.47037187218666077,32.15924835205078,23.855363845825195,2.821221113204956,0.16,0.0,0.12,247.32
1666744977.41264606,1457722788,1,1.7,-0.2,17.39,-0.23697222769260406,0.03874629735946655,-0.4189852476119995,-0.5011653900146484,32.13619613647461,23.857641220092773,2.804065227508545,0.16,0.0,0.12,247.32
1666744977.45258594,1457762728,1,1.6400000000000001,-0.19,17.39,-0.22750015556812286,0.06267337501049042,-0.43277639150619507,-0.5191025137901306,32.114139556884766,23.86044692993164,2.7837090492248535,0.16,0.0,0.11,247.32
1666744977.47766304,1457787805,1,1.34,-0.22,17.38,-0.22187837958335876,0.056574609130620956,-0.4487885534763336,-0.5358251929283142,32.10114288330078,23.862300872802734,2.771106481552124,0.16,0.0,0.11,247.32
1666744977.49261403,1457802756,1,1.28,-0.15,17.37,-0.22692909836769104,0.050330374389886856,-0.4533885717391968,-0.5401211977005005,32.09422302246094,23.863500595092773,2.7632107734680176,0.16,0.0,0.11,247.32
1666744977.53260994,1457842752,1,0.68,-0.1,17.330000000000002,-0.22131215035915375,0.06723873317241669,-0.46752479672431946,-0.5478274822235107,32.07593536376953,23.86684799194336,2.7424159049987793,0.16,0.0,0.11,247.32
1666744977.57263994,1457882782,1,0.09,0.0,17.29,-0.21401430666446686,0.06956550478935242,-0.5037633776664734,-0.5691099166870117,32.05760192871094,23.87023162841797,2.7214150428771973,0.16,0.0,0.11,247.32
1666744977.57765508,1457887797,1,-0.03,-0.04,17.28,-0.19609126448631287,0.08318732678890228,-0.49518731236457825,-0.557539701461792,32.052528381347656,23.870582580566406,2.7189741134643555,0.16,0.0,0.11,247.32
1666744977.61264586,1457922788,1,-0.5,0.21,17.26,-0.2054133415222168,0.08237755298614502,-0.5157407522201538,-0.553156852722168,32.034420013427734,23.873207092285156,2.7009780406951904,0.16,0.0,0.11,247.32
1666744977.65264392,1457962786,1,-0.99,0.44,17.22,-0.2010035216808319,0.08632505685091019,-0.5145094990730286,-0.526699423789978,32.017024993896484,23.87639808654785,2.6802890300750732,0.16,0.0,0.11,247.32
1666744977.67761707,1457987759,1,-1.27,0.62,17.2,-0.19496333599090576,0.0782124474644661,-0.5142872333526611,-0.5146481394767761,32.00651168823242,23.87837028503418,2.6671035289764404,0.16,0.0,0.11,247.32
1666744977.69262695,1458002769,1,-1.34,0.75,17.18,-0.19486649334430695,0.09386228770017624,-0.5132663249969482,-0.5081835389137268,32.001014709472656,23.879552841186523,2.659274101257324,0.16,0.0,0.11,247.32
1666744977.73262405,1458042766,1,-1.56,1.09,17.11,-0.19015641510486603,0.08734165132045746,-0.5202764868736267,-0.5032490491867065,31.986482620239258,23.882579803466797,2.639155626296997,0.16,0.0,0.11,247.32
1666744977.77263784,1458082780,1,-1.7,1.44,17.07,-0.17924927175045013,0.08127487450838089,-0.5252239108085632,-0.49702805280685425,31.96976661682129,23.885013580322266,2.619499683380127,0.16,0.0,0.11,247.32
1666744977.77763486,1458087777,1,-1.59,1.49,17.07,-0.2013828307390213,0.0695817768573761,-0.5157328844070435,-0.4865919351577759,31.9639835357666,23.884994506835938,2.6171281337738037,0.16,0.0,0.11,247.32
1666744977.81264496,1458122787,1,-1.69,1.6600000000000001,17.01,-0.19077135622501373,0.06963762640953064,-0.5260279178619385,-0.49357643723487854,31.944120407104492,23.88617706298828,2.599973201751709,0.16,0.0,0.11,247.32
1666744977.85264993,1458162792,1,-1.69,1.76,16.95,-0.18682104349136353,0.04994933679699898,-0.5375232696533203,-0.49662071466445923,31.92519187927246,23.887434005737305,2.580470561981201,0.16,0.0,0.11,247.32
1666744977.87762403,1458187766,1,-1.73,1.69,16.94,-0.18864618241786957,0.049512606114149094,-0.5408883094787598,-0.49536001682281494,31.91376304626465,23.88800621032715,2.567882776260376,0.16,0.0,0.11,247.32
1666744977.89264393,1458202786,1,-1.72,1.6400000000000001,16.92,-0.17958968877792358,0.0445086769759655,-0.5243608951568604,-0.47699713706970215,31.908002853393555,23.888334274291992,2.5606956481933594,0.16,0.0,0.11,247.32
1666744977.93259406,1458242736,1,-1.51,1.43,16.87,-0.18025746941566467,0.04495847970247269,-0.5310105085372925,-0.47903645038604736,31.891963958740234,23.889102935791016,2.5406134128570557,0.16,0.0,0.1,247.32
1666744977.97261190,1458282754,1,-1.2,1.27,16.830000000000002,-0.18752597272396088,0.04174359142780304,-0.5347463488578796,-0.4754008650779724,31.875028610229492,23.88886070251465,2.521552324295044,0.16,0.0,0.1,247.32
1666744977.97761798,1458287760,1,-1.21,1.22,16.82,-0.19195443391799927,0.02258814126253128,-0.5296658873558044,-0.4686567187309265,31.869953155517578,23.887962341308594,2.519993782043457,0.16,0.0,0.1,247.32
1666744978.01265192,1458322794,1,-0.85,1.1400000000000001,16.78,-0.1917106807231903,0.03397216647863388,-0.5339342951774597,-0.4607868492603302,31.851943969726562,23.886173248291016,2.504366874694824,0.16,0.0,0.1,247.32
1666744978.05263090,1458362773,1,-0.46,1.07,16.73,-0.19385719299316406,0.027711808681488037,-0.5086422562599182,-0.423679381608963,31.83456039428711,23.884689331054688,2.486299991607666,0.16,0.0,0.1,247.32
1666744978.07758689,1458387729,1,-0.27,1.08,16.69,-0.1972234696149826,0.016607722267508507,-0.507942259311676,-0.4198676645755768,31.82394027709961,23.883747100830078,2.474978446960449,0.16,0.0,0.1,247.32
1666744978.09264493,1458402787,1,-0.14,1.09,16.68,-0.19849902391433716,0.02362207882106304,-0.5009583830833435,-0.412556529045105,31.81842613220215,23.883365631103516,2.468312978744507,0.16,0.0,0.1,247.32
1666744978.13262296,1458442765,1,0.07,1.18,16.63,-0.19522017240524292,0.01513402909040451,-0.49786466360092163,-0.4071195721626282,31.80339241027832,23.882152557373047,2.451918601989746,0.16,0.0,0.1,247.32
1666744978.17260003,1458482742,1,0.19,1.41,16.580000000000002,-0.20162078738212585,0.0165090449154377,-0.4961818754673004,-0.39052850008010864,31.78793716430664,23.87967300415039,2.4367282390594482,0.16,0.0,0.1,247.32
1666744978.17759490,1458487737,1,0.17,1.49,16.57,-0.20243610441684723,0.015605675056576729,-0.48646312952041626,-0.37737634778022766,31.7840633392334,23.877792358398438,2.4363975524902344,0.16,0.0,0.1,247.32
1666744978.21261787,1458522760,1,0.26,1.74,16.54,-0.20379304885864258,0.020411940291523933,-0.47763922810554504,-0.3433729410171509,31.769128799438477,23.87310028076172,2.4262890815734863,0.16,0.0,0.1,247.32
1666744978.25265503,1458562797,1,0.4,1.93,16.52,-0.20810122787952423,0.025340905413031578,-0.4699338972568512,-0.2866065204143524,31.754369735717773,23.869178771972656,2.4156253337860107,0.16,0.0,0.1,247.32
1666744978.27761292,1458587755,1,0.44,1.97,16.5,-0.21255764365196228,0.03374354541301727,-0.47987663745880127,-0.27226170897483826,31.74545669555664,23.866844177246094,2.4090757369995117,0.16,0.0,0.1,247.32
1666744978.29263186,1458602774,1,0.49,2.02,16.5,-0.2164364755153656,0.0349513404071331,-0.44925209879875183,-0.23084700107574463,31.740554809570312,23.8658447265625,2.404529571533203,0.16,0.0,0.1,247.32
1666744978.33264899,1458642791,1,0.48,2.04,16.48,-0.22431282699108124,0.04019758105278015,-0.43076008558273315,-0.19596824049949646,31.72749137878418,23.863067626953125,2.394831418991089,0.16,0.0,0.1,247.32
1666744978.37262893,1458682771,1,0.62,2.0100000000000002,16.490000000000002,-0.23090679943561554,0.03606930375099182,-0.4046633839607239,-0.16047167778015137,31.710792541503906,23.860794067382812,2.385519027709961,0.16,0.0,0.1,247.32
1666744978.37763095,1458687773,1,0.65,2.04,16.48,-0.22331872582435608,0.03586412966251373,-0.43248888850212097,-0.1879311501979828,31.704633712768555,23.859827041625977,2.3857336044311523,0.16,0.0,0.1,247.32
1666744978.41261292,1458722755,1,0.76,1.98,16.47,-0.23583142459392548,0.03545814007520676,-0.4106586277484894,-0.17381401360034943,31.683290481567383,23.85789680480957,2.37833571434021,0.16,0.0,0.1,247.32
1666744978.45261502,1458762757,1,0.8200000000000001,1.94,16.48,-0.2503860294818878,0.0441063717007637,-0.4065626859664917,-0.1844528317451477,31.662216186523438,23.8566837310791,2.3684680461883545,0.16,0.0,0.09,247.32
1666744978.47766089,1458787803,1,0.78,1.9100000000000001,16.490000000000002,-0.25684255361557007,0.05340021103620529,-0.40101706981658936,-0.1940474510192871,31.64931297302246,23.856124877929688,2.36232590675354,0.16,0.0,0.09,247.32
1666744978.49264693,1458802789,1,0.91,1.93,16.490000000000002,-0.2603689730167389,0.06058153137564659,-0.39877280592918396,-0.2016838639974594,31.642356872558594,23.856082916259766,2.3581106662750244,0.16,0.0,0.09,247.32
1666744978.53265905,1458842801,1,0.15,1.99,159.76,-0.2537461221218109,0.04984692111611366,-0.38002270460128784,-0.21528537571430206,31.623615264892578,23.85606575012207,2.3468124866485596,0.16,0.0,0.09,247.32
1666744978.57264304,1458882785,1,0.22,1.96,159.77,-0.24567104876041412,0.04657011106610298,-0.37161096930503845,-0.24439936876296997,31.601226806640625,23.855377197265625,2.3358283042907715,0.16,0.0,0.09,247.32
1666744978.57765293,1458887795,1,0.25,1.9100000000000001,159.78,-0.25269803404808044,0.03849412873387337,-0.35800811648368835,-0.23422934114933014,31.592954635620117,23.854183197021484,2.3355937004089355,0.16,0.0,0.09,247.32
1666744978.61260486,1458922747,1,0.4,1.9100000000000001,159.79,-0.23742759227752686,0.03712534159421921,-0.3575778007507324,-0.2506590783596039,31.565196990966797,23.851593017578125,2.3275563716888428,0.16,0.0,0.09,247.32
1666744978.65261197,1458962754,1,0.72,1.9000000000000001,159.79,-0.22946904599666595,0.017912328243255615,-0.32283690571784973,-0.22260060906410217,31.539417266845703,23.84872817993164,2.318291425704956,0.16,0.0,0.09,247.32
1666744978.67765594,1458987798,1,0.99,1.86,159.78,-0.21841193735599518,0.013241824693977833,-0.3270891308784485,-0.23065851628780365,31.524211883544922,23.846439361572266,2.3126208782196045,0.16,0.0,0.09,247.32
1666744978.69259501,1459002737,1,1.1,1.84,159.78,-0.22406244277954102,-0.007159878965467215,-0.31492477655410767,-0.2205374389886856,31.5164794921875,23.845178604125977,2.3089146614074707,0.16,0.0,0.09,247.32
1666744978.73263693,1459042779,1,1.41,1.81,159.77,-0.21245117485523224,-0.028889182955026627,-0.309439480304718,-0.22219610214233398,31.49616813659668,23.840967178344727,2.2995119094848633,0.16,0.0,0.09,247.32
1666744978.77262497,1459082767,1,1.61,1.79,159.77,-0.20222651958465576,-0.042615342885255814,-0.3211885690689087,-0.23864886164665222,31.472734451293945,23.835651397705078,2.290417432785034,0.16,0.0,0.09,247.32
1666744978.77766895,1459087811,1,1.6300000000000001,1.77,159.78,-0.2004155069589615,-0.04845573380589485,-0.3145519495010376,-0.2316591888666153,31.463716506958008,23.833906173706055,2.2903738021850586,0.16,0.0,0.09,247.32
1666744978.81265306,1459122795,1,1.61,1.76,159.79,-0.19424240291118622,-0.05347350239753723,-0.3116246163845062,-0.22367225587368011,31.435138702392578,23.827558517456055,2.284111976623535,0.16,0.0,0.09,247.32
1666744978.85258389,1459162726,1,1.29,1.69,159.83,-0.18901237845420837,-0.07049664855003357,-0.29908284544944763,-0.1989312469959259,31.40867042541504,23.820419311523438,2.276390552520752,0.16,0.0,0.09,247.32
1666744978.87764502,1459187787,1,1.06,1.6400000000000001,159.85,-0.18772616982460022,-0.0829152837395668,-0.2963373363018036,-0.1922600418329239,31.393028259277344,23.81557846069336,2.2717461585998535,0.16,0.0,0.09,247.32
1666744978.89261198,1459202754,1,0.81,1.59,159.88,-0.18602560460567474,-0.08267294615507126,-0.28363537788391113,-0.17831431329250336,31.385143280029297,23.812877655029297,2.2686076164245605,0.16,0.0,0.09,247.32
1666744978.93264699,1459242789,1,0.29,1.45,159.94,-0.19215422868728638,-0.09524678438901901,-0.2728794813156128,-0.1692504584789276,31.36398696899414,23.804885864257812,2.261263847351074,0.16,0.0,0.09,247.32
1666744978.97264791,1459282790,1,-0.21,1.28,160.02,-0.1965460330247879,-0.11298174411058426,-0.2578643262386322,-0.15715688467025757,31.339086532592773,23.795169830322266,2.2542247772216797,0.16,0.0,0.09,247.32
1666744978.97766304,1459287805,1,-0.28,1.25,160.02,-0.17808210849761963,-0.11630428582429886,-0.26885727047920227,-0.16867698729038239,31.329082489013672,23.791973114013672,2.2542037963867188,0.16,0.0,0.09,247.32
1666744979.01265001,1459322792,1,-0.73,1.06,160.1,-0.19591586291790009,-0.12971514463424683,-0.25045087933540344,-0.15340715646743774,31.297649383544922,23.78036880493164,2.248879909515381,0.16,0.0,0.09,247.32
1666744979.05263996,1459362782,1,-1.12,0.87,160.23,-0.19126099348068237,-0.12770353257656097,-0.2556024491786957,-0.1551990807056427,31.268457412719727,23.76861572265625,2.242856979370117,0.16,0.0,0.09,247.32
1666744979.07762384,1459387766,1,-1.45,0.74,160.33,-0.19028745591640472,-0.1250762939453125,-0.24743787944316864,-0.1464109718799591,31.250810623168945,23.761188507080078,2.2390334606170654,0.16,0.0,0.09,247.32
1666744979.09261799,1459402760,1,-1.62,0.68,160.38,-0.1811790019273758,-0.11764988303184509,-0.23742517828941345,-0.13680799305438995,31.241954803466797,23.757280349731445,2.2365050315856934,0.16,0.0,0.09,247.32
