timestamp,TimeUS,I,Status,GMS,GWk,NSats,HDop,Lat,Lng,Alt,Spd,GCrs,VZ,Yaw,U
1667404645.39899993,98033446,0,3,316663399,2234,14,0.8300000000000001,42.7285854,-84.4847489,262.89,0.02376973070204258,112.24901580810547,-0.02800000086426735,0.0,1
1667404645.57939887,98213845,0,3,316663599,2234,14,0.8300000000000001,42.7285855,-84.4847489,262.92,0.02340940199792385,340.01690673828125,0.032999999821186066,0.0,1
1667404645.79901195,98433458,0,3,316663799,2234,14,0.8300000000000001,42.7285855,-84.4847489,262.95,0.0036055513191968203,213.69007873535156,-0.036000002175569534,0.0,1
1667404645.99901080,98633457,0,3,316663999,2234,14,0.8300000000000001,42.7285855,-84.4847489,262.99,0.03176476061344147,118.17857360839844,-0.08400000631809235,0.0,1
1667404646.19893575,98833382,0,3,316664199,2234,13,0.8300000000000001,42.7285855,-84.48474879999999,263.03000000000003,0.02690725028514862,318.0127868652344,0.03200000151991844,0.0,1
1667404646.39891791,99033364,0,3,316664399,2234,13,0.8300000000000001,42.7285855,-84.48474879999999,263.04,0.017464250326156616,166.7594757080078,-0.0820000022649765,0.0,1
1667404646.59902787,99233474,0,3,316664599,2234,13,0.8300000000000001,42.7285854,-84.48474879999999,263.09000000000003,0.023194829002022743,262.568603515625,0.05700000375509262,0.0,1
1667404646.79896784,99433414,0,3,316664799,2234,13,0.8300000000000001,42.7285855,-84.48474879999999,263.08,0.04143669828772545,81.67434692382812,-0.015000000596046448,0.0,1
1667404646.97933793,99613784,0,3,316664999,2234,14,0.8300000000000001,42.7285855,-84.4847487,263.12,0.0070710680447518826,188.13011169433594,0.004000000189989805,0.0,1
1667404647.19902492,99833471,0,3,316665199,2234,14,0.81,42.7285855,-84.4847487,263.14,0.022561030462384224,167.1957244873047,0.014000000432133675,0.0,1
1667404647.39902377,100033470,0,3,316665399,2234,14,0.81,42.7285855,-84.4847487,263.15,0.012806248851120472,38.65980529785156,-0.0430000014603138,0.0,1
1667404647.59900784,100233454,0,3,316665599,2234,14,0.81,42.7285855,-84.4847487,263.17,0.012529964558780193,28.610454559326172,-0.020000001415610313,0.0,1
1667404647.79893184,100433378,0,3,316665799,2234,14,0.81,42.7285855,-84.4847486,263.19,0.014000000432133675,0.0,0.01100000087171793,0.0,1
1667404647.99897790,100633424,0,3,316665999,2234,14,0.81,42.7285855,-84.4847486,263.22,0.014317821711301804,282.0947570800781,0.017000000923871994,0.0,1
1667404648.19903588,100833482,0,3,316666199,2234,12,0.89,42.7285855,-84.4847487,263.22,0.011704700998961926,160.0168914794922,-0.03500000014901161,0.0,1
1667404648.37931490,101013761,0,3,316666399,2234,12,0.89,42.728585599999995,-84.48474879999999,263.18,0.01612451672554016,299.744873046875,0.06100000441074371,0.0,1
1667404648.59902596,101233472,0,3,316666599,2234,12,0.89,42.7285857,-84.48474879999999,263.16,0.00412310566753149,75.96375274658203,0.004000000189989805,0.0,1
1667404648.79901576,101433462,0,3,316666799,2234,12,0.89,42.7285857,-84.4847489,263.13,0.03705401346087456,183.0940704345703,-0.06800000369548798,0.0,1
1667404648.99906182,101633508,0,3,316666999,2234,12,0.89,42.7285857,-84.4847489,263.11,0.01726267673075199,169.99200439453125,-0.06800000369548798,0.0,1
1667404649.19903374,101833480,0,3,316667199,2234,12,0.89,42.7285858,-84.484749,263.1,0.02163330838084221,236.3099365234375,-0.005000000353902578,0.0,1
1667404649.39901280,102033459,0,3,316667399,2234,12,0.89,42.7285858,-84.484749,263.08,0.023345235735177994,136.73568725585938,-0.052000001072883606,0.0,1
1667404649.59901977,102233466,0,3,316667599,2234,12,0.89,42.7285859,-84.4847491,263.05,0.018027756363153458,33.690067291259766,-0.0430000014603138,0.0,1
1667404649.79906797,102433514,0,3,316667799,2234,12,0.89,42.7285859,-84.4847491,263.03000000000003,0.02140093594789505,232.59466552734375,-0.005000000353902578,0.0,1
1667404649.99898291,102633429,0,3,316667999,2234,12,0.89,42.728586,-84.4847492,263.0,0.008944272063672543,153.43495178222656,-0.09200000762939453,0.0,1
1667404650.19901586,102833462,0,3,316668199,2234,12,0.89,42.728586,-84.4847492,262.99,0.00412310566753149,255.96377563476562,-0.11300000548362732,0.0,1
1667404650.39900494,103033451,0,3,316668399,2234,12,0.89,42.728586,-84.4847492,262.98,0.019723083823919296,210.46556091308594,-0.007000000216066837,0.0,1
1667404650.59904194,103233488,0,3,316668599,2234,12,0.89,42.728586,-84.48474929999999,262.95,0.012369317002594471,345.9637451171875,-0.04000000283122063,0.0,1
1667404650.79904985,103433496,0,3,316668799,2234,12,0.89,42.728586,-84.48474929999999,262.94,0.007615773472934961,156.8013916015625,-0.004000000189989805,0.0,1
1667404650.99903893,103633485,0,3,316668999,2234,12,0.89,42.728586,-84.48474929999999,262.91,0.02121320553123951,171.86988830566406,-0.0010000000474974513,0.0,1
1667404651.19902492,103833471,0,3,316669199,2234,12,0.89,42.728586,-84.48474929999999,262.88,0.015524175018072128,255.06858825683594,0.0,0.0,1
1667404651.39904284,104033489,0,3,316669399,2234,12,0.89,42.728586,-84.4847494,262.87,0.04254409670829773,246.44773864746094,-0.03200000151991844,0.0,1
1667404651.59902477,104233471,0,3,316669599,2234,12,0.89,42.728586,-84.48474949999999,262.88,0.05948109179735184,296.995849609375,-0.20000000298023224,0.0,1
1667404651.79899287,104433439,0,3,316669799,2234,11,0.89,42.728586199999995,-84.4847497,262.91,0.06935416907072067,312.6626892089844,-0.4090000092983246,0.0,1
1667404651.99901175,104633458,0,3,316669999,2234,11,0.89,42.728586299999996,-84.4847499,262.97,0.05793962627649307,291.2505187988281,-0.6300000548362732,0.0,1
1667404652.19898582,104833432,0,3,316670199,2234,11,0.89,42.7285864,-84.48474999999999,263.07,0.047010637819767,218.0887908935547,-0.6940000057220459,0.0,1
1667404652.39904189,105033488,0,3,316670399,2234,11,0.89,42.728586299999996,-84.4847501,263.2,0.11940687894821167,206.3504638671875,-0.7140000462532043,0.0,1
1667404652.59903979,105233486,0,3,316670599,2234,12,0.89,42.728586199999995,-84.4847504,263.33,0.16413715481758118,242.8105010986328,-0.7890000343322754,0.0,1
1667404652.79902482,105433471,0,3,316670799,2234,12,0.89,42.7285861,-84.48475069999999,263.46,0.05060632526874542,209.60446166992188,-0.843000054359436,0.0,1
1667404652.99904680,105633493,0,3,316670999,2234,12,0.89,42.728586199999995,-84.4847509,263.58,0.11479111760854721,288.277099609375,-0.7400000095367432,0.0,1
1667404653.19905686,105833503,0,3,316671199,2234,12,0.89,42.7285864,-84.4847515,263.72,0.3036445379257202,289.6284484863281,-0.6710000038146973,0.0,1
1667404653.39899397,106033440,0,3,316671399,2234,12,0.89,42.7285866,-84.4847522,263.82,0.25688910484313965,294.3701171875,-0.6100000143051147,0.0,1
1667404653.59900784,106233454,0,3,316671599,2234,12,0.89,42.728586799999995,-84.4847527,263.89,0.11236102879047394,253.98455810546875,-0.6410000324249268,0.0,1
1667404653.77940178,106413848,0,3,316671799,2234,12,0.89,42.7285866,-84.484753,264.03000000000003,0.16476954519748688,225.73768615722656,-0.6530000567436218,0.0,1
1667404653.99893594,106633382,0,3,316671999,2234,12,0.89,42.728586299999996,-84.4847532,264.14,0.209162637591362,188.24632263183594,-0.5040000081062317,0.0,1
1667404654.19910789,106833554,0,3,316672199,2234,12,0.89,42.7285859,-84.4847532,264.26,0.2873343229293823,167.947021484375,-0.5850000381469727,0.0,1
1667404654.39906287,107033509,0,3,316672399,2234,11,0.89,42.7285853,-84.48475309999999,264.33,0.4700383245944977,179.26858520507812,-0.48600003123283386,0.0,1
1667404654.59899974,107233446,0,3,316672599,2234,12,0.89,42.7285845,-84.48475309999999,264.38,0.46377798914909363,170.1923828125,-0.35500001907348633,0.0,1
1667404654.79903293,107433479,0,3,316672799,2234,11,0.89,42.7285837,-84.4847528,264.4,0.6332408785820007,162.8240966796875,-0.3240000009536743,0.0,1
1667404654.99901485,107633461,0,3,316672999,2234,13,0.89,42.728582499999995,-84.4847525,264.48,0.5770242810249329,174.13131713867188,-0.18800000846385956,0.0,1
1667404655.19896293,107833409,0,3,316673199,2234,12,0.9500000000000001,42.7285815,-84.4847522,264.48,0.7397493124008179,160.6587677001953,-0.16700001060962677,0.0,1
1667404655.39903092,108033477,0,3,316673399,2234,13,0.9500000000000001,42.72858,-84.48475169999999,264.52,0.8550748825073242,164.257080078125,-0.23500001430511475,0.0,1
1667404655.59897089,108233417,0,3,316673599,2234,13,0.9500000000000001,42.7285786,-84.4847511,264.6,0.7116249203681946,162.58352661132812,-0.1770000010728836,0.0,1
1667404655.79900575,108433452,0,3,316673799,2234,12,0.9500000000000001,42.7285773,-84.48475049999999,264.65,0.6983551979064941,156.00418090820312,-0.0990000069141388,0.0,1
1667404655.99902678,108633473,0,3,316673999,2234,12,0.9500000000000001,42.7285763,-84.48474999999999,264.68,0.6432177424430847,165.59646606445312,-0.34300002455711365,0.0,1
1667404656.19906378,108833510,0,3,316674199,2234,12,0.9500000000000001,42.728575199999995,-84.4847494,264.73,0.7675207257270813,154.3697509765625,-0.3400000035762787,0.0,1
1667404656.39985991,109034306,0,3,316674399,2234,12,0.9500000000000001,42.728574099999996,-84.48474879999999,264.79,0.5967931151390076,159.5001220703125,-0.3830000162124634,0.0,1
1667404656.60033894,109234785,0,3,316674599,2234,11,0.9500000000000001,42.7285733,-84.48474829999999,264.83,0.5093623399734497,158.21946716308594,-0.38700002431869507,0.0,1
1667404656.80032182,109434768,0,3,316674799,2234,11,0.9500000000000001,42.7285725,-84.4847479,264.89,0.6290191411972046,162.22755432128906,-0.4930000305175781,0.0,1
1667404657.00028682,109634733,0,3,316674999,2234,11,0.9500000000000001,42.728571699999996,-84.48474739999999,264.89,0.5532684922218323,152.55496215820312,-0.30800002813339233,0.0,1
1667404657.20031190,109834758,0,3,316675199,2234,12,0.89,42.7285708,-84.4847467,264.99,0.6221133470535278,151.1690216064453,-0.33400002121925354,0.0,1
1667404657.40036178,110034808,0,3,316675399,2234,12,0.89,42.7285697,-84.4847461,265.01,0.7223185300827026,162.2674102783203,-0.281000018119812,0.0,1
1667404657.60033894,110234785,0,3,316675599,2234,12,0.89,42.7285685,-84.4847455,265.04,0.8521032929420471,155.60055541992188,-0.10400000214576721,0.0,1
1667404657.80036592,110434812,0,3,316675799,2234,11,0.89,42.7285671,-84.4847447,265.02,0.9642163515090942,161.05767822265625,-0.05100000277161598,0.0,1
1667404658.00031281,110634759,0,3,316675999,2234,11,0.89,42.7285654,-84.4847439,265.02,1.0940754413604736,162.7740478515625,0.006000000052154064,0.0,1
1667404658.20037293,110834819,0,3,316676199,2234,11,0.99,42.7285636,-84.484743,264.97,1.2614614963531494,161.17723083496094,-0.05400000140070915,0.0,1
1667404658.40029597,111034742,0,3,316676399,2234,11,0.99,42.7285615,-84.484742,264.95,1.3649821281433105,158.9624786376953,-0.04000000283122063,0.0,1
1667404658.60036397,111234810,0,3,316676599,2234,11,0.99,42.7285591,-84.4847407,264.95,1.5724494457244873,160.1476287841797,-0.12700000405311584,0.0,1
1667404658.80028081,111434727,0,3,316676799,2234,12,0.99,42.7285563,-84.4847394,264.98,1.7566630840301514,161.82289123535156,-0.18200001120567322,0.0,1
1667404659.00028586,111634732,0,3,316676999,2234,11,0.99,42.7285533,-84.4847382,264.99,1.8923649787902832,165.36892700195312,-0.2160000056028366,0.0,1
1667404659.19904876,111833495,0,3,316677199,2234,12,0.89,42.728549799999996,-84.4847369,265.06,2.114126443862915,163.87962341308594,-0.3580000102519989,0.0,1
1667404659.39901280,112033459,0,3,316677399,2234,12,0.89,42.7285463,-84.48473539999999,265.0,2.2472000122070312,162.06492614746094,-0.39500001072883606,0.0,1
1667404659.59900975,112233456,0,3,316677599,2234,11,0.89,42.728542399999995,-84.48473369999999,265.1,2.34077787399292,162.95843505859375,-0.49400001764297485,0.0,1
1667404659.79903197,112433478,0,3,316677799,2234,11,0.89,42.7285384,-84.4847319,265.17,2.4773313999176025,161.47727966308594,-0.5660000443458557,0.0,1
1667404659.99901986,112633466,0,3,316677999,2234,11,0.89,42.7285343,-84.4847301,265.25,2.4677748680114746,162.38003540039062,-0.44300001859664917,0.0,1
1667404660.19900489,112833451,0,3,316678199,2234,12,0.89,42.7285299,-84.4847281,265.25,2.8884496688842773,161.80340576171875,-0.45100003480911255,0.0,1
1667404660.39899492,113033441,0,3,316678399,2234,11,0.89,42.7285252,-84.484726,265.33,2.7370572090148926,162.89572143554688,-0.40300002694129944,0.0,1
1667404660.57902074,113213467,0,3,316678599,2234,11,0.89,42.7285203,-84.48472389999999,265.34000000000003,3.0454721450805664,162.219482421875,-0.23100000619888306,0.0,1
1667404660.79893494,113433381,0,3,316678799,2234,11,0.89,42.7285152,-84.4847216,265.34000000000003,3.1101489067077637,161.8854522705078,-0.16500000655651093,0.0,1
1667404660.99895787,113633404,0,3,316678999,2234,12,0.89,42.7285098,-84.4847193,265.35,3.1882236003875732,163.37820434570312,-0.03400000184774399,0.0,1
1667404661.19902182,113833468,0,3,316679199,2234,11,0.99,42.7285044,-84.48471699999999,265.33,3.2226202487945557,163.13385009765625,-0.055000003427267075,0.0,1
1667404661.39902496,114033471,0,3,316679399,2234,11,0.99,42.728498699999996,-84.4847147,265.33,3.4609429836273193,163.9477081298828,-0.0950000062584877,0.0,1
1667404661.59901881,114233465,0,3,316679599,2234,12,0.99,42.7284928,-84.48471239999999,265.32,3.4780869483947754,164.52525329589844,-0.05000000074505806,0.0,1
1667404661.79902387,114433470,0,3,316679799,2234,12,0.99,42.7284867,-84.4847101,265.31,3.5527236461639404,163.8197784423828,0.01100000087171793,0.0,1
1667404661.99908090,114633527,0,3,316679999,2234,12,0.99,42.7284806,-84.4847078,265.33,3.4347898960113525,165.94757080078125,0.10700000822544098,0.0,1
1667404662.19897985,114833426,0,3,316680199,2234,12,0.89,42.7284747,-84.4847059,265.28000000000003,3.438281297683716,166.76806640625,0.09700000286102295,0.0,1
1667404662.39897895,115033425,0,3,316680399,2234,12,0.89,42.7284686,-84.484704,265.28000000000003,3.3796048164367676,168.18467712402344,0.14000000059604645,0.0,1
1667404662.59898496,115233431,0,3,316680599,2234,11,0.89,42.7284627,-84.4847025,265.25,3.223050355911255,170.40908813476562,0.1300000101327896,0.0,1
1667404662.79899192,115433438,0,3,316680799,2234,12,0.89,42.7284571,-84.4847013,265.21,3.127549648284912,170.31781005859375,0.1550000011920929,0.0,1
1667404662.99901175,115633458,0,3,316680999,2234,12,0.89,42.7284515,-84.48469999999999,265.12,3.22714900970459,171.53594970703125,0.1980000138282776,0.0,1
1667404663.19901896,115833465,0,3,316681199,2234,12,0.89,42.728445699999995,-84.4846991,265.16,3.1567256450653076,175.27554321289062,0.0560000017285347,0.0,1
1667404663.39904284,116033489,0,3,316681399,2234,13,0.89,42.72844,-84.4846985,265.21,3.0609772205352783,175.1461944580078,-0.029000001028180122,0.0,1
1667404663.59905481,116233501,0,3,316681599,2234,12,0.89,42.7284346,-84.4846977,265.11,3.165931224822998,173.25209045410156,0.04400000348687172,0.0,1
1667404663.79900980,116433456,0,3,316681799,2234,12,0.89,42.728429,-84.4846968,265.09000000000003,3.2466955184936523,173.5272674560547,0.03800000250339508,0.0,1
1667404663.99906397,116633510,0,3,316681999,2234,12,0.89,42.7284231,-84.48469589999999,265.12,3.3018240928649902,173.4087677001953,0.03400000184774399,0.0,1
1667404664.19902086,116833467,0,3,316682199,2234,13,0.89,42.728417199999996,-84.484695,265.1,3.3854763507843018,173.24862670898438,0.049000002443790436,0.0,1
1667404664.39899087,117033437,0,3,316682399,2234,12,0.89,42.7284112,-84.48469399999999,265.05,3.411884307861328,173.21658325195312,0.1120000034570694,0.0,1
1667404664.59902477,117233471,0,3,316682599,2234,12,0.89,42.7284049,-84.484693,265.06,3.59975528717041,173.8443603515625,0.06000000238418579,0.0,1
1667404664.79900980,117433456,0,3,316682799,2234,12,0.89,42.7283986,-84.484692,265.04,3.642928123474121,172.650634765625,-0.046000003814697266,0.0,1
1667404664.99901581,117633462,0,3,316682999,2234,12,0.89,42.7283921,-84.48469089999999,264.97,3.716437339782715,172.0813751220703,-0.01100000087171793,0.0,1
1667404665.19907188,117833518,0,3,316683199,2234,12,0.89,42.7283854,-84.48468969999999,264.93,3.9556636810302734,173.2199249267578,0.04500000178813934,0.0,1
1667404665.39904284,118033489,0,3,316683399,2234,11,0.89,42.7283784,-84.4846886,264.91,3.9369945526123047,173.67105102539062,-0.04800000041723251,0.0,1
1667404665.59906292,118233509,0,3,316683599,2234,11,0.89,42.7283714,-84.4846877,264.86,3.9931352138519287,175.72012329101562,-0.10500000417232513,0.0,1
1667404665.79902792,118433474,0,3,316683799,2234,11,0.89,42.7283642,-84.4846871,264.89,4.146526336669922,177.0416717529297,-0.2240000069141388,0.0,1
1667404665.97936797,118613814,0,3,316683999,2234,11,0.89,42.7283568,-84.4846865,264.91,4.268743515014648,176.54840087890625,-0.2590000033378601,0.0,1
1667404666.19902682,118833473,0,3,316684199,2234,11,0.91,42.7283492,-84.484686,264.9,4.28643798828125,177.392578125,-0.17400000989437103,0.0,1
1667404666.39901781,119033464,0,3,316684399,2234,11,0.91,42.7283416,-84.48468559999999,264.9,4.303056240081787,178.22879028320312,-0.18900001049041748,0.0,1
1667404666.59900880,119233455,0,3,316684599,2234,11,0.91,42.7283341,-84.4846853,264.87,4.260828495025635,178.870361328125,-0.11500000208616257,0.0,1
1667404666.79901981,119433466,0,3,316684799,2234,11,0.91,42.728326599999995,-84.48468539999999,264.84000000000003,4.227354526519775,181.4503936767578,0.06100000441074371,0.0,1
1667404666.99905086,119633497,0,3,316684999,2234,11,0.91,42.728319,-84.4846858,264.82,4.328168869018555,183.05941772460938,0.03800000250339508,0.0,1
1667404667.19908190,119833528,0,3,316685199,2234,12,0.91,42.7283113,-84.4846865,264.81,4.350780010223389,184.5613250732422,0.055000003427267075,0.0,1
1667404667.37936687,120013813,0,3,316685399,2234,12,0.91,42.728303499999996,-84.48468749999999,264.79,4.389276504516602,186.02883911132812,-0.009000000543892384,0.0,1
1667404667.59902787,120233474,0,3,316685599,2234,12,0.91,42.7282957,-84.4846888,264.82,4.402169227600098,188.21478271484375,0.003000000026077032,0.0,1
1667404667.79900289,120433449,0,3,316685799,2234,12,0.91,42.728288,-84.48469039999999,264.79,4.4329376220703125,189.11172485351562,-0.06300000101327896,0.0,1
1667404667.99902081,120633467,0,3,316685999,2234,12,0.91,42.72828,-84.48469229999999,264.78000000000003,4.542465686798096,190.1051788330078,0.007000000216066837,0.0,1
1667404668.19900680,120833453,0,3,316686199,2234,12,0.91,42.728272,-84.4846944,264.77,4.637677192687988,190.9004669189453,-0.05000000074505806,0.0,1
1667404668.39907575,121033522,0,3,316686399,2234,12,0.91,42.7282638,-84.48469659999999,264.79,4.593784332275391,191.78204345703125,0.03100000135600567,0.0,1
1667404668.59904575,121233492,0,3,316686599,2234,12,0.91,42.7282557,-84.48469899999999,264.79,4.629514217376709,192.48719787597656,0.08500000089406967,0.0,1
1667404668.79903388,121433480,0,3,316686799,2234,12,0.91,42.728247499999995,-84.4847016,264.79,4.652099132537842,193.4238739013672,0.11000000685453415,0.0,1
1667404668.99901295,121633459,0,3,316686999,2234,12,0.91,42.7282393,-84.48470429999999,264.82,4.750357627868652,193.76126098632812,0.012000000104308128,0.0,1
1667404669.19903994,121833486,0,3,316687199,2234,12,0.89,42.728231,-84.4847071,264.79,4.864119052886963,193.7362823486328,-0.05000000074505806,0.0,1
1667404669.39902377,122033470,0,3,316687399,2234,11,0.89,42.728222599999995,-84.48470999999999,264.78000000000003,4.848766326904297,194.84161376953125,-0.16100001335144043,0.0,1
1667404669.59900188,122233448,0,3,316687599,2234,11,0.89,42.728214099999995,-84.4847131,264.81,5.042695045471191,194.4578857421875,-0.18800000846385956,0.0,1
1667404669.79901791,122433464,0,3,316687799,2234,12,0.89,42.7282053,-84.4847163,264.82,5.114475250244141,194.9220428466797,-0.0990000069141388,0.0,1
1667404669.99897981,122633426,0,3,316687999,2234,11,0.89,42.7281962,-84.48471959999999,264.84000000000003,5.368824005126953,195.28134155273438,-0.1550000011920929,0.0,1
1667404670.19894981,122833396,0,3,316688199,2234,11,0.91,42.728186799999996,-84.4847231,264.86,5.566259860992432,195.14227294921875,-0.28700000047683716,0.0,1
1667404670.39902687,123033473,0,3,316688399,2234,12,0.91,42.728177099999996,-84.4847267,264.86,5.684812068939209,194.96517944335938,-0.2110000103712082,0.0,1
1667404670.59902596,123233472,0,3,316688599,2234,12,0.91,42.728167299999996,-84.4847303,264.88,5.767735004425049,195.0843505859375,-0.14500001072883606,0.0,1
1667404670.79902387,123433470,0,3,316688799,2234,12,0.91,42.7281571,-84.4847341,264.94,5.901111602783203,195.29856872558594,-0.052000001072883606,0.0,1
1667404670.99903297,123633479,0,3,316688999,2234,12,0.91,42.7281469,-84.4847381,264.95,5.884250640869141,196.497802734375,-0.04200000315904617,0.0,1
1667404671.19897389,123833420,0,3,316689199,2234,13,0.89,42.7281368,-84.4847423,264.96,5.870941638946533,196.91331481933594,-0.017000000923871994,0.0,1
1667404671.39902091,124033467,0,3,316689399,2234,12,0.89,42.7281267,-84.4847466,264.94,5.920150279998779,198.1992950439453,0.02500000037252903,0.0,1
1667404671.59898281,124233429,0,3,316689599,2234,12,0.89,42.7281167,-84.48475119999999,264.94,5.930785179138184,199.22622680664062,0.04700000211596489,0.0,1
1667404671.79905987,124433506,0,3,316689799,2234,12,0.89,42.7281067,-84.4847561,264.91,5.945659637451172,199.86126708984375,0.02500000037252903,0.0,1
1667404671.99902391,124633470,0,3,316689999,2234,12,0.89,42.728096699999995,-84.4847612,264.88,5.979753017425537,201.36016845703125,0.04400000348687172,0.0,1
1667404672.19902897,124833475,0,3,316690199,2234,13,0.89,42.7280868,-84.4847667,264.87,5.890692710876465,202.63409423828125,0.16500000655651093,0.0,1
1667404672.39904475,125033491,0,3,316690399,2234,13,0.89,42.7280771,-84.48477249999999,264.83,5.923593044281006,204.50559997558594,0.09400000423192978,0.0,1
1667404672.59902787,125233474,0,3,316690599,2234,12,0.89,42.728067599999996,-84.4847786,264.81,5.936811447143555,206.3276824951172,0.03400000184774399,0.0,1
1667404672.79905677,125433503,0,3,316690799,2234,12,0.89,42.7280581,-84.4847851,264.82,5.920461177825928,207.0887451171875,-0.2630000114440918,0.0,1
1667404672.99900174,125633448,0,3,316690999,2234,13,0.89,42.7280485,-84.4847918,264.95,5.830777645111084,206.4815673828125,-0.4000000059604645,0.0,1
1667404673.19900990,125833456,0,3,316691199,2234,13,0.89,42.7280392,-84.48479859999999,265.13,5.728586673736572,210.1815643310547,-0.43400001525878906,0.0,1
1667404673.39901996,126033466,0,3,316691399,2234,13,0.89,42.7280303,-84.4848059,265.31,5.652806282043457,212.24497985839844,-0.5480000376701355,0.0,1
1667404673.59901595,126233462,0,3,316691599,2234,13,0.89,42.7280215,-84.4848133,265.53000000000003,5.649077415466309,211.27859497070312,-0.5850000381469727,0.0,1
1667404673.79901290,126433459,0,3,316691799,2234,12,0.89,42.7280132,-84.4848205,265.63,5.522878170013428,213.77064514160156,-0.6500000357627869,0.0,1
1667404673.99902582,126633472,0,3,316691999,2234,12,0.89,42.7280051,-84.484828,265.77,5.502301216125488,214.65762329101562,-0.5790000557899475,0.0,1
1667404674.17934990,126813796,0,3,316692199,2234,13,0.89,42.727996999999995,-84.4848359,265.9,5.382631301879883,216.67616271972656,-0.2710000276565552,0.0,1
1667404674.39903593,127033482,0,3,316692399,2234,12,0.89,42.7279893,-84.4848439,265.91,5.47995662689209,217.30276489257812,-0.15200001001358032,0.0,1
1667404674.59912682,127233573,0,3,316692599,2234,12,0.89,42.727981799999995,-84.4848519,265.91,5.258255958557129,218.88613891601562,-0.11300000548362732,0.0,1
1667404674.79896283,127433409,0,3,316692799,2234,13,0.89,42.7279744,-84.48486009999999,265.99,5.1276397705078125,219.65106201171875,0.04000000283122063,0.0,1
1667404674.99900293,127633449,0,3,316692999,2234,13,0.89,42.7279675,-84.4848683,266.0,4.9043498039245605,222.4630889892578,0.17800000309944153,0.0,1
1667404675.19900894,127833455,0,3,316693199,2234,12,0.89,42.727961199999996,-84.4848763,265.97,4.824929714202881,224.31983947753906,0.17100000381469727,0.0,1
1667404675.39897180,128033418,0,3,316693399,2234,12,0.89,42.7279553,-84.48488449999999,265.93,4.66328763961792,225.93833923339844,0.1380000114440918,0.0,1
1667404675.59901094,128233457,0,3,316693599,2234,12,0.89,42.7279498,-84.4848926,265.88,4.513500213623047,228.66481018066406,0.036000002175569534,0.0,1
1667404675.79902387,128433470,0,3,316693799,2234,12,0.89,42.7279446,-84.4849007,265.86,4.3099751472473145,229.43186950683594,-0.04100000113248825,0.0,1
1667404675.99906993,128633516,0,3,316693999,2234,12,0.89,42.727939899999996,-84.4849086,265.85,4.119028568267822,231.98106384277344,0.005000000353902578,0.0,1
1667404676.19903374,128833480,0,3,316694199,2234,12,0.89,42.727935599999995,-84.48491659999999,265.82,3.9709956645965576,234.8531494140625,-0.018000001087784767,0.0,1
1667404676.39902186,129033468,0,3,316694399,2234,12,0.89,42.7279318,-84.4849244,265.8,3.7821426391601562,237.64614868164062,0.030000001192092896,0.0,1
1667404676.59902287,129233469,0,3,316694599,2234,12,0.89,42.7279285,-84.4849321,265.77,3.564054250717163,241.12652587890625,-0.02800000086426735,0.0,1
1667404676.79899597,129433442,0,3,316694799,2234,12,0.89,42.7279256,-84.4849397,265.72,3.470637559890747,242.73355102539062,0.03200000151991844,0.0,1
1667404676.99895597,129633402,0,3,316694999,2234,12,0.89,42.727923,-84.4849471,265.67,3.221226215362549,245.7503662109375,0.15700000524520874,0.0,1
1667404677.19897485,129833421,0,3,316695199,2234,12,0.89,42.7279209,-84.4849541,265.61,3.0597076416015625,248.306396484375,0.11500000208616257,0.0,1
1667404677.39901185,130033458,0,3,316695399,2234,12,0.89,42.7279191,-84.484961,265.56,2.9640090465545654,251.44891357421875,0.20200000703334808,0.0,1
1667404677.59905386,130233500,0,3,316695599,2234,12,0.89,42.7279178,-84.4849677,265.5,2.7152109146118164,257.5146789550781,0.10100000351667404,0.0,1
1667404677.79903674,130433483,0,3,316695799,2234,12,0.89,42.7279169,-84.4849741,265.45,2.622664451599121,260.6741638183594,0.10700000822544098,0.0,1
1667404677.99903774,130633484,0,3,316695999,2234,12,0.89,42.7279166,-84.4849802,265.39,2.4873058795928955,269.1015930175781,0.13900001347064972,0.0,1
1667404678.19905281,130833499,0,3,316696199,2234,12,0.89,42.727916799999996,-84.4849862,265.36,2.3943920135498047,274.5033264160156,0.02800000086426735,0.0,1
1667404678.39901876,131033465,0,3,316696399,2234,12,0.89,42.727917399999995,-84.4849919,265.33,2.3362579345703125,280.107421875,-0.02500000037252903,0.0,1
1667404678.59901190,131233458,0,3,316696599,2234,12,0.89,42.7279184,-84.48499729999999,265.31,2.2546467781066895,286.11993408203125,-0.04000000283122063,0.0,1
1667404678.79900384,131433450,0,3,316696799,2234,12,0.89,42.727919899999996,-84.4850024,265.25,2.231731653213501,295.9335632324219,0.06100000441074371,0.0,1
1667404678.99901175,131633458,0,3,316696999,2234,13,0.89,42.7279218,-84.48500729999999,265.24,2.278360366821289,301.9600830078125,0.06100000441074371,0.0,1
1667404679.19893074,131833377,0,3,316697199,2234,13,0.89,42.7279243,-84.48501189999999,265.24,2.298297166824341,311.4368591308594,0.04400000348687172,0.0,1
1667404679.39902091,132033467,0,3,316697399,2234,12,0.89,42.7279273,-84.485016,265.24,2.4092400074005127,315.58856201171875,-0.012000000104308128,0.0,1
1667404679.59907794,132233524,0,3,316697599,2234,12,0.89,42.7279306,-84.4850201,265.22,2.502089023590088,318.1914978027344,-0.11600000411272049,0.0,1
1667404679.79903078,132433477,0,3,316697799,2234,13,0.89,42.7279342,-84.485024,265.23,2.6698498725891113,325.37542724609375,-0.05400000140070915,0.0,1
1667404680.01894975,132653396,0,3,316697999,2234,12,0.89,42.7279384,-84.48502769999999,265.22,2.837158203125,327.58148193359375,-0.09100000560283661,0.0,1
1667404680.21900296,132853449,0,3,316698199,2234,12,0.89,42.727942899999995,-84.4850313,265.2,2.911280393600464,330.62615966796875,-0.13100001215934753,0.0,1
1667404680.39901376,133033460,0,3,316698399,2234,12,0.89,42.727947799999995,-84.4850347,265.17,3.083336114883423,334.157958984375,-0.05900000408291817,0.0,1
1667404680.59893394,133233380,0,3,316698599,2234,12,0.89,42.7279531,-84.4850379,265.16,3.2738993167877197,336.2223205566406,-0.05400000140070915,0.0,1
1667404680.79901290,133433459,0,3,316698799,2234,12,0.89,42.727958699999995,-84.485041,265.15,3.431626319885254,339.0140380859375,0.003000000026077032,0.0,1
1667404680.99902892,133633475,0,3,316698999,2234,12,0.89,42.727964799999995,-84.485044,265.12,3.6284689903259277,340.43646240234375,-0.03400000184774399,0.0,1
1667404681.19903874,133833485,0,3,316699199,2234,12,0.89,42.7279711,-84.48504679999999,265.12,3.738074541091919,342.24365234375,-0.07100000232458115,0.0,1
1667404681.39907074,134033517,0,3,316699399,2234,12,0.89,42.7279777,-84.4850494,265.11,3.8349454402923584,344.8693542480469,-0.08000000566244125,0.0,1
1667404681.59901381,134233460,0,3,316699599,2234,12,0.89,42.7279847,-84.4850517,265.1,4.0221848487854,346.5580139160156,-0.11700000613927841,0.0,1
1667404681.79905176,134433498,0,3,316699799,2234,12,0.89,42.727992,-84.4850539,265.05,4.205930709838867,348.8824157714844,-0.01100000087171793,0.0,1
1667404681.99902487,134633471,0,3,316699999,2234,12,0.89,42.7279997,-84.4850556,265.03000000000003,4.353302001953125,351.5460205078125,0.046000003814697266,0.0,1
1667404682.19900393,134833450,0,3,316700199,2234,12,0.89,42.7280076,-84.48505709999999,265.0,4.400382995605469,352.9379577636719,-0.07000000029802322,0.0,1
1667404682.39899993,135033446,0,3,316700399,2234,12,0.89,42.7280157,-84.48505809999999,264.97,4.6011199951171875,356.1991882324219,-0.021000001579523087,0.0,1
1667404682.59903789,135233484,0,3,316700599,2234,12,0.89,42.7280243,-84.4850585,264.95,4.821936130523682,358.87109375,0.0020000000949949026,0.0,1
1667404682.79898477,135433431,0,3,316700799,2234,12,0.89,42.7280332,-84.4850586,264.92,5.0150628089904785,0.2856196463108063,0.014000000432133675,0.0,1
1667404682.99901891,135633465,0,3,316700999,2234,12,0.89,42.7280424,-84.48505809999999,264.91,5.111402988433838,3.0840747356414795,0.023000001907348633,0.0,1
1667404683.19903374,135833480,0,3,316701199,2234,12,0.89,42.728051699999995,-84.48505709999999,264.9,5.189591407775879,6.017095565795898,-0.08400000631809235,0.0,1
1667404683.39901280,136033459,0,3,316701399,2234,12,0.89,42.7280613,-84.48505569999999,264.86,5.508775234222412,6.4412665367126465,0.02500000037252903,0.0,1
1667404683.59902787,136233474,0,3,316701599,2234,12,0.89,42.7280714,-84.48505399999999,264.82,5.63712215423584,7.491879463195801,-0.006000000052154064,0.0,1
1667404683.79901886,136433465,0,3,316701799,2234,12,0.89,42.728081599999996,-84.48505209999999,264.78000000000003,5.813132286071777,8.039499282836914,-0.003000000026077032,0.0,1
1667404683.99901891,136633465,0,3,316701999,2234,12,0.89,42.7280921,-84.48505,264.78000000000003,5.89882755279541,8.167190551757812,0.05900000408291817,0.0,1
1667404684.19897294,136833419,0,3,316702199,2234,12,0.89,42.728102799999995,-84.4850479,264.74,5.970017433166504,9.272988319396973,-0.010000000707805157,0.0,1
1667404684.39904284,137033489,0,3,316702399,2234,12,0.89,42.7281135,-84.48504539999999,264.73,6.017897605895996,9.971027374267578,0.023000001907348633,0.0,1
1667404684.59899378,137233440,0,3,316702599,2234,12,0.89,42.7281243,-84.4850427,264.71,6.118943214416504,10.727794647216797,-0.07700000703334808,0.0,1
1667404684.79897690,137433423,0,3,316702799,2234,13,0.89,42.7281352,-84.4850398,264.74,6.209436416625977,11.396793365478516,-0.021000001579523087,0.0,1
1667404684.99903774,137633484,0,3,316702999,2234,13,0.89,42.7281462,-84.4850367,264.75,6.311804294586182,11.950838088989258,-0.0020000000949949026,0.0,1
1667404685.19903088,137833477,0,3,316703199,2234,13,0.89,42.7281574,-84.48503339999999,264.74,6.3480095863342285,12.972290992736816,-0.05000000074505806,0.0,1
1667404685.39900374,138033450,0,3,316703399,2234,13,0.89,42.7281686,-84.48502979999999,264.76,6.354353427886963,13.218317985534668,-0.10700000822544098,0.0,1
1667404685.59899688,138233443,0,3,316703599,2234,13,0.89,42.7281797,-84.4850262,264.79,6.34089994430542,13.293292999267578,-0.0860000029206276,0.0,1
1667404685.79893780,138433384,0,3,316703799,2234,12,0.89,42.7281909,-84.4850225,264.78000000000003,6.4100022315979,14.205338478088379,-0.13700000941753387,0.0,1
1667404685.99900985,138633456,0,3,316703999,2234,12,0.89,42.728201999999996,-84.48501859999999,264.78000000000003,6.263174057006836,15.132360458374023,-0.12400000542402267,0.0,1
1667404686.19899797,138833444,0,3,316704199,2234,12,0.89,42.728212899999995,-84.48501449999999,264.79,6.239348411560059,16.08793067932129,-0.09300000220537186,0.0,1
1667404686.39897895,139033425,0,3,316704399,2234,12,0.89,42.7282237,-84.48501,264.78000000000003,6.164186477661133,17.89410400390625,-0.07400000095367432,0.0,1
1667404686.59903383,139233480,0,3,316704599,2234,12,0.89,42.7282343,-84.4850053,264.75,6.146859169006348,18.594118118286133,-0.10300000756978989,0.0,1
1667404686.79897594,139433422,0,3,316704799,2234,12,0.89,42.7282447,-84.4850005,264.69,6.071589469909668,19.873458862304688,0.029000001028180122,0.0,1
1667404686.99910092,139633547,0,3,316704999,2234,13,0.89,42.728255,-84.4849955,264.69,5.994663238525391,19.580528259277344,0.0020000000949949026,0.0,1
1667404687.19910097,139833547,0,3,316705199,2234,13,0.89,42.7282651,-84.4849906,264.7,5.926337718963623,19.969890594482422,-0.05300000309944153,0.0,1
1667404687.39905095,140033497,0,3,316705399,2234,12,0.89,42.7282753,-84.4849855,264.67,6.035470962524414,20.452713012695312,-0.006000000052154064,0.0,1
1667404687.59899092,140233437,0,3,316705599,2234,12,0.89,42.7282855,-84.4849804,264.6,5.969216823577881,20.587499618530273,0.07500000298023224,0.0,1
1667404687.79899287,140433439,0,3,316705799,2234,12,0.89,42.7282957,-84.4849753,264.55,6.0564117431640625,20.550508499145508,-0.04500000178813934,0.0,1
1667404687.99900293,140633449,0,3,316705999,2234,12,0.89,42.7283061,-84.48497019999999,264.55,6.201161861419678,19.40210723876953,-0.058000002056360245,0.0,1
1667404688.19901991,140833466,0,3,316706199,2234,13,0.79,42.728316799999995,-84.48496519999999,264.52,6.235818386077881,19.114864349365234,-0.0560000017285347,0.0,1
1667404688.39902687,141033473,0,3,316706399,2234,13,0.79,42.7283274,-84.48496019999999,264.5,6.210116863250732,19.275239944458008,-0.017000000923871994,0.0,1
1667404688.59908581,141233532,0,3,316706599,2234,13,0.79,42.728338099999995,-84.4849552,264.47,6.25339412689209,19.24334716796875,-0.03500000014901161,0.0,1
1667404688.79901385,141433460,0,3,316706799,2234,13,0.79,42.7283487,-84.48495009999999,264.44,6.23459529876709,19.90851402282715,-0.0690000057220459,0.0,1
1667404688.99906778,141633514,0,3,316706999,2234,13,0.79,42.7283593,-84.484945,264.41,6.204882621765137,19.360641479492188,-0.013000000268220901,0.0,1
1667404689.19900990,141833456,0,3,316707199,2234,13,0.79,42.7283699,-84.48494,264.39,6.232910633087158,19.289609909057617,-0.06000000238418579,0.0,1
1667404689.39900684,142033453,0,3,316707399,2234,13,0.79,42.7283805,-84.4849349,264.4,6.1228413581848145,20.287710189819336,-0.13300000131130219,0.0,1
1667404689.59897780,142233424,0,3,316707599,2234,13,0.79,42.7283908,-84.4849296,264.42,6.087610244750977,20.8226261138916,-0.11700000613927841,0.0,1
1667404689.79900575,142433452,0,3,316707799,2234,13,0.79,42.7284011,-84.4849242,264.42,6.069162845611572,21.263214111328125,-0.1210000067949295,0.0,1
1667404689.99901676,142633463,0,3,316707999,2234,13,0.79,42.7284112,-84.4849188,264.4,5.911155700683594,22.65639877319336,-0.1770000010728836,0.0,1
1667404690.21902680,142853473,0,3,316708199,2234,13,0.79,42.728421,-84.4849133,264.4,5.818541049957275,22.567598342895508,-0.16300000250339508,0.0,1
1667404690.39903378,143033480,0,3,316708399,2234,13,0.79,42.728430599999996,-84.4849078,264.39,5.638177871704102,23.30933952331543,-0.1720000058412552,0.0,1
1667404690.59907389,143233520,0,3,316708599,2234,13,0.79,42.7284398,-84.4849024,264.41,5.44376802444458,23.480518341064453,-0.1300000101327896,0.0,1
1667404690.79902291,143433469,0,3,316708799,2234,13,0.79,42.7284486,-84.4848971,264.41,5.256180763244629,24.707380294799805,-0.1340000033378601,0.0,1
1667404690.99903893,143633485,0,3,316708999,2234,13,0.79,42.7284571,-84.4848918,264.4,5.051183700561523,25.29167938232422,-0.16500000655651093,0.0,1
1667404691.19900489,143833451,0,3,316709199,2234,13,0.79,42.728465199999995,-84.4848865,264.42,4.849139213562012,26.517492294311523,-0.164000004529953,0.0,1
1667404691.39901686,144033463,0,3,316709399,2234,13,0.79,42.7284728,-84.48488119999999,264.43,4.6309638023376465,27.73261260986328,-0.05000000074505806,0.0,1
1667404691.59896493,144233411,0,3,316709599,2234,13,0.79,42.72848,-84.48487589999999,264.43,4.415306091308594,29.497007369995117,-0.12400000542402267,0.0,1
1667404691.79900789,144433454,0,3,316709799,2234,13,0.79,42.7284868,-84.4848705,264.43,4.301075458526611,30.65533447265625,-0.11100000888109207,0.0,1
1667404691.99902582,144633472,0,3,316709999,2234,13,0.79,42.7284934,-84.4848652,264.43,4.150986194610596,31.53425407409668,-0.16200000047683716,0.0,1
1667404692.19903588,144833482,0,3,316710199,2234,13,0.79,42.7284997,-84.4848598,264.44,4.083707332611084,32.53037643432617,-0.05700000375509262,0.0,1
1667404692.39901090,145033457,0,3,316710399,2234,14,0.79,42.7285058,-84.4848545,264.44,3.9489457607269287,32.969730377197266,-0.12200000882148743,0.0,1
1667404692.59901977,145233466,0,3,316710599,2234,13,0.79,42.7285117,-84.4848492,264.44,3.8118045330047607,35.01171875,-0.10200000554323196,0.0,1
1667404692.79900980,145433456,0,3,316710799,2234,13,0.79,42.7285173,-84.4848439,264.46,3.7401232719421387,34.939308166503906,-0.10900000482797623,0.0,1
1667404692.99901986,145633466,0,3,316710999,2234,13,0.79,42.7285227,-84.48483859999999,264.46,3.625929355621338,36.386356353759766,-0.10200000554323196,0.0,1
1667404693.19906878,145833515,0,3,316711199,2234,14,0.79,42.728527899999996,-84.4848334,264.5,3.4647786617279053,35.03401565551758,-0.0820000022649765,0.0,1
1667404693.39899778,146033444,0,3,316711399,2234,14,0.79,42.7285329,-84.48482829999999,264.54,3.3767051696777344,35.87892150878906,-0.006000000052154064,0.0,1
1667404693.59897995,146233426,0,3,316711599,2234,14,0.79,42.7285378,-84.4848234,264.55,3.351799726486206,35.78607177734375,-0.04700000211596489,0.0,1
1667404693.79902792,146433474,0,3,316711799,2234,13,0.79,42.728542499999996,-84.4848186,264.56,3.197401762008667,36.92723846435547,-0.02800000086426735,0.0,1
1667404693.99902892,146633475,0,3,316711999,2234,13,0.79,42.7285472,-84.484814,264.54,3.144979476928711,36.257755279541016,-0.010000000707805157,0.0,1
1667404694.19902992,146833476,0,3,316712199,2234,13,0.79,42.7285517,-84.4848094,264.55,3.0988004207611084,36.840309143066406,-0.11500000208616257,0.0,1
1667404694.39904594,147033492,0,3,316712399,2234,13,0.79,42.7285562,-84.484805,264.54,2.9790544509887695,36.523704528808594,-0.058000002056360245,0.0,1
1667404694.59897089,147233417,0,3,316712599,2234,13,0.79,42.7285604,-84.4848006,264.54,2.870354175567627,37.99578094482422,-0.0650000050663948,0.0,1
1667404694.79903388,147433480,0,3,316712799,2234,13,0.79,42.7285645,-84.4847964,264.53000000000003,2.8119890689849854,38.22703170776367,-0.09300000220537186,0.0,1
1667404694.99900985,147633456,0,3,316712999,2234,13,0.79,42.7285684,-84.4847922,264.51,2.678072690963745,38.77006912231445,-0.08400000631809235,0.0,1
1667404695.19902086,147833467,0,3,316713199,2234,13,0.79,42.728572199999995,-84.4847881,264.49,2.6507487297058105,38.828590393066406,-0.055000003427267075,0.0,1
1667404695.39901280,148033459,0,3,316713399,2234,14,0.79,42.728575899999996,-84.48478419999999,264.47,2.527040958404541,39.283023834228516,-0.06200000271201134,0.0,1
1667404695.59902096,148233467,0,3,316713599,2234,14,0.79,42.7285793,-84.4847803,264.51,2.398643970489502,39.75663375854492,-0.08400000631809235,0.0,1
1667404695.79902697,148433473,0,3,316713799,2234,14,0.79,42.728582499999995,-84.48477659999999,264.59000000000003,2.335365056991577,40.60661315917969,-0.1810000091791153,0.0,1
1667404695.99903178,148633478,0,3,316713999,2234,14,0.79,42.7285858,-84.48477299999999,264.59000000000003,2.2784316539764404,40.01485061645508,-0.24900001287460327,0.0,1
1667404696.19900680,148833453,0,3,316714199,2234,13,0.79,42.7285889,-84.4847695,264.59000000000003,2.158458948135376,39.605045318603516,-0.15800000727176666,0.0,1
1667404696.39908695,149033533,0,3,316714399,2234,13,0.79,42.728592,-84.4847662,264.57,2.0968172550201416,41.558650970458984,-0.12300000339746475,0.0,1
1667404696.59903479,149233481,0,3,316714599,2234,12,0.79,42.728594799999996,-84.48476289999999,264.56,1.9917516708374023,40.47960662841797,-0.1940000057220459,0.0,1
1667404696.79901075,149433457,0,3,316714799,2234,13,0.79,42.7285975,-84.4847599,264.52,1.8049232959747314,42.44024658203125,-0.11100000888109207,0.0,1
1667404696.99902487,149633471,0,3,316714999,2234,14,0.79,42.7285999,-84.484757,264.55,1.7448740005493164,41.491737365722656,-0.06700000166893005,0.0,1
1667404697.19898987,149833436,0,3,316715199,2234,13,0.81,42.728602099999996,-84.48475429999999,264.57,1.5612919330596924,45.0,-0.10200000554323196,0.0,1
1667404697.39905190,150033498,0,3,316715399,2234,13,0.81,42.7286041,-84.48475169999999,264.57,1.4665640592575073,45.331504821777344,-0.164000004529953,0.0,1
1667404697.59903789,150233484,0,3,316715599,2234,14,0.81,42.728606,-84.4847494,264.59000000000003,1.3304773569107056,41.465450286865234,-0.018000001087784767,0.0,1
1667404697.79908085,150433527,0,3,316715799,2234,14,0.81,42.7286077,-84.48474739999999,264.59000000000003,1.2751522064208984,41.02529525756836,-0.06800000369548798,0.0,1
1667404697.99906182,150633508,0,3,316715999,2234,14,0.81,42.7286092,-84.4847454,264.62,1.073460340499878,48.6634407043457,-0.09800000488758087,0.0,1
1667404698.19903994,150833486,0,3,316716199,2234,13,0.81,42.728610499999995,-84.4847436,264.63,0.9221550822257996,45.79084014892578,0.02800000086426735,0.0,1
1667404698.39901686,151033463,0,3,316716399,2234,13,0.81,42.728611199999996,-84.48474209999999,264.62,0.6182661652565002,75.2894515991211,-0.12800000607967377,0.0,1
1667404698.59898496,151233431,0,3,316716599,2234,14,0.81,42.728611099999995,-84.4847407,264.69,0.5799620747566223,108.49742126464844,-0.18200001120567322,0.0,1
1667404698.79895186,151433398,0,3,316716799,2234,14,0.81,42.728610599999996,-84.4847394,264.73,0.7255157232284546,125.17962646484375,-0.3370000123977661,0.0,1
1667404698.99903488,151633481,0,3,316716999,2234,14,0.81,42.7286096,-84.4847381,264.74,0.9158384799957275,146.7610626220703,-0.22200001776218414,0.0,1
1667404699.19903588,151833482,0,3,316717199,2234,14,0.79,42.728608099999995,-84.484737,264.75,0.9730879068374634,157.65187072753906,-0.12700000405311584,0.0,1
1667404699.39902496,152033471,0,3,316717399,2234,15,0.79,42.728606299999996,-84.484736,264.81,1.1182165145874023,161.11135864257812,-0.21300001442432404,0.0,1
1667404699.59902692,152233473,0,3,316717599,2234,15,0.79,42.728604,-84.4847351,264.94,1.297765851020813,170.50863647460938,-0.17600001394748688,0.0,1
1667404699.79902196,152433468,0,3,316717799,2234,14,0.79,42.7286016,-84.4847344,265.0,1.4365766048431396,173.0431671142578,-0.14300000667572021,0.0,1
1667404699.99902892,152633475,0,3,316717999,2234,14,0.79,42.7285988,-84.4847339,265.04,1.6529858112335205,177.1912384033203,-0.0820000022649765,0.0,1
1667404700.19900179,152833448,0,3,316718199,2234,14,0.79,42.7285956,-84.4847336,265.09000000000003,1.8225030899047852,177.67294311523438,-0.07500000298023224,0.0,1
1667404700.39900994,153033456,0,3,316718399,2234,14,0.79,42.728592,-84.4847331,265.16,2.11069655418396,175.43472290039062,-0.10400000214576721,0.0,1
1667404700.59900475,153233451,0,3,316718599,2234,14,0.79,42.7285879,-84.4847324,265.24,2.430070161819458,174.78208923339844,-0.08800000697374344,0.0,1
1667404700.79898787,153433434,0,3,316718799,2234,14,0.79,42.7285833,-84.4847315,265.27,2.6394734382629395,172.68650817871094,-0.07800000160932541,0.0,1
1667404700.99902678,153633473,0,3,316718999,2234,14,0.79,42.7285782,-84.4847302,265.37,2.8949034214019775,170.47584533691406,-0.13500000536441803,0.0,1
1667404701.19903994,153833486,0,3,316719199,2234,14,0.77,42.728572899999996,-84.4847288,265.4,3.10457444190979,170.17054748535156,-0.08500000089406967,0.0,1
1667404701.39902377,154033470,0,3,316719399,2234,13,0.77,42.7285672,-84.4847273,265.4,3.414515495300293,169.1968536376953,-0.09400000423192978,0.0,1
1667404701.59901094,154233457,0,3,316719599,2234,13,0.77,42.728561,-84.4847254,265.4,3.6821532249450684,167.08468627929688,-0.07900000363588333,0.0,1
1667404701.79900384,154433450,0,3,316719799,2234,13,0.77,42.7285544,-84.48472319999999,265.42,3.837453842163086,165.25035095214844,-0.05000000074505806,0.0,1
1667404701.99896288,154633409,0,3,316719999,2234,14,0.77,42.7285475,-84.4847206,265.4,4.103647708892822,164.0162353515625,-0.030000001192092896,0.0,1
1667404702.19911981,154833566,0,3,316720199,2234,13,0.81,42.7285403,-84.4847176,265.37,4.268117427825928,162.2527618408203,0.0,0.0,1
1667404702.39901781,155033464,0,3,316720399,2234,14,0.81,42.728532799999996,-84.4847142,265.36,4.519860744476318,161.40870666503906,-0.04700000211596489,0.0,1
1667404702.59902287,155233469,0,3,316720599,2234,14,0.81,42.7285249,-84.4847104,265.35,4.731052398681641,159.58851623535156,0.06599999964237213,0.0,1
1667404702.79899788,155433444,0,3,316720799,2234,14,0.81,42.7285168,-84.484706,265.32,4.9399261474609375,157.44256591796875,0.04800000041723251,0.0,1
1667404702.99899197,155633438,0,3,316720999,2234,14,0.81,42.7285085,-84.4847011,265.29,5.149178981781006,155.27146911621094,0.07700000703334808,0.0,1
1667404703.19902778,155833474,0,3,316721199,2234,14,0.77,42.7285,-84.4846956,265.27,5.279841423034668,154.21145629882812,0.005000000353902578,0.0,1
1667404703.39902091,156033467,0,3,316721399,2234,13,0.77,42.7284915,-84.4846898,265.28000000000003,5.332154750823975,152.6708526611328,-0.06000000238418579,0.0,1
1667404703.59898281,156233429,0,3,316721599,2234,13,0.77,42.728482899999996,-84.4846835,265.3,5.463871479034424,151.28659057617188,-0.11600000411272049,0.0,1
1667404703.79899979,156433446,0,3,316721799,2234,13,0.77,42.728474299999995,-84.48467699999999,265.27,5.527266025543213,150.0673828125,-0.15600000321865082,0.0,1
1667404704.01899791,156653444,0,3,316721999,2234,13,0.77,42.728465799999995,-84.4846702,265.28000000000003,5.5006818771362305,149.2434539794922,-0.0820000022649765,0.0,1
1667404704.19900680,156833453,0,3,316722199,2234,13,0.79,42.7284575,-84.4846633,265.27,5.354058742523193,147.8891143798828,-0.08400000631809235,0.0,1
1667404704.39899397,157033440,0,3,316722399,2234,13,0.79,42.728449399999995,-84.4846565,265.26,5.215191841125488,148.04701232910156,-0.039000000804662704,0.0,1
1667404704.59904385,157233490,0,3,316722599,2234,13,0.79,42.7284416,-84.4846498,265.23,5.070740699768066,148.1874542236328,0.027000000700354576,0.0,1
1667404704.79904890,157433495,0,3,316722799,2234,13,0.79,42.728434,-84.4846434,265.19,4.973852634429932,148.17288208007812,0.06000000238418579,0.0,1
1667404704.99902678,157633473,0,3,316722999,2234,13,0.79,42.7284265,-84.48463699999999,265.14,4.8462042808532715,146.9919891357422,0.0020000000949949026,0.0,1
1667404705.19903088,157833477,0,3,316723199,2234,13,0.79,42.7284194,-84.4846306,265.07,4.710896015167236,146.69110107421875,0.009000000543892384,0.0,1
1667404705.39902186,158033468,0,3,316723399,2234,13,0.79,42.7284125,-84.4846244,265.03000000000003,4.5823822021484375,146.38275146484375,-0.07200000435113907,0.0,1
1667404705.59899783,158233444,0,3,316723599,2234,13,0.79,42.7284059,-84.4846184,264.94,4.391327381134033,146.05662536621094,0.09100000560283661,0.0,1
1667404705.79888582,158433332,0,3,316723799,2234,13,0.79,42.728399499999995,-84.4846125,264.88,4.260455131530762,145.56765747070312,0.12800000607967377,0.0,1
1667404705.99895978,158633406,0,3,316723999,2234,13,0.79,42.728393399999995,-84.4846068,264.83,4.01776123046875,145.97769165039062,0.18300001323223114,0.0,1
1667404706.19901896,158833465,0,3,316724199,2234,13,0.79,42.7283876,-84.4846015,264.79,3.8301126956939697,147.79957580566406,0.08900000154972076,0.0,1
1667404706.39903092,159033477,0,3,316724399,2234,12,0.79,42.728381899999995,-84.48459679999999,264.76,3.5977020263671875,149.1291046142578,-0.04800000041723251,0.0,1
1667404706.59900880,159233455,0,3,316724599,2234,12,0.79,42.7283766,-84.48459249999999,264.73,3.327897548675537,150.5540771484375,-0.003000000026077032,0.0,1
1667404706.79903293,159433479,0,3,316724799,2234,12,0.79,42.728371599999996,-84.4845888,264.71,3.155120611190796,153.19129943847656,-0.08300000429153442,0.0,1
1667404706.99904680,159633493,0,3,316724999,2234,12,0.79,42.7283666,-84.4845856,264.63,3.088538408279419,156.38973999023438,-0.12000000476837158,0.0,1
1667404707.19895792,159833404,0,3,316725199,2234,12,0.81,42.7283617,-84.48458289999999,264.63,2.8792576789855957,161.47064208984375,-0.1380000114440918,0.0,1
1667404707.39897490,160033421,0,3,316725399,2234,12,0.81,42.7283569,-84.4845809,264.62,2.754235029220581,164.26318359375,-0.13500000536441803,0.0,1
1667404707.59898686,160233433,0,3,316725599,2234,12,0.81,42.7283523,-84.4845794,264.58,2.648941993713379,168.7451934814453,-0.13199999928474426,0.0,1
1667404707.79898691,160433433,0,3,316725799,2234,12,0.81,42.728347799999995,-84.48457839999999,264.57,2.501652717590332,174.01136779785156,-0.17400000989437103,0.0,1
1667404707.99901390,160633460,0,3,316725999,2234,13,0.81,42.7283434,-84.4845783,264.62,2.362288236618042,181.89219665527344,-0.1600000113248825,0.0,1
1667404708.19903374,160833480,0,3,316726199,2234,13,0.79,42.728339399999996,-84.4845788,264.62,2.164189577102661,187.43370056152344,-0.13700000941753387,0.0,1
1667404708.39903593,161033482,0,3,316726399,2234,12,0.79,42.728335699999995,-84.48457979999999,264.61,2.0938217639923096,193.84378051757812,-0.08100000023841858,0.0,1
1667404708.59902883,161233475,0,3,316726599,2234,12,0.79,42.7283323,-84.4845814,264.58,2.0758297443389893,203.05726623535156,-0.15400001406669617,0.0,1
1667404708.79899883,161433445,0,3,316726799,2234,12,0.79,42.728329099999996,-84.4845837,264.56,1.9944343566894531,212.7179718017578,-0.10900000482797623,0.0,1
1667404708.99903488,161633481,0,3,316726999,2234,13,0.79,42.7283262,-84.4845867,264.57,2.009438991546631,218.0675506591797,-0.04700000211596489,0.0,1
1667404709.19898582,161833432,0,3,316727199,2234,13,0.79,42.728323499999995,-84.4845902,264.56,2.0762453079223633,228.0845947265625,0.055000003427267075,0.0,1
1667404709.39901090,162033457,0,3,316727399,2234,12,0.79,42.728321199999996,-84.48459419999999,264.54,2.1691088676452637,234.096923828125,-0.036000002175569534,0.0,1
1667404709.59901094,162233457,0,3,316727599,2234,12,0.79,42.728319,-84.48459869999999,264.49,2.2255845069885254,237.4024658203125,-0.013000000268220901,0.0,1
1667404709.79899597,162433442,0,3,316727799,2234,12,0.79,42.7283171,-84.48460349999999,264.47,2.3268678188323975,243.64418029785156,-0.11900000274181366,0.0,1
1667404710.01902175,162653468,0,3,316727999,2234,12,0.79,42.7283154,-84.4846087,264.45,2.373910427093506,245.43222045898438,-0.08100000023841858,0.0,1
1667404710.19900489,162833451,0,3,316728199,2234,12,0.81,42.728313799999995,-84.4846141,264.44,2.39914608001709,249.75982666015625,-0.22200001776218414,0.0,1
1667404710.39899683,163033443,0,3,316728399,2234,12,0.81,42.728312599999995,-84.4846197,264.41,2.456026554107666,254.70191955566406,-0.14500001072883606,0.0,1
1667404710.59905696,163233503,0,3,316728599,2234,13,0.81,42.7283116,-84.4846257,264.4,2.473829746246338,259.4486389160156,-0.08900000154972076,0.0,1
1667404710.79895782,163433404,0,3,316728799,2234,13,0.81,42.7283109,-84.4846317,264.41,2.4851739406585693,263.06658935546875,-0.09100000560283661,0.0,1
1667404710.99901986,163633466,0,3,316728999,2234,13,0.81,42.7283105,-84.4846378,264.41,2.4624340534210205,266.9737548828125,-0.02800000086426735,0.0,1
1667404711.19898891,163833435,0,3,316729199,2234,12,0.81,42.7283105,-84.484644,264.39,2.562028169631958,270.26837158203125,0.007000000216066837,0.0,1
1667404711.39897490,164033421,0,3,316729399,2234,12,0.81,42.7283107,-84.4846501,264.34000000000003,2.5047080516815186,273.8688659667969,0.07100000232458115,0.0,1
1667404711.59902096,164233467,0,3,316729599,2234,12,0.81,42.7283112,-84.48465639999999,264.3,2.642151117324829,277.59033203125,0.06400000303983688,0.0,1
1667404711.79902196,164433468,0,3,316729799,2234,12,0.81,42.7283121,-84.4846628,264.28000000000003,2.702676773071289,281.3307189941406,0.00800000037997961,0.0,1
1667404711.99906993,164633516,0,3,316729999,2234,12,0.81,42.728313199999995,-84.4846693,264.23,2.7195780277252197,281.6033020019531,0.017000000923871994,0.0,1
1667404712.19901395,164833460,0,3,316730199,2234,12,0.81,42.7283143,-84.48467579999999,264.22,2.7176554203033447,282.9061279296875,0.049000002443790436,0.0,1
1667404712.39907074,165033517,0,3,316730399,2234,13,0.81,42.7283153,-84.4846822,264.16,2.6301326751708984,281.092041015625,0.009000000543892384,0.0,1
1667404712.59900880,165233455,0,3,316730599,2234,13,0.81,42.7283164,-84.4846884,264.12,2.6092703342437744,283.61016845703125,-0.049000002443790436,0.0,1
1667404712.79902196,165433468,0,3,316730799,2234,14,0.81,42.728317399999995,-84.48469469999999,264.2,2.555515766143799,283.39459228515625,-0.03500000014901161,0.0,1
1667404712.99896693,165633413,0,3,316730999,2234,13,0.81,42.7283185,-84.4847008,264.2,2.625005006790161,284.3591613769531,-0.03400000184774399,0.0,1
1667404713.19900179,165833448,0,3,316731199,2234,13,0.79,42.7283198,-84.4847071,264.2,2.7153730392456055,285.3106384277344,-0.14800000190734863,0.0,1
1667404713.39901781,166033464,0,3,316731399,2234,13,0.79,42.728321099999995,-84.4847135,264.19,2.6882777214050293,284.2120056152344,-0.10000000149011612,0.0,1
1667404713.59908795,166233534,0,3,316731599,2234,13,0.79,42.728322299999995,-84.4847199,264.19,2.6749305725097656,284.8155212402344,-0.058000002056360245,0.0,1
1667404713.79902792,166433474,0,3,316731799,2234,13,0.79,42.728323599999996,-84.48472629999999,264.18,2.6845502853393555,284.6729736328125,-0.09600000083446503,0.0,1
1667404713.99902391,166633470,0,3,316731999,2234,13,0.79,42.728324799999996,-84.48473249999999,264.16,2.587163209915161,282.88671875,-0.10600000619888306,0.0,1
1667404714.19902396,166833470,0,3,316732199,2234,13,0.79,42.7283258,-84.4847387,264.12,2.5478904247283936,282.85809326171875,-0.04000000283122063,0.0,1
1667404714.39901590,167033462,0,3,316732399,2234,13,0.79,42.7283269,-84.4847447,264.09000000000003,2.4720420837402344,283.4740905761719,-0.07300000637769699,0.0,1
1667404714.59896779,167233414,0,3,316732599,2234,13,0.79,42.728328,-84.48475049999999,264.08,2.423123598098755,283.3136291503906,-0.15200001001358032,0.0,1
1667404714.79901981,167433466,0,3,316732799,2234,14,0.79,42.7283289,-84.4847564,264.17,2.363539934158325,284.90643310546875,-0.08400000631809235,0.0,1
1667404714.99897075,167633417,0,3,316732999,2234,14,0.79,42.7283298,-84.48476199999999,264.27,2.274327516555786,284.4884033203125,-0.16500000655651093,0.0,1
1667404715.19901490,167833461,0,3,316733199,2234,14,0.77,42.7283307,-84.4847674,264.33,2.245297431945801,282.9716796875,-0.30800002813339233,0.0,1
1667404715.39903092,168033477,0,3,316733399,2234,13,0.77,42.7283316,-84.4847726,264.36,2.118411064147949,282.01544189453125,-0.4690000116825104,0.0,1
1667404715.59902692,168233473,0,3,316733599,2234,13,0.77,42.7283323,-84.4847777,264.46,2.1246113777160645,280.79693603515625,-0.5430000424385071,0.0,1
1667404715.79900885,168433455,0,3,316733799,2234,14,0.77,42.7283329,-84.4847826,264.6,1.860832691192627,277.9385070800781,-0.5860000252723694,0.0,1
1667404715.99903584,168633482,0,3,316733999,2234,13,0.77,42.7283334,-84.48478709999999,264.67,1.8460986614227295,280.3603515625,-0.46400001645088196,0.0,1
1667404716.19901896,168833465,0,3,316734199,2234,13,0.79,42.728333899999996,-84.4847913,264.71,1.6446161270141602,273.8001708984375,-0.4400000274181366,0.0,1
1667404716.39901280,169033459,0,3,316734399,2234,13,0.79,42.7283341,-84.4847953,264.77,1.592673897743225,272.6270751953125,-0.5020000338554382,0.0,1
1667404716.59902191,169233468,0,3,316734599,2234,13,0.79,42.7283341,-84.4847989,264.85,1.3647425174713135,265.755859375,-0.49000000953674316,0.0,1
1667404716.79899693,169433443,0,3,316734799,2234,13,0.79,42.7283338,-84.4848019,264.92,1.104602336883545,260.3586120605469,-0.4320000112056732,0.0,1
1667404716.99898386,169633430,0,3,316734999,2234,13,0.79,42.7283335,-84.4848047,264.98,1.1443780660629272,259.17120361328125,-0.4310000240802765,0.0,1
1667404717.19903183,169833478,0,3,316735199,2234,13,0.79,42.728333,-84.48480699999999,265.03000000000003,0.818733811378479,248.3545379638672,-0.4970000088214874,0.0,1
1667404717.39904690,170033493,0,3,316735399,2234,13,0.79,42.7283324,-84.484809,265.1,0.9387023448944092,243.35305786132812,-0.4140000343322754,0.0,1
1667404717.59901476,170233461,0,3,316735599,2234,14,0.79,42.7283316,-84.4848107,265.19,0.7269017100334167,228.5693817138672,-0.4010000228881836,0.0,1
1667404717.79903579,170433482,0,3,316735799,2234,13,0.79,42.7283307,-84.4848119,265.23,0.660600483417511,216.9392852783203,-0.20600001513957977,0.0,1
1667404717.99901485,170633461,0,3,316735999,2234,13,0.79,42.728329699999996,-84.4848128,265.24,0.7135727405548096,209.83453369140625,-0.2580000162124634,0.0,1
1667404718.19900393,170833450,0,3,316736199,2234,13,0.79,42.7283286,-84.48481369999999,265.24,0.735767662525177,211.5513916015625,-0.09100000560283661,0.0,1
1667404718.39898396,171033430,0,3,316736399,2234,14,0.79,42.7283274,-84.4848147,265.26,0.7456178665161133,207.56170654296875,-0.07500000298023224,0.0,1
1667404718.59899879,171233445,0,3,316736599,2234,13,0.79,42.7283262,-84.4848154,265.23,0.7700974345207214,202.20208740234375,-0.04500000178813934,0.0,1
1667404718.79900980,171433456,0,3,316736799,2234,14,0.79,42.7283249,-84.4848162,265.23,0.8222603797912598,201.69790649414062,-0.020000001415610313,0.0,1
1667404718.99902987,171633476,0,3,316736999,2234,14,0.79,42.7283234,-84.4848169,265.24,0.9533294439315796,196.51504516601562,-0.06800000369548798,0.0,1
1667404719.19902992,171833476,0,3,316737199,2234,13,0.79,42.728321799999996,-84.4848177,265.2,0.9632035493850708,201.69094848632812,-0.015000000596046448,0.0,1
1667404719.41903996,172053486,0,3,316737399,2234,13,0.79,42.7283202,-84.4848185,265.18,0.9541032910346985,197.88424682617188,0.04400000348687172,0.0,1
1667404719.59905386,172233500,0,3,316737599,2234,13,0.79,42.7283185,-84.4848193,265.16,0.9993923902511597,202.84478759765625,-0.07500000298023224,0.0,1
1667404719.79906178,172433508,0,3,316737799,2234,13,0.79,42.728316899999996,-84.4848202,265.12,1.0084508657455444,198.3810577392578,0.026000000536441803,0.0,1
1667404719.99894190,172633388,0,3,316737999,2234,13,0.79,42.7283152,-84.4848212,265.11,1.070529818534851,208.0252685546875,-0.10000000149011612,0.0,1
1667404720.21896577,172853412,0,3,316738199,2234,14,0.79,42.7283135,-84.4848224,265.11,1.0930055379867554,206.86981201171875,-0.09400000423192978,0.0,1
1667404720.39901376,173033460,0,3,316738399,2234,14,0.79,42.7283117,-84.48482369999999,265.12,1.0822938680648804,206.09153747558594,-0.13900001347064972,0.0,1
1667404720.59899688,173233443,0,3,316738599,2234,14,0.79,42.72831,-84.48482489999999,265.13,1.0940535068511963,205.55792236328125,-0.14100000262260437,0.0,1
1667404720.79903293,173433479,0,3,316738799,2234,14,0.79,42.7283081,-84.48482609999999,265.11,1.155025601387024,201.856689453125,-0.03200000151991844,0.0,1
1667404720.99903679,173633483,0,3,316738999,2234,14,0.79,42.7283062,-84.4848272,265.11,1.1171481609344482,201.97283935546875,0.006000000052154064,0.0,1
1667404721.19902992,173833476,0,3,316739199,2234,13,0.79,42.7283044,-84.4848286,265.07,1.1325105428695679,215.14952087402344,-0.015000000596046448,0.0,1
1667404721.39909697,174033543,0,3,316739399,2234,13,0.79,42.728303,-84.4848303,265.02,1.0437854528427124,225.7763214111328,0.04200000315904617,0.0,1
1667404721.59902596,174233472,0,3,316739599,2234,14,0.79,42.728302,-84.48483259999999,265.05,1.0943126678466797,250.57159423828125,0.08400000631809235,0.0,1
1667404721.79902697,174433473,0,3,316739799,2234,14,0.79,42.7283015,-84.4848354,265.05,1.243915319442749,266.8201904296875,0.0820000022649765,0.0,1
1667404721.99899197,174633438,0,3,316739999,2234,14,0.79,42.728301599999995,-84.4848389,265.11,1.4298828840255737,281.33349609375,0.09000000357627869,0.0,1
