timestamp,TimeUS,Lat,Lng,Alt,RelHomeAlt,RelOriginAlt
1667404645.35954595,97993992,42.7285851,-84.4847509,261.07000732421875,0.01134374551475048,0.30134373903274536
1667404645.35968685,97994133,42.7285851,-84.4847509,261.07000732421875,0.01134374551475048,0.30134373903274536
1667404645.39934182,98033788,42.7285851,-84.4847508,261.07000732421875,0.013096420094370842,0.3030964136123657
1667404645.43968892,98074135,42.7285851,-84.4847508,261.07000732421875,0.015171049162745476,0.30517104268074036
1667404645.45951486,98093961,42.7285851,-84.4847508,261.07000732421875,0.01628848724067211,0.306288480758667
1667404645.47968888,98114135,42.7285851,-84.4847508,261.07000732421875,0.0173699539154768,0.3073699474334717
1667404645.51929474,98153741,42.7285851,-84.4847508,261.07000732421875,0.019596515223383904,0.3095965087413788
1667404645.55950093,98193947,42.7285851,-84.4847508,261.0799865722656,0.021622000262141228,0.3116219937801361
1667404645.55962396,98194070,42.7285851,-84.4847508,261.0799865722656,0.021622000262141228,0.3116219937801361
1667404645.59935093,98233797,42.7285851,-84.4847508,261.0799865722656,0.02320256642997265,0.31320255994796753
1667404645.63968778,98274134,42.7285851,-84.4847508,261.0799865722656,0.02362292818725109,0.31362292170524597
1667404645.65950179,98293948,42.7285851,-84.4847508,261.0799865722656,0.02432137541472912,0.314321368932724
1667404645.67965388,98314100,42.7285851,-84.4847508,261.0799865722656,0.024661211296916008,0.3146612048149109
1667404645.71926284,98353709,42.7285851,-84.48475069999999,261.0799865722656,0.025855211541056633,0.3158552050590515
1667404645.75967789,98394124,42.7285851,-84.48475069999999,261.0799865722656,0.027128754183650017,0.3171287477016449
1667404645.75979090,98394237,42.7285851,-84.48475069999999,261.0799865722656,0.027128754183650017,0.3171287477016449
1667404645.79931474,98433761,42.7285851,-84.48475069999999,261.0799865722656,0.028491972014307976,0.31849196553230286
1667404645.83960581,98474052,42.7285851,-84.48475069999999,261.0799865722656,0.029014287516474724,0.3190142810344696
1667404645.85950589,98493952,42.7285851,-84.48475069999999,261.0799865722656,0.029700933024287224,0.3197009265422821
1667404645.87962675,98514073,42.7285851,-84.48475069999999,261.0899963378906,0.030064193531870842,0.3200641870498657
1667404645.91933990,98553786,42.7285851,-84.48475069999999,261.0899963378906,0.031088439747691154,0.32108843326568604
1667404645.95946193,98593908,42.7285851,-84.48475069999999,261.0899963378906,0.03213411569595337,0.3221341073513031
1667404645.95961785,98594064,42.7285851,-84.48475069999999,261.0899963378906,0.03213411569595337,0.3221341073513031
1667404645.99936891,98633815,42.7285851,-84.48475069999999,261.0899963378906,0.03330180048942566,0.3233017921447754
1667404646.03960896,98674055,42.7285851,-84.48475069999999,261.0899963378906,0.03523913025856018,0.3252391219139099
1667404646.05949783,98693944,42.7285851,-84.48475069999999,261.0899963378906,0.036207497119903564,0.3262074887752533
1667404646.07967997,98714126,42.7285851,-84.48475069999999,261.0899963378906,0.037178754806518555,0.3271787464618683
1667404646.11934495,98753791,42.7285851,-84.48475069999999,261.0899963378906,0.03912687301635742,0.32912686467170715
1667404646.15957475,98794021,42.7285851,-84.4847506,261.1000061035156,0.041074782609939575,0.3310747742652893
1667404646.15973687,98794183,42.7285851,-84.4847506,261.1000061035156,0.041074782609939575,0.3310747742652893
1667404646.19927192,98833718,42.7285851,-84.4847506,261.1000061035156,0.043029576539993286,0.333029568195343
1667404646.23963881,98874085,42.7285851,-84.4847506,261.1000061035156,0.0428788959980011,0.33287888765335083
1667404646.25944877,98893895,42.7285851,-84.4847506,261.1000061035156,0.04339319467544556,0.3333931863307953
1667404646.27964091,98914087,42.7285851,-84.4847506,261.1000061035156,0.04347631335258484,0.33347630500793457
1667404646.31933188,98953778,42.7285851,-84.4847506,261.1000061035156,0.04409921169281006,0.3340992033481598
1667404646.35957694,98994023,42.7285851,-84.4847506,261.1000061035156,0.044802308082580566,0.3348022997379303
1667404646.35976791,98994214,42.7285851,-84.4847506,261.1000061035156,0.044802308082580566,0.3348022997379303
1667404646.39929390,99033740,42.7285851,-84.4847506,261.1000061035156,0.04559826850891113,0.33559826016426086
1667404646.43960690,99074053,42.7285851,-84.4847506,261.1000061035156,0.046572864055633545,0.3365728557109833
1667404646.45947385,99093920,42.7285851,-84.4847506,261.1000061035156,0.04731133580207825,0.337311327457428
1667404646.47965288,99114099,42.7285851,-84.4847506,261.1000061035156,0.04786574840545654,0.3378657400608063
1667404646.51937675,99153823,42.7285851,-84.4847506,261.1000061035156,0.04904639720916748,0.3390463888645172
1667404646.55949593,99193942,42.7285851,-84.4847506,261.1099853515625,0.05019253492355347,0.3401925265789032
1667404646.55962896,99194075,42.7285851,-84.4847506,261.1099853515625,0.05019253492355347,0.3401925265789032
1667404646.59935689,99233803,42.7285851,-84.4847506,261.1099853515625,0.0514388382434845,0.34143882989883423
1667404646.63967085,99274117,42.7285851,-84.4847506,261.1000061035156,0.049819380044937134,0.33981937170028687
1667404646.65949988,99293946,42.7285851,-84.4847506,261.1000061035156,0.04994872212409973,0.33994871377944946
1667404646.67963982,99314086,42.7285851,-84.4847506,261.1000061035156,0.049362361431121826,0.33936235308647156
1667404646.71939492,99353841,42.7285851,-84.4847506,261.1000061035156,0.04904559254646301,0.33904558420181274
1667404646.75952697,99393973,42.7285851,-84.4847506,261.1000061035156,0.048888325691223145,0.3388883173465729
1667404646.75967884,99394125,42.7285851,-84.4847506,261.1000061035156,0.048888325691223145,0.3388883173465729
1667404646.79938293,99433829,42.7285851,-84.4847506,261.1000061035156,0.048915356397628784,0.3389153480529785
1667404646.83970284,99474149,42.7285851,-84.4847506,261.1000061035156,0.04762163758277893,0.33762162923812866
1667404646.85953975,99493986,42.7285851,-84.4847506,261.1000061035156,0.04776075482368469,0.3377607464790344
1667404646.87964487,99514091,42.7285851,-84.4847506,261.1000061035156,0.047321826219558716,0.33732181787490845
1667404646.91931391,99553760,42.7285851,-84.4847506,261.1000061035156,0.04699224233627319,0.3369922339916229
1667404646.95948076,99593927,42.7285851,-84.4847506,261.1000061035156,0.04675048589706421,0.33675047755241394
1667404646.95958877,99594035,42.7285851,-84.4847506,261.1000061035156,0.04675048589706421,0.33675047755241394
1667404646.99934196,99633788,42.7285851,-84.48475049999999,261.1000061035156,0.04641285538673401,0.33641284704208374
1667404647.03971076,99674157,42.7285851,-84.48475049999999,261.1000061035156,0.04487353563308716,0.3348735272884369
1667404647.05949497,99693941,42.7285851,-84.48475049999999,261.1000061035156,0.04493585228919983,0.33493584394454956
1667404647.07966089,99714107,42.7285851,-84.48475049999999,261.1000061035156,0.044381022453308105,0.33438101410865784
1667404647.11925387,99753700,42.7285851,-84.48475049999999,261.1000061035156,0.04392561316490173,0.33392560482025146
1667404647.15946674,99793913,42.7285851,-84.48475049999999,261.1000061035156,0.04357627034187317,0.3335762619972229
1667404647.15957284,99794019,42.7285851,-84.48475049999999,261.1000061035156,0.04357627034187317,0.3335762619972229
1667404647.19939375,99833840,42.7285851,-84.48475049999999,261.1000061035156,0.04342815279960632,0.33342814445495605
1667404647.23970795,99874154,42.7285851,-84.48475049999999,261.1000061035156,0.04157543182373047,0.3315754234790802
1667404647.25958180,99894028,42.7285851,-84.48475049999999,261.1000061035156,0.041507840156555176,0.3315078318119049
1667404647.27963185,99914078,42.7285851,-84.48475049999999,261.1000061035156,0.04083290696144104,0.33083289861679077
1667404647.31928682,99953733,42.7285851,-84.48475049999999,261.1000061035156,0.040189921855926514,0.33018991351127625
1667404647.35950685,99993953,42.7285851,-84.48475049999999,261.0899963378906,0.039713501930236816,0.32971349358558655
1667404647.35961294,99994059,42.7285851,-84.48475049999999,261.0899963378906,0.039713501930236816,0.32971349358558655
1667404647.39932895,100033775,42.7285851,-84.4847504,261.0899963378906,0.03942173719406128,0.329421728849411
1667404647.43980694,100074253,42.7285851,-84.4847504,261.0899963378906,0.03913208842277527,0.329132080078125
1667404647.45945382,100093900,42.7285851,-84.4847504,261.0899963378906,0.03938448429107666,0.3293844759464264
1667404647.47967887,100114125,42.7285851,-84.4847504,261.0899963378906,0.039351075887680054,0.3293510675430298
1667404647.51930690,100153753,42.7285851,-84.4847504,261.0899963378906,0.03970068693161011,0.32970067858695984
1667404647.55950975,100193956,42.7285851,-84.4847504,261.1000061035156,0.04014107584953308,0.3301410675048828
1667404647.55965185,100194098,42.7285851,-84.4847504,261.1000061035156,0.04014107584953308,0.3301410675048828
1667404647.59935093,100233797,42.7285851,-84.4847504,261.1000061035156,0.04065173864364624,0.33065173029899597
1667404647.63959694,100274043,42.7285851,-84.4847504,261.1000061035156,0.040434837341308594,0.3304348289966583
1667404647.65943980,100293886,42.7285851,-84.4847504,261.1000061035156,0.04069805145263672,0.33069804310798645
1667404647.67965293,100314099,42.7285851,-84.4847504,261.1000061035156,0.04069676995277405,0.3306967616081238
1667404647.71940589,100353852,42.7285851,-84.4847504,261.1000061035156,0.04098480939865112,0.33098480105400085
1667404647.75958991,100394036,42.7285852,-84.4847504,261.1000061035156,0.04133296012878418,0.3313329517841339
1667404647.75973678,100394183,42.7285852,-84.4847504,261.1000061035156,0.04133296012878418,0.3313329517841339
1667404647.79930997,100433756,42.7285852,-84.4847504,261.1000061035156,0.04175248742103577,0.3317524790763855
1667404647.83965278,100474099,42.7285852,-84.4847503,261.1000061035156,0.041553497314453125,0.33155348896980286
1667404647.85991383,100494360,42.7285852,-84.4847503,261.1000061035156,0.04179134964942932,0.33179134130477905
1667404647.87967896,100514125,42.7285852,-84.4847503,261.1000061035156,0.04178166389465332,0.33178165555000305
1667404647.91940188,100553848,42.7285852,-84.4847503,261.1000061035156,0.04177704453468323,0.33177703619003296
1667404647.95948076,100593927,42.7285852,-84.4847503,261.1000061035156,0.04175150394439697,0.3317514955997467
1667404647.95961189,100594058,42.7285852,-84.4847503,261.1000061035156,0.04175150394439697,0.3317514955997467
1667404647.99927974,100633726,42.7285852,-84.4847503,261.1000061035156,0.041833698749542236,0.33183369040489197
1667404648.03959775,100674044,42.7285852,-84.4847503,261.1000061035156,0.0401080846786499,0.33010807633399963
1667404648.05948782,100693934,42.7285852,-84.4847503,261.0899963378906,0.03998503088951111,0.32998502254486084
1667404648.07974076,100714187,42.7285852,-84.4847503,261.0899963378906,0.03930783271789551,0.32930782437324524
1667404648.11937976,100753826,42.7285852,-84.4847503,261.0899963378906,0.038704365491867065,0.3287043571472168
1667404648.15957689,100794023,42.7285852,-84.4847503,261.0899963378906,0.038266777992248535,0.32826676964759827
1667404648.15970397,100794150,42.7285852,-84.4847503,261.0899963378906,0.038266777992248535,0.32826676964759827
1667404648.19938993,100833836,42.7285852,-84.4847503,261.0899963378906,0.03797072172164917,0.3279707133769989
1667404648.23967195,100874118,42.7285852,-84.4847503,261.0899963378906,0.03703168034553528,0.327031672000885
1667404648.25960088,100894047,42.7285852,-84.4847503,261.0899963378906,0.03705534338951111,0.32705533504486084
1667404648.27973986,100914186,42.7285852,-84.4847503,261.0899963378906,0.036727726459503174,0.3267277181148529
1667404648.31933379,100953780,42.7285852,-84.4847503,261.0899963378906,0.036422789096832275,0.326422780752182
1667404648.35951376,100993960,42.7285852,-84.4847503,261.0899963378906,0.03617224097251892,0.32617223262786865
1667404648.35958576,100994032,42.7285852,-84.4847503,261.0899963378906,0.03617224097251892,0.32617223262786865
1667404648.39936781,101033814,42.7285852,-84.4847503,261.0899963378906,0.03547239303588867,0.3254723846912384
1667404648.43971491,101074161,42.7285852,-84.4847503,261.0899963378906,0.032334476709365845,0.3223344683647156
1667404648.45946693,101093913,42.7285852,-84.4847503,261.0899963378906,0.03180846571922302,0.32180845737457275
1667404648.47962594,101114072,42.7285852,-84.4847503,261.0899963378906,0.03053298406302929,0.32053297758102417
1667404648.51928496,101153731,42.7285852,-84.4847503,261.0799865722656,0.02875417284667492,0.3187541663646698
1667404648.55951595,101193962,42.7285852,-84.4847503,261.0799865722656,0.02712005190551281,0.3171200454235077
1667404648.55962396,101194070,42.7285852,-84.4847503,261.0799865722656,0.02712005190551281,0.3171200454235077
1667404648.59937882,101233825,42.7285852,-84.4847503,261.0799865722656,0.02575322799384594,0.3157532215118408
1667404648.63965392,101274100,42.7285852,-84.4847503,261.0799865722656,0.023007480427622795,0.3130074739456177
1667404648.65952182,101293968,42.7285852,-84.4847503,261.0799865722656,0.022524980828166008,0.3125249743461609
1667404648.67968488,101314131,42.7285852,-84.4847503,261.0799865722656,0.021385638043284416,0.3113856315612793
1667404648.71928596,101353732,42.7285852,-84.4847503,261.07000732421875,0.019987760111689568,0.30998775362968445
1667404648.75951886,101393965,42.7285852,-84.4847503,261.07000732421875,0.018781540915369987,0.30878153443336487
1667404648.75963283,101394079,42.7285852,-84.4847503,261.07000732421875,0.018781540915369987,0.30878153443336487
1667404648.79937482,101433821,42.7285852,-84.4847503,261.07000732421875,0.017788855358958244,0.3077888488769531
1667404648.83969378,101474140,42.7285852,-84.4847503,261.07000732421875,0.017939714714884758,0.30793970823287964
1667404648.85979986,101494246,42.7285852,-84.4847503,261.07000732421875,0.018083957955241203,0.3080839514732361
1667404648.87978077,101514227,42.7285852,-84.4847503,261.07000732421875,0.018193183466792107,0.308193176984787
1667404648.91928196,101553728,42.7285852,-84.4847503,261.07000732421875,0.018273351714015007,0.3082733452320099
1667404648.95952392,101593970,42.7285852,-84.4847503,261.07000732421875,0.01830458454787731,0.3083045780658722
1667404648.95962691,101594073,42.7285852,-84.4847503,261.07000732421875,0.01830458454787731,0.3083045780658722
1667404648.99935794,101633804,42.7285852,-84.4847503,261.07000732421875,0.01839113049209118,0.30839112401008606
1667404649.03965783,101674104,42.7285852,-84.4847503,261.0799865722656,0.020388035103678703,0.3103880286216736
1667404649.05956793,101694014,42.7285852,-84.4847503,261.0799865722656,0.02094617299735546,0.31094616651535034
1667404649.07964897,101714095,42.7285852,-84.4847503,261.0799865722656,0.02185448817908764,0.3118544816970825
1667404649.11935997,101753806,42.7285852,-84.4847503,261.0799865722656,0.023139772936701775,0.31313976645469666
1667404649.15952778,101793974,42.7285852,-84.4847503,261.0799865722656,0.02434566430747509,0.31434565782546997
1667404649.15966988,101794116,42.7285852,-84.4847503,261.0799865722656,0.02434566430747509,0.31434565782546997
1667404649.19935274,101833799,42.7285852,-84.4847503,261.0799865722656,0.025489239022135735,0.3154892325401306
1667404649.23967695,101874123,42.7285852,-84.4847503,261.0799865722656,0.026658175513148308,0.3166581690311432
1667404649.25953388,101893980,42.7285852,-84.4847503,261.0799865722656,0.027027873322367668,0.31702786684036255
1667404649.27960777,101914054,42.7285852,-84.4847503,261.0799865722656,0.02758610062301159,0.31758609414100647
1667404649.31932878,101953775,42.7285852,-84.4847503,261.0799865722656,0.028438208624720573,0.31843820214271545
1667404649.35947585,101993922,42.7285852,-84.4847503,261.0799865722656,0.02925202064216137,0.31925201416015625
1667404649.35960197,101994048,42.7285852,-84.4847503,261.0799865722656,0.02925202064216137,0.31925201416015625
1667404649.39929390,102033740,42.7285852,-84.4847503,261.0899963378906,0.03002139739692211,0.320021390914917
1667404649.43964791,102074094,42.7285852,-84.4847503,261.0899963378906,0.03255164623260498,0.3225516378879547
1667404649.45947695,102093923,42.7285852,-84.4847503,261.0899963378906,0.033230751752853394,0.3232307434082031
1667404649.47964883,102114095,42.7285852,-84.4847503,261.0899963378906,0.03433114290237427,0.324331134557724
1667404649.51936078,102153807,42.7285852,-84.4847503,261.0899963378906,0.035697728395462036,0.32569772005081177
1667404649.55950284,102193949,42.7285852,-84.4847503,261.0899963378906,0.03680688142776489,0.3268068730831146
1667404649.55963278,102194079,42.7285852,-84.4847503,261.0899963378906,0.03680688142776489,0.3268068730831146
1667404649.59948897,102233935,42.7285852,-84.4847503,261.0899963378906,0.03788965940475464,0.32788965106010437
1667404649.63960195,102274048,42.7285852,-84.4847503,261.1000061035156,0.04001259803771973,0.33001258969306946
1667404649.65949178,102293938,42.7285852,-84.4847503,261.1000061035156,0.04062247276306152,0.33062246441841125
1667404649.67961597,102314062,42.7285852,-84.4847503,261.1000061035156,0.04156017303466797,0.3315601646900177
1667404649.71937275,102353819,42.7285852,-84.4847503,261.1000061035156,0.04284030199050903,0.33284029364585876
1667404649.75958395,102394030,42.7285853,-84.4847503,261.1000061035156,0.04391232132911682,0.33391231298446655
1667404649.75970578,102394152,42.7285853,-84.4847503,261.1000061035156,0.04391232132911682,0.33391231298446655
1667404649.79940796,102433854,42.7285853,-84.4847503,261.1000061035156,0.04495576024055481,0.33495575189590454
1667404649.83964896,102474095,42.7285853,-84.4847503,261.1000061035156,0.04571354389190674,0.33571353554725647
1667404649.85989094,102494337,42.7285853,-84.4847503,261.1000061035156,0.045986175537109375,0.3359861671924591
1667404649.87965178,102514098,42.7285853,-84.4847503,261.1000061035156,0.046344250440597534,0.33634424209594727
1667404649.91940689,102553853,42.7285853,-84.4847503,261.1000061035156,0.046747416257858276,0.336747407913208
1667404649.95965075,102594097,42.7285853,-84.4847503,261.1000061035156,0.04701182246208191,0.33701181411743164
1667404649.95978093,102594227,42.7285853,-84.4847503,261.1000061035156,0.04701182246208191,0.33701181411743164
1667404649.99934077,102633787,42.7285853,-84.4847503,261.1000061035156,0.047294944524765015,0.33729493618011475
1667404650.03961086,102674057,42.7285853,-84.4847503,261.1000061035156,0.049505531787872314,0.33950552344322205
1667404650.05951881,102693965,42.7285853,-84.4847503,261.1099853515625,0.050110191106796265,0.340110182762146
1667404650.07966685,102714113,42.7285853,-84.4847503,261.1099853515625,0.05111566185951233,0.34111565351486206
1667404650.11939096,102753837,42.7285853,-84.4847503,261.1099853515625,0.052479058504104614,0.34247905015945435
1667404650.15947986,102793926,42.7285853,-84.4847503,261.1099853515625,0.053722918033599854,0.3437229096889496
1667404650.15959191,102794038,42.7285853,-84.4847503,261.1099853515625,0.053722918033599854,0.3437229096889496
1667404650.19938278,102833829,42.7285853,-84.4847503,261.1099853515625,0.05491098761558533,0.34491097927093506
1667404650.23968077,102874127,42.7285853,-84.4847503,261.1099853515625,0.05821695923805237,0.3482169508934021
1667404650.25963593,102894082,42.7285853,-84.4847503,261.1099853515625,0.05911478400230408,0.3491147756576538
1667404650.27969193,102914138,42.7285853,-84.4847503,261.1199951171875,0.060589104890823364,0.3505890965461731
1667404650.31933475,102953781,42.7285853,-84.4847503,261.1199951171875,0.0626603364944458,0.35266032814979553
1667404650.35954380,102993990,42.7285853,-84.4847503,261.1199951171875,0.06455731391906738,0.3545573055744171
1667404650.35964680,102994093,42.7285853,-84.4847503,261.1199951171875,0.06455731391906738,0.3545573055744171
1667404650.39937496,103033821,42.7285853,-84.4847504,261.1199951171875,0.06627863645553589,0.3562786281108856
1667404650.43980193,103074248,42.7285853,-84.4847504,261.1199951171875,0.06779792904853821,0.35779792070388794
1667404650.45953178,103093978,42.7285853,-84.4847504,261.1199951171875,0.06829318404197693,0.35829317569732666
1667404650.47972274,103114169,42.7285853,-84.4847504,261.1199951171875,0.06899949908256531,0.35899949073791504
1667404650.51935387,103153800,42.7285853,-84.4847504,261.1300048828125,0.07006192207336426,0.360061913728714
1667404650.55946994,103193916,42.7285853,-84.4847504,261.1300048828125,0.07097974419593811,0.36097973585128784
1667404650.55961490,103194061,42.7285853,-84.4847504,261.1300048828125,0.07097974419593811,0.36097973585128784
1667404650.59935093,103233797,42.7285853,-84.4847504,261.1300048828125,0.07193067669868469,0.3619306683540344
1667404650.63965988,103274106,42.7285853,-84.4847504,261.1300048828125,0.07307007908821106,0.3630700707435608
1667404650.65956187,103294008,42.7285853,-84.4847504,261.1300048828125,0.07350218296051025,0.36350217461586
1667404650.67973590,103314182,42.7285853,-84.4847504,261.1300048828125,0.07407388091087341,0.36407387256622314
1667404650.71933389,103353780,42.7285853,-84.4847504,261.1300048828125,0.07498028874397278,0.3649802803993225
1667404650.75962281,103394069,42.7285853,-84.4847504,261.1300048828125,0.07585692405700684,0.36585691571235657
1667404650.75972986,103394176,42.7285853,-84.4847504,261.1300048828125,0.07585692405700684,0.36585691571235657
1667404650.79942083,103433867,42.7285853,-84.4847504,261.1300048828125,0.07674306631088257,0.3667430579662323
1667404650.83966494,103474111,42.7285853,-84.4847504,261.1300048828125,0.07747101783752441,0.36747100949287415
1667404650.85977077,103494217,42.7285853,-84.4847504,261.1300048828125,0.07781529426574707,0.3678152859210968
1667404650.87961578,103514062,42.7285853,-84.4847504,261.1300048828125,0.07817715406417847,0.3681771457195282
1667404650.91940188,103553848,42.7285853,-84.4847504,261.1300048828125,0.07890895009040833,0.36890894174575806
1667404650.95962095,103594067,42.7285853,-84.48475049999999,261.1300048828125,0.07967549562454224,0.36967548727989197
1667404650.95975184,103594198,42.7285853,-84.48475049999999,261.1300048828125,0.07967549562454224,0.36967548727989197
1667404650.99935889,103633805,42.7285853,-84.48475049999999,261.1399841308594,0.08032688498497009,0.3703268766403198
1667404651.03966880,103674115,42.7285853,-84.48475049999999,261.1399841308594,0.08069884777069092,0.37069883942604065
1667404651.05944777,103693894,42.7285853,-84.48475049999999,261.1399841308594,0.08097979426383972,0.37097978591918945
1667404651.07967186,103714118,42.7285854,-84.48475049999999,261.1399841308594,0.08122152090072632,0.37122151255607605
1667404651.11940789,103753854,42.7285854,-84.48475049999999,261.1399841308594,0.08233118057250977,0.3723311722278595
1667404651.15952277,103793969,42.7285854,-84.48475049999999,261.1399841308594,0.08379703760147095,0.3737970292568207
1667404651.15965676,103794103,42.7285854,-84.48475049999999,261.1399841308594,0.08379703760147095,0.3737970292568207
1667404651.19940186,103833848,42.7285854,-84.48475049999999,261.1399841308594,0.08576792478561401,0.37576791644096375
1667404651.23963094,103874077,42.7285854,-84.48475049999999,261.1399841308594,0.08948343992233276,0.3794834315776825
1667404651.25948787,103893934,42.7285854,-84.48475049999999,261.1499938964844,0.09125247597694397,0.3812524676322937
1667404651.27962685,103914073,42.7285854,-84.48475049999999,261.1499938964844,0.09332361817359924,0.383323609828949
1667404651.31944990,103953896,42.7285854,-84.48475049999999,261.1499938964844,0.09857967495918274,0.38857966661453247
1667404651.35952997,103993976,42.7285854,-84.4847506,261.1600036621094,0.10506346821784973,0.39506345987319946
1667404651.35970688,103994153,42.7285854,-84.4847506,261.1600036621094,0.10506346821784973,0.39506345987319946
1667404651.39943194,104033878,42.7285854,-84.4847506,261.16998291015625,0.11280745267868042,0.40280744433403015
1667404651.43968678,104074133,42.7285854,-84.4847506,261.17999267578125,0.12165135145187378,0.4116513431072235
1667404651.45951080,104093957,42.7285854,-84.4847506,261.17999267578125,0.12630507349967957,0.4163050651550293
1667404651.47961783,104114064,42.7285854,-84.4847506,261.19000244140625,0.13172462582588196,0.4217246174812317
1667404651.51933575,104153782,42.7285854,-84.48475069999999,261.1999816894531,0.14409175515174866,0.4340917468070984
1667404651.55954075,104193987,42.7285854,-84.48475069999999,261.2099914550781,0.15783357620239258,0.4478335678577423
1667404651.55963087,104194077,42.7285854,-84.48475069999999,261.2099914550781,0.15783357620239258,0.4478335678577423
1667404651.59934688,104233793,42.7285854,-84.48475069999999,261.22998046875,0.17242610454559326,0.462426096200943
1667404651.63980675,104274253,42.7285854,-84.4847508,261.25,0.1921580731868744,0.4821580648422241
1667404651.65951586,104293962,42.7285855,-84.4847508,261.2599792480469,0.2012171745300293,0.49121716618537903
1667404651.67967796,104314124,42.7285855,-84.4847508,261.2699890136719,0.21169832348823547,0.5016983151435852
1667404651.71937490,104353821,42.7285855,-84.4847508,261.2900085449219,0.2337457835674286,0.5237457752227783
1667404651.75961781,104394064,42.7285855,-84.4847509,261.30999755859375,0.257872611284256,0.5478726029396057
1667404651.75971889,104394165,42.7285855,-84.4847509,261.30999755859375,0.257872611284256,0.5478726029396057
1667404651.79936695,104433813,42.7285855,-84.4847509,261.3399963378906,0.283027321100235,0.5730273127555847
1667404651.83969474,104474141,42.728585599999995,-84.484751,261.3699951171875,0.3147636353969574,0.6047636270523071
1667404651.85965776,104494104,42.728585599999995,-84.484751,261.3800048828125,0.32818761467933655,0.6181876063346863
1667404651.87970090,104514147,42.728585599999995,-84.484751,261.3999938964844,0.3439575731754303,0.63395756483078
1667404651.91930676,104553753,42.728585599999995,-84.4847511,261.42999267578125,0.3747151792049408,0.6647151708602905
1667404651.95957589,104594022,42.7285857,-84.4847511,261.4599914550781,0.4064135253429413,0.696413516998291
1667404651.95968390,104594130,42.7285857,-84.4847511,261.4599914550781,0.4064135253429413,0.696413516998291
1667404651.99931788,104633764,42.7285857,-84.48475119999999,261.489990234375,0.43822672963142395,0.7282267212867737
1667404652.03971195,104674158,42.7285857,-84.48475119999999,261.5299987792969,0.47556790709495544,0.7655678987503052
1667404652.05968189,104694128,42.7285857,-84.48475119999999,261.54998779296875,0.49130406975746155,0.7813040614128113
1667404652.07971191,104714158,42.7285857,-84.48475119999999,261.55999755859375,0.5095395445823669,0.7995395660400391
1667404652.11941981,104753866,42.7285857,-84.4847513,261.6000061035156,0.5445308685302734,0.8345308899879456
1667404652.15947795,104793924,42.7285857,-84.4847513,261.6300048828125,0.5799147486686707,0.8699147701263428
1667404652.15962696,104794073,42.7285857,-84.4847513,261.6300048828125,0.5799147486686707,0.8699147701263428
1667404652.19925785,104833704,42.7285857,-84.4847514,261.66998291015625,0.6147851943969727,0.9047852158546448
1667404652.23975396,104874200,42.7285857,-84.4847514,261.7099914550781,0.6500418186187744,0.9400418400764465
1667404652.25947881,104893925,42.7285857,-84.4847514,261.7200012207031,0.6662187576293945,0.9562187790870667
1667404652.27970076,104914147,42.7285857,-84.4847514,261.739990234375,0.6834538578987122,0.9734538793563843
1667404652.31940794,104953854,42.7285857,-84.4847515,261.7699890136719,0.7139288783073425,1.0039288997650146
1667404652.35952091,104993967,42.728585599999995,-84.4847515,261.79998779296875,0.7430426478385925,1.0330426692962646
1667404652.35965490,104994101,42.728585599999995,-84.4847515,261.79998779296875,0.7430426478385925,1.0330426692962646
1667404652.39932394,105033770,42.728585599999995,-84.4847515,261.8299865722656,0.7728806138038635,1.0628806352615356
1667404652.43963480,105074081,42.728585599999995,-84.4847516,261.8599853515625,0.8002018332481384,1.0902018547058105
1667404652.45955181,105093998,42.728585599999995,-84.4847516,261.8699951171875,0.8147874474525452,1.1047874689102173
1667404652.47976780,105114214,42.7285855,-84.4847516,261.8800048828125,0.8286442160606384,1.1186442375183105
1667404652.51935577,105153802,42.7285855,-84.4847516,261.9100036621094,0.8566561341285706,1.1466561555862427
1667404652.55950284,105193949,42.7285855,-84.4847516,261.94000244140625,0.8852813839912415,1.1752814054489136
1667404652.55963588,105194082,42.7285855,-84.4847516,261.94000244140625,0.8852813839912415,1.1752814054489136
1667404652.59930491,105233751,42.7285855,-84.4847516,261.9700012207031,0.91424959897995,1.204249620437622
1667404652.63966894,105274115,42.7285855,-84.4847516,262.0,0.9423134922981262,1.2323135137557983
1667404652.65955591,105294002,42.7285855,-84.48475169999999,262.0099792480469,0.9571130871772766,1.2471131086349487
1667404652.67963791,105314084,42.7285855,-84.48475169999999,262.0299987792969,0.9718589186668396,1.2618589401245117
1667404652.71936989,105353816,42.7285854,-84.48475169999999,262.04998779296875,0.9982612729072571,1.2882612943649292
1667404652.75957274,105394019,42.7285854,-84.4847518,262.0799865722656,1.024120569229126,1.3141205310821533
1667404652.75970793,105394154,42.7285854,-84.4847518,262.0799865722656,1.024120569229126,1.3141205310821533
1667404652.79931593,105433762,42.7285854,-84.4847518,262.1099853515625,1.0503487586975098,1.340348720550537
1667404652.83970475,105474151,42.7285853,-84.48475189999999,262.1300048828125,1.0730888843536377,1.363088846206665
1667404652.85951281,105493959,42.7285853,-84.48475189999999,262.1399841308594,1.0864381790161133,1.3764381408691406
1667404652.87964678,105514093,42.7285853,-84.48475189999999,262.1499938964844,1.0983604192733765,1.3883603811264038
1667404652.91932178,105553768,42.7285852,-84.484752,262.17999267578125,1.123449683189392,1.4134496450424194
1667404652.95957780,105594024,42.7285852,-84.4847521,262.1999816894531,1.1479840278625488,1.4379839897155762
1667404652.95971775,105594164,42.7285852,-84.4847521,262.1999816894531,1.1479840278625488,1.4379839897155762
1667404652.99940276,105633849,42.7285852,-84.4847521,262.22998046875,1.1729459762573242,1.4629459381103516
1667404653.03967786,105674124,42.7285851,-84.4847522,262.25,1.1946263313293457,1.484626293182373
1667404653.05952382,105693970,42.7285851,-84.4847522,262.2599792480469,1.207013487815857,1.4970134496688843
1667404653.07963181,105714078,42.7285851,-84.4847523,262.2699890136719,1.2180079221725464,1.5080078840255737
1667404653.11935282,105753799,42.7285851,-84.4847523,262.2900085449219,1.239975094795227,1.5299750566482544
1667404653.15959883,105794045,42.7285851,-84.48475239999999,262.32000732421875,1.2618110179901123,1.5518109798431396
1667404653.15971589,105794162,42.7285851,-84.48475239999999,262.32000732421875,1.2618110179901123,1.5518109798431396
1667404653.19946289,105833909,42.7285851,-84.4847525,262.3399963378906,1.2837183475494385,1.5737183094024658
1667404653.23971581,105874162,42.7285851,-84.4847526,262.3599853515625,1.3048007488250732,1.5948007106781006
1667404653.25947189,105893918,42.7285851,-84.4847526,262.3699951171875,1.316311240196228,1.6063112020492554
1667404653.27967191,105914118,42.7285851,-84.4847527,262.3800048828125,1.3268343210220337,1.616834282875061
1667404653.31940079,105953847,42.7285851,-84.4847527,262.3999938964844,1.349311351776123,1.6393113136291504
1667404653.35957694,105994023,42.7285851,-84.4847528,262.42999267578125,1.3723310232162476,1.662330985069275
1667404653.35968375,105994130,42.7285851,-84.4847528,262.42999267578125,1.3723310232162476,1.662330985069275
1667404653.39935780,106033804,42.7285851,-84.48475289999999,262.4499816894531,1.3952313661575317,1.685231328010559
1667404653.43963981,106074086,42.7285852,-84.48475289999999,262.4700012207031,1.4167252779006958,1.7067252397537231
1667404653.45953083,106093977,42.7285852,-84.484753,262.47998046875,1.4279440641403198,1.7179440259933472
1667404653.47971296,106114159,42.7285852,-84.484753,262.489990234375,1.4387695789337158,1.7287695407867432
1667404653.51930690,106153753,42.7285852,-84.484753,262.5199890136719,1.4608502388000488,1.7508502006530762
1667404653.55956984,106194016,42.7285853,-84.48475309999999,262.5400085449219,1.4825527667999268,1.772552728652954
1667404653.55967283,106194119,42.7285853,-84.48475309999999,262.5400085449219,1.4825527667999268,1.772552728652954
1667404653.59931588,106233762,42.7285853,-84.48475309999999,262.55999755859375,1.5046749114990234,1.7946748733520508
1667404653.63963985,106274086,42.7285853,-84.48475309999999,262.5799865722656,1.5278971195220947,1.817897081375122
1667404653.65946984,106293916,42.7285854,-84.484753,262.5899963378906,1.5391852855682373,1.8291852474212646
1667404653.67970085,106314147,42.7285854,-84.484753,262.6099853515625,1.5507832765579224,1.8407832384109497
1667404653.71936297,106353809,42.7285854,-84.484753,262.6300048828125,1.573174238204956,1.8631742000579834
1667404653.75948691,106393933,42.7285854,-84.484753,262.6499938964844,1.5954961776733398,1.8854961395263672
1667404653.75963092,106394077,42.7285854,-84.484753,262.6499938964844,1.5954961776733398,1.8854961395263672
1667404653.79926896,106433715,42.7285854,-84.484753,262.66998291015625,1.618019700050354,1.9080196619033813
1667404653.83966589,106474112,42.7285854,-84.484753,262.6999816894531,1.6438862085342407,1.933886170387268
1667404653.85953593,106493982,42.7285854,-84.484753,262.7099914550781,1.6554789543151855,1.945478916168213
1667404653.87973380,106514180,42.7285854,-84.48475289999999,262.7200012207031,1.667709469795227,1.9577094316482544
1667404653.91936183,106553808,42.7285854,-84.48475289999999,262.75,1.6912976503372192,1.9812976121902466
1667404653.95952487,106593971,42.7285854,-84.4847528,262.7699890136719,1.714245319366455,2.0042452812194824
1667404653.95966697,106594113,42.7285854,-84.4847528,262.7699890136719,1.714245319366455,2.0042452812194824
1667404653.99929786,106633744,42.7285854,-84.4847528,262.7900085449219,1.7365868091583252,2.0265867710113525
1667404654.03964591,106674092,42.7285853,-84.4847527,262.80999755859375,1.7549338340759277,2.044933795928955
1667404654.05957079,106694017,42.7285853,-84.4847527,262.82000732421875,1.7644178867340088,2.054417848587036
1667404654.07963991,106714086,42.7285852,-84.4847527,262.8299865722656,1.7734663486480713,2.0634663105010986
1667404654.11933994,106753786,42.7285852,-84.4847526,262.8500061035156,1.7917888164520264,2.0817887783050537
1667404654.15965796,106794104,42.7285851,-84.4847525,262.8599853515625,1.8096234798431396,2.099623441696167
1667404654.15983677,106794283,42.7285851,-84.4847525,262.8599853515625,1.8096234798431396,2.099623441696167
1667404654.19942093,106833867,42.7285851,-84.48475239999999,262.8800048828125,1.8268303871154785,2.116830348968506
1667404654.23967886,106874125,42.7285849,-84.48475239999999,262.8999938964844,1.846130609512329,2.1361305713653564
1667404654.25953078,106893977,42.7285849,-84.4847523,262.9100036621094,1.8549408912658691,2.1449408531188965
1667404654.27968192,106914128,42.7285848,-84.4847523,262.91998291015625,1.8641936779022217,2.154193639755249
1667404654.31931686,106953763,42.7285847,-84.4847522,262.94000244140625,1.882188081741333,2.1721880435943604
1667404654.35956287,106994009,42.7285846,-84.4847521,262.9499816894531,1.899672269821167,2.1896722316741943
1667404654.35969591,106994142,42.7285846,-84.4847521,262.9499816894531,1.899672269821167,2.1896722316741943
1667404654.39941978,107033866,42.7285845,-84.48475189999999,262.9700012207031,1.9169278144836426,2.20692777633667
1667404654.43966389,107074110,42.7285843,-84.48475189999999,262.989990234375,1.9365041255950928,2.22650408744812
1667404654.45958185,107094028,42.7285843,-84.4847518,263.0,1.9449207782745361,2.2349207401275635
1667404654.47963595,107114082,42.7285842,-84.4847518,263.0099792480469,1.9540951251983643,2.2440950870513916
1667404654.51955676,107154003,42.728584,-84.48475169999999,263.0299987792969,1.9721055030822754,2.2621054649353027
1667404654.55952597,107193972,42.7285839,-84.4847516,263.0400085449219,1.9894497394561768,2.279449701309204
1667404654.55970478,107194151,42.7285839,-84.4847516,263.0400085449219,1.9894497394561768,2.279449701309204
1667404654.59933877,107233785,42.7285837,-84.4847515,263.05999755859375,2.0060808658599854,2.2960808277130127
1667404654.63972974,107274176,42.7285835,-84.4847515,263.0799865722656,2.021465539932251,2.3114655017852783
1667404654.65950084,107293947,42.7285834,-84.4847514,263.0799865722656,2.028468132019043,2.3184680938720703
1667404654.67961478,107314061,42.7285833,-84.4847514,263.0899963378906,2.0355539321899414,2.3255538940429688
1667404654.71935678,107353803,42.7285831,-84.4847513,263.1000061035156,2.0498459339141846,2.339845895767212
1667404654.75959778,107394044,42.7285829,-84.48475119999999,263.1199951171875,2.063647508621216,2.353647470474243
1667404654.75968575,107394132,42.7285829,-84.48475119999999,263.1199951171875,2.063647508621216,2.353647470474243
1667404654.79942584,107433872,42.7285827,-84.4847511,263.1300048828125,2.0765745639801025,2.36657452583313
1667404654.83964396,107474090,42.7285824,-84.484751,263.1399841308594,2.0898666381835938,2.379866600036621
1667404654.85951877,107493965,42.7285823,-84.484751,263.1499938964844,2.0957837104797363,2.3857836723327637
1667404654.87968683,107514133,42.7285822,-84.4847509,263.1600036621094,2.102055788040161,2.3920557498931885
1667404654.91930485,107553751,42.728581899999995,-84.4847508,263.16998291015625,2.113906145095825,2.4039061069488525
1667404654.95951676,107593963,42.7285817,-84.48475069999999,263.17999267578125,2.125089168548584,2.4150891304016113
1667404654.95963097,107594077,42.7285817,-84.48475069999999,263.17999267578125,2.125089168548584,2.4150891304016113
1667404654.99946594,107633912,42.7285815,-84.48475049999999,263.19000244140625,2.135942220687866,2.4259421825408936
1667404655.03968191,107674128,42.7285812,-84.48475049999999,263.1999816894531,2.1463472843170166,2.436347246170044
1667404655.05955482,107694001,42.728581,-84.4847504,263.2099914550781,2.151101589202881,2.441101551055908
1667404655.07968879,107714135,42.7285809,-84.4847504,263.2099914550781,2.1560218334198,2.446021795272827
1667404655.11939597,107753842,42.7285806,-84.4847503,263.2200012207031,2.165405750274658,2.4554057121276855
1667404655.15956974,107794016,42.7285804,-84.4847502,263.22998046875,2.174964189529419,2.4649641513824463
1667404655.15967894,107794125,42.7285804,-84.4847502,263.22998046875,2.174964189529419,2.4649641513824463
1667404655.19932389,107833770,42.728580099999995,-84.48474999999999,263.239990234375,2.184560775756836,2.4745607376098633
1667404655.23964977,107874096,42.7285798,-84.48474999999999,263.25,2.194916248321533,2.4849162101745605
1667404655.25947595,107893922,42.7285797,-84.4847499,263.25,2.1997103691101074,2.4897103309631348
1667404655.27970791,107914154,42.728579499999995,-84.4847499,263.2599792480469,2.205012083053589,2.495012044906616
1667404655.31934977,107953796,42.7285793,-84.4847498,263.2699890136719,2.2156994342803955,2.505699396133423
1667404655.35958695,107994033,42.728578999999996,-84.4847496,263.2799987792969,2.22653865814209,2.516538619995117
1667404655.35969377,107994140,42.728578999999996,-84.4847496,263.2799987792969,2.22653865814209,2.516538619995117
1667404655.39938092,108033827,42.7285787,-84.48474949999999,263.2900085449219,2.237236738204956,2.5272367000579834
1667404655.43967390,108074120,42.728578399999996,-84.48474949999999,263.29998779296875,2.2496063709259033,2.5396063327789307
1667404655.45951891,108093965,42.7285782,-84.4847494,263.30999755859375,2.2552361488342285,2.545236110687256
1667404655.47970390,108114150,42.7285781,-84.4847494,263.32000732421875,2.2614147663116455,2.551414728164673
1667404655.51975584,108154202,42.728577699999995,-84.4847494,263.3299865722656,2.2742810249328613,2.5642809867858887
1667404655.55952978,108193976,42.7285774,-84.48474929999999,263.3399963378906,2.287627935409546,2.5776278972625732
1667404655.55966997,108194116,42.7285774,-84.48474929999999,263.3399963378906,2.287627935409546,2.5776278972625732
1667404655.59927583,108233722,42.7285772,-84.4847492,263.3599853515625,2.300856828689575,2.5908567905426025
1667404655.63971186,108274158,42.7285768,-84.48474929999999,263.3699951171875,2.3150527477264404,2.6050527095794678
1667404655.65953779,108293984,42.7285767,-84.4847492,263.3800048828125,2.321531295776367,2.6115312576293945
1667404655.67965794,108314104,42.728576499999996,-84.4847492,263.3800048828125,2.328580379486084,2.6185803413391113
1667404655.71945691,108353903,42.7285762,-84.4847492,263.3999938964844,2.3428151607513428,2.63281512260437
1667404655.75954795,108393994,42.728575899999996,-84.4847492,263.4100036621094,2.3572494983673096,2.647249460220337
1667404655.75970292,108394149,42.728575899999996,-84.4847492,263.4100036621094,2.3572494983673096,2.647249460220337
1667404655.79932785,108433774,42.7285756,-84.4847492,263.42999267578125,2.371962785720825,2.6619627475738525
1667404655.83975482,108474201,42.728575299999996,-84.4847492,263.44000244140625,2.384643316268921,2.6746432781219482
1667404655.85955095,108493997,42.728575199999995,-84.4847491,263.4499816894531,2.3916282653808594,2.6816282272338867
1667404655.87968993,108514136,42.7285751,-84.4847491,263.4499816894531,2.3982958793640137,2.688295841217041
1667404655.91935182,108553798,42.7285748,-84.4847491,263.4700012207031,2.412991523742676,2.702991485595703
1667404655.95949078,108593937,42.7285745,-84.4847491,263.47998046875,2.4283101558685303,2.7183101177215576
1667404655.95958877,108594035,42.7285745,-84.4847491,263.47998046875,2.4283101558685303,2.7183101177215576
1667404655.99932981,108633776,42.7285743,-84.4847491,263.5,2.443810224533081,2.7338101863861084
1667404656.03972793,108674174,42.728573999999995,-84.4847491,263.5099792480469,2.4587998390197754,2.7487998008728027
1667404656.05955577,108694002,42.7285739,-84.4847491,263.5199890136719,2.466543436050415,2.7565433979034424
1667404656.07967782,108714124,42.7285737,-84.4847491,263.5299987792969,2.4743142127990723,2.7643141746520996
1667404656.11932397,108753770,42.728573499999996,-84.484749,263.54998779296875,2.490976572036743,2.7809765338897705
1667404656.15953779,108793984,42.7285732,-84.484749,263.55999755859375,2.5081279277801514,2.7981278896331787
1667404656.15964293,108794089,42.7285732,-84.484749,263.55999755859375,2.5081279277801514,2.7981278896331787
1667404656.19936275,108833809,42.728573,-84.484749,263.5799865722656,2.5249783992767334,2.8149783611297607
1667404656.23976874,108874215,42.7285727,-84.4847489,263.6000061035156,2.5429115295410156,2.832911491394043
1667404656.25965595,108894102,42.7285726,-84.4847489,263.6099853515625,2.5513858795166016,2.841385841369629
1667404656.27922893,108913675,42.7285724,-84.4847489,263.6199951171875,2.5601985454559326,2.85019850730896
1667404656.31929994,108953746,42.728572199999995,-84.48474879999999,263.6300048828125,2.578547239303589,2.868547201156616
1667404656.35958481,108994031,42.7285719,-84.4847487,263.6499938964844,2.5975520610809326,2.88755202293396
1667404656.35969090,108994137,42.7285719,-84.4847487,263.6499938964844,2.5975520610809326,2.88755202293396
1667404656.40016389,109034610,42.728571699999996,-84.4847487,263.66998291015625,2.616370439529419,2.9063704013824463
1667404656.43973780,109074184,42.7285714,-84.4847486,263.69000244140625,2.636101484298706,2.9261014461517334
1667404656.45951390,109093960,42.7285713,-84.4847486,263.6999816894531,2.6452078819274902,2.9352078437805176
1667404656.47931576,109113762,42.7285712,-84.4847485,263.7099914550781,2.654585361480713,2.9445853233337402
1667404656.51943684,109153883,42.7285709,-84.4847485,263.72998046875,2.6732208728790283,2.9632208347320557
1667404656.55950880,109193955,42.7285707,-84.4847484,263.75,2.6918575763702393,2.9818575382232666
1667404656.55962181,109194068,42.7285707,-84.4847484,263.75,2.6918575763702393,2.9818575382232666
1667404656.60064292,109235089,42.7285705,-84.4847484,263.7699890136719,2.710242986679077,3.0002429485321045
1667404656.63967180,109274118,42.7285702,-84.48474829999999,263.7799987792969,2.7288761138916016,3.018876075744629
1667404656.65950084,109293947,42.7285701,-84.4847482,263.7900085449219,2.7373688220977783,3.0273687839508057
1667404656.67940879,109313855,42.72857,-84.4847482,263.79998779296875,2.746464490890503,3.0364644527435303
1667404656.71934795,109353794,42.728569799999995,-84.48474809999999,263.82000732421875,2.7637879848480225,3.05378794670105
1667404656.75959682,109394043,42.7285696,-84.484748,263.8399963378906,2.780775547027588,3.0707755088806152
1667404656.75972986,109394176,42.7285696,-84.484748,263.8399963378906,2.780775547027588,3.0707755088806152
1667404656.80071187,109435158,42.7285694,-84.4847479,263.8500061035156,2.7972190380096436,3.087218999862671
1667404656.83963490,109474081,42.728569199999995,-84.4847478,263.8699951171875,2.8147778511047363,3.1047778129577637
1667404656.85946488,109493911,42.7285691,-84.4847478,263.8800048828125,2.8229880332946777,3.112987995147705
1667404656.87934494,109513791,42.728569,-84.4847477,263.8899841308594,2.8314268589019775,3.121426820755005
1667404656.91931081,109553757,42.7285688,-84.4847477,263.8999938964844,2.8475708961486816,3.137570858001709
1667404656.95964479,109594091,42.728568599999996,-84.48474759999999,263.91998291015625,2.863133668899536,3.1531336307525635
1667404656.95971584,109594162,42.728568599999996,-84.48474759999999,263.91998291015625,2.863133668899536,3.1531336307525635
1667404657.00064397,109635090,42.7285683,-84.48474759999999,263.92999267578125,2.878404378890991,3.1684043407440186
1667404657.03962374,109674070,42.7285682,-84.48474739999999,263.9499816894531,2.8925588130950928,3.18255877494812
1667404657.05951977,109693966,42.7285681,-84.48474739999999,263.9499816894531,2.8992483615875244,3.1892483234405518
1667404657.07936692,109713813,42.728567999999996,-84.4847473,263.9599914550781,2.905916452407837,3.1959164142608643
1667404657.11936975,109753816,42.7285678,-84.4847472,263.9700012207031,2.9187352657318115,3.208735227584839
1667404657.15965676,109794103,42.7285676,-84.48474709999999,263.989990234375,2.9316763877868652,3.2216763496398926
1667404657.15975785,109794204,42.7285676,-84.48474709999999,263.989990234375,2.9316763877868652,3.2216763496398926
1667404657.20061088,109835057,42.728567399999996,-84.484747,264.0,2.943713903427124,3.2337138652801514
1667404657.23966575,109874112,42.7285672,-84.4847468,264.0099792480469,2.955036163330078,3.2450361251831055
1667404657.25954986,109893996,42.7285671,-84.4847467,264.0199890136719,2.9603934288024902,3.2503933906555176
1667404657.27941275,109913859,42.728567,-84.4847466,264.0199890136719,2.9654765129089355,3.255476474761963
1667404657.31943893,109953885,42.728566799999996,-84.4847465,264.0299987792969,2.975208282470703,3.2652082443237305
1667404657.35952592,109993972,42.7285665,-84.4847463,264.0400085449219,2.9843735694885254,3.2743735313415527
1667404657.35966182,109994108,42.7285665,-84.4847463,264.0400085449219,2.9843735694885254,3.2743735313415527
1667404657.40058589,110035032,42.7285663,-84.48474619999999,264.04998779296875,2.9925689697265625,3.28256893157959
1667404657.43962383,110074070,42.728566099999995,-84.484746,264.05999755859375,3.0009076595306396,3.290907621383667
1667404657.45950580,110093952,42.728566,-84.4847459,264.05999755859375,3.0044970512390137,3.294497013092041
1667404657.47935295,110113799,42.7285658,-84.4847458,264.05999755859375,3.008136034011841,3.298135995864868
1667404657.51949096,110153937,42.728565599999996,-84.4847456,264.07000732421875,3.0147061347961426,3.30470609664917
1667404657.55950689,110193953,42.7285653,-84.4847455,264.0799865722656,3.0207602977752686,3.310760259628296
1667404657.55965686,110194103,42.7285653,-84.4847455,264.0799865722656,3.0207602977752686,3.310760259628296
1667404657.60059595,110235042,42.728564999999996,-84.4847453,264.0799865722656,3.0259876251220703,3.3159875869750977
1667404657.63966274,110274109,42.7285648,-84.48474499999999,264.0799865722656,3.0291459560394287,3.319145917892456
1667404657.65954781,110293994,42.7285646,-84.4847449,264.0899963378906,3.0305964946746826,3.32059645652771
1667404657.67930484,110313751,42.7285645,-84.4847448,264.0899963378906,3.0317025184631348,3.321702480316162
1667404657.71929193,110353738,42.7285641,-84.4847446,264.0899963378906,3.033764123916626,3.3237640857696533
1667404657.75956178,110394008,42.728563799999996,-84.4847444,264.0899963378906,3.0350801944732666,3.325080156326294
1667404657.75966978,110394116,42.728563799999996,-84.4847444,264.0899963378906,3.0350801944732666,3.325080156326294
1667404657.80070186,110435148,42.7285635,-84.4847441,264.0899963378906,3.0361580848693848,3.326158046722412
1667404657.83971691,110474163,42.728563199999996,-84.48474379999999,264.0899963378906,3.0363636016845703,3.3263635635375977
1667404657.85955095,110493997,42.728563,-84.4847437,264.0899963378906,3.0367062091827393,3.3267061710357666
1667404657.87936091,110513807,42.7285629,-84.4847436,264.0899963378906,3.0366244316101074,3.3266243934631348
1667404657.91929388,110553740,42.728562499999995,-84.48474329999999,264.0899963378906,3.0372159481048584,3.3272159099578857
1667404657.95954490,110593991,42.7285622,-84.484743,264.0899963378906,3.0382180213928223,3.3282179832458496
1667404657.95968390,110594130,42.7285622,-84.484743,264.0899963378906,3.0382180213928223,3.3282179832458496
1667404658.00059986,110635046,42.7285618,-84.4847427,264.0899963378906,3.039024591445923,3.32902455329895
1667404658.03976393,110674210,42.7285615,-84.4847424,264.0899963378906,3.0389010906219482,3.3289010524749756
1667404658.05952978,110693976,42.728561299999996,-84.4847422,264.0899963378906,3.0388035774230957,3.328803539276123
1667404658.07929993,110713746,42.7285611,-84.48474209999999,264.0899963378906,3.0385096073150635,3.328509569168091
1667404658.11925197,110753698,42.728560699999996,-84.4847417,264.0899963378906,3.038407802581787,3.3284077644348145
1667404658.15957880,110794025,42.7285604,-84.48474139999999,264.0899963378906,3.038853645324707,3.3288536071777344
1667404658.15967894,110794125,42.7285604,-84.48474139999999,264.0899963378906,3.038853645324707,3.3288536071777344
1667404658.20068693,110835133,42.728559999999995,-84.484741,264.0899963378906,3.039280652999878,3.3292806148529053
1667404658.23981094,110874257,42.7285596,-84.4847407,264.1000061035156,3.040712833404541,3.3307127952575684
1667404658.25951695,110893963,42.728559399999995,-84.4847405,264.1000061035156,3.0413126945495605,3.331312656402588
1667404658.27937889,110913825,42.7285591,-84.48474039999999,264.1000061035156,3.042337656021118,3.3323376178741455
1667404658.31930375,110953750,42.7285587,-84.48474,264.1000061035156,3.044189214706421,3.3341891765594482
1667404658.35962987,110994076,42.728558299999996,-84.48473969999999,264.1000061035156,3.046449661254883,3.33644962310791
1667404658.35973096,110994177,42.728558299999996,-84.48473969999999,264.1000061035156,3.046449661254883,3.33644962310791
1667404658.40066791,111035114,42.7285578,-84.4847393,264.1000061035156,3.048941135406494,3.3389410972595215
1667404658.43962979,111074076,42.7285574,-84.48473899999999,264.1099853515625,3.051581382751465,3.341581344604492
1667404658.45948195,111093928,42.728557099999996,-84.4847388,264.1099853515625,3.052638292312622,3.3426382541656494
1667404658.47933197,111113778,42.7285569,-84.4847387,264.1099853515625,3.0539894104003906,3.343989372253418
1667404658.51952577,111153972,42.728556399999995,-84.48473829999999,264.1099853515625,3.056962251663208,3.3469622135162354
1667404658.55952597,111193972,42.728555899999996,-84.484738,264.1199951171875,3.0608439445495605,3.350843906402588
1667404658.55966496,111194111,42.728555899999996,-84.484738,264.1199951171875,3.0608439445495605,3.350843906402588
1667404658.60065794,111235104,42.7285554,-84.4847376,264.1199951171875,3.06504225730896,3.3550422191619873
1667404658.63961983,111274066,42.7285548,-84.48473729999999,264.1300048828125,3.0716116428375244,3.3616116046905518
1667404658.65952492,111293971,42.7285545,-84.48473709999999,264.1300048828125,3.0744056701660156,3.364405632019043
1667404658.67936277,111313809,42.7285542,-84.4847369,264.1300048828125,3.0780441761016846,3.368044137954712
1667404658.71940494,111353851,42.7285537,-84.48473659999999,264.1399841308594,3.0851128101348877,3.375112771987915
1667404658.75959396,111394040,42.7285531,-84.4847362,264.1499938964844,3.0929160118103027,3.38291597366333
1667404658.75973678,111394183,42.7285531,-84.4847362,264.1499938964844,3.0929160118103027,3.38291597366333
1667404658.80063176,111435078,42.7285525,-84.4847358,264.1600036621094,3.1012661457061768,3.391266107559204
1667404658.83966279,111474109,42.7285518,-84.4847355,264.16998291015625,3.111856460571289,3.4018564224243164
1667404658.85953474,111493981,42.728551499999995,-84.48473539999999,264.16998291015625,3.116886854171753,3.4068868160247803
1667404658.87938476,111513831,42.7285512,-84.4847352,264.17999267578125,3.1227095127105713,3.4127094745635986
1667404658.91942477,111553871,42.7285505,-84.48473489999999,264.19000244140625,3.134589433670044,3.4245893955230713
1667404658.95963693,111594083,42.728549799999996,-84.4847345,264.1999816894531,3.147552967071533,3.4375529289245605
1667404658.95979691,111594243,42.728549799999996,-84.4847345,264.1999816894531,3.147552967071533,3.4375529289245605
1667404659.00055790,111635004,42.728549199999996,-84.4847341,264.2200012207031,3.1613166332244873,3.4513165950775146
1667404659.03964686,111674093,42.7285484,-84.4847339,264.22998046875,3.1767213344573975,3.466721296310425
1667404659.05950379,111693950,42.7285481,-84.48473369999999,264.239990234375,3.184028148651123,3.4740281105041504
1667404659.07936382,111713810,42.7285477,-84.4847336,264.25,3.1919238567352295,3.481923818588257
1667404659.11940694,111753853,42.728547,-84.4847332,264.2599792480469,3.208418130874634,3.498418092727661
1667404659.15992975,111794376,42.7285463,-84.4847329,264.2799987792969,3.2266883850097656,3.516688346862793
1667404659.16000080,111794447,42.7285463,-84.4847329,264.2799987792969,3.2266883850097656,3.516688346862793
1667404659.19946790,111833914,42.728545499999996,-84.48473249999999,264.29998779296875,3.2452476024627686,3.535247564315796
1667404659.23970294,111874149,42.728544799999995,-84.48473229999999,264.32000732421875,3.265883684158325,3.5558836460113525
1667404659.25987697,111894323,42.7285444,-84.4847322,264.3299865722656,3.2750704288482666,3.565070390701294
1667404659.27929878,111913745,42.728544,-84.484732,264.3399963378906,3.285435199737549,3.575435161590576
1667404659.31943178,111953878,42.7285432,-84.4847317,264.3599853515625,3.3052847385406494,3.5952847003936768
1667404659.35982275,111994269,42.728542399999995,-84.4847314,264.3800048828125,3.3256678581237793,3.6156678199768066
1667404659.35996985,111994416,42.728542399999995,-84.4847314,264.3800048828125,3.3256678581237793,3.6156678199768066
1667404659.39941382,112033860,42.7285417,-84.48473109999999,264.3999938964844,3.3459393978118896,3.635939359664917
1667404659.43973780,112074184,42.7285408,-84.4847309,264.41998291015625,3.367586374282837,3.6575863361358643
1667404659.45984578,112094292,42.7285404,-84.4847307,264.42999267578125,3.377812385559082,3.6678123474121094
1667404659.47933888,112113785,42.728539999999995,-84.48473059999999,264.44000244140625,3.388733386993408,3.6787333488464355
1667404659.51928782,112153734,42.7285392,-84.4847302,264.4700012207031,3.410017490386963,3.7000174522399902
1667404659.55984282,112194289,42.7285383,-84.48472989999999,264.489990234375,3.432453155517578,3.7224531173706055
1667404659.55998182,112194428,42.7285383,-84.48472989999999,264.489990234375,3.432453155517578,3.7224531173706055
1667404659.59938884,112233835,42.7285375,-84.4847295,264.5099792480469,3.454117774963379,3.7441177368164062
1667404659.63969088,112274137,42.7285366,-84.4847293,264.5299987792969,3.477159261703491,3.7671592235565186
1667404659.65986395,112294310,42.7285362,-84.4847291,264.5400085449219,3.487877368927002,3.7778773307800293
1667404659.67943192,112313878,42.728535699999995,-84.484729,264.54998779296875,3.4992737770080566,3.789273738861084
1667404659.71928883,112353735,42.7285348,-84.4847286,264.5799865722656,3.5212087631225586,3.811208724975586
1667404659.75982690,112394273,42.728533999999996,-84.4847283,264.6000061035156,3.543971061706543,3.8339710235595703
1667404659.76001978,112394466,42.728533999999996,-84.4847283,264.6000061035156,3.543971061706543,3.8339710235595703
1667404659.79943180,112433878,42.7285331,-84.4847279,264.6199951171875,3.5664398670196533,3.8564398288726807
1667404659.83971786,112474164,42.728532099999995,-84.4847276,264.6399841308594,3.589946985244751,3.8799469470977783
1667404659.85995197,112494398,42.7285317,-84.4847274,264.6600036621094,3.6004693508148193,3.8904693126678467
1667404659.87936878,112513815,42.7285312,-84.4847272,264.66998291015625,3.6122379302978516,3.902237892150879
1667404659.91930389,112553750,42.728530299999996,-84.48472679999999,264.69000244140625,3.633920669555664,3.9239206314086914
1667404659.95983481,112594281,42.7285294,-84.4847264,264.7099914550781,3.6558430194854736,3.945842981338501
1667404659.95990896,112594355,42.7285294,-84.4847264,264.7099914550781,3.6558430194854736,3.945842981338501
1667404659.99937582,112633822,42.728528499999996,-84.484726,264.72998046875,3.6769988536834717,3.966998815536499
1667404660.03976297,112674209,42.7285275,-84.48472559999999,264.75,3.6969995498657227,3.98699951171875
1667404660.05975485,112694201,42.7285271,-84.4847254,264.7599792480469,3.706479072570801,3.996479034423828
1667404660.07933187,112713778,42.728526599999995,-84.4847252,264.7699890136719,3.715909004211426,4.005908966064453
1667404660.11933494,112753781,42.7285257,-84.4847248,264.7900085449219,3.734870433807373,4.0248703956604
1667404660.15993977,112794386,42.7285247,-84.48472439999999,264.80999755859375,3.7542619705200195,4.044261932373047
1667404660.16006494,112794511,42.7285247,-84.48472439999999,264.80999755859375,3.7542619705200195,4.044261932373047
1667404660.19928288,112833729,42.7285238,-84.48472389999999,264.8299865722656,3.7729196548461914,4.062919616699219
1667404660.23961878,112874065,42.7285228,-84.4847235,264.8500061035156,3.790870189666748,4.080870151519775
1667404660.25982881,112894275,42.728522299999995,-84.4847233,264.8500061035156,3.7994675636291504,4.089467525482178
1667404660.27935195,112913798,42.728521799999996,-84.4847231,264.8599853515625,3.8079795837402344,4.097979545593262
1667404660.31938076,112953827,42.7285208,-84.4847226,264.8800048828125,3.8250770568847656,4.115077018737793
1667404660.35982394,112994270,42.7285198,-84.4847221,264.8999938964844,3.842888832092285,4.1328887939453125
1667404660.35991383,112994360,42.7285198,-84.4847221,264.8999938964844,3.842888832092285,4.1328887939453125
1667404660.39937687,113033823,42.728518799999996,-84.4847216,264.9100036621094,3.859866142272949,4.149866104125977
1667404660.43960690,113074053,42.7285178,-84.48472129999999,264.92999267578125,3.8772644996643066,4.167264461517334
1667404660.45995092,113094397,42.7285173,-84.484721,264.94000244140625,3.8850855827331543,4.175085544586182
1667404660.47928977,113113736,42.7285168,-84.48472079999999,264.9499816894531,3.893298625946045,4.183298587799072
1667404660.51939297,113153839,42.7285158,-84.4847204,264.9599914550781,3.908470630645752,4.198470592498779
1667404660.55991387,113194360,42.7285148,-84.4847199,264.97998046875,3.92374849319458,4.213748455047607
1667404660.55998397,113194430,42.7285148,-84.4847199,264.97998046875,3.92374849319458,4.213748455047607
1667404660.59936285,113233809,42.7285137,-84.4847194,264.989990234375,3.937527656555176,4.227527618408203
1667404660.63961387,113274060,42.728512699999996,-84.48471909999999,265.0,3.94830322265625,4.238303184509277
1667404660.65986490,113294311,42.7285122,-84.4847188,265.0099792480469,3.9536242485046387,4.243624210357666
