timestamp,TimeUS,C,Q1,Q2,Q3,Q4
1667404645.35859895,97993045,1,0.6097423434257507,0.0040927003137767315,0.006117340177297592,-0.7925655245780945
1667404645.39860392,98033050,1,0.6097705364227295,0.0040750992484390736,0.006119921803474426,-0.7925439476966858
1667404645.43863177,98073078,1,0.6098116636276245,0.00406465120613575,0.00614769896492362,-0.7925121188163757
1667404645.45859694,98093043,1,0.6098318696022034,0.0040549905970692635,0.006155217066407204,-0.7924965023994446
1667404645.47863197,98113078,1,0.60984206199646,0.004069071728736162,0.006165119353681803,-0.7924885749816895
1667404645.51860094,98153047,1,0.6098848581314087,0.00405928585678339,0.006153898313641548,-0.7924557328224182
1667404645.55859494,98193041,1,0.6099073886871338,0.0040380689315497875,0.006148333195596933,-0.7924385666847229
1667404645.59862590,98233072,1,0.6099433302879333,0.004016639199107885,0.006156127899885178,-0.7924109101295471
1667404645.63864183,98273088,1,0.6099563241004944,0.004011081997305155,0.0061826021410524845,-0.7924007773399353
1667404645.65859890,98293045,1,0.6099700927734375,0.0039993589743971825,0.006184985861182213,-0.7923902273178101
1667404645.67861676,98313063,1,0.6099894046783447,0.0039908564649522305,0.0061918022111058235,-0.7923753261566162
1667404645.71862078,98353067,1,0.6100021600723267,0.003987468313425779,0.006193024571985006,-0.792365550994873
1667404645.75859380,98393040,1,0.6099977493286133,0.003989679738879204,0.00618980685248971,-0.7923688888549805
1667404645.79859591,98433042,1,0.6099928021430969,0.004012757912278175,0.006206378806382418,-0.7923725247383118
1667404645.83862877,98473075,1,0.6100301742553711,0.003996077459305525,0.00623582536354661,-0.7923435568809509
1667404645.85859990,98493046,1,0.6100385785102844,0.003988008480519056,0.006227097474038601,-0.7923372387886047
1667404645.87861991,98513066,1,0.6100514531135559,0.0039751878939569,0.006219369824975729,-0.7923274040222168
1667404645.91862392,98553070,1,0.610054612159729,0.003991986159235239,0.006212076172232628,-0.792324960231781
1667404645.95859981,98593046,1,0.6100353002548218,0.004005745518952608,0.006213264539837837,-0.7923397421836853
1667404645.99860883,98633055,1,0.6100397109985352,0.0040094926953315735,0.006203704047948122,-0.7923364043235779
1667404646.03859282,98673039,1,0.6100393533706665,0.0040135737508535385,0.006216328125447035,-0.7923365235328674
1667404646.05865097,98693097,1,0.6100441813468933,0.004014741629362106,0.006221466232091188,-0.7923327684402466
1667404646.07862687,98713073,1,0.6100566387176514,0.004013029392808676,0.006223942153155804,-0.7923231720924377
1667404646.11864495,98753091,1,0.6100735068321228,0.004012115299701691,0.006199553608894348,-0.7923104166984558
1667404646.15864277,98793089,1,0.6100773811340332,0.003996484912931919,0.006186631508171558,-0.7923076152801514
1667404646.19860792,98833054,1,0.6100889444351196,0.003997486084699631,0.006196608301252127,-0.7922986149787903
1667404646.23859692,98873043,1,0.6100761890411377,0.003996607847511768,0.006194663234055042,-0.7923084497451782
1667404646.25863075,98893077,1,0.610088050365448,0.003994692582637072,0.0061803776770830154,-0.7922994494438171
1667404646.27862597,98913072,1,0.6100913882255554,0.003980113659054041,0.006169279105961323,-0.7922970652580261
1667404646.31862879,98953075,1,0.6100921034812927,0.003966113086789846,0.006180610973387957,-0.7922964692115784
1667404646.35861683,98993063,1,0.6100994348526001,0.00396269466727972,0.006203798111528158,-0.7922906875610352
1667404646.39859796,99033044,1,0.6101259589195251,0.003963702358305454,0.006205725949257612,-0.7922701835632324
1667404646.43862081,99073067,1,0.610170841217041,0.003958685789257288,0.006198459304869175,-0.7922357320785522
1667404646.45860577,99093052,1,0.6101771593093872,0.003954769112169743,0.006203723605722189,-0.7922308444976807
1667404646.47859383,99113040,1,0.6101818084716797,0.003962369170039892,0.0061911544762551785,-0.7922273278236389
1667404646.51862288,99153069,1,0.6102033257484436,0.003965697716921568,0.0061929975636303425,-0.7922107577323914
1667404646.55861688,99193063,1,0.6102432608604431,0.0039454554207623005,0.006192874629050493,-0.792180061340332
1667404646.59862590,99233072,1,0.610268235206604,0.00395938428118825,0.006204185076057911,-0.79216068983078
1667404646.63860679,99273053,1,0.6102995276451111,0.003949813079088926,0.0062041739001870155,-0.7921366095542908
1667404646.65860391,99293050,1,0.6103169918060303,0.0039458004757761955,0.006210841704159975,-0.7921231389045715
1667404646.67859793,99313044,1,0.610349178314209,0.003966476768255234,0.006208313629031181,-0.7920982241630554
1667404646.71859694,99353043,1,0.6103963255882263,0.003975240979343653,0.006193666253238916,-0.7920619249343872
1667404646.75862479,99393071,1,0.6104301810264587,0.003964763134717941,0.0062068160623312,-0.7920358180999756
1667404646.79860687,99433053,1,0.6104613542556763,0.003951951861381531,0.006215537898242474,-0.7920117974281311
1667404646.83862996,99473076,1,0.6105043888092041,0.003955951891839504,0.006214912049472332,-0.7919785976409912
1667404646.85862780,99493074,1,0.6105215549468994,0.003961067646741867,0.006206548307090998,-0.7919654250144958
1667404646.87859488,99513041,1,0.6105394959449768,0.003963754512369633,0.006208029575645924,-0.7919515371322632
1667404646.91859984,99553046,1,0.6105663776397705,0.003980439156293869,0.006202805787324905,-0.7919307947158813
1667404646.95859289,99593039,1,0.6105929613113403,0.003981925081461668,0.0062058959156274796,-0.7919102907180786
1667404646.99861193,99633058,1,0.6106152534484863,0.003977383021265268,0.0062016393058001995,-0.7918931245803833
1667404647.03863096,99673077,1,0.6106324791908264,0.003978675696998835,0.006212511565536261,-0.7918797135353088
1667404647.05859780,99693044,1,0.6106472611427307,0.003986435476690531,0.006222059018909931,-0.7918682098388672
1667404647.07860184,99713048,1,0.6106544733047485,0.0039976490661501884,0.0062182145193219185,-0.7918626666069031
1667404647.11858797,99753034,1,0.6106657385826111,0.003997329156845808,0.006242555100470781,-0.7918537855148315
1667404647.15859389,99793040,1,0.6106715202331543,0.003980379551649094,0.006236042361706495,-0.7918494343757629
1667404647.19862580,99833072,1,0.6106781959533691,0.003992727026343346,0.006233170162886381,-0.7918442487716675
1667404647.23862696,99873073,1,0.6106952428817749,0.003997897729277611,0.00622218893840909,-0.7918311953544617
1667404647.25859785,99893044,1,0.61070716381073,0.004001089371740818,0.006212870590388775,-0.7918220162391663
1667404647.27863288,99913079,1,0.6107068657875061,0.004007365088909864,0.006208174396306276,-0.7918222546577454
1667404647.31861687,99953063,1,0.6107178926467896,0.003999610431492329,0.006205577403306961,-0.791813850402832
1667404647.35858178,99993028,1,0.6107226014137268,0.0040222653187811375,0.006208178587257862,-0.7918100357055664
1667404647.39859986,100033046,1,0.6107404232025146,0.004005758091807365,0.006190137006342411,-0.7917965650558472
1667404647.43863177,100073078,1,0.6107354760169983,0.004000269807875156,0.00617990642786026,-0.7918004989624023
1667404647.45860291,100093049,1,0.6107341647148132,0.004002961330115795,0.006189155392348766,-0.791801393032074
1667404647.47862983,100113076,1,0.6107333302497864,0.004014526028186083,0.0061990912072360516,-0.791801929473877
1667404647.51863384,100153080,1,0.610720157623291,0.004001101478934288,0.006192866712808609,-0.7918121814727783
1667404647.55859184,100193038,1,0.6107126474380493,0.003985036164522171,0.006190551444888115,-0.7918180823326111
1667404647.59859991,100233046,1,0.610700249671936,0.003993893042206764,0.006189621984958649,-0.7918275594711304
1667404647.63859582,100273042,1,0.6107032299041748,0.00399040337651968,0.006186759099364281,-0.7918253540992737
1667404647.65857577,100293022,1,0.6106930375099182,0.0039938404224812984,0.00617482652887702,-0.7918332815170288
1667404647.67862678,100313073,1,0.6107040643692017,0.004006801173090935,0.006161287426948547,-0.7918248176574707
1667404647.71860480,100353051,1,0.6107025742530823,0.004017971456050873,0.006166957318782806,-0.7918258905410767
1667404647.75863695,100393083,1,0.6106991171836853,0.0040132454596459866,0.0061753238551318645,-0.791828453540802
1667404647.79858589,100433032,1,0.6106741428375244,0.004023803863674402,0.006180908530950546,-0.7918476462364197
1667404647.83860493,100473051,1,0.6106692552566528,0.004038098268210888,0.006170092616230249,-0.7918514609336853
1667404647.85862494,100493071,1,0.6106780767440796,0.0040302579291164875,0.006167156156152487,-0.7918446660041809
1667404647.87860274,100513049,1,0.6106852889060974,0.0040404535830020905,0.006170252803713083,-0.791839063167572
1667404647.91861677,100553063,1,0.6107038855552673,0.004028651863336563,0.0061751920729875565,-0.7918246984481812
1667404647.95863795,100593084,1,0.6107114553451538,0.004040041472762823,0.006158153992146254,-0.7918189764022827
1667404647.99860477,100633051,1,0.6107101440429688,0.0040496354922652245,0.006155692972242832,-0.7918199300765991
1667404648.03860092,100673047,1,0.6107046008110046,0.004059806931763887,0.006160398945212364,-0.7918241024017334
1667404648.05862379,100693070,1,0.6106938123703003,0.0040740929543972015,0.006167020183056593,-0.7918323278427124
1667404648.07860994,100713056,1,0.6106902360916138,0.004077416379004717,0.006163240876048803,-0.7918351292610168
1667404648.11862993,100753076,1,0.6106843948364258,0.004085218533873558,0.0061496649868786335,-0.7918396592140198
1667404648.15863681,100793083,1,0.6106828451156616,0.004065969958901405,0.006173937115818262,-0.7918407917022705
1667404648.19865894,100833105,1,0.610673725605011,0.00409735320135951,0.006142075173556805,-0.7918478846549988
1667404648.23862576,100873072,1,0.61064213514328,0.004072078038007021,0.006150429602712393,-0.7918723225593567
1667404648.25863194,100893078,1,0.6106497645378113,0.004072138108313084,0.006126473192125559,-0.7918666005134583
1667404648.27860379,100913050,1,0.6106542348861694,0.004040772560983896,0.006170479115098715,-0.7918630242347717
1667404648.31860375,100953050,1,0.6106473207473755,0.00403821375221014,0.006180171389132738,-0.791868269443512
1667404648.35862780,100993074,1,0.6106386780738831,0.004046502057462931,0.006207580212503672,-0.7918747067451477
1667404648.39863777,101033084,1,0.6106137037277222,0.004075700882822275,0.006178461946547031,-0.7918939590454102
1667404648.43865681,101073103,1,0.6105421781539917,0.004069068003445864,0.006194260437041521,-0.7919490337371826
1667404648.45862889,101093075,1,0.6105210185050964,0.004052617121487856,0.006199347786605358,-0.7919654250144958
1667404648.47860479,101113051,1,0.610535740852356,0.004046883434057236,0.006198711693286896,-0.7919541001319885
1667404648.51857877,101153025,1,0.6106424927711487,0.004071872681379318,0.006221998482942581,-0.7918714880943298
1667404648.55860877,101193055,1,0.6105926036834717,0.004085632041096687,0.006272829603403807,-0.7919094562530518
1667404648.59863091,101233077,1,0.6105263233184814,0.004089595749974251,0.00617987522855401,-0.7919613122940063
1667404648.63863993,101273086,1,0.6105750799179077,0.004076080396771431,0.006012850906699896,-0.7919250726699829
1667404648.65859890,101293045,1,0.6105149984359741,0.004049383569508791,0.0059720915742218494,-0.7919718623161316
1667404648.67863178,101313078,1,0.6105172038078308,0.003993182443082333,0.005870473571121693,-0.7919712066650391
1667404648.71861076,101353057,1,0.610551118850708,0.003989820834249258,0.005805838853120804,-0.7919455170631409
1667404648.75860095,101393047,1,0.6104457974433899,0.0038712506648153067,0.005880668293684721,-0.7920267581939697
1667404648.79864693,101433093,1,0.6103576421737671,0.003949056379497051,0.005831232760101557,-0.7920946478843689
1667404648.83861089,101473057,1,0.6102293729782104,0.003945614211261272,0.005955494940280914,-0.7921925783157349
1667404648.85860586,101493052,1,0.6100644469261169,0.004055757541209459,0.005763302557170391,-0.7923204898834229
1667404648.87864494,101513091,1,0.6099098324775696,0.004007433541119099,0.0058370791375637054,-0.7924391627311707
1667404648.91863990,101553086,1,0.6097808480262756,0.004034743644297123,0.0059533012099564075,-0.7925374507904053
1667404648.95860696,101593053,1,0.6096084117889404,0.0041039325296878815,0.00593544589355588,-0.7926698923110962
1667404648.99860883,101633055,1,0.6095424890518188,0.00405451375991106,0.005953691899776459,-0.7927206754684448
1667404649.03862786,101673074,1,0.6094287633895874,0.004090668633580208,0.005731683224439621,-0.7928095459938049
1667404649.05860186,101693048,1,0.6093199849128723,0.003975046798586845,0.005798632279038429,-0.7928932905197144
1667404649.07863784,101713084,1,0.6091630458831787,0.003932306542992592,0.005887524224817753,-0.7930133938789368
1667404649.11863375,101753080,1,0.6089832782745361,0.003972428850829601,0.005843157414346933,-0.7931516170501709
1667404649.15861392,101793060,1,0.608704686164856,0.003893231973052025,0.005916635040193796,-0.7933652400970459
1667404649.19860792,101833054,1,0.6085003018379211,0.004030972719192505,0.005851776339113712,-0.7935218214988708
1667404649.23860192,101873048,1,0.6082525253295898,0.00394843053072691,0.005804313346743584,-0.7937125563621521
1667404649.25860977,101893056,1,0.6082009673118591,0.004048391245305538,0.005891927983611822,-0.7937508821487427
1667404649.27862787,101913074,1,0.6082068085670471,0.004008005373179913,0.005967829376459122,-0.7937460541725159
1667404649.31863284,101953079,1,0.6080121994018555,0.004149740096181631,0.005605728831142187,-0.7938970923423767
1667404649.35863185,101993078,1,0.607792317867279,0.0039418041706085205,0.005861717741936445,-0.7940646409988403
1667404649.39860177,102033048,1,0.6077222228050232,0.003956910688430071,0.005756312981247902,-0.7941189408302307
1667404649.43862891,102073075,1,0.6073872447013855,0.003986632917076349,0.00570228835567832,-0.7943754196166992
1667404649.45863795,102093084,1,0.6072844862937927,0.004062145482748747,0.005788854788988829,-0.7944530248641968
1667404649.47859979,102113046,1,0.6072830557823181,0.003997990861535072,0.005773978773504496,-0.7944545149803162
1667404649.51862788,102153074,1,0.6069813370704651,0.004098410252481699,0.005728600546717644,-0.794684886932373
1667404649.55859280,102193039,1,0.6068984866142273,0.004041194450110197,0.005913528613746166,-0.7947471141815186
1667404649.59863377,102233080,1,0.6067171096801758,0.004074765834957361,0.005948194302618504,-0.7948851585388184
1667404649.63860774,102273054,1,0.606580913066864,0.0041429996490478516,0.005711352452635765,-0.7949904799461365
1667404649.65865278,102293099,1,0.6065424084663391,0.004041749984025955,0.005692657548934221,-0.7950204610824585
1667404649.67860174,102313048,1,0.606438159942627,0.003954220097512007,0.0057404604740440845,-0.7951000928878784
1667404649.71863389,102353080,1,0.6061930656433105,0.00407260050997138,0.005717691499739885,-0.7952865362167358
1667404649.75863695,102393083,1,0.6060053706169128,0.003948155790567398,0.0058267926797270775,-0.7954294085502625
1667404649.79864383,102433090,1,0.6058130264282227,0.004002473782747984,0.005719620268791914,-0.7955764532089233
1667404649.83860874,102473055,1,0.6056364178657532,0.004087318200618029,0.005679015535861254,-0.7957107424736023
1667404649.85862780,102493074,1,0.6055715680122375,0.004028041381388903,0.0057280464097857475,-0.7957600355148315
1667404649.87860179,102513048,1,0.605460524559021,0.004134621936827898,0.0058106849901378155,-0.7958433628082275
1667404649.91860175,102553048,1,0.6053765416145325,0.004094252362847328,0.005837445147335529,-0.7959073185920715
1667404649.95863175,102593078,1,0.605137288570404,0.004006718285381794,0.005716522689908743,-0.7960905432701111
1667404649.99863577,102633082,1,0.6049432754516602,0.004050919786095619,0.005789621267467737,-0.7962372303009033
1667404650.03865290,102673099,1,0.6047331094741821,0.0040350742638111115,0.005617549177259207,-0.7963981628417969
1667404650.05863595,102693082,1,0.6045935750007629,0.003980948589742184,0.005821382161229849,-0.7965028882026672
1667404650.07858777,102713034,1,0.6045262217521667,0.003971012309193611,0.0056939139030873775,-0.7965549826622009
1667404650.11859775,102753044,1,0.6042888164520264,0.004137861542403698,0.005631675943732262,-0.7967346906661987
1667404650.15860295,102793049,1,0.604117751121521,0.004071377217769623,0.005809631198644638,-0.7968634963035583
1667404650.19863176,102833078,1,0.6039069294929504,0.004071321804076433,0.0057936059311032295,-0.797023355960846
1667404650.23862290,102873069,1,0.603716254234314,0.004064721986651421,0.005777901969850063,-0.797167956829071
1667404650.25867391,102893120,1,0.6036707162857056,0.003992362413555384,0.00575749296694994,-0.797203004360199
1667404650.27863884,102913085,1,0.6035031080245972,0.004033323377370834,0.0056836726143956184,-0.7973302006721497
1667404650.31860995,102953056,1,0.6032833456993103,0.004006640985608101,0.005693212617188692,-0.7974965572357178
1667404650.35860586,102993052,1,0.6029913425445557,0.003919454291462898,0.005712679587304592,-0.7977176308631897
1667404650.39860392,103033050,1,0.6028124094009399,0.003991445992141962,0.0055978610180318356,-0.7978533506393433
1667404650.43863177,103073078,1,0.6025261282920837,0.004147274419665337,0.0056775519624352455,-0.7980682253837585
1667404650.45860195,103093048,1,0.6024548411369324,0.004096475895494223,0.005618046969175339,-0.7981226444244385
1667404650.47863293,103113079,1,0.6023308038711548,0.00405797827988863,0.005609685089439154,-0.7982165813446045
1667404650.51861978,103153066,1,0.6021890044212341,0.004196363501250744,0.00549807446077466,-0.7983236312866211
1667404650.55861092,103193057,1,0.6020044088363647,0.003983982373028994,0.005774714518338442,-0.7984619736671448
1667404650.59860778,103233054,1,0.6017802953720093,0.004304674919694662,0.005708207376301289,-0.7986297011375427
1667404650.63863778,103273084,1,0.6014968752861023,0.004186713136732578,0.005508970934897661,-0.7988451719284058
1667404650.65860891,103293055,1,0.6013355851173401,0.003951864782720804,0.005464671179652214,-0.7989681363105774
1667404650.67864895,103313095,1,0.6011824011802673,0.00417663436383009,0.00536066060885787,-0.7990829348564148
1667404650.71863890,103353085,1,0.6008771061897278,0.003956140018999577,0.005503576714545488,-0.7993126511573792
1667404650.75861382,103393060,1,0.6005128026008606,0.003917533904314041,0.005506507586687803,-0.7995865941047668
1667404650.79860497,103433051,1,0.6002277135848999,0.0037761053536087275,0.005591338966041803,-0.7998006939888
1667404650.83860183,103473048,1,0.599815845489502,0.003751635318621993,0.005325400270521641,-0.8001115918159485
1667404650.85861993,103493066,1,0.5998131632804871,0.003729990217834711,0.005285980179905891,-0.8001139163970947
1667404650.87863588,103513082,1,0.599587082862854,0.0036904977168887854,0.00537089304998517,-0.8002830147743225
1667404650.91864276,103553089,1,0.5993717908859253,0.003621933050453663,0.005038724280893803,-0.8004466891288757
1667404650.95863891,103593085,1,0.5989553928375244,0.0035088418517261744,0.0051659150049090385,-0.8007580041885376
1667404650.99859691,103633043,1,0.5985121726989746,0.00362214888446033,0.004840479698032141,-0.8010908961296082
1667404651.03860092,103673047,1,0.5981279611587524,0.003385816002264619,0.0050156801007688046,-0.8013777732849121
1667404651.05863190,103693078,1,0.597907304763794,0.003738997969776392,0.0046555399894714355,-0.8015429973602295
1667404651.07860088,103713047,1,0.5977192521095276,0.0036589319352060556,0.004869051277637482,-0.8016823530197144
1667404651.11862874,103753075,1,0.5973950624465942,0.003952083643525839,0.0040692719630897045,-0.8019270300865173
1667404651.15863895,103793085,1,0.5967811942100525,0.003296323586255312,0.004185275640338659,-0.8023863434791565
1667404651.19862580,103833072,1,0.5964632630348206,0.0032564220018684864,0.0038157703820616007,-0.8026247024536133
1667404651.23860574,103873052,1,0.5963329076766968,0.002175545087084174,0.0027342671528458595,-0.802729606628418
1667404651.25862384,103893070,1,0.5962154269218445,0.0030042584985494614,0.0014684662455692887,-0.8028175234794617
1667404651.27860188,103913048,1,0.5959892868995667,0.0017961525591090322,0.0014057288644835353,-0.80298912525177
1667404651.31862092,103953067,1,0.5957961082458496,0.002156281378120184,-9.231401782017201e-05,-0.8031328320503235
1667404651.35862994,103993076,1,0.595763087272644,0.002679307945072651,-0.002581460401415825,-0.8031516075134277
1667404651.39863491,104033081,1,0.5956946611404419,0.0038433477748185396,-0.004753580782562494,-0.8031877279281616
1667404651.43861985,104073066,1,0.5955473184585571,0.004303321707993746,-0.0064867399632930756,-0.8032824993133545
1667404651.45862794,104093074,1,0.5956435799598694,0.004638436250388622,-0.0070874933153390884,-0.8032041788101196
1667404651.47860479,104113051,1,0.5957570672035217,0.005301699973642826,-0.007945272140204906,-0.8031079173088074
1667404651.51858783,104153034,1,0.5958060026168823,0.005670070648193359,-0.009841826744377613,-0.8030480742454529
1667404651.55863190,104193078,1,0.5958685874938965,0.0059302374720573425,-0.011164611205458641,-0.8029824495315552
1667404651.59865189,104233098,1,0.5961855053901672,0.005829615984112024,-0.012181423604488373,-0.8027331233024597
1667404651.63864994,104273096,1,0.5963172912597656,0.004349332302808762,-0.012045832350850105,-0.8026466369628906
1667404651.65860391,104293050,1,0.59627366065979,0.0039542862214148045,-0.012112445197999477,-0.8026801347732544
1667404651.67860484,104313051,1,0.5964096188545227,0.0030878244433552027,-0.011795224621891975,-0.802587628364563
1667404651.71860576,104353052,1,0.596640944480896,0.002154760994017124,-0.011200392618775368,-0.8024272918701172
1667404651.75860882,104393055,1,0.5967385768890381,0.0011062639532610774,-0.008728203363716602,-0.8023874759674072
1667404651.79862976,104433076,1,0.5968726277351379,-0.0017316591693088412,-0.004604624584317207,-0.8023208975791931
1667404651.83864093,104473087,1,0.5969741344451904,-0.0033387532457709312,-0.0009314329363405704,-0.802253007888794
1667404651.85860491,104493051,1,0.5968932509422302,-0.004053659737110138,0.0002831995952874422,-0.8023103475570679
1667404651.87862277,104513069,1,0.5972617864608765,-0.005161309149116278,0.0029317329172044992,-0.8020243644714355
1667404651.91861486,104553061,1,0.5973777770996094,-0.008082034066319466,0.007432932965457439,-0.8018847703933716
1667404651.95860887,104593055,1,0.5974950194358826,-0.009774475358426571,0.009542025625705719,-0.8017562627792358
1667404651.99859977,104633046,1,0.597802996635437,-0.012183318845927715,0.01152869500219822,-0.8014675378799438
1667404652.03863597,104673082,1,0.5981705188751221,-0.01224598940461874,0.01021710317581892,-0.8012101650238037
1667404652.05861282,104693059,1,0.5981276631355286,-0.014173312112689018,0.011534375138580799,-0.8011924624443054
1667404652.07861376,104713060,1,0.5983424186706543,-0.012963859364390373,0.009670495055615902,-0.8010772466659546
1667404652.11861992,104753066,1,0.5987280011177063,-0.013013464398682117,0.008168667554855347,-0.8008050322532654
1667404652.15860391,104793050,1,0.5992438197135925,-0.010412106290459633,0.0049170320853590965,-0.800483763217926
1667404652.19860578,104833052,1,0.5996690988540649,-0.008793782442808151,0.00303066149353981,-0.8001940250396729
1667404652.23862791,104873074,1,0.600073516368866,-0.006740957032889128,0.0012861833674833179,-0.7999154329299927
1667404652.25861788,104893064,1,0.6003647446632385,-0.005573672242462635,0.0005390461883507669,-0.7997066974639893
1667404652.27861094,104913057,1,0.600540816783905,-0.004889000207185745,0.0007108769495971501,-0.799578845500946
1667404652.31864691,104953093,1,-0.09373632073402405,-0.006178686395287514,-0.01077495887875557,0.9955195784568787
1667404652.35863495,104993081,1,-0.09440278261899948,-0.006460069213062525,-0.009066350758075714,0.9954718351364136
1667404652.39860487,105033051,1,-0.09494668245315552,-0.005675868131220341,-0.0076398300006985664,0.9954368472099304
1667404652.43860483,105073051,1,-0.09624939411878586,-0.003832021960988641,-0.004983983002603054,0.9953373670578003
1667404652.45863175,105093078,1,-0.0968884527683258,-0.002653116825968027,-0.003103704657405615,0.9952868819236755
1667404652.47862887,105113075,1,-0.09758638590574265,-0.0017037156503647566,-0.0019932016730308533,0.9952235817909241
1667404652.51865482,105153101,1,-0.09901650249958038,0.000322010979289189,0.002042212523519993,0.9950836300849915
1667404652.55864787,105193094,1,-0.10006133466959,0.0021122153848409653,0.005091207101941109,0.9949660301208496
1667404652.59861588,105233062,1,-0.10107485204935074,0.0035709007643163204,0.006719311699271202,0.9948497414588928
1667404652.63860083,105273047,1,-0.10250572115182877,0.0037365639582276344,0.008550932630896568,0.9946886301040649
1667404652.65864086,105293087,1,-0.10337260365486145,0.0038473261520266533,0.0098142484202981,0.9945868253707886
1667404652.67860985,105313056,1,-0.10393860191106796,0.003744229907169938,0.010912465862929821,0.9945167899131775
1667404652.71862674,105353073,1,-0.10523716360330582,0.0031180414371192455,0.011767730116844177,0.9943726062774658
1667404652.75860286,105393049,1,-0.10640279203653336,0.0030232055578380823,0.011541315354406834,0.994251549243927
1667404652.79863977,105433086,1,-0.10746573656797409,0.0032130444888025522,0.010790505446493626,0.9941450357437134
1667404652.83861589,105473062,1,-0.10830383002758026,0.002851285971701145,0.01042872667312622,0.9940590262413025
1667404652.85864186,105493088,1,-0.10864541679620743,0.002511105965822935,0.01110957469791174,0.9940153360366821
1667404652.87858796,105513034,1,-0.10932903736829758,0.0024191238917410374,0.010937580838799477,0.9939424991607666
1667404652.91860986,105553056,1,-0.10991115123033524,0.0018059309804812074,0.010253949090838432,0.9938868880271912
1667404652.95863390,105593080,1,-0.11057229340076447,0.0015946911880746484,0.008821488358080387,0.9938276410102844
1667404652.99863696,105633083,1,-0.111025370657444,0.00044531081221066415,0.007029009982943535,0.9937925934791565
1667404653.03863692,105673083,1,-0.11200030148029327,-0.00016917400353122503,0.005995909683406353,0.9936900734901428
1667404653.05862689,105693073,1,-0.1122850850224495,-0.0002890709147322923,0.005048055667430162,0.9936631917953491
1667404653.07858276,105713029,1,-0.11268466711044312,-0.0007728111813776195,0.004263559356331825,0.9936213493347168
1667404653.11860275,105753049,1,-0.11314114928245544,-0.0012618594337254763,0.0023119738325476646,0.9935754537582397
1667404653.15863585,105793082,1,-0.11368530988693237,-0.001182739855721593,-0.0004562176764011383,0.9935160279273987
1667404653.19863296,105833079,1,-0.11384502798318863,-0.0015670269494876266,-0.004597271792590618,0.9934866428375244
1667404653.23865986,105873106,1,-0.1143130287528038,-0.0015106609789654613,-0.009941833093762398,0.9933938980102539
1667404653.25859880,105893045,1,-0.11452244222164154,-0.0016788695938885212,-0.012424847111105919,0.9933415651321411
1667404653.27863193,105913078,1,-0.11460375785827637,-0.0015325905987992883,-0.016029436141252518,0.9932807683944702
1667404653.31860876,105953055,1,-0.11419463157653809,-0.002145830076187849,-0.022342734038829803,0.9932048320770264
1667404653.35859680,105993043,1,-0.11350676417350769,-0.0015715211629867554,-0.028704091906547546,0.9931212663650513
1667404653.39862990,106033076,1,-0.11273662000894547,-0.0018875263631343842,-0.03336658328771591,0.9930627346038818
1667404653.43863297,106073079,1,-0.11170031875371933,-0.0014473890187218785,-0.03545250743627548,0.9931082725524902
1667404653.45861483,106093061,1,-0.11106165498495102,-0.0009056442650035024,-0.03622441738843918,0.9931526780128479
1667404653.47864890,106113095,1,-0.1106349527835846,-0.00041427722317166626,-0.03664698079228401,0.9931851625442505
1667404653.51859188,106153038,1,-0.10923473536968231,9.948472143150866e-05,-0.036356016993522644,0.9933509230613708
1667404653.55859995,106193046,1,-0.10776931047439575,0.0008287726668640971,-0.03539493680000305,0.9935452938079834
1667404653.59861088,106233057,1,-0.10630059987306595,0.0011304481886327267,-0.033258140087127686,0.9937770366668701
1667404653.63862586,106273072,1,-0.10439801961183548,0.0014901300892233849,-0.03134703263640404,0.994040310382843
1667404653.65860295,106293049,1,-0.10322088748216629,0.0018266766564920545,-0.030549682676792145,0.9941875338554382
1667404653.67859483,106313041,1,-0.10215859115123749,0.0016311013605445623,-0.03001997247338295,0.9943137168884277
1667404653.71864986,106353096,1,-0.09988564997911453,0.0015766076976433396,-0.027509789913892746,0.9946172833442688
1667404653.75860286,106393049,1,-0.09747038781642914,0.001399888307787478,-0.02599591389298439,0.9948978424072266
1667404653.79860377,106433050,1,-0.09505665302276611,0.0014252979308366776,-0.023946475237607956,0.9951827526092529
1667404653.83860493,106473051,1,-0.09237144142389297,0.0009516894351691008,-0.023707497864961624,0.9954419136047363
1667404653.85858774,106493034,1,-0.09101316332817078,0.0010503861121833324,-0.02325282245874405,0.9955776333808899
1667404653.87862992,106513076,1,-0.08971100300550461,0.001190880429930985,-0.022739140316843987,0.9957075119018555
1667404653.91863894,106553085,1,-0.08712383359670639,0.0013819587184116244,-0.02302354760468006,0.9959304332733154
1667404653.95864987,106593096,1,-0.08455709367990494,0.0022044337820261717,-0.024942612275481224,0.9961039423942566
1667404653.99860191,106633048,1,-0.08218280225992203,0.0026294467970728874,-0.026925915852189064,0.9962499737739563
1667404654.03859997,106673046,1,-0.08005423843860626,0.0029841172508895397,-0.0287161972373724,0.9963723421096802
1667404654.05866385,106693110,1,-0.07895617932081223,0.002911854535341263,-0.02757764235138893,0.996492326259613
1667404654.07863593,106713082,1,-0.07812092453241348,0.0037843813188374043,-0.029697228223085403,0.9964942932128906
1667404654.11863375,106753080,1,-0.07639387995004654,0.0040447767823934555,-0.0286245234310627,0.9966585636138916
1667404654.15863276,106793079,1,-0.0747285932302475,0.004836288746446371,-0.03096199780702591,0.9967113733291626
1667404654.19863987,106833086,1,-0.0734201967716217,0.005421214736998081,-0.02967536635696888,0.9968447685241699
1667404654.23860288,106873049,1,-0.07220456004142761,0.006189130246639252,-0.029023252427577972,0.9969482421875
1667404654.25860691,106893053,1,-0.0720503181219101,0.006812141742557287,-0.02912314608693123,0.996952474117279
1667404654.27859974,106913046,1,-0.07142797857522964,0.006794951856136322,-0.02914644218981266,0.9969966411590576
1667404654.31863189,106953078,1,-0.07060345262289047,0.0064844777807593346,-0.027560444548726082,0.9971025586128235
1667404654.35861182,106993058,1,-0.07001067698001862,0.006442732643336058,-0.027671856805682182,0.9971415400505066
1667404654.39866185,107033108,1,-0.06968472898006439,0.006096959579735994,-0.026119079440832138,0.9972084164619446
1667404654.43860483,107073051,1,-0.06946130096912384,0.005548075307160616,-0.024935148656368256,0.9972575306892395
1667404654.45861697,107093063,1,-0.06960888206958771,0.005652307067066431,-0.024850981310009956,0.9972487688064575
1667404654.47860074,107113047,1,-0.06947790831327438,0.005272015929222107,-0.023638920858502388,0.9972894191741943
1667404654.51860094,107153047,1,-0.0696115791797638,0.005069177597761154,-0.021755453199148178,0.9973240494728088
1667404654.55862880,107193075,1,-0.0697237104177475,0.005115922540426254,-0.021704019978642464,0.9973170757293701
1667404654.59862089,107233067,1,-0.0699806734919548,0.004656558390706778,-0.021753966808319092,0.9973002672195435
1667404654.63863277,107273079,1,-0.07036059349775314,0.004744919016957283,-0.022528957575559616,0.9972559213638306
1667404654.65862894,107293075,1,-0.07058462500572205,0.004151566419750452,-0.022705143317580223,0.9972386956214905
1667404654.67861176,107313058,1,-0.07091569155454636,0.004460308235138655,-0.02317589707672596,0.9972030520439148
1667404654.71859097,107353037,1,-0.07138798385858536,0.004426698200404644,-0.0248414296656847,0.9971294403076172
1667404654.75860095,107393047,1,-0.07201052457094193,0.004561036359518766,-0.02474161610007286,0.9970865249633789
1667404654.79862094,107433067,1,-0.07252594083547592,0.004877333529293537,-0.02577866241335869,0.9970213770866394
1667404654.83863688,107473083,1,-0.07309848815202713,0.004582934081554413,-0.02756509557366371,0.9969331622123718
1667404654.85860991,107493056,1,-0.07322187721729279,0.0045022317208349705,-0.027636779472231865,0.996922492980957
1667404654.87862587,107513072,1,-0.07372377067804337,0.004268598277121782,-0.028067054226994514,0.9968745112419128
1667404654.91860175,107553048,1,-0.07454714179039001,0.004442113451659679,-0.028619300574064255,0.9967968463897705
1667404654.95860291,107593049,1,-0.07537543028593063,0.004469648469239473,-0.02766031213104725,0.9967615008354187
1667404654.99863291,107633079,1,-0.07591196149587631,0.0043580434285104275,-0.028884103521704674,0.996686577796936
1667404655.03863096,107673077,1,-0.07677751779556274,0.0045699067413806915,-0.028128670528531075,0.9966409206390381
1667404655.05859995,107693046,1,-0.0772048756480217,0.0051520527340471745,-0.02876521460711956,0.9965868592262268
1667404655.07863784,107713084,1,-0.07745092362165451,0.005295648239552975,-0.02710523083806038,0.9966135621070862
1667404655.11861777,107753064,1,-0.0780118778347969,0.005327790044248104,-0.02591903693974018,0.9966012239456177
1667404655.15860081,107793047,1,-0.0785384252667427,0.005423881579190493,-0.021928373724222183,0.9966551065444946
1667404655.19859982,107833046,1,-0.07905519753694534,0.004980932921171188,-0.01704975590109825,0.9967119693756104
1667404655.23863077,107873077,1,-0.07931000739336014,0.004663823172450066,-0.010634389705955982,0.9967823624610901
1667404655.25860095,107893047,1,-0.07971806824207306,0.004472827073186636,-0.008444739505648613,0.9967716336250305
1667404655.27864194,107913088,1,-0.07970944792032242,0.004008576273918152,-0.004780399613082409,0.9967986345291138
1667404655.31863594,107953082,1,-0.08000298589468002,0.0036912255454808474,0.0012831029016524553,0.9967869520187378
1667404655.35860085,107993047,1,-0.08018284291028976,0.0026774986181408167,0.0052428096532821655,0.9967628121376038
1667404655.39860177,108033048,1,-0.08005250990390778,0.0022111451253294945,0.0075489492155611515,0.9967595934867859
1667404655.43859982,108073046,1,-0.07998868077993393,0.0013967225095257163,0.010526436381042004,0.9967392086982727
1667404655.45860577,108093052,1,-0.07971473038196564,0.0013718907721340656,0.011490989476442337,0.99675053358078
1667404655.47862983,108113076,1,-0.07963179051876068,0.0009881044970825315,0.013231014832854271,0.9967360496520996
1667404655.51860976,108153056,1,-0.07876525074243546,0.0006230987492017448,0.012830433435738087,0.9968104362487793
1667404655.55863285,108193079,1,-0.0778723731637001,0.000657686498016119,0.013452625833451748,0.9968723654747009
1667404655.59862781,108233074,1,-0.07664738595485687,0.00030828930903226137,0.01322527788579464,0.9969704747200012
1667404655.63864875,108273095,1,-0.07564397156238556,0.0007498527993448079,0.01348971575498581,0.9970433712005615
1667404655.65863681,108293083,1,-0.07506334036588669,0.0005251837428659201,0.013631303794682026,0.997085452079773
1667404655.67860174,108313048,1,-0.07463281601667404,0.0005030094180256128,0.012741172686219215,0.9971295595169067
1667404655.71863174,108353078,1,-0.07343417406082153,0.00014131887292023748,0.010949278250336647,0.9972399473190308
1667404655.75865579,108393102,1,-0.07189201563596725,0.0004985339473932981,0.01027077529579401,0.9973593950271606
1667404655.79864097,108433087,1,-0.07045986503362656,0.0008680931059643626,0.008117109537124634,0.9974812269210815
1667404655.83860493,108473051,1,-0.06929246336221695,0.0010008505778387189,0.007251979783177376,0.9975695013999939
1667404655.85862088,108493067,1,-0.06835372745990753,0.0004985103732906282,0.006968648638576269,0.9976366758346558
1667404655.87860584,108513052,1,-0.06768767535686493,0.0006340694380924106,0.005656405817717314,0.9976903200149536
1667404655.91863275,108553079,1,-0.06588742136955261,0.0002630621602293104,0.006303075235337019,0.9978071451187134
1667404655.95863795,108593084,1,-0.06412854045629501,3.262703467044048e-05,0.0051797376945614815,0.9979282021522522
1667404655.99863482,108633081,1,-0.0625666007399559,0.000544654787518084,0.004456651862710714,0.9980306625366211
1667404656.03860283,108673049,1,-0.060865841805934906,0.0004830507969018072,0.0031894221901893616,0.9981407523155212
1667404656.05862093,108693067,1,-0.059851158410310745,0.0009658725466579199,0.0037385409232228994,0.9981998205184937
1667404656.07860279,108713049,1,-0.05904736742377281,0.001092444988898933,0.003322417614981532,0.9982490539550781
1667404656.11859989,108753046,1,-0.05724281072616577,0.0016614353517070413,0.004384689964354038,0.9983492493629456
1667404656.15862584,108793072,1,-0.055625781416893005,0.002124355873093009,0.004142347257584333,0.9984408617019653
1667404656.19863796,108833084,1,-0.05416517332196236,0.0031306336168199778,0.004161208402365446,0.9985184073448181
1667404656.23864579,108873092,1,-0.05278003215789795,0.0033959955908358097,0.004207594785839319,0.9985915422439575
1667404656.25863981,108893086,1,-0.05179363861680031,0.003931025508791208,0.004403093829751015,0.9986403584480286
1667404656.27861190,108913058,1,-0.051186006516218185,0.004250763449817896,0.003604565281420946,0.9986735582351685
1667404656.31860375,108953050,1,-0.0496361069381237,0.0045370981097221375,0.0036122987512499094,0.9987505078315735
1667404656.35860085,108993047,1,-0.04819834604859352,0.005379736423492432,0.0030691081192344427,0.998818576335907
1667404656.39863777,109033084,1,0.06653465330600739,-0.006175949703902006,-0.0029647613409906626,-0.9977605938911438
1667404656.43863392,109073080,1,0.06520424038171768,-0.007317000068724155,-0.002619583159685135,-0.9978416562080383
1667404656.45859885,109093045,1,0.06453829258680344,-0.007417664863169193,-0.0036075059324502945,-0.9978811144828796
1667404656.47864294,109113089,1,0.06389695405960083,-0.007876609452068806,-0.0025165174156427383,-0.9979222416877747
1667404656.51860881,109153055,1,0.06302173435688019,-0.0077260746620595455,-0.0025358397979289293,-0.9979790449142456
1667404656.55860686,109193053,1,0.06234666705131531,-0.007224764674901962,-0.0017607506597414613,-0.9980268478393555
1667404656.59861279,109233059,1,0.06200138106942177,-0.006501323543488979,-0.0012873454252257943,-0.9980540871620178
1667404656.63862777,109273074,1,0.0615682415664196,-0.00554998591542244,-0.0002485038712620735,-0.9980874061584473
1667404656.65859985,109293046,1,0.061664510518312454,-0.006027392111718655,0.0013636606745421886,-0.9980778098106384
1667404656.67861676,109313063,1,0.061446573585271835,-0.004878424108028412,0.0014312921557575464,-0.9980974197387695
1667404656.71863985,109353086,1,0.060872528702020645,-0.004839913919568062,0.004298902582377195,-0.9981245398521423
1667404656.75859094,109393037,1,0.06069635972380638,-0.004614261910319328,0.0060061924159526825,-0.9981275200843811
1667404656.79860497,109433051,1,0.06037640944123268,-0.004674787167459726,0.007245074957609177,-0.998138427734375
1667404656.83863282,109473079,1,0.06004014238715172,-0.004849811550229788,0.008743586018681526,-0.9981458783149719
1667404656.85860682,109493053,1,0.05984054505825043,-0.004308843053877354,0.007883669808506966,-0.9981675148010254
1667404656.87863684,109513083,1,0.059776127338409424,-0.004649837501347065,0.00913600530475378,-0.9981591701507568
1667404656.91863394,109553080,1,0.05930356681346893,-0.0038061528466641903,0.010258105583488941,-0.9981800317764282
1667404656.95861697,109593063,1,0.05856966972351074,-0.0037183675449341536,0.011424645781517029,-0.9982110261917114
1667404656.99860096,109633047,1,0.05794232338666916,-0.004457286559045315,0.011166226118803024,-0.998247504234314
1667404657.03859997,109673046,1,0.0571342334151268,-0.006200921256095171,0.011195600964128971,-0.9982844591140747
1667404657.05863094,109693077,1,0.05655824393033981,-0.0072000822983682156,0.012605240568518639,-0.9982937574386597
1667404657.07862592,109713072,1,0.05576635152101517,-0.008126472122967243,0.01301538199186325,-0.9983259439468384
1667404657.11862683,109753073,1,0.055138666182756424,-0.010047540999948978,0.014283902943134308,-0.9983259439468384
1667404657.15862894,109793075,1,0.054330408573150635,-0.012587410397827625,0.016582012176513672,-0.9983059763908386
1667404657.19860697,109833053,1,0.053612031042575836,-0.014629480428993702,0.01819407008588314,-0.9982888698577881
1667404657.23860192,109873048,1,0.05312684550881386,-0.016859645023941994,0.01977289654314518,-0.9982496500015259
1667404657.25863075,109893077,1,0.052483636885881424,-0.01776762306690216,0.01978232152760029,-0.9982677102088928
1667404657.27859974,109913046,1,0.05210544914007187,-0.019018614664673805,0.021695971488952637,-0.9982247352600098
1667404657.31864095,109953087,1,0.051568206399679184,-0.02182670496404171,0.021359719336032867,-0.9982024431228638
1667404657.35864592,109993092,1,0.050538983196020126,-0.024927550926804543,0.022267064079642296,-0.9981626272201538
1667404657.39864683,110033093,1,0.04993957281112671,-0.026778388768434525,0.022449562326073647,-0.9981407523155212
1667404657.43860483,110073051,1,0.04911727085709572,-0.02783750556409359,0.024219345301389694,-0.9981111884117126
1667404657.45863485,110093081,1,0.049082107841968536,-0.02792906016111374,0.02548680081963539,-0.9980788230895996
1667404657.47861886,110113065,1,0.04858894646167755,-0.02785285748541355,0.025869734585285187,-0.9980952143669128
1667404657.51863194,110153078,1,0.048030655831098557,-0.027705751359462738,0.027804698795080185,-0.9980742931365967
1667404657.55862689,110193073,1,0.04720970243215561,-0.026860075071454048,0.02980145625770092,-0.9980790019035339
1667404657.59865475,110233101,1,0.04664943367242813,-0.02549249865114689,0.03125106915831566,-0.9980968832969666
1667404657.63858581,110273032,1,0.045214779675006866,-0.02387678623199463,0.0333273746073246,-0.9981356859207153
1667404657.65863895,110293085,1,0.04462958872318268,-0.023032788187265396,0.034281354397535324,-0.9981495141983032
1667404657.67860889,110313055,1,0.04384078457951546,-0.022150572389364243,0.03496166318655014,-0.9981808662414551
1667404657.71860385,110353050,1,0.04248825088143349,-0.020149555057287216,0.0369005985558033,-0.9982119202613831
1667404657.75863290,110393079,1,0.04105183854699135,-0.0186733640730381,0.0400526262819767,-0.9981792569160461
1667404657.79863191,110433078,1,0.03948282450437546,-0.017211729660630226,0.044152043759822845,-0.9980959296226501
1667404657.83863592,110473082,1,0.037712521851062775,-0.014736255630850792,0.048012323677539825,-0.9980257749557495
1667404657.85861492,110493061,1,0.036666858941316605,-0.014129087328910828,0.048940956592559814,-0.9980283975601196
1667404657.87863684,110513083,1,0.03627156466245651,-0.013410927727818489,0.05037679523229599,-0.9979813098907471
1667404657.91860294,110553049,1,0.03445777669548988,-0.01161339320242405,0.051431480795145035,-0.9980143308639526
1667404657.95860291,110593049,1,0.03251393511891365,-0.01034484338015318,0.05275720730423927,-0.9980242848396301
1667404657.99862576,110633072,1,0.030595213174819946,-0.010186449624598026,0.05181845277547836,-0.9981357455253601
1667404658.03860784,110673054,1,0.028596652671694756,-0.010161854326725006,0.05194159969687462,-0.998188853263855
1667404658.05859995,110693046,1,0.02782618999481201,-0.010183480568230152,0.053443875163793564,-0.9981311559677124
1667404658.07862782,110713074,1,0.026786187663674355,-0.010507393628358841,0.05225951224565506,-0.9982189536094666
1667404658.11861181,110753058,1,0.02490963041782379,-0.01107698678970337,0.050902340561151505,-0.9983314871788025
1667404658.15859985,110793046,1,0.022890355437994003,-0.012842093594372272,0.04933752119541168,-0.998437225818634
1667404658.19860697,110833053,1,0.0209357813000679,-0.015321729704737663,0.04663347452878952,-0.9985750913619995
1667404658.23862076,110873067,1,0.01931668445467949,-0.01790909841656685,0.04401256889104843,-0.9986836314201355
1667404658.25860977,110893056,1,0.018404437229037285,-0.01955142617225647,0.04294057935476303,-0.9987167119979858
1667404658.27861190,110913058,1,0.01780020073056221,-0.02094036340713501,0.04136335849761963,-0.9987661242485046
1667404658.31864190,110953088,1,0.016438135877251625,-0.02484802156686783,0.038876716047525406,-0.998799741268158
1667404658.35860181,110993048,1,0.014564373530447483,-0.027711952105164528,0.038240667432546616,-0.9987780451774597
1667404658.39859986,111033046,1,0.01264879759401083,-0.029331225901842117,0.03838353604078293,-0.9987524151802063
1667404658.43864083,111073087,1,0.011565053835511208,-0.03225899860262871,0.036705076694488525,-0.9987383484840393
1667404658.45858192,111093028,1,0.01086960919201374,-0.033548079431056976,0.03675776720046997,-0.9987017512321472
1667404658.47863984,111113086,1,0.01010602992027998,-0.03410609811544418,0.0362561009824276,-0.9987092614173889
1667404658.51863790,111153084,1,0.008418714627623558,-0.03641083836555481,0.03748306632041931,-0.9985982179641724
1667404658.55858994,111193036,1,0.006613356526941061,-0.03806490823626518,0.03724333271384239,-0.9985591173171997
1667404658.59859991,111233046,1,0.004335212521255016,-0.03838668763637543,0.03726683184504509,-0.9985584020614624
1667404658.63860297,111273049,1,0.0026002454105764627,-0.03913753107190132,0.038262590765953064,-0.9984976053237915
1667404658.65863991,111293086,1,0.001869645551778376,-0.038857173174619675,0.03939218446612358,-0.9984662532806396
1667404658.67863083,111313077,1,0.000867402006406337,-0.03802365064620972,0.04014600068330765,-0.9984697103500366
1667404658.71860981,111353056,1,-0.0008596501429565251,-0.037174005061388016,0.04097640514373779,-0.9984679818153381
1667404658.75863791,111393084,1,-0.0031158938072621822,-0.03684329241514206,0.04046948254108429,-0.998496413230896
1667404658.79861784,111433064,1,-0.005998348817229271,-0.03578461334109306,0.04266825690865517,-0.9984301924705505
1667404658.83860087,111473047,1,-0.007904947735369205,-0.03360101208090782,0.042895250022411346,-0.9984830617904663
1667404658.85864091,111493087,1,-0.00844468642026186,-0.03239865601062775,0.040997520089149475,-0.9985980987548828
1667404658.87860084,111513047,1,-0.009777843952178955,-0.0315156914293766,0.04107341915369034,-0.9986110925674438
1667404658.91863489,111553081,1,-0.012066035531461239,-0.02859123982489109,0.040060579776763916,-0.9987152218818665
1667404658.95861793,111593064,1,-0.014330404810607433,-0.025875438004732132,0.038530927151441574,-0.9988195300102234
1667404658.99863791,111633084,1,-0.016982940956950188,-0.023323917761445045,0.03547702729701996,-0.9989539384841919
1667404659.03861880,111673065,1,-0.018800217658281326,-0.020916923880577087,0.034160349518060684,-0.9990205764770508
1667404659.05863285,111693079,1,-0.019552111625671387,-0.019603602588176727,0.03391517698764801,-0.9990411400794983
1667404659.07860088,111713047,1,-0.020376505330204964,-0.018868086859583855,0.032878413796424866,-0.9990734457969666
1667404659.11860394,111753050,1,-0.021903416141867638,-0.017505735158920288,0.031514063477516174,-0.9991099238395691
1667404659.15861392,111793060,1,-0.023749196901917458,-0.01612428016960621,0.03178023546934128,-0.9990825653076172
1667404659.19859886,111833045,1,-0.025644833222031593,-0.016475046053528786,0.031149420887231827,-0.9990498423576355
1667404659.23863697,111873083,1,-0.026652485132217407,-0.01722477190196514,0.03284076228737831,-0.9989566802978516
1667404659.25863886,111893085,1,-0.02693391963839531,-0.018097061663866043,0.03266745060682297,-0.9989393949508667
1667404659.27860093,111913047,1,-0.02767445519566536,-0.01872272975742817,0.0333455465734005,-0.9988852143287659
1667404659.31860280,111953049,1,-0.02875959873199463,-0.020013442263007164,0.03442069888114929,-0.9987930655479431
1667404659.35863495,111993081,1,-0.029555322602391243,-0.022191323339939117,0.033331502228975296,-0.9987607598304749
1667404659.39865494,112033101,1,-0.03096577152609825,-0.024450968950986862,0.03488423302769661,-0.9986122250556946
1667404659.43863082,112073077,1,-0.03209942579269409,-0.02705356664955616,0.03615715727210045,-0.9984639883041382
1667404659.45859981,112093046,1,-0.032358478754758835,-0.02842908725142479,0.036482073366642,-0.9984056353569031
1667404659.47863889,112113085,1,-0.03274330869317055,-0.029524125158786774,0.037058740854263306,-0.9983400702476501
1667404659.51860189,112153048,1,-0.03377532958984375,-0.03070257417857647,0.0361388623714447,-0.9983038306236267
1667404659.55860591,112193052,1,-0.03512495011091232,-0.030931837856769562,0.03664710745215416,-0.9982316493988037
1667404659.59862995,112233076,1,-0.036373648792505264,-0.031265150755643845,0.035865653306245804,-0.9982049465179443
1667404659.63862777,112273074,1,-0.03740602359175682,-0.03040553256869316,0.03537643700838089,-0.9982107877731323
1667404659.65860677,112293053,1,-0.03797274827957153,-0.030857743695378304,0.0323873870074749,-0.9982770085334778
1667404659.67865181,112313098,1,-0.0385780856013298,-0.030973101034760475,0.032196711748838425,-0.9982563853263855
1667404659.71862388,112353070,1,-0.04055552929639816,-0.031952865421772,0.032219525426626205,-0.9981463551521301
1667404659.75860095,112393047,1,-0.04331361874938011,-0.03238193318247795,0.03173358365893364,-0.9980322122573853
1667404659.79859996,112433046,1,-0.04596762731671333,-0.033957045525312424,0.02864891104400158,-0.9979544878005981
1667404659.83863282,112473079,1,-0.049388568848371506,-0.03372271731495857,0.03009610064327717,-0.9977563619613647
1667404659.85861397,112493060,1,-0.05113665387034416,-0.03456765413284302,0.029710868373513222,-0.9976509213447571
1667404659.87861180,112513058,1,-0.052725471556186676,-0.03391958400607109,0.029283402487635612,-0.9976031184196472
1667404659.91863394,112553080,1,-0.056718967854976654,-0.03454073518514633,0.029760703444480896,-0.9973486065864563
1667404659.95859790,112593044,1,-0.0611586757004261,-0.034721795469522476,0.03154091536998749,-0.997025191783905
1667404659.99860096,112633047,1,-0.06604957580566406,-0.03587626665830612,0.0322282537817955,-0.996650218963623
1667404660.03860092,112673047,1,-0.07192892581224442,-0.036926329135894775,0.035331614315509796,-0.996099591255188
1667404660.05861092,112693057,1,-0.07455171644687653,-0.037234485149383545,0.03473188355565071,-0.9959163069725037
1667404660.07861280,112713059,1,-0.07729868590831757,-0.03738752380013466,0.03608332946896553,-0.9956530928611755
1667404660.11863685,112753083,1,-0.08310987800359726,-0.037276651710271835,0.036633532494306564,-0.995168924331665
1667404660.15864897,112793095,1,-0.08978106081485748,-0.03738712519407272,0.03525034710764885,-0.9946351051330566
1667404660.19858479,112833031,1,-0.09586074203252792,-0.036948200315237045,0.033692341297864914,-0.9941380023956299
1667404660.23858595,112873032,1,-0.10180129110813141,-0.0374331995844841,0.030541783198714256,-0.9936309456825256
1667404660.25863385,112893080,1,-0.10482707619667053,-0.03592519462108612,0.029784444719552994,-0.9933949708938599
1667404660.27862787,112913074,1,-0.10811017453670502,-0.03537863865494728,0.030593913048505783,-0.9930380582809448
1667404660.31864381,112953090,1,-0.11360126733779907,-0.03443474695086479,0.02677020989358425,-0.9925685524940491
1667404660.35862994,112993076,1,-0.11948197335004807,-0.03362278267741203,0.024005858227610588,-0.9919764399528503
1667404660.39861178,113033058,1,-0.1249890998005867,-0.03255956619977951,0.019445881247520447,-0.9914330244064331
1667404660.43860388,113073050,1,-0.13023068010807037,-0.030476441606879234,0.016725754365324974,-0.9908740520477295
1667404660.45858383,113093030,1,-0.1324627846479416,-0.03018895722925663,0.01645764894783497,-0.9905914068222046
1667404660.47860289,113113049,1,-0.1353137344121933,-0.029670557007193565,0.015765011310577393,-0.9902329444885254
1667404660.51863790,113153084,1,-0.13963960111141205,-0.02934373915195465,0.01415796298533678,-0.989666223526001
1667404660.55863190,113193078,1,-0.14462564885616302,-0.028772462159395218,0.01706942357122898,-0.9889207482337952
1667404660.59863091,113233077,1,-0.14855840802192688,-0.029165958985686302,0.015178915113210678,-0.98835688829422
1667404660.63860774,113273054,1,-0.1518295258283615,-0.029590291902422905,0.01567365787923336,-0.9878393411636353
1667404660.65862489,113293071,1,-0.15283843874931335,-0.029806604608893394,0.01575530506670475,-0.9876759052276611
1667404660.67860389,113313050,1,-0.15433835983276367,-0.030349604785442352,0.016481660306453705,-0.9874142408370972
1667404660.71859884,113353045,1,-0.15629062056541443,-0.03124200738966465,0.01772252842783928,-0.9870578050613403
1667404660.75862479,113393071,1,-0.15753421187400818,-0.032222602516412735,0.018235186114907265,-0.9868192076683044
1667404660.79860878,113433055,1,-0.15788036584854126,-0.03303046524524689,0.019034799188375473,-0.9867220520973206
1667404660.83862686,113473073,1,-0.15789562463760376,-0.03448391333222389,0.020426813513040543,-0.986642062664032
1667404660.85862875,113493075,1,-0.15715426206588745,-0.03408471867442131,0.02034159004688263,-0.9867760539054871
1667404660.87862182,113513068,1,-0.1569618433713913,-0.03482889011502266,0.021762320771813393,-0.9867503643035889
1667404660.91859984,113553046,1,-0.15652461349964142,-0.03543894737958908,0.024386802688241005,-0.9867367744445801
1667404660.95863891,113593085,1,-0.1561775803565979,-0.03560810163617134,0.025279603898525238,-0.9867631793022156
1667404660.99863291,113633079,1,-0.15557748079299927,-0.03590148687362671,0.025598179548978806,-0.9868391156196594
1667404661.03863788,113673084,1,-0.1556333750486374,-0.03667384386062622,0.0261479914188385,-0.9867874979972839
1667404661.05860090,113693047,1,-0.15507341921329498,-0.03644188866019249,0.02492263726890087,-0.9869159460067749
1667404661.07860184,113713048,1,-0.15562371909618378,-0.036986131221055984,0.026396166533231735,-0.986770749092102
1667404661.11860585,113753052,1,-0.1555585116147995,-0.03702506050467491,0.02510027028620243,-0.9868133664131165
1667404661.15859985,113793046,1,-0.1566411405801773,-0.03666941076517105,0.02394954115152359,-0.9866840243339539
1667404661.19862986,113833076,1,-0.15743638575077057,-0.03587576374411583,0.025246242061257362,-0.9865542650222778
1667404661.23863077,113873077,1,-0.1584930717945099,-0.035359229892492294,0.023715268820524216,-0.9864417314529419
1667404661.25860190,113893048,1,-0.1587662249803543,-0.03466418758034706,0.023380732163786888,-0.9864304661750793
1667404661.27863884,113913085,1,-0.15967784821987152,-0.03380009904503822,0.023453256115317345,-0.9863115549087524
1667404661.31861377,113953060,1,-0.16046345233917236,-0.03282729163765907,0.023067403584718704,-0.9862260222434998
1667404661.35860586,113993052,1,-0.16111379861831665,-0.0326753631234169,0.02145243249833584,-0.986161470413208
1667404661.39860487,114033051,1,-0.16184790432453156,-0.031023094430565834,0.019808433949947357,-0.9861290454864502
1667404661.43862581,114073072,1,-0.16272316873073578,-0.029481885954737663,0.015793120488524437,-0.9861047267913818
1667404661.45860577,114093052,1,-0.16321313381195068,-0.028391417115926743,0.015736253932118416,-0.9860566854476929
1667404661.47862482,114113071,1,-0.16296865046024323,-0.027282528579235077,0.013743000105023384,-0.9861581921577454
1667404661.51863980,114153086,1,-0.163180872797966,-0.02760142832994461,0.006360261235386133,-0.9861894845962524
1667404661.55861187,114193058,1,-0.16382549703121185,-0.02712329849600792,0.003955668304115534,-0.9861084818840027
1667404661.59858394,114233030,1,-0.16383233666419983,-0.028022317215800285,0.0016578946961089969,-0.9860886931419373
1667404661.63859892,114273045,1,-0.16373680531978607,-0.030157143250107765,-0.0010665424633771181,-0.9860424399375916
1667404661.65861988,114293066,1,-0.1634802520275116,-0.030576413497328758,-0.002840908709913492,-0.9860685467720032
1667404661.67861986,114313066,1,-0.16340693831443787,-0.03216223046183586,-0.0028053256683051586,-0.9860303997993469
1667404661.71863985,114353086,1,-0.1635533571243286,-0.033882394433021545,-0.0016385207418352365,-0.9859511256217957
1667404661.75862479,114393071,1,-0.16362255811691284,-0.03416012227535248,-0.002164245583117008,-0.985929012298584
1667404661.79859996,114433046,1,-0.16352422535419464,-0.033775694668293,-0.001677915221080184,-0.985959529876709
1667404661.83859992,114473046,1,-0.16369770467281342,-0.03139089047908783,-0.0005514856311492622,-0.9860108494758606
1667404661.85863781,114493084,1,-0.16385291516780853,-0.029317181557416916,-0.0008811510051600635,-0.9860486388206482
1667404661.87863088,114513077,1,-0.16337168216705322,-0.028674384579062462,-0.00041748236981220543,-0.9861477017402649
1667404661.91862774,114553074,1,-0.16328774392604828,-0.02705593779683113,-0.003421018598601222,-0.9862014651298523
1667404661.95862889,114593075,1,-0.16350311040878296,-0.02448495663702488,-0.004195039160549641,-0.9862300157546997
1667404661.99864388,114633090,1,-0.16298739612102509,-0.02479846216738224,-0.011662761680781841,-0.9862474799156189
1667404662.03859997,114673046,1,-0.1630655974149704,-0.024449126794934273,-0.021071769297122955,-0.9860871434211731
1667404662.05863786,114693084,1,-0.16294902563095093,-0.024906646460294724,-0.026899192482233047,-0.9859532117843628
1667404662.07860279,114713049,1,-0.16274221241474152,-0.025139600038528442,-0.0313531830906868,-0.9858498573303223
1667404662.11862779,114753074,1,-0.16295795142650604,-0.02563437446951866,-0.039481598883867264,-0.9855093955993652
1667404662.15862584,114793072,1,-0.16366617381572723,-0.027140172198414803,-0.04774121567606926,-0.9849860668182373
1667404662.19863796,114833084,1,-0.16456881165504456,-0.026537856087088585,-0.05080677196383476,-0.9846987128257751
1667404662.23859692,114873043,1,-0.16569839417934418,-0.02783653698861599,-0.05350421741604805,-0.9843304753303528
1667404662.25862980,114893076,1,-0.16649144887924194,-0.02725023217499256,-0.05199776589870453,-0.9842937588691711
1667404662.27859974,114913046,1,-0.16737304627895355,-0.02706204541027546,-0.05091254413127899,-0.9842061996459961
1667404662.31861782,114953064,1,-0.16835333406925201,-0.02827913500368595,-0.047095052897930145,-0.9841948747634888
1667404662.35862780,114993074,1,-0.17043131589889526,-0.027500968426465988,-0.04196065291762352,-0.9840915203094482
1667404662.39862680,115033073,1,-0.17213226854801178,-0.027533529326319695,-0.03738480806350708,-0.9839790463447571
1667404662.43863678,115073083,1,-0.1738976687192917,-0.02665845677256584,-0.03258709982037544,-0.9838632941246033
1667404662.45862794,115093074,1,-0.17439641058444977,-0.026884226128458977,-0.029958508908748627,-0.9838524460792542
1667404662.47860074,115113047,1,-0.17523780465126038,-0.02648596651852131,-0.027874546125531197,-0.9837749600410461
1667404662.51861095,115153057,1,-0.17660866677761078,-0.025019625201821327,-0.02380754053592682,-0.9836750626564026
1667404662.55860496,115193051,1,-0.17814375460147858,-0.024747958406805992,-0.020896559581160545,-0.9834712147712708
1667404662.59862781,115233074,1,-0.1798097789287567,-0.02457914501428604,-0.018693359568715096,-0.9832165837287903
1667404662.63863277,115273079,1,-0.1818396896123886,-0.024924401193857193,-0.01572020910680294,-0.982886552810669
1667404662.65859795,115293044,1,-0.18252623081207275,-0.02480371482670307,-0.015070747584104538,-0.9827725291252136
1667404662.67862177,115313068,1,-0.18303731083869934,-0.02462620474398136,-0.014425108209252357,-0.9826915860176086
1667404662.71860290,115353049,1,-0.18485316634178162,-0.02495463192462921,-0.016114110127091408,-0.9823170900344849
1667404662.75859976,115393046,1,-0.1864982694387436,-0.026224307715892792,-0.018020378425717354,-0.9819399118423462
1667404662.79863191,115433078,1,-0.18859508633613586,-0.026702681556344032,-0.017373884096741676,-0.9815380573272705
1667404662.83863878,115473085,1,-0.1904883235692978,-0.0277264267206192,-0.019103240221738815,-0.9811118841171265
