timestamp,TimeUS,C,Roll,Pitch,Yaw,VN,VE,VD,dPD,PN,PE,PD,GX,GY,GZ,OH
1667404645.35859895,97993045,1,-0.26,0.79,255.14000000000001,0.029781732708215714,0.01646084152162075,-0.07246461510658264,-0.04501518979668617,0.014051244594156742,1.1890757083892822,-0.3188318610191345,0.03,-0.01,0.0,260.78000000000003
1667404645.39860392,98033050,1,-0.27,0.79,255.14000000000001,0.028954090550541878,0.016170959919691086,-0.07252591103315353,-0.04559860751032829,0.014127351343631744,1.1898311376571655,-0.32090798020362854,0.03,-0.01,0.0,260.78000000000003
1667404645.43863177,98073078,1,-0.27,0.79,255.15,0.027905086055397987,0.016245698556303978,-0.07229293882846832,-0.049120306968688965,0.01385671179741621,1.1909438371658325,-0.32323214411735535,0.03,-0.01,0.0,260.78000000000003
1667404645.45859694,98093043,1,-0.27,0.79,255.15,0.027140341699123383,0.016500718891620636,-0.07215810567140579,-0.051845259964466095,0.013425462879240513,1.1916743516921997,-0.3244231343269348,0.03,-0.01,0.0,260.78000000000003
1667404645.47863197,98113078,1,-0.27,0.8,255.15,0.026988085359334946,0.016505857929587364,-0.07194818556308746,-0.05458026006817818,0.013049464672803879,1.1923646926879883,-0.32560014724731445,0.03,-0.01,0.0,260.78000000000003
1667404645.51860094,98153047,1,-0.27,0.79,255.16,0.026489969342947006,0.016966473311185837,-0.07247842103242874,-0.06002203747630119,0.012878802604973316,1.1935193538665771,-0.32808277010917664,0.03,-0.01,0.0,260.78000000000003
1667404645.55859494,98193041,1,-0.27,0.79,255.16,0.026409344747662544,0.01741284504532814,-0.07251997292041779,-0.06192854046821594,0.012796465307474136,1.1946264505386353,-0.3304237425327301,0.03,-0.01,0.0,260.78000000000003
1667404645.59862590,98233072,1,-0.27,0.79,255.17000000000002,0.02595278061926365,0.01755865104496479,-0.07201585918664932,-0.060624394565820694,0.012891620397567749,1.1956595182418823,-0.3323023319244385,0.03,-0.01,0.0,260.78000000000003
1667404645.63864183,98273088,1,-0.28,0.79,255.17000000000002,0.025850512087345123,0.016601506620645523,-0.07125190645456314,-0.0472080335021019,0.013180993497371674,1.1965441703796387,-0.33333390951156616,0.03,-0.01,0.0,260.78000000000003
1667404645.65859890,98293045,1,-0.28,0.79,255.17000000000002,0.02572515234351158,0.016228264197707176,-0.07084091007709503,-0.04012324661016464,0.013255415484309196,1.196993350982666,-0.3336864709854126,0.03,-0.01,0.0,260.78000000000003
1667404645.67861676,98313063,1,-0.28,0.79,255.17000000000002,0.025175800547003746,0.015994369983673096,-0.07076697051525116,-0.035166606307029724,0.013349918648600578,1.197413444519043,-0.334092378616333,0.03,-0.01,0.0,260.78000000000003
1667404645.71862078,98353067,1,-0.28,0.79,255.17000000000002,0.02489171363413334,0.015614914707839489,-0.07042866945266724,-0.028948726132512093,0.013794939033687115,1.1981654167175293,-0.3355855345726013,0.03,-0.01,0.0,260.78000000000003
1667404645.75859380,98393040,1,-0.28,0.79,255.17000000000002,0.024628540500998497,0.015022637322545052,-0.06967867910861969,-0.028154520317912102,0.01431537140160799,1.1988774538040161,-0.3372507095336914,0.03,-0.01,0.0,260.78000000000003
1667404645.79859591,98433042,1,-0.28,0.79,255.17000000000002,0.024728478863835335,0.01449242141097784,-0.06917822360992432,-0.031038424000144005,0.01488995086401701,1.1995264291763306,-0.33899182081222534,0.03,-0.01,0.0,260.78000000000003
1667404645.83862877,98473075,1,-0.28,0.79,255.18,0.023853329941630363,0.01366193313151598,-0.0688953697681427,-0.030180297791957855,0.015057394281029701,1.2001404762268066,-0.34003522992134094,0.03,-0.01,0.0,260.78000000000003
1667404645.85859990,98493046,1,-0.28,0.79,255.18,0.02316669002175331,0.013287155888974667,-0.06867999583482742,-0.02861461043357849,0.015042935498058796,1.2004225254058838,-0.34037768840789795,0.03,-0.01,0.0,260.78000000000003
1667404645.87861991,98513066,1,-0.28,0.79,255.18,0.02257908135652542,0.013017261400818825,-0.06836298108100891,-0.02772553265094757,0.015055865049362183,1.2006875276565552,-0.3407996892929077,0.03,-0.01,0.0,260.78000000000003
1667404645.91862392,98553070,1,-0.28,0.79,255.18,0.022266343235969543,0.012259796261787415,-0.06812988221645355,-0.026744652539491653,0.015357262454926968,1.2011733055114746,-0.34210526943206787,0.03,-0.01,0.0,260.78000000000003
1667404645.95859981,98593046,1,-0.28,0.79,255.18,0.022251341491937637,0.012188002467155457,-0.06724833697080612,-0.026466142386198044,0.01572418212890625,1.2016290426254272,-0.3435177206993103,0.03,-0.01,0.0,260.78000000000003
1667404645.99860883,98633055,1,-0.28,0.79,255.18,0.02209116704761982,0.011828270740807056,-0.06651303172111511,-0.02838931605219841,0.016135944053530693,1.202049970626831,-0.3450261056423187,0.03,-0.01,0.0,260.78000000000003
1667404646.03859282,98673039,1,-0.28,0.79,255.18,0.02035236544907093,0.01193120889365673,-0.06610243767499924,-0.035013679414987564,0.015934305265545845,1.2031025886535645,-0.3470754027366638,0.03,-0.01,0.0,260.78000000000003
1667404646.05865097,98693097,1,-0.28,0.79,255.18,0.019377535209059715,0.011827402748167515,-0.06597510725259781,-0.039299704134464264,0.01568733900785446,1.2036837339401245,-0.34803298115730286,0.03,-0.01,0.0,260.78000000000003
1667404646.07862687,98713073,1,-0.28,0.79,255.18,0.018620168790221214,0.011998324654996395,-0.06591011583805084,-0.04364607483148575,0.015468185767531395,1.2042369842529297,-0.34901830554008484,0.03,-0.01,0.0,260.78000000000003
1667404646.11864495,98753091,1,-0.28,0.79,255.19,0.01691691391170025,0.012183446437120438,-0.06580214947462082,-0.050537727773189545,0.015340999700129032,1.2051482200622559,-0.3511715233325958,0.03,-0.01,0.0,260.78000000000003
1667404646.15864277,98793089,1,-0.28,0.79,255.19,0.01590612158179283,0.01228976622223854,-0.06599333137273788,-0.05541515722870827,0.015231545083224773,1.206016182899475,-0.3533695340156555,0.03,-0.01,0.0,260.78000000000003
1667404646.19860792,98833054,1,-0.28,0.79,255.19,0.015251612290740013,0.01227311696857214,-0.06585180759429932,-0.058335281908512115,0.015155535191297531,1.2068493366241455,-0.35562461614608765,0.03,-0.01,0.0,260.78000000000003
1667404646.23859692,98873043,1,-0.28,0.79,255.19,0.014368753880262375,0.011326818726956844,-0.06491819024085999,-0.04698849469423294,0.015342643484473228,1.207293152809143,-0.35608482360839844,0.03,-0.01,0.0,260.78000000000003
1667404646.25863075,98893077,1,-0.28,0.79,255.19,0.013915487565100193,0.010516753420233727,-0.06441894173622131,-0.03789832815527916,0.015372669324278831,1.2074753046035767,-0.35607433319091797,0.03,-0.01,0.0,260.78000000000003
1667404646.27862597,98913072,1,-0.28,0.79,255.19,0.01323099434375763,0.00946446880698204,-0.06411750614643097,-0.03059280477464199,0.015410404652357101,1.2076325416564941,-0.3561623692512512,0.03,-0.01,0.0,260.78000000000003
1667404646.31862879,98953075,1,-0.28,0.79,255.19,0.012600436806678772,0.008013132959604263,-0.06396328657865524,-0.01990705542266369,0.015612838789820671,1.2079037427902222,-0.3569810688495636,0.03,-0.01,0.0,260.78000000000003
1667404646.35861683,98993063,1,-0.28,0.79,255.19,0.011803995817899704,0.006923828739672899,-0.06348495185375214,-0.014522419311106205,0.015824871137738228,1.2080985307693481,-0.3579373061656952,0.03,-0.01,0.0,260.78000000000003
1667404646.39859796,99033044,1,-0.28,0.79,255.19,0.011232387274503708,0.006322560366243124,-0.06295245885848999,-0.014492048881947994,0.016060341149568558,1.2082431316375732,-0.3590855896472931,0.03,-0.01,0.0,260.78000000000003
1667404646.43862081,99073067,1,-0.28,0.79,255.20000000000002,0.009207508526742458,0.005302664823830128,-0.06247319281101227,-0.017704777419567108,0.01564309373497963,1.2086093425750732,-0.36030933260917664,0.03,-0.01,0.0,260.78000000000003
1667404646.45860577,99093052,1,-0.28,0.79,255.20000000000002,0.008055496960878372,0.0045489054173231125,-0.062329597771167755,-0.020151350647211075,0.015320174396038055,1.2087736129760742,-0.3608321249485016,0.03,-0.01,0.0,260.78000000000003
1667404646.47859383,99113040,1,-0.28,0.79,255.20000000000002,0.006820962764322758,0.0038356550503522158,-0.06205938756465912,-0.023016979917883873,0.015007373876869678,1.2089018821716309,-0.3613843023777008,0.03,-0.01,0.0,260.78000000000003
1667404646.51862288,99153069,1,-0.28,0.79,255.20000000000002,0.0052503254264593124,0.0028270818293094635,-0.06177758798003197,-0.027773113921284676,0.014605587348341942,1.209073781967163,-0.36272701621055603,0.03,-0.01,0.0,260.78000000000003
1667404646.55861688,99193063,1,-0.28,0.79,255.21,0.003833763301372528,0.0016488017281517386,-0.06142326816916466,-0.030279969796538353,0.014208185486495495,1.2091706991195679,-0.3641364276409149,0.03,-0.01,0.0,260.78000000000003
1667404646.59862590,99233072,1,-0.28,0.79,255.21,0.002820791443809867,0.0009466454503126442,-0.061522550880908966,-0.0333501473069191,0.013809897936880589,1.2092125415802002,-0.3656459152698517,0.03,-0.01,0.0,260.78000000000003
1667404646.63860679,99273053,1,-0.28,0.79,255.22,0.0016626159194856882,-0.0005132410442456603,-0.06055109575390816,-0.019687682390213013,0.013216866180300713,1.2089177370071411,-0.3648482859134674,0.03,-0.01,0.0,260.78000000000003
1667404646.65860391,99293050,1,-0.28,0.79,255.22,0.0007217527600005269,-0.0016963239759206772,-0.05972369387745857,-0.008555630221962929,0.012821504846215248,1.2086907625198364,-0.36411309242248535,0.03,-0.01,0.0,260.78000000000003
1667404646.67859793,99313044,1,-0.28,0.79,255.22,-6.870924698887393e-05,-0.0025314525701105595,-0.05914735421538353,0.00018505030311644077,0.012437578290700912,1.2084436416625977,-0.3635488450527191,0.03,-0.01,0.0,260.78000000000003
1667404646.71859694,99353043,1,-0.28,0.79,255.23000000000002,-0.0010846424847841263,-0.003933461848646402,-0.05828447639942169,0.012836736626923084,0.011879733763635159,1.2080109119415283,-0.36335983872413635,0.03,-0.01,0.0,260.78000000000003
1667404646.75862479,99393071,1,-0.28,0.79,255.24,-0.002492965664714575,-0.00577505910769105,-0.05752451717853546,0.01741415448486805,0.01132661011070013,1.2075014114379883,-0.3633750081062317,0.03,-0.01,0.0,260.78000000000003
1667404646.79860687,99433053,1,-0.28,0.79,255.24,-0.00377849698998034,-0.007055012043565512,-0.056851278990507126,0.01506555825471878,0.010769144631922245,1.2069319486618042,-0.3636269271373749,0.03,-0.01,0.0,260.78000000000003
1667404646.83862996,99473076,1,-0.28,0.79,255.25,-0.004093782044947147,-0.006609026342630386,-0.05579952523112297,0.016106700524687767,0.010461738333106041,1.2077085971832275,-0.36301252245903015,0.03,-0.01,0.0,260.78000000000003
1667404646.85862780,99493074,1,-0.28,0.79,255.25,-0.004142249468713999,-0.005830398760735989,-0.05550796911120415,0.01748330146074295,0.010298937559127808,1.2082264423370361,-0.3624064028263092,0.03,-0.01,0.0,260.78000000000003
1667404646.87859488,99513041,1,-0.28,0.79,255.25,-0.004300763830542564,-0.005200992804020643,-0.054940249770879745,0.017598411068320274,0.010146035812795162,1.208713173866272,-0.36195576190948486,0.03,-0.01,0.0,260.78000000000003
1667404646.91859984,99553046,1,-0.28,0.79,255.26000000000002,-0.004916172008961439,-0.004386457148939371,-0.053791072219610214,0.017374856397509575,0.00988364964723587,1.2093534469604492,-0.36173662543296814,0.03,-0.01,0.0,260.78000000000003
1667404646.95859289,99593039,1,-0.28,0.79,255.26000000000002,-0.0054533472284674644,-0.003815017407760024,-0.05281935632228851,0.016303792595863342,0.009634444490075111,1.2099632024765015,-0.36163395643234253,0.03,-0.01,0.0,260.78000000000003
1667404646.99861193,99633058,1,-0.28,0.79,255.26000000000002,-0.006125263404101133,-0.002958637895062566,-0.05207604169845581,0.01275298185646534,0.009372428990900517,1.2106163501739502,-0.3614106774330139,0.03,-0.01,0.0,260.78000000000003
1667404647.03863096,99673077,1,-0.28,0.79,255.27,-0.00700015714392066,-0.00224755285307765,-0.051464762538671494,0.01688528247177601,0.009058194234967232,1.211379885673523,-0.3605477809906006,0.03,-0.01,0.0,260.78000000000003
1667404647.05859780,99693044,1,-0.28,0.79,255.27,-0.007442181464284658,-0.002019238192588091,-0.05098143592476845,0.01939810998737812,0.008899147622287273,1.2118793725967407,-0.35981473326683044,0.03,-0.01,0.0,260.78000000000003
1667404647.07860184,99713048,1,-0.28,0.79,255.27,-0.0076210894621908665,-0.0017665659543126822,-0.05042394995689392,0.02001062221825123,0.008741927333176136,1.2123538255691528,-0.3592410683631897,0.03,-0.01,0.0,260.78000000000003
1667404647.11858797,99753034,1,-0.28,0.79,255.27,-0.00830746628344059,-0.0011532901553437114,-0.0497850626707077,0.019538452848792076,0.008437556214630604,1.2130136489868164,-0.35888248682022095,0.03,-0.01,0.0,260.78000000000003
1667404647.15859389,99793040,1,-0.28,0.79,255.27,-0.008918939158320427,-0.0008666512439958751,-0.04891308397054672,0.017485210672020912,0.008126985281705856,1.213636040687561,-0.3586917817592621,0.03,-0.01,0.0,260.78000000000003
1667404647.19862580,99833072,1,-0.28,0.79,255.27,-0.009950745850801468,-0.00039774650940671563,-0.04853396490216255,0.012137048877775669,0.00780447805300355,1.2142117023468018,-0.3587368428707123,0.03,-0.01,0.0,260.78000000000003
1667404647.23862696,99873073,1,-0.28,0.79,255.28,-0.010948327369987965,1.8001835996983573e-05,-0.04746551811695099,0.01519059855490923,0.007126219570636749,1.21510648727417,-0.35760775208473206,0.03,-0.01,0.0,260.78000000000003
1667404647.25859785,99893044,1,-0.28,0.79,255.28,-0.0112119410187006,0.0004272284568287432,-0.04675137624144554,0.018893232569098473,0.006747594103217125,1.2156625986099243,-0.3567494750022888,0.03,-0.01,0.0,260.78000000000003
1667404647.27863288,99913079,1,-0.28,0.79,255.28,-0.01194777712225914,0.00048503215657547116,-0.04606655240058899,0.020838409662246704,0.00637983251363039,1.216184139251709,-0.3560068607330322,0.03,-0.01,0.0,260.78000000000003
1667404647.31861687,99953063,1,-0.28,0.79,255.28,-0.013040279969573021,0.0009187940158881247,-0.045063313096761703,0.02305898442864418,0.005703624803572893,1.2169195413589478,-0.35544681549072266,0.03,-0.01,0.0,260.78000000000003
1667404647.35858178,99993028,1,-0.28,0.79,255.28,-0.013907825574278831,0.0005502503481693566,-0.04402459040284157,0.02196553722023964,0.005008559674024582,1.2175837755203247,-0.3550941050052643,0.03,-0.01,0.0,260.78000000000003
1667404647.39859986,100033046,1,-0.28,0.79,255.28,-0.01479486282914877,0.00017594816745258868,-0.04341326653957367,0.016994651407003403,0.004314822610467672,1.2181737422943115,-0.35493218898773193,0.03,-0.01,0.0,260.78000000000003
1667404647.43863177,100073078,1,-0.28,0.79,255.28,-0.014613572508096695,0.0007906107930466533,-0.043599456548690796,0.009945632889866829,0.004235412459820509,1.2190583944320679,-0.35492342710494995,0.03,-0.01,0.0,260.78000000000003
1667404647.45860291,100093049,1,-0.28,0.79,255.28,-0.01497869472950697,0.0009678566129878163,-0.043241579085588455,0.0068102311342954636,0.0042572044767439365,1.2196048498153687,-0.35474923253059387,0.03,-0.01,0.0,260.78000000000003
1667404647.47862983,100113076,1,-0.28,0.79,255.28,-0.015483272261917591,0.0008713803254067898,-0.04292930290102959,0.0029999888502061367,0.0042508793994784355,1.2201135158538818,-0.3546784818172455,0.03,-0.01,0.0,260.78000000000003
1667404647.51863384,100153080,1,-0.28,0.79,255.28,-0.015516754239797592,0.0011570415226742625,-0.04256332665681839,-0.0036909894552081823,0.004063867498189211,1.2208304405212402,-0.3551178574562073,0.03,-0.01,0.0,260.78000000000003
1667404647.55859184,100193038,1,-0.28,0.79,255.28,-0.015642331913113594,0.001429260242730379,-0.042497891932725906,-0.010121280327439308,0.0038694972172379494,1.221483826637268,-0.35567566752433777,0.03,-0.01,0.0,260.78000000000003
1667404647.59859991,100233046,1,-0.28,0.79,255.28,-0.015812847763299942,0.0019347361521795392,-0.04210316389799118,-0.015776999294757843,0.0036496389657258987,1.2220909595489502,-0.3564116954803467,0.03,-0.01,0.0,260.78000000000003
1667404647.63859582,100273042,1,-0.28,0.79,255.28,-0.015354135073721409,0.0020661831367760897,-0.041552767157554626,-0.015241049230098724,0.003968484699726105,1.2229162454605103,-0.3564698398113251,0.03,-0.01,0.0,260.78000000000003
1667404647.65857577,100293022,1,-0.28,0.79,255.27,-0.014914318919181824,0.002274184487760067,-0.04167090356349945,-0.013766130432486534,0.004268753342330456,1.223410725593567,-0.35632532835006714,0.03,-0.01,0.0,260.78000000000003
1667404647.67862678,100313073,1,-0.27,0.79,255.28,-0.014563077129423618,0.002609141869470477,-0.04180913418531418,-0.013018728233873844,0.004539421293884516,1.223877191543579,-0.35630813241004944,0.03,-0.01,0.0,260.78000000000003
1667404647.71860480,100353051,1,-0.27,0.79,255.28,-0.013987421058118343,0.0025619722437113523,-0.04173990339040756,-0.01145794615149498,0.004785739351063967,1.2245508432388306,-0.35671466588974,0.03,-0.01,0.0,260.78000000000003
1667404647.75863695,100393083,1,-0.27,0.79,255.28,-0.013479681685566902,0.0030861222185194492,-0.0412881076335907,-0.011191720142960548,0.0050161913968622684,1.2251721620559692,-0.357231467962265,0.03,-0.01,0.0,260.78000000000003
1667404647.79858589,100433032,1,-0.27,0.79,255.27,-0.013026108965277672,0.0032522431574761868,-0.040973562747240067,-0.01282713282853365,0.005227380432188511,1.2257617712020874,-0.3578856885433197,0.03,-0.01,0.0,260.78000000000003
1667404647.83860493,100473051,1,-0.27,0.79,255.27,-0.012192798778414726,0.003036280395463109,-0.040168166160583496,-0.010709571652114391,0.005949856247752905,1.2264598608016968,-0.35797712206840515,0.03,-0.01,0.0,260.78000000000003
1667404647.85862494,100493071,1,-0.27,0.79,255.27,-0.011556973680853844,0.002739132381975651,-0.040026869624853134,-0.008915742859244347,0.006486640311777592,1.2268586158752441,-0.35785990953445435,0.03,-0.01,0.0,260.78000000000003
1667404647.87860274,100513049,1,-0.27,0.79,255.27,-0.01079762913286686,0.0032046425621956587,-0.03996024280786514,-0.008165520615875721,0.006999823730438948,1.2272367477416992,-0.3578166663646698,0.03,-0.01,0.0,260.78000000000003
1667404647.91861677,100553063,1,-0.27,0.79,255.28,-0.00983811542391777,0.0025067145470529795,-0.03909625485539436,-0.005739330779761076,0.00762453768402338,1.227770209312439,-0.3579445481300354,0.03,-0.01,0.0,260.78000000000003
1667404647.95863795,100593084,1,-0.27,0.79,255.28,-0.010160809382796288,0.002280249260365963,-0.039012614637613297,-0.0028499902691692114,0.008203281089663506,1.22824227809906,-0.35809311270713806,0.03,-0.01,0.0,260.78000000000003
1667404647.99860477,100633051,1,-0.27,0.79,255.28,-0.009358118288218975,0.002400571247562766,-0.03840082883834839,-0.001843701465986669,0.008728545159101486,1.2286604642868042,-0.3584112226963043,0.03,-0.01,0.0,260.78000000000003
1667404648.03860092,100673047,1,-0.27,0.79,255.28,-0.008340931497514248,0.0016569998115301132,-0.03733247146010399,0.007708880119025707,0.009380537085235119,1.2288661003112793,-0.35726282000541687,0.03,-0.01,0.0,260.78000000000003
1667404648.05862379,100693070,1,-0.27,0.8,255.27,-0.008214971050620079,0.0013106761034578085,-0.036791130900382996,0.014476940967142582,0.009852144867181778,1.2289668321609497,-0.3564189076423645,0.03,-0.01,0.0,260.78000000000003
1667404648.07860994,100713056,1,-0.27,0.8,255.27,-0.007863843813538551,0.001239923294633627,-0.036265354603528976,0.019072137773036957,0.01029923278838396,1.2290509939193726,-0.35568544268608093,0.03,-0.01,0.0,260.78000000000003
1667404648.11862993,100753076,1,-0.27,0.8,255.27,-0.007786533795297146,0.000975701492279768,-0.03549442067742348,0.024916814640164375,0.010842191986739635,1.2291620969772339,-0.35517972707748413,0.03,-0.01,0.0,260.78000000000003
1667404648.15863681,100793083,1,-0.27,0.8,255.27,-0.005765069276094437,0.00025420673773624003,-0.034573592245578766,0.024653898552060127,0.011388538405299187,1.2292118072509766,-0.35485926270484924,0.03,-0.01,0.0,260.78000000000003
1667404648.19865894,100833105,1,-0.27,0.8,255.27,-0.0067711784504354,0.0005874525522813201,-0.034013520926237106,0.019680367782711983,0.01180780678987503,1.229277491569519,-0.35474148392677307,0.03,-0.01,0.0,260.78000000000003
1667404648.23862576,100873072,1,-0.27,0.79,255.27,-0.006183138582855463,0.0013690502382814884,-0.03338143974542618,0.017539596185088158,0.012128767557442188,1.2295255661010742,-0.3541173040866852,0.03,-0.01,0.0,260.78000000000003
1667404648.25863194,100893078,1,-0.27,0.79,255.27,-0.005568488501012325,-0.00017793251026887447,-0.0337846465408802,0.01684843935072422,0.01230610255151987,1.2297030687332153,-0.3536037802696228,0.03,-0.01,0.0,260.78000000000003
1667404648.27860379,100913050,1,-0.27,0.79,255.27,-0.00416443170979619,-0.0015174756990745664,-0.031259872019290924,0.01780991442501545,0.012504738755524158,1.2298259735107422,-0.35319989919662476,0.03,-0.01,0.0,260.78000000000003
1667404648.31860375,100953050,1,-0.27,0.79,255.27,-0.006506917532533407,0.0020965749863535166,-0.03294574096798897,0.013591758906841278,0.012699260376393795,1.2300243377685547,-0.35289689898490906,0.03,-0.01,0.0,260.78000000000003
1667404648.35862780,100993074,1,-0.28,0.8,255.27,-0.004871560726314783,-0.00044595106737688184,-0.031202150508761406,0.012566901743412018,0.01287166029214859,1.2301536798477173,-0.352708637714386,0.03,-0.01,0.0,260.78000000000003
1667404648.39863777,101033084,1,-0.27,0.8,255.26000000000002,-0.005717480089515448,0.0002447132137604058,-0.030782511457800865,0.01053586881607771,0.01313689909875393,1.2302238941192627,-0.3520423471927643,0.03,-0.01,0.0,260.78000000000003
1667404648.43865681,101073103,1,-0.27,0.8,255.25,-0.006430513225495815,0.000529932789504528,-0.02915380336344242,0.028431234881281853,0.013636322692036629,1.2300585508346558,-0.3496777415275574,0.03,-0.01,0.0,260.78000000000003
1667404648.45862889,101093075,1,-0.27,0.8,255.25,-0.005030459258705378,6.472082895925269e-05,-0.028370441868901253,0.0386444590985775,0.013974455185234547,1.229968547821045,-0.3481198251247406,0.03,-0.01,0.0,260.78000000000003
1667404648.47860479,101113051,1,-0.27,0.8,255.25,-0.0022799954749643803,-0.0019181248499080539,-0.028402242809534073,0.04525327682495117,0.014332861639559269,1.2298530340194702,-0.3467418849468231,0.03,-0.01,0.0,260.78000000000003
1667404648.51857877,101153025,1,-0.27,0.8,255.27,-0.002247724449262023,0.0014679667074233294,-0.026816371828317642,0.05567881837487221,0.014864829368889332,1.2296773195266724,-0.34496554732322693,0.03,-0.01,0.0,260.78000000000003
1667404648.55860877,101193055,1,-0.28,0.8,255.26000000000002,-0.005933978129178286,-0.0002627838111948222,-0.026382898911833763,0.0585600882768631,0.015275946818292141,1.2295743227005005,-0.3433437943458557,0.03,-0.01,0.0,260.78000000000003
1667404648.59863091,101233077,1,-0.27,0.8,255.25,-0.007322083227336407,-0.004815437365323305,-0.024383114650845528,0.05659765377640724,0.015434987843036652,1.229360580444336,-0.34202924370765686,0.03,-0.01,0.0,260.78000000000003
1667404648.63863993,101273086,1,-0.26,0.79,255.26000000000002,0.0014001722447574139,-0.0007720714784227312,-0.024919144809246063,0.05502685531973839,0.016157925128936768,1.229322910308838,-0.33986103534698486,0.03,-0.01,0.0,260.78000000000003
1667404648.65859890,101293045,1,-0.25,0.78,255.25,-0.0049755084328353405,-0.0071753510273993015,-0.02298319712281227,0.057457003742456436,0.016591759398579597,1.2293033599853516,-0.3384556770324707,0.03,-0.01,0.0,260.78000000000003
1667404648.67863178,101313078,1,-0.25,0.77,255.25,-0.00907499622553587,-0.01544005423784256,-0.021244753152132034,0.05786909535527229,0.016852840781211853,1.2290983200073242,-0.3372090458869934,0.03,-0.01,0.0,260.78000000000003
1667404648.71861076,101353057,1,-0.24,0.76,255.25,0.005166406277567148,0.0007599567761644721,-0.020303137600421906,0.055282991379499435,0.017280159518122673,1.2288326025009155,-0.3357485830783844,0.03,-0.01,0.0,260.78000000000003
1667404648.75860095,101393047,1,-0.26,0.76,255.24,-0.011819467879831791,-0.013894339092075825,-0.0228580292314291,0.04557674750685692,0.017756303772330284,1.2285990715026855,-0.3345293700695038,0.03,-0.01,0.0,260.78000000000003
1667404648.79864693,101433093,1,-0.25,0.76,255.23000000000002,0.00825649593025446,0.012870497070252895,-0.01711648888885975,0.042296312749385834,0.01808643341064453,1.228563904762268,-0.3335700035095215,0.03,-0.01,0.0,260.78000000000003
1667404648.83861089,101473057,1,-0.26,0.77,255.21,-0.013039965182542801,-0.010522205382585526,-0.020572632551193237,0.024168677628040314,0.01815604418516159,1.2286088466644287,-0.3335804045200348,0.03,-0.01,0.0,260.78000000000003
1667404648.85860586,101493052,1,-0.23,0.77,255.18,-0.006739174481481314,-0.0029557065572589636,-0.025263501331210136,0.011118391528725624,0.017923826351761818,1.228493571281433,-0.3335127830505371,0.03,-0.01,0.0,260.78000000000003
1667404648.87864494,101513091,1,-0.24,0.77,255.16,0.007606884930282831,0.010334315709769726,-0.02148921974003315,0.006880241446197033,0.017847565934062004,1.2286320924758911,-0.3334963023662567,0.03,-0.01,0.0,260.78000000000003
1667404648.91863990,101553086,1,-0.25,0.78,255.14000000000001,-0.009504364803433418,-0.00890333391726017,-0.014749901369214058,0.0017093745991587639,0.017720984295010567,1.2286410331726074,-0.33350586891174316,0.03,-0.01,0.0,260.78000000000003
1667404648.95860696,101593053,1,-0.25,0.78,255.12,-0.005785392597317696,-0.00022002722835168242,-0.01976940780878067,-0.008677037432789803,0.017547622323036194,1.228440761566162,-0.33351272344589233,0.03,-0.01,0.0,260.78000000000003
1667404648.99860883,101633055,1,-0.25,0.78,255.11,-0.003368220292031765,-0.013679328374564648,-0.014975780621170998,-0.006526177749037743,0.017063956707715988,1.2281285524368286,-0.3336176872253418,0.03,-0.01,0.0,260.78000000000003
1667404649.03862786,101673074,1,-0.23,0.77,255.09,-0.019116435199975967,-0.008355562575161457,-0.022248411551117897,-0.02290249802172184,0.01670369692146778,1.2276272773742676,-0.3348925709724426,0.03,-0.01,0.0,260.78000000000003
1667404649.05860186,101693048,1,-0.24,0.76,255.08,-0.024273430928587914,-0.00997314602136612,-0.018361855298280716,-0.02510950155556202,0.016035757958889008,1.2273683547973633,-0.33559978008270264,0.03,-0.01,0.0,260.78000000000003
1667404649.07863784,101713084,1,-0.26,0.76,255.05,-0.004950471688061953,-0.00961972214281559,-0.016357246786355972,-0.028420917689800262,0.015494223684072495,1.2271087169647217,-0.336309015750885,0.03,-0.01,0.0,260.78000000000003
1667404649.11863375,101753080,1,-0.25,0.76,255.03,-0.010766415856778622,-0.0027746970299631357,-0.024419697001576424,-0.04421301931142807,0.015215428546071053,1.2267637252807617,-0.3374239504337311,0.03,-0.01,0.0,260.78000000000003
1667404649.15861392,101793060,1,-0.26,0.76,254.99,-0.005475697573274374,-0.0027637213934212923,-0.017290553078055382,-0.03946972265839577,0.014301015995442867,1.2263603210449219,-0.33852922916412354,0.03,-0.01,0.0,260.78000000000003
1667404649.19860792,101833054,1,-0.25,0.77,254.96,-0.015501712448894978,-0.006011034362018108,-0.017980866134166718,-0.03972978889942169,0.013858859427273273,1.2261837720870972,-0.33963310718536377,0.03,-0.01,0.0,260.78000000000003
1667404649.23860192,101873048,1,-0.25,0.76,254.92000000000002,-0.00796312652528286,-0.0068374453112483025,-0.01959407515823841,-0.03722459077835083,0.013518819585442543,1.2254899740219116,-0.34035003185272217,0.03,-0.01,0.0,260.78000000000003
1667404649.25860977,101893056,1,-0.25,0.77,254.91,-0.008535859175026417,-0.004227702040225267,-0.019168883562088013,-0.03402136638760567,0.013396249152719975,1.225184679031372,-0.34070757031440735,0.03,-0.01,0.0,260.78000000000003
1667404649.27862787,101913074,1,-0.26,0.78,254.92000000000002,-0.012537525966763496,-0.00953652337193489,-0.012730643153190613,-0.0249396450817585,0.01314488984644413,1.2248713970184326,-0.3410986661911011,0.03,-0.01,0.0,260.78000000000003
1667404649.31863284,101953079,1,-0.22,0.76,254.89000000000001,-0.013675480149686337,-0.012609926983714104,-0.02371356450021267,-0.03157484903931618,0.012987801805138588,1.2241054773330688,-0.34181222319602966,0.03,-0.01,0.0,260.78000000000003
1667404649.35863185,101993078,1,-0.25,0.76,254.86,-0.00695572467520833,-0.010374363511800766,-0.01481747068464756,-0.01920582354068756,0.012227904051542282,1.2233792543411255,-0.3425256907939911,0.03,-0.01,0.0,260.78000000000003
1667404649.39860177,102033048,1,-0.24,0.76,254.85,-0.019423754885792732,-0.007459153421223164,-0.01975235529243946,-0.02212325856089592,0.012118620797991753,1.222744345664978,-0.34325143694877625,0.03,-0.01,0.0,260.78000000000003
1667404649.43862891,102073075,1,-0.24,0.75,254.8,-0.000753980886656791,-0.010366320610046387,-0.01635374315083027,-0.024777617305517197,0.01180754043161869,1.2224589586257935,-0.34499433636665344,0.03,-0.01,0.0,260.78000000000003
1667404649.45863795,102093084,1,-0.24,0.77,254.78,-0.005934211425483227,-0.002415298717096448,-0.012290784157812595,-0.02551652118563652,0.01200577151030302,1.2224631309509277,-0.345970094203949,0.03,-0.01,0.0,260.78000000000003
1667404649.47859979,102113046,1,-0.24,0.76,254.78,-0.021745644509792328,-0.007881222292780876,-0.01734228804707527,-0.03481375053524971,0.011965789832174778,1.2224702835083008,-0.3469081521034241,0.03,-0.01,0.0,260.78000000000003
1667404649.51862788,102153074,1,-0.23,0.77,254.74,-0.006377536337822676,-0.001771194627508521,-0.018092170357704163,-0.04078245162963867,0.011768277734518051,1.222267508506775,-0.3481273055076599,0.03,-0.01,0.0,260.78000000000003
1667404649.55859280,102193039,1,-0.25,0.77,254.73000000000002,-0.010679753497242928,-0.009345087222754955,-0.014583802781999111,-0.03535971790552139,0.011530352756381035,1.2221959829330444,-0.3491230607032776,0.03,-0.01,0.0,260.78000000000003
1667404649.59863377,102233080,1,-0.25,0.78,254.70000000000002,-0.017935803160071373,-0.01210152916610241,-0.015948867425322533,-0.03287765383720398,0.01149603072553873,1.2219395637512207,-0.35013628005981445,0.03,-0.01,0.0,260.78000000000003
1667404649.63860774,102273054,1,-0.23,0.77,254.68,-0.006368039175868034,-0.005642734467983246,-0.015994619578123093,-0.032951340079307556,0.012292423285543919,1.221989393234253,-0.35166892409324646,0.03,-0.01,0.0,260.78000000000003
1667404649.65865278,102293099,1,-0.23,0.76,254.68,0.0025992996525019407,-0.0084512485191226,-0.021480347961187363,-0.03968144580721855,0.013166463002562523,1.2221295833587646,-0.3525499999523163,0.03,-0.01,0.0,260.78000000000003
1667404649.67860174,102313048,1,-0.24,0.75,254.66,-0.013680892996490002,-0.014908012934029102,-0.02094767428934574,-0.040144868195056915,0.013852274045348167,1.2221362590789795,-0.35338398814201355,0.03,-0.01,0.0,260.78000000000003
1667404649.71863389,102353080,1,-0.23,0.76,254.63,-0.005592486821115017,-0.0024792179465293884,-0.011905143037438393,-0.03196454048156738,0.014237625524401665,1.2220696210861206,-0.35457077622413635,0.03,-0.01,0.0,260.78000000000003
1667404649.75863695,102393083,1,-0.25,0.76,254.6,-0.01120538916438818,-0.013723751530051231,-0.021442480385303497,-0.038628581911325455,0.01531657949090004,1.2221747636795044,-0.3555881083011627,0.03,-0.01,0.0,260.78000000000003
1667404649.79864383,102433090,1,-0.24,0.76,254.57,-0.007953350432217121,0.000951840658672154,-0.01138182170689106,-0.02509908191859722,0.015569443814456463,1.2222166061401367,-0.3566281199455261,0.03,-0.01,0.0,260.78000000000003
1667404649.83860874,102473055,1,-0.23,0.76,254.54,-0.011386201716959476,-0.005948943085968494,-0.019861243665218353,-0.027648115530610085,0.016932116821408272,1.222113013267517,-0.3571699857711792,0.03,-0.01,0.01,260.78000000000003
1667404649.85862780,102493074,1,-0.24,0.76,254.54,-0.02251370996236801,-0.010157208889722824,-0.019227588549256325,-0.023659372702240944,0.01730291172862053,1.2219055891036987,-0.3574203550815582,0.03,-0.01,0.01,260.78000000000003
1667404649.87860179,102513048,1,-0.24,0.78,254.52,0.002905687317252159,-0.002795778214931488,-0.017479153349995613,-0.018954962491989136,0.01770857907831669,1.2217494249343872,-0.35770171880722046,0.03,-0.01,0.01,260.78000000000003
1667404649.91860175,102553048,1,-0.24,0.77,254.51000000000002,-0.013498843647539616,-0.007668286561965942,-0.01742120459675789,-0.014009187929332256,0.01867079734802246,1.221685767173767,-0.35805970430374146,0.03,-0.01,0.01,260.78000000000003
1667404649.95863175,102593078,1,-0.24,0.76,254.47,0.0020949780009686947,-0.006637422367930412,-0.017383545637130737,-0.00846017338335514,0.019065290689468384,1.2211582660675049,-0.3583333194255829,0.03,-0.01,0.01,260.78000000000003
1667404649.99863577,102633082,1,-0.24,0.77,254.45000000000002,-0.013550302013754845,-0.013809426687657833,-0.015715206041932106,-0.0036397119984030724,0.019595636054873466,1.22093665599823,-0.35867834091186523,0.03,-0.01,0.01,260.78000000000003
1667404650.03865290,102673099,1,-0.23,0.75,254.41,0.0009124304633587599,-0.004799544345587492,-0.019465625286102295,-0.014415373094379902,0.02011895179748535,1.220260739326477,-0.36022472381591797,0.03,-0.01,0.01,260.78000000000003
1667404650.05863595,102693082,1,-0.25,0.76,254.39000000000001,-0.0066074347123503685,-0.002798766130581498,-0.01600227877497673,-0.017235126346349716,0.020519878715276718,1.2200744152069092,-0.3611052334308624,0.03,-0.01,0.01,260.78000000000003
1667404650.07858777,102713034,1,-0.24,0.75,254.39000000000001,-0.01299697533249855,-0.0065977065823972225,-0.019039692357182503,-0.025836218148469925,0.020729301497340202,1.2198923826217651,-0.36199039220809937,0.03,-0.01,0.01,260.78000000000003
1667404650.11859775,102753044,1,-0.22,0.76,254.35,0.0018557609291747212,-0.005963074509054422,-0.015445446595549583,-0.030576931312680244,0.021230652928352356,1.2193936109542847,-0.363211989402771,0.03,-0.01,0.01,260.78000000000003
1667404650.15860295,102793049,1,-0.24,0.77,254.33,-0.011562698520720005,-0.005356916692107916,-0.017942076548933983,-0.03566177189350128,0.021345429122447968,1.2191898822784424,-0.36432981491088867,0.03,-0.01,0.01,260.78000000000003
1667404650.19863176,102833078,1,-0.24,0.77,254.3,-0.006668720860034227,-4.936927871312946e-05,-0.013199150562286377,-0.030522339046001434,0.021776439622044563,1.218770980834961,-0.36541974544525146,0.03,-0.01,0.01,260.78000000000003
1667404650.23862290,102873069,1,-0.24,0.77,254.27,-0.0044514634646475315,-0.017632227391004562,-0.0185855720192194,-0.04409680888056755,0.022403186187148094,1.2183119058609009,-0.36792072653770447,0.03,-0.01,0.01,260.78000000000003
1667404650.25867391,102893120,1,-0.24,0.76,254.26000000000002,0.0004911230062134564,-0.01054106093943119,-0.016425658017396927,-0.04818093404173851,0.023030616343021393,1.2179259061813354,-0.36940014362335205,0.03,-0.01,0.01,260.78000000000003
1667404650.27863884,102913085,1,-0.24,0.76,254.24,-0.008215630427002907,-0.002468421123921871,-0.025848137214779854,-0.06283988058567047,0.02351110614836216,1.2177386283874512,-0.3708192706108093,0.03,-0.01,0.01,260.78000000000003
1667404650.31860995,102953056,1,-0.24,0.75,254.21,-0.0044936006888747215,-0.019742703065276146,-0.022348839789628983,-0.0661172866821289,0.02393033355474472,1.217113971710205,-0.37285855412483215,0.03,-0.01,0.01,260.78000000000003
1667404650.35860586,102993052,1,-0.25,0.75,254.16,-0.008396235294640064,-0.0018176045268774033,-0.023799756541848183,-0.06739826500415802,0.024399517104029655,1.2167083024978638,-0.37478184700012207,0.03,-0.01,0.01,260.78000000000003
1667404650.39860392,103033050,1,-0.23,0.75,254.14000000000001,-0.005992305465042591,-0.015093718655407429,-0.019723614677786827,-0.05975428968667984,0.02476857230067253,1.216001272201538,-0.3765452802181244,0.03,-0.01,0.01,260.78000000000003
1667404650.43863177,103073078,1,-0.23,0.77,254.1,-0.004057175945490599,-0.004532793536782265,-0.022965414449572563,-0.05429058149456978,0.025251805782318115,1.2154717445373535,-0.3777502775192261,0.03,-0.01,0.01,260.78000000000003
1667404650.45860195,103093048,1,-0.23,0.76,254.09,-0.0063222735188901424,-0.011313855648040771,-0.019687078893184662,-0.04575366899371147,0.02559806779026985,1.214962363243103,-0.37839260697364807,0.03,-0.01,0.01,260.78000000000003
1667404650.47863293,103113079,1,-0.23,0.75,254.07,-0.013553041033446789,0.002178872236981988,-0.017103945836424828,-0.03820014372467995,0.025770265609025955,1.214645504951477,-0.379044771194458,0.03,-0.01,0.01,260.78000000000003
1667404650.51861978,103153066,1,-0.21,0.76,254.05,-2.283071353303967e-06,-0.011944646015763283,-0.023191288113594055,-0.03624992072582245,0.026170192286372185,1.2140564918518066,-0.38011160492897034,0.03,-0.01,0.02,260.78000000000003
1667404650.55861092,103193057,1,-0.25,0.76,254.02,-0.00682514812797308,-0.015192843042314053,-0.016759157180786133,-0.02295522391796112,0.026230495423078537,1.2133792638778687,-0.3810492157936096,0.03,-0.01,0.02,260.78000000000003
1667404650.59860778,103233054,1,-0.22,0.78,253.99,-0.009907489642500877,-0.008134014904499054,-0.026663608849048615,-0.028351174667477608,0.026478849351406097,1.2127501964569092,-0.38200703263282776,0.03,-0.01,0.02,260.78000000000003
1667404650.63863778,103273084,1,-0.21,0.76,253.95000000000002,-0.0113107580691576,-0.01031695120036602,-0.02095520682632923,-0.01958499290049076,0.02730099856853485,1.2120410203933716,-0.38284704089164734,0.03,-0.01,0.02,260.78000000000003
1667404650.65860891,103293055,1,-0.22,0.73,253.93,-0.005335938651114702,-0.012240985408425331,-0.028500298038125038,-0.026111401617527008,0.027793128043413162,1.2115669250488281,-0.3832925856113434,0.03,-0.01,0.02,260.78000000000003
1667404650.67864895,103313095,1,-0.2,0.75,253.9,-0.013539307750761509,-0.005495402496308088,-0.028288431465625763,-0.025243790820240974,0.028317300602793694,1.2112034559249878,-0.3837544918060303,0.03,-0.01,0.02,260.78000000000003
1667404650.71863890,103353085,1,-0.23,0.74,253.86,-0.014752513729035854,0.001954252365976572,-0.020649917423725128,-0.017135130241513252,0.028851328417658806,1.2105247974395752,-0.38454827666282654,0.03,-0.01,0.02,260.78000000000003
1667404650.75861382,103393060,1,-0.23,0.73,253.81,-0.013281417079269886,-0.004233749583363533,-0.013355519622564316,-0.009782745502889156,0.029428038746118546,1.2098767757415771,-0.38533827662467957,0.03,-0.01,0.02,260.78000000000003
1667404650.79860497,103433051,1,-0.25,0.73,253.77,-0.010619438253343105,-0.006472733337432146,-0.017783712595701218,-0.01467252429574728,0.029945608228445053,1.2092686891555786,-0.3861890137195587,0.03,-0.01,0.02,260.78000000000003
1667404650.83860183,103473048,1,-0.23,0.71,253.71,-0.0010622513946145773,-0.008709665387868881,-0.01790144294500351,-0.012366612441837788,0.030752379447221756,1.20890212059021,-0.3865899443626404,0.03,-0.01,0.03,260.78000000000003
1667404650.85861993,103493066,1,-0.22,0.7000000000000001,253.71,-0.00784369371831417,-0.006961702834814787,-0.011458407156169415,-0.004004745278507471,0.031213117763400078,1.2086803913116455,-0.386745423078537,0.03,-0.01,0.03,260.78000000000003
1667404650.87863588,103513082,1,-0.23,0.7000000000000001,253.68,-0.00985605176538229,-0.013179350644350052,-0.025346191599965096,-0.01643056608736515,0.03161853179335594,1.2085813283920288,-0.38693127036094666,0.03,-0.01,0.03,260.78000000000003
1667404650.91864276,103553089,1,-0.21,0.67,253.65,-0.004688383545726538,-0.022200673818588257,-0.022008243948221207,-0.01099612470716238,0.032096076756715775,1.2081302404403687,-0.3874396085739136,0.03,-0.01,0.03,260.78000000000003
1667404650.95863891,103593085,1,-0.23,0.67,253.59,-0.004558751825243235,-0.021040381863713264,-0.02187909185886383,-0.010080174542963505,0.03248756378889084,1.2076258659362793,-0.38801002502441406,0.03,-0.01,0.03,260.78000000000003
1667404650.99859691,103633043,1,-0.19,0.66,253.52,-0.0020948832388967276,-0.015388107858598232,-0.027048546820878983,-0.015848351642489433,0.0329466238617897,1.2071444988250732,-0.38852810859680176,0.03,-0.01,0.03,260.78000000000003
1667404651.03860092,103673047,1,-0.22,0.65,253.47,-0.0010403854539617896,-0.0013209820026531816,-0.020502064377069473,-0.006972713395953178,0.03318988159298897,1.2069718837738037,-0.3886297047138214,0.03,-0.01,0.03,260.78000000000003
1667404651.05863190,103693078,1,-0.17,0.66,253.44,0.005329413339495659,-0.014225589111447334,-0.024470288306474686,-0.008917056024074554,0.033465031534433365,1.2069029808044434,-0.3886026442050934,0.03,-0.01,0.03,260.78000000000003
1667404651.07860088,103713047,1,-0.19,0.66,253.41,-0.007045338395982981,-0.004553169943392277,-0.016365785151720047,0.0007015159353613853,0.03358102962374687,1.2069326639175415,-0.38863661885261536,0.03,-0.01,0.03,260.78000000000003
1667404651.11862874,103753075,1,-0.1,0.64,253.36,0.0032993596978485584,-0.024482589215040207,-0.030953815206885338,-0.013046063482761383,0.03390442579984665,1.2066479921340942,-0.3894769847393036,0.03,-0.01,0.03,260.78000000000003
1667404651.15863895,103793085,1,-0.15,0.58,253.27,0.01083929929882288,-0.015218842774629593,-0.042374592274427414,-0.02938166633248329,0.03412553668022156,1.2062113285064697,-0.3906978964805603,0.03,-0.01,0.03,260.78000000000003
1667404651.19862580,103833072,1,-0.12,0.56,253.23000000000002,0.004516439512372017,-0.030006268993020058,-0.04396461695432663,-0.036420661956071854,0.03425568714737892,1.2055100202560425,-0.3924899399280548,0.03,-0.01,0.03,260.78000000000003
1667404651.23860574,103873052,1,-0.1,0.38,253.21,0.017848359420895576,-0.04360754415392876,-0.07702029496431351,-0.07835976034402847,0.03478028625249863,1.203782558441162,-0.39559799432754517,0.03,-0.01,0.04,260.78000000000003
1667404651.25862384,103893070,1,0.07,0.37,253.19,-0.013845985755324364,-0.03781493008136749,-0.07995661348104477,-0.08626627177000046,0.03523030877113342,1.2029178142547607,-0.3975037634372711,0.03,-0.01,0.04,260.78000000000003
1667404651.27860188,103913048,1,0.0,0.26,253.16,0.012168031185865402,-0.029124192893505096,-0.11453648656606674,-0.12512585520744324,0.035693515092134476,1.2018957138061523,-0.39948439598083496,0.03,-0.01,0.04,260.78000000000003
1667404651.31862092,103953067,1,0.15,0.19,253.13,0.01672932505607605,-0.04751333221793175,-0.1361505389213562,-0.1543433964252472,0.03632313758134842,1.2001324892044067,-0.40460044145584106,0.03,-0.01,0.04,260.78000000000003
1667404651.35862994,103993076,1,0.42,0.07,253.13,0.01167341135442257,-0.030070146545767784,-0.15436166524887085,-0.18279056251049042,0.03709780424833298,1.1983245611190796,-0.41097450256347656,0.03,-0.01,0.04,260.78000000000003
1667404651.39863491,104033081,1,0.6900000000000001,0.02,253.12,0.004441701807081699,-0.0391276553273201,-0.20054760575294495,-0.23491472005844116,0.038002658635377884,1.1965477466583252,-0.4186635911464691,0.03,-0.01,0.04,260.78000000000003
1667404651.43861985,104073066,1,0.89,-0.04,253.1,0.0008036457002162933,-0.029739733785390854,-0.22204338014125824,-0.2535994052886963,0.039587799459695816,1.1941951513290405,-0.4270184338092804,0.03,-0.01,0.04,260.78000000000003
1667404651.45862794,104093074,1,0.96,-0.05,253.11,0.033558715134859085,-0.04574381560087204,-0.22279126942157745,-0.2508910298347473,0.040468014776706696,1.1928778886795044,-0.43186742067337036,0.03,-0.01,0.04,260.78000000000003
1667404651.47860479,104113051,1,1.09,-0.05,253.13,0.01890590414404869,-0.046886272728443146,-0.25196167826652527,-0.27614954113960266,0.04136023670434952,1.1915949583053589,-0.43729832768440247,0.03,-0.01,0.04,260.78000000000003
1667404651.51858783,104153034,1,1.29,-0.15,253.14000000000001,0.010220318101346493,-0.03493599593639374,-0.27197784185409546,-0.293271541595459,0.04303371533751488,1.1892189979553223,-0.44960835576057434,0.03,-0.01,0.04,260.78000000000003
1667404651.55863190,104193078,1,1.43,-0.21,253.15,0.029443491250276566,-0.0628463625907898,-0.3204268515110016,-0.3502352833747864,0.044855352491140366,1.18668532371521,-0.4633312225341797,0.03,-0.01,0.04,260.78000000000003
1667404651.59865189,104233098,1,1.51,-0.29,253.19,0.024341220036149025,-0.05263974517583847,-0.3396696150302887,-0.3759117126464844,0.04685758799314499,1.1839237213134766,-0.47803136706352234,0.03,-0.01,0.04,260.78000000000003
1667404651.63864994,104273096,1,1.4000000000000001,-0.42,253.21,0.0437501035630703,-0.06809437274932861,-0.38090941309928894,-0.43441322445869446,0.04956718161702156,1.1805518865585327,-0.496409147977829,0.03,-0.01,0.05,260.78000000000003
1667404651.65860391,104293050,1,1.3800000000000001,-0.46,253.20000000000002,0.05971474573016167,-0.07391760498285294,-0.43195468187332153,-0.4962565302848816,0.05118284747004509,1.1786359548568726,-0.5064448118209839,0.03,-0.01,0.05,260.78000000000003
1667404651.67860484,104313051,1,1.29,-0.52,253.22,0.024971826002001762,-0.06240808591246605,-0.4240523874759674,-0.49623528122901917,0.05276820436120033,1.1767510175704956,-0.5167109966278076,0.03,-0.01,0.05,260.78000000000003
1667404651.71860576,104353052,1,1.17,-0.56,253.25,0.05321584641933441,-0.07652592658996582,-0.4662831127643585,-0.5518123507499695,0.05556352436542511,1.1730610132217407,-0.5386964082717896,0.03,-0.01,0.05,260.78000000000003
1667404651.75860882,104393055,1,0.87,-0.49,253.27,0.04515090584754944,-0.07588055729866028,-0.5144942998886108,-0.6172965168952942,0.05840368941426277,1.1693739891052246,-0.562439501285553,0.03,-0.01,0.05,260.78000000000003
1667404651.79862976,104433076,1,0.3,-0.47000000000000003,253.29,0.04533223435282707,-0.08368530124425888,-0.5372019410133362,-0.648826539516449,0.061204321682453156,1.1655025482177734,-0.5874267816543579,0.03,-0.01,0.05,260.78000000000003
1667404651.83864093,104473087,1,-0.14,-0.37,253.3,0.033939313143491745,-0.07558665424585342,-0.5488705039024353,-0.6802835464477539,0.06432654708623886,1.1612721681594849,-0.6162784099578857,0.03,-0.01,0.05,260.78000000000003
1667404651.85860491,104493051,1,-0.3,-0.35000000000000003,253.29,0.0733826756477356,-0.08687286078929901,-0.6062448024749756,-0.7499657273292542,0.06601624935865402,1.1589252948760986,-0.6319618821144104,0.03,-0.01,0.05,260.78000000000003
1667404651.87862277,104513069,1,-0.62,-0.27,253.35,0.037787243723869324,-0.08791500329971313,-0.6064400672912598,-0.7572669386863708,0.0674857571721077,1.1567487716674805,-0.6471247673034668,0.03,-0.01,0.05,260.78000000000003
1667404651.91861486,104553061,1,-1.23,-0.23,253.37,0.033887915313243866,-0.09024689346551895,-0.6221940517425537,-0.7818419933319092,0.07009641081094742,1.1524652242660522,-0.677964448928833,0.03,-0.01,0.06,260.78000000000003
1667404651.95860887,104593055,1,-1.54,-0.24,253.39000000000001,0.061784517019987106,-0.09492404013872147,-0.648726224899292,-0.8111653327941895,0.07247848063707352,1.1482385396957397,-0.7091232538223267,0.03,-0.01,0.06,260.78000000000003
1667404651.99859977,104633046,1,-1.8900000000000001,-0.32,253.44,0.0460120365023613,-0.09302230179309845,-0.6992267966270447,-0.8539191484451294,0.07458837330341339,1.144039273262024,-0.7403574585914612,0.03,-0.01,0.06,260.78000000000003
1667404652.03863597,104673082,1,-1.77,-0.42,253.49,0.02867455594241619,-0.093277208507061,-0.7423030138015747,-0.9048758745193481,0.0754784345626831,1.1406443119049072,-0.7748258113861084,0.03,-0.01,0.06,260.78000000000003
1667404652.05861282,104693059,1,-2.0300000000000002,-0.51,253.49,0.0364692285656929,-0.09760968387126923,-0.6979819536209106,-0.868278443813324,0.07571057975292206,1.1389964818954468,-0.7929936647415161,0.03,-0.01,0.06,260.78000000000003
1667404652.07861376,104713060,1,-1.77,-0.52,253.52,0.025515660643577576,-0.09529600292444229,-0.6959992051124573,-0.8705494999885559,0.07590314000844955,1.1372687816619873,-0.8114137649536133,0.03,-0.01,0.06,260.78000000000003
1667404652.11861992,104753066,1,-1.6400000000000001,-0.63,253.57,0.01702415756881237,-0.09958888590335846,-0.6894375681877136,-0.8677539229393005,0.07626194506883621,1.1337641477584839,-0.846162736415863,0.03,-0.01,0.06,260.78000000000003
1667404652.15860391,104793050,1,-1.16,-0.61,253.64000000000001,0.03459758311510086,-0.09269916266202927,-0.7212357521057129,-0.8975530862808228,0.07620476186275482,1.1301594972610474,-0.8810908198356628,0.03,-0.01,0.06,260.78000000000003
1667404652.19860578,104833052,1,-0.88,-0.59,253.70000000000002,0.011706359684467316,-0.11026035994291306,-0.7232769131660461,-0.8867179751396179,0.07583785802125931,1.126416563987732,-0.9160415530204773,0.03,-0.01,0.06,260.78000000000003
1667404652.23862791,104873074,1,-0.58,-0.52,253.75,0.015395545400679111,-0.0964890718460083,-0.7351816296577454,-0.8743706345558167,0.07444426417350769,1.1235156059265137,-0.949391782283783,0.03,-0.01,0.06,260.78000000000003
1667404652.25861788,104893064,1,-0.43,-0.47000000000000003,253.79,-0.004965819884091616,-0.10189531743526459,-0.7573172450065613,-0.8827038407325745,0.0734717845916748,1.1223047971725464,-0.966049075126648,0.03,-0.01,0.06,260.78000000000003
1667404652.27861094,104913057,1,-0.4,-0.39,253.81,-0.002783573232591152,-0.11154631525278091,-0.7496959567070007,-0.8601299524307251,0.07243964076042175,1.1209319829940796,-0.9831807613372803,0.03,-0.01,0.06,260.78000000000003
1667404652.31864691,104953093,1,-1.16,0.8200000000000001,190.74,-0.021848164498806,-0.11038702726364136,-0.7336605787277222,-0.8102597594261169,0.07051212340593338,1.117697834968567,-1.012864112854004,0.03,-0.01,0.06,260.78000000000003
1667404652.35863495,104993081,1,-0.96,0.8300000000000001,190.82,-0.01986667513847351,-0.10002672672271729,-0.7554879784584045,-0.7726114988327026,0.0683051347732544,1.1146897077560425,-1.0415723323822021,0.03,-0.01,0.06,260.78000000000003
1667404652.39860487,105033051,1,-0.8,0.73,190.89000000000001,-0.02774444967508316,-0.10365249961614609,-0.7532815933227539,-0.7229847311973572,0.0661296546459198,1.1119576692581177,-1.0707670450210571,0.03,-0.01,0.06,260.78000000000003
1667404652.43860483,105073051,1,-0.52,0.49,191.04,-0.015513124875724316,-0.09930478781461716,-0.7650268077850342,-0.69440096616745,0.06188997998833656,1.1100459098815918,-1.0986032485961914,0.03,-0.01,0.06,260.78000000000003
1667404652.45863175,105093078,1,-0.32,0.33,191.11,-0.026112133637070656,-0.06491302698850632,-0.7591775059700012,-0.6724273562431335,0.0593222975730896,1.1093366146087646,-1.1121052503585815,0.03,-0.01,0.06,260.78000000000003
1667404652.47862887,105113075,1,-0.2,0.21,191.20000000000002,-0.023559875786304474,-0.10477356612682343,-0.7555181980133057,-0.6580644249916077,0.05692567303776741,1.1087017059326172,-1.1256943941116333,0.03,-0.01,0.06,260.78000000000003
1667404652.51865482,105153101,1,0.22,-0.05,191.36,-0.022550323978066444,-0.07973945885896683,-0.769794225692749,-0.6610698699951172,0.053216807544231415,1.1068956851959229,-1.1536222696304321,0.03,-0.01,0.06,260.78000000000003
1667404652.55864787,105193094,1,0.55,-0.29,191.48000000000002,-0.02383079193532467,-0.08350975066423416,-0.786091685295105,-0.6766234040260315,0.049852024763822556,1.1050920486450195,-1.1818450689315796,0.03,-0.01,0.06,260.78000000000003
1667404652.59861588,105233062,1,0.72,-0.48,191.59,-0.029374873265624046,-0.08097916096448898,-0.7607632279396057,-0.6587793231010437,0.04668393358588219,1.103195071220398,-1.2104337215423584,0.03,-0.01,0.06,260.78000000000003
1667404652.63860083,105273047,1,0.93,-0.52,191.76,-0.028239334002137184,-0.09172353148460388,-0.7550975680351257,-0.6605304479598999,0.042568136006593704,1.0998203754425049,-1.2389570474624634,0.03,-0.01,0.06,260.78000000000003
1667404652.65864086,105293087,1,1.07,-0.55,191.86,-0.0219841618090868,-0.11036891490221024,-0.7636172771453857,-0.67209392786026,0.0400674007833004,1.0980051755905151,-1.2527813911437988,0.03,-0.01,0.06,260.78000000000003
1667404652.67860985,105313056,1,1.19,-0.55,191.92000000000002,-0.028955703601241112,-0.09558887779712677,-0.7554671764373779,-0.6684728860855103,0.03766317293047905,1.0959923267364502,-1.266763687133789,0.03,-0.01,0.06,260.78000000000003
1667404652.71862674,105353073,1,1.3,-0.49,192.07,-0.031442929059267044,-0.1134258508682251,-0.7686375975608826,-0.6831445693969727,0.0337885282933712,1.091513752937317,-1.2930421829223633,0.03,-0.01,0.06,260.78000000000003
1667404652.75860286,105393049,1,1.27,-0.48,192.21,-0.038443706929683685,-0.13004103302955627,-0.7752264142036438,-0.6659062504768372,0.029839254915714264,1.0864516496658325,-1.3184059858322144,0.03,-0.01,0.06,260.78000000000003
1667404652.79863977,105433086,1,1.18,-0.49,192.33,-0.04200462996959686,-0.14554589986801147,-0.7518895864486694,-0.6258383393287659,0.025793371722102165,1.080844521522522,-1.3441834449768066,0.03,-0.01,0.06,260.78000000000003
1667404652.83861589,105473062,1,1.1500000000000001,-0.45,192.43,-0.050910867750644684,-0.16192682087421417,-0.7215288281440735,-0.5819531679153442,0.021574098616838455,1.0765979290008545,-1.3690890073776245,0.03,-0.01,0.06,260.78000000000003
1667404652.85864186,105493088,1,1.23,-0.42,192.47,-0.04906829446554184,-0.17267858982086182,-0.7395980358123779,-0.5944720506668091,0.019095802679657936,1.0744010210037231,-1.3808046579360962,0.03,-0.01,0.06,260.78000000000003
1667404652.87858796,105513034,1,1.21,-0.41000000000000003,192.54,-0.0556100532412529,-0.15469083189964294,-0.7299435138702393,-0.5842295289039612,0.016553545370697975,1.0718920230865479,-1.3930126428604126,0.03,-0.01,0.06,260.78000000000003
1667404652.91860986,105553056,1,1.1400000000000001,-0.33,192.61,-0.05908750742673874,-0.1662364900112152,-0.748967170715332,-0.6053423285484314,0.012328110635280609,1.0659995079040527,-1.4179829359054565,0.03,-0.01,0.06,260.78000000000003
1667404652.95863390,105593080,1,0.98,-0.29,192.69,-0.059112656861543655,-0.18737061321735382,-0.7235140800476074,-0.5871446132659912,0.008131157606840134,1.0594679117202759,-1.4425146579742432,0.03,-0.01,0.06,260.78000000000003
1667404652.99863696,105633083,1,0.79,-0.14,192.74,-0.05483924224972725,-0.2043096125125885,-0.6920599341392517,-0.5687485933303833,0.0039091892540454865,1.0522392988204956,-1.4677691459655762,0.03,-0.01,0.06,260.78000000000003
1667404653.03863692,105673083,1,0.68,-0.05,192.86,-0.05551818758249283,-0.2069154679775238,-0.6761518120765686,-0.556578516960144,0.0017350142588838935,1.0465031862258911,-1.4912101030349731,0.03,-0.01,0.06,260.78000000000003
1667404653.05862689,105693073,1,0.5700000000000001,-0.03,192.89000000000001,-0.05485432967543602,-0.21792307496070862,-0.6937341690063477,-0.5736381411552429,0.0007670409977436066,1.0437878370285034,-1.5018532276153564,0.03,-0.01,0.06,260.78000000000003
1667404653.07858276,105713029,1,0.49,0.03,192.94,-0.055386707186698914,-0.20218609273433685,-0.6834210753440857,-0.5651365518569946,-0.00019577423518057913,1.0408074855804443,-1.5129050016403198,0.03,-0.01,0.06,260.78000000000003
1667404653.11860275,105753049,1,0.27,0.11,192.99,-0.05550287663936615,-0.2170337289571762,-0.6838355660438538,-0.566267728805542,-0.0022021725308150053,1.033949375152588,-1.5355337858200073,0.03,-0.01,0.06,260.78000000000003
1667404653.15863585,105793082,1,-0.03,0.14,193.05,-0.0442110151052475,-0.22387051582336426,-0.661418616771698,-0.5389345288276672,-0.004037068225443363,1.0269089937210083,-1.5573952198028564,0.03,-0.01,0.06,260.78000000000003
1667404653.19863296,105833079,1,-0.5,0.23,193.07,-0.055995065718889236,-0.1975097805261612,-0.6620568633079529,-0.5402113199234009,-0.005705004557967186,1.019717812538147,-1.579338550567627,0.03,-0.01,0.06,260.78000000000003
1667404653.23865986,105873106,1,-1.11,0.3,193.12,-0.04094504565000534,-0.20137403905391693,-0.6461897492408752,-0.5323525071144104,-0.00425269640982151,1.0114799737930298,-1.601057767868042,0.03,-0.01,0.06,260.78000000000003
1667404653.25859880,105893045,1,-1.3900000000000001,0.35000000000000003,193.14000000000001,-0.043948784470558167,-0.18317247927188873,-0.6316072344779968,-0.5231258869171143,-0.0029026931151747704,1.0074201822280884,-1.6113685369491577,0.03,-0.01,0.06,260.78000000000003
1667404653.27863193,105913078,1,-1.8,0.38,193.15,-0.03271159157156944,-0.1886618584394455,-0.6116339564323425,-0.5101411938667297,-0.0016245957231149077,1.0035141706466675,-1.6216832399368286,0.03,-0.01,0.06,260.78000000000003
1667404653.31860876,105953055,1,-2.5100000000000002,0.53,193.1,-0.036036934703588486,-0.1697777658700943,-0.6090100407600403,-0.5237390398979187,-1.9407492800382897e-05,0.9959401488304138,-1.644458532333374,0.03,-0.01,0.06,260.78000000000003
1667404653.35859680,105993043,1,-3.24,0.55,193.02,-0.02051318995654583,-0.1730085164308548,-0.6096563339233398,-0.5506088137626648,0.0016437500016763806,0.9890929460525513,-1.6669702529907227,0.03,-0.01,0.06,260.78000000000003
1667404653.39862990,106033076,1,-3.77,0.64,192.93,-0.022684980183839798,-0.15551483631134033,-0.5895540714263916,-0.554036021232605,0.003426991868764162,0.9827938675880432,-1.6899420022964478,0.03,-0.01,0.06,260.78000000000003
1667404653.43863297,106073079,1,-4.01,0.61,192.81,-0.018392324447631836,-0.10661192238330841,-0.595258891582489,-0.5736436247825623,0.007539695594459772,0.9777989983558655,-1.7121907472610474,0.03,-0.01,0.06,260.78000000000003
1667404653.45861483,106093061,1,-4.11,0.56,192.74,-0.009126073680818081,-0.11507385969161987,-0.5893248319625854,-0.5717111229896545,0.010324564762413502,0.9755632281303406,-1.7233127355575562,0.03,-0.01,0.06,260.78000000000003
1667404653.47864890,106113095,1,-4.16,0.51,192.69,-0.01770266890525818,-0.08511721342802048,-0.5926792621612549,-0.5781558752059937,0.01308994647115469,0.9736881852149963,-1.7339248657226562,0.03,-0.01,0.06,260.78000000000003
1667404653.51859188,106153038,1,-4.14,0.44,192.53,-0.0024412753991782665,-0.0700903907418251,-0.5581967234611511,-0.5481593012809753,0.017027610912919044,0.9702451825141907,-1.7562953233718872,0.03,-0.01,0.06,260.78000000000003
1667404653.55859995,106193046,1,-4.04,0.34,192.36,-0.00035081623354926705,-0.0595572404563427,-0.5513232350349426,-0.5476639270782471,0.020903654396533966,0.9678328633308411,-1.7783684730529785,0.03,-0.01,0.06,260.78000000000003
1667404653.59861088,106233057,1,-3.8000000000000003,0.27,192.20000000000002,-0.0010523481760174036,-0.048337116837501526,-0.5548135042190552,-0.5560247302055359,0.024627123028039932,0.966337263584137,-1.8003021478652954,0.03,-0.01,0.06,260.78000000000003
1667404653.63862586,106273072,1,-3.59,0.2,191.98000000000002,0.0048770178109407425,0.003682150971144438,-0.5676252841949463,-0.5781948566436768,0.02685791254043579,0.967235803604126,-1.8232073783874512,0.03,-0.01,0.06,260.78000000000003
1667404653.65860295,106293049,1,-3.5,0.15,191.85,0.0006595613667741418,0.0070242322981357574,-0.5698308348655701,-0.586077094078064,0.02825460210442543,0.968158483505249,-1.8348723649978638,0.03,-0.01,0.06,260.78000000000003
1667404653.67859483,106313041,1,-3.44,0.16,191.72,-0.0029437371995300055,0.02717306651175022,-0.5621551871299744,-0.5828613042831421,0.029607055708765984,0.9693719148635864,-1.8463037014007568,0.03,-0.01,0.06,260.78000000000003
1667404653.71864986,106353096,1,-3.15,0.13,191.46,0.0013761445879936218,0.04295976832509041,-0.5442754626274109,-0.5706337094306946,0.03147338703274727,0.9717773199081421,-1.8687573671340942,0.03,-0.01,0.06,260.78000000000003
1667404653.75860286,106393049,1,-2.98,0.13,191.18,0.001957979751750827,0.052372027188539505,-0.5525541305541992,-0.5792195796966553,0.03319793567061424,0.9749435782432556,-1.8908898830413818,0.03,-0.01,0.06,260.78000000000003
1667404653.79860377,106433050,1,-2.74,0.09,190.9,-0.0008666588691994548,0.06546751409769058,-0.5417515635490417,-0.566962718963623,0.03392881900072098,0.9782016277313232,-1.9134910106658936,0.03,-0.01,0.06,260.78000000000003
1667404653.83860493,106473051,1,-2.71,0.14,190.59,-0.009951449930667877,0.11010076850652695,-0.5237406492233276,-0.5678529143333435,0.032850079238414764,0.9808443188667297,-1.9381046295166016,0.03,-0.01,0.06,260.78000000000003
1667404653.85858774,106493034,1,-2.66,0.12,190.44,-0.00848933681845665,0.09570183604955673,-0.5376790761947632,-0.5938830971717834,0.032114818692207336,0.9821739196777344,-1.9503662586212158,0.03,-0.01,0.06,260.78000000000003
1667404653.87862992,106513076,1,-2.6,0.09,190.29,-0.013476126827299595,0.12876485288143158,-0.521073043346405,-0.5870081186294556,0.0313233807682991,0.9838104248046875,-1.962702989578247,0.03,-0.01,0.06,260.78000000000003
1667404653.91863894,106553085,1,-2.64,0.07,189.99,-0.01803005114197731,0.12806273996829987,-0.53575199842453,-0.6148656010627747,0.029830658808350563,0.98785799741745,-1.9861336946487427,0.03,-0.01,0.06,260.78000000000003
