timestamp,TimeUS,DesRoll,Roll,DesPitch,Pitch,DesYaw,Yaw,ErrRP,ErrYaw,AEKF
195.79594300,195795943,0.0,0.42,0.0,-1.2,27.2,27.2,0.0,0.13,0
195.89588000,195895880,0.0,0.41000000000000003,0.0,-1.19,27.32,27.32,0.0,0.14,0
195.99586000,195995860,0.0,0.4,0.0,-1.19,27.28,27.28,0.0,0.12,0
196.09587800,196095878,0.0,0.41000000000000003,0.0,-1.19,27.26,27.26,0.0,0.1,0
196.19583900,196195839,0.0,0.42,0.0,-1.19,27.18,27.18,0.0,0.11,0
196.29585900,196295859,0.0,0.41000000000000003,0.0,-1.19,27.05,27.05,0.0,0.13,0
196.39619700,196396197,0.0,0.41000000000000003,0.0,-1.19,27.0,27.0,0.0,0.13,0
196.49586900,196495869,0.0,0.41000000000000003,0.0,-1.19,27.05,27.05,0.0,0.12,0
196.59586000,196595860,0.0,0.43,0.0,-1.18,26.82,26.82,0.0,0.18,0
196.69586700,196695867,0.0,0.42,0.0,-1.19,26.810000000000002,26.810000000000002,0.0,0.14,0
196.79588400,196795884,0.0,0.42,0.0,-1.18,26.61,26.61,0.0,0.18,0
196.89584400,196895844,0.0,0.43,0.0,-1.18,26.61,26.61,0.0,0.14,0
196.99587400,196995874,0.0,0.42,0.0,-1.19,26.68,26.68,0.0,0.14,0
197.09599000,197095990,0.0,0.42,0.0,-1.18,26.580000000000002,26.580000000000002,0.0,0.15,0
197.19586200,197195862,0.0,0.42,0.0,-1.18,26.55,26.55,0.0,0.13,0
197.29588700,197295887,0.0,0.42,0.0,-1.18,26.650000000000002,26.650000000000002,0.0,0.13,0
197.39608400,197396084,0.0,0.43,0.0,-1.18,26.69,26.69,0.0,0.12,0
197.49588800,197495888,0.0,0.42,0.0,-1.18,26.59,26.59,0.0,0.13,0
197.59586200,197595862,0.0,0.41000000000000003,0.0,-1.18,26.67,26.67,0.0,0.12,0
197.69587300,197695873,0.0,0.43,0.0,-1.18,26.55,26.55,0.0,0.14,0
197.79584800,197795848,0.0,0.43,0.0,-1.18,26.42,26.42,0.0,0.15,0
197.89587500,197895875,0.0,0.42,0.0,-1.19,26.39,26.39,0.0,0.13,0
197.99584600,197995846,0.0,0.42,0.0,-1.18,26.55,26.55,0.0,0.16,0
198.09591300,198095913,0.0,0.42,0.0,-1.19,26.580000000000002,26.580000000000002,0.0,0.13,0
198.19587000,198195870,0.0,0.43,0.0,-1.19,26.52,26.52,0.0,0.13,0
198.29585600,198295856,0.0,0.42,0.0,-1.18,26.35,26.35,0.0,0.16,0
198.39605500,198396055,0.0,0.42,0.0,-1.18,26.26,26.26,0.0,0.16,0
198.49586700,198495867,0.0,0.43,0.0,-1.18,26.22,26.22,0.0,0.13,0
198.59585800,198595858,0.0,0.42,0.0,-1.18,26.21,26.21,0.0,0.11,0
198.69583900,198695839,0.0,0.42,0.0,-1.18,26.18,26.18,0.0,0.1,0
198.79587200,198795872,0.0,0.43,0.0,-1.18,26.22,26.22,0.0,0.09,0
198.89589100,198895891,0.0,0.42,0.0,-1.17,26.240000000000002,26.240000000000002,0.0,0.08,0
198.99588800,198995888,0.0,0.43,0.0,-1.18,26.22,26.22,0.0,0.06,0
199.09587400,199095874,0.0,0.43,0.0,-1.17,26.02,26.02,0.0,0.12,0
199.19587900,199195879,0.0,0.42,0.0,-1.17,26.080000000000002,26.080000000000002,0.0,0.12,0
199.29583500,199295835,0.0,0.43,0.0,-1.18,26.13,26.13,0.0,0.11,0
199.39610400,199396104,0.0,0.43,0.0,-1.18,26.07,26.07,0.0,0.11,0
199.49586500,199495865,0.0,0.42,0.0,-1.18,26.07,26.07,0.0,0.09,0
199.59587300,199595873,0.0,0.43,0.0,-1.18,25.98,25.98,0.0,0.1,0
199.69591700,199695917,0.0,0.43,0.0,-1.17,25.990000000000002,25.990000000000002,0.0,0.08,0
199.79585600,199795856,0.0,0.43,0.0,-1.18,25.96,25.96,0.0,0.08,0
201.89592400,201895924,0.0,0.45,0.0,-1.2,27.1,27.1,0.0,0.12,0
201.99587500,201995875,0.0,0.45,0.0,-1.17,27.3,27.3,0.0,0.16,0
202.09589200,202095892,0.0,0.47000000000000003,0.0,-1.19,27.060000000000002,27.060000000000002,0.0,0.22,0
202.19586500,202195865,0.0,0.46,0.0,-1.18,26.98,26.98,0.0,0.2,0
202.29585900,202295859,0.0,0.44,0.0,-1.18,26.94,26.94,0.0,0.18,0
202.39609700,202396097,0.0,0.45,0.0,-1.19,26.900000000000002,26.900000000000002,0.0,0.16,0
202.49583100,202495831,0.0,0.48,0.0,-1.18,26.69,26.69,0.0,0.19,0
202.59588200,202595882,0.0,0.47000000000000003,0.0,-1.18,26.52,26.52,0.0,0.22,0
202.69588200,202695882,0.0,0.46,0.0,-1.18,26.38,26.38,0.0,0.22,0
202.79588500,202795885,0.0,0.48,0.0,-1.18,26.310000000000002,26.310000000000002,0.0,0.2,0
204.89586700,204895867,0.0,0.43,0.0,-1.17,27.37,27.37,0.0,0.1,0
204.99585500,204995855,0.0,0.44,0.0,-1.18,27.45,27.45,0.0,0.11,0
205.09587900,205095879,0.0,0.44,0.0,-1.17,27.330000000000002,27.330000000000002,0.0,0.14,0
205.19588000,205195880,0.0,0.43,0.0,-1.17,27.240000000000002,27.240000000000002,0.0,0.14,0
205.29585500,205295855,0.0,0.41000000000000003,0.0,-1.17,27.09,27.09,0.0,0.16,0
205.39639500,205396395,0.0,0.4,0.0,-1.16,27.17,27.17,0.0,0.15,0
205.49598800,205495988,0.0,0.39,0.0,-1.17,27.11,27.11,0.0,0.14,0
205.59584500,205595845,0.0,0.4,0.0,-1.17,26.89,26.89,0.0,0.18,0
205.69587700,205695877,0.0,0.42,0.0,-1.16,26.990000000000002,26.990000000000002,0.0,0.17,0
205.79586500,205795865,0.0,0.41000000000000003,0.0,-1.17,26.94,26.94,0.0,0.15,0
205.89589400,205895894,0.0,0.4,0.0,-1.17,26.830000000000002,26.830000000000002,0.0,0.15,0
205.99585700,205995857,0.0,0.42,0.0,-1.1500000000000001,26.61,26.61,0.0,0.2,0
206.09584600,206095846,0.0,0.42,0.0,-1.16,26.68,26.68,0.0,0.19,0
206.19580900,206195809,0.0,0.41000000000000003,0.0,-1.16,26.72,26.72,0.0,0.16,0
206.29587300,206295873,0.0,0.41000000000000003,0.0,-1.16,26.72,26.72,0.0,0.13,0
206.39609200,206396092,0.0,0.42,0.0,-1.16,26.52,26.52,0.0,0.17,0
206.49586500,206495865,0.0,0.41000000000000003,0.0,-1.16,26.53,26.53,0.0,0.13,0
206.59587700,206595877,0.0,0.41000000000000003,0.0,-1.16,26.62,26.62,0.0,0.14,0
206.69588200,206695882,0.0,0.42,0.0,-1.16,26.55,26.55,0.0,0.14,0
206.79588600,206795886,0.0,0.41000000000000003,0.0,-1.16,26.580000000000002,26.580000000000002,0.0,0.12,0
206.89587700,206895877,0.0,0.4,0.0,-1.16,26.68,26.68,0.0,0.13,0
206.99587500,206995875,0.0,0.42,0.0,-1.16,26.79,26.79,0.0,0.13,0
207.09583300,207095833,0.0,0.42,0.0,-1.16,26.59,26.59,0.0,0.17,0
207.19587700,207195877,0.0,0.41000000000000003,0.0,-1.1500000000000001,26.47,26.47,0.0,0.18,0
207.29586900,207295869,0.0,0.42,0.0,-1.16,26.64,26.64,0.0,0.19,0
207.39607800,207396078,0.0,0.43,0.0,-1.16,26.69,26.69,0.0,0.17,0
207.49584900,207495849,0.0,0.41000000000000003,0.0,-1.16,26.67,26.67,0.0,0.15,0
207.59587500,207595875,0.0,0.41000000000000003,0.0,-1.16,26.7,26.7,0.0,0.13,0
207.69590400,207695904,0.0,0.42,0.0,-1.16,26.61,26.61,0.0,0.13,0
207.79585400,207795854,0.0,0.41000000000000003,0.0,-1.16,26.8,26.8,0.0,0.17,0
207.89585800,207895858,0.0,0.4,0.0,-1.16,26.740000000000002,26.740000000000002,0.0,0.15,0
207.99585900,207995859,0.0,0.41000000000000003,0.0,-1.16,26.89,26.89,0.0,0.17,0
208.09589100,208095891,0.0,0.41000000000000003,0.0,-1.16,26.89,26.89,0.0,0.13,0
208.19588000,208195880,0.0,0.4,0.0,-1.16,26.87,26.87,0.0,0.11,0
208.29587300,208295873,0.0,0.42,0.0,-1.1500000000000001,26.62,26.62,0.0,0.17,0
210.39612900,210396129,0.0,0.41000000000000003,0.0,-1.1500000000000001,26.37,26.37,0.0,0.12,0
210.49587600,210495876,0.0,0.41000000000000003,0.0,-1.1500000000000001,26.35,26.35,0.0,0.1,0
210.59584200,210595842,0.0,0.42,0.0,-1.16,26.310000000000002,26.310000000000002,0.0,0.1,0
210.69586000,210695860,0.0,0.42,0.0,-1.1500000000000001,26.26,26.26,0.0,0.1,0
210.79587000,210795870,0.0,0.42,0.0,-1.16,26.12,26.12,0.0,0.12,0
210.89585000,210895850,0.0,0.42,0.0,-1.1500000000000001,26.17,26.17,0.0,0.11,0
210.99586300,210995863,0.0,0.42,0.0,-1.1500000000000001,26.13,26.13,0.0,0.11,0
211.09585100,211095851,0.0,0.42,0.0,-1.1500000000000001,26.240000000000002,26.240000000000002,0.0,0.12,0
211.19585400,211195854,0.0,0.41000000000000003,0.0,-1.1500000000000001,26.41,26.41,0.0,0.16,0
211.29588400,211295884,0.0,0.41000000000000003,0.0,-1.1500000000000001,26.42,26.42,0.0,0.12,0
211.39611600,211396116,0.0,0.41000000000000003,0.0,-1.16,26.43,26.43,0.0,0.1,0
213.49609300,213496093,0.0,0.41000000000000003,0.0,-1.1400000000000001,26.72,26.72,0.0,0.11,0
213.59585900,213595859,0.0,0.39,0.0,-1.16,26.810000000000002,26.810000000000002,0.0,0.13,0
213.69598600,213695986,0.0,0.39,0.0,-1.1500000000000001,26.88,26.88,0.0,0.13,0
213.79586600,213795866,0.0,0.41000000000000003,0.0,-1.1400000000000001,26.900000000000002,26.900000000000002,0.0,0.1,0
213.89586000,213895860,0.0,0.4,0.0,-1.1500000000000001,26.96,26.96,0.0,0.11,0
213.99583300,213995833,0.0,0.37,0.0,-1.1400000000000001,27.09,27.09,0.0,0.13,0
214.09586000,214095860,0.0,0.39,0.0,-1.1500000000000001,27.17,27.17,0.0,0.13,0
214.19588100,214195881,0.0,0.41000000000000003,0.0,-1.1500000000000001,27.11,27.11,0.0,0.13,0
214.29584800,214295848,0.0,0.39,0.0,-1.1400000000000001,26.96,26.96,0.0,0.15,0
214.39617500,214396175,0.0,0.38,0.0,-1.1500000000000001,26.900000000000002,26.900000000000002,0.0,0.13,0
214.49592400,214495924,0.0,0.4,0.0,-1.1400000000000001,26.8,26.8,0.0,0.14,0
214.59588200,214595882,0.0,0.4,0.0,-1.1400000000000001,26.97,26.97,0.0,0.17,0
214.69594000,214695940,0.0,0.39,0.0,-1.1500000000000001,27.12,27.12,0.0,0.19,0
214.79585900,214795859,0.0,0.38,0.0,-1.1500000000000001,27.3,27.3,0.0,0.21,0
214.89582100,214895821,0.0,0.38,0.0,-1.1500000000000001,27.36,27.36,0.0,0.19,0
214.99584600,214995846,0.0,0.4,0.0,-1.1500000000000001,27.150000000000002,27.150000000000002,0.0,0.22,0
215.09586700,215095867,0.0,0.39,0.0,-1.1500000000000001,27.240000000000002,27.240000000000002,0.0,0.21,0
215.19586400,215195864,0.0,0.38,0.0,-1.1500000000000001,27.43,27.43,0.0,0.23,0
215.29590100,215295901,0.0,0.4,0.0,-1.1500000000000001,27.27,27.27,0.0,0.24,0
217.39615000,217396150,0.0,0.45,0.0,-1.17,26.82,26.82,0.0,0.17,0
217.49585400,217495854,0.0,0.39,0.0,-1.1500000000000001,26.88,26.88,0.0,0.15,0
217.59587400,217595874,0.0,0.33,0.0,-1.1500000000000001,26.990000000000002,26.990000000000002,0.0,0.17,0
217.69588300,217695883,0.0,0.34,0.0,-1.1400000000000001,27.080000000000002,27.080000000000002,0.0,0.17,0
217.79585700,217795857,0.0,0.41000000000000003,0.0,-1.1500000000000001,27.07,27.07,0.0,0.15,0
217.89586700,217895867,0.0,0.43,0.0,-1.17,27.27,27.27,0.0,0.19,0
217.99583300,217995833,0.0,0.38,0.0,-1.16,27.3,27.3,0.0,0.16,0
218.09586900,218095869,0.0,0.38,0.0,-1.16,27.32,27.32,0.0,0.13,0
218.19586500,218195865,0.0,0.42,0.0,-1.17,27.29,27.29,0.0,0.12,0
218.29587300,218295873,0.0,0.41000000000000003,0.0,-1.17,27.27,27.27,0.0,0.11,0
218.39614700,218396147,0.0,0.38,0.0,-1.17,27.330000000000002,27.330000000000002,0.0,0.12,0
218.49586000,218495860,0.0,0.39,0.0,-1.17,27.21,27.21,0.0,0.14,0
218.59587200,218595872,0.0,0.42,0.0,-1.16,27.18,27.18,0.0,0.12,0
218.69588400,218695884,0.0,0.42,0.0,-1.17,27.26,27.26,0.0,0.13,0
218.79586200,218795862,0.0,0.38,0.0,-1.17,27.28,27.28,0.0,0.11,0
218.89588500,218895885,0.0,0.39,0.0,-1.17,27.23,27.23,0.0,0.1,0
218.99586000,218995860,0.0,0.41000000000000003,0.0,-1.17,27.27,27.27,0.0,0.09,0
219.09589900,219095899,0.0,0.41000000000000003,0.0,-1.17,27.23,27.23,0.0,0.08,0
219.19589100,219195891,0.0,0.39,0.0,-1.17,27.23,27.23,0.0,0.07,0
219.29594000,219295940,0.0,0.39,0.0,-1.17,27.22,27.22,0.0,0.07,0
219.39607700,219396077,0.0,0.43,0.0,-1.17,26.990000000000002,26.990000000000002,0.0,0.13,0
219.49586600,219495866,0.0,0.43,0.0,-1.17,26.96,26.96,0.0,0.11,0
219.59589400,219595894,0.0,0.39,0.0,-1.17,26.82,26.82,0.0,0.14,0
219.69596900,219695969,0.0,0.4,0.0,-1.18,26.75,26.75,0.0,0.13,0
219.79588300,219795883,0.0,0.43,0.0,-1.17,26.77,26.77,0.0,0.11,0
219.89586000,219895860,0.0,0.42,0.0,-1.17,26.79,26.79,0.0,0.1,0
219.99585800,219995858,0.0,0.4,0.0,-1.17,26.62,26.62,0.0,0.14,0
220.09585800,220095858,0.0,0.39,0.0,-1.17,26.69,26.69,0.0,0.13,0
222.19588700,222195887,0.0,0.4,0.0,-1.18,26.84,26.84,0.0,0.15,0
222.29587800,222295878,0.0,0.41000000000000003,0.0,-1.17,27.04,27.04,0.0,0.18,0
222.39605400,222396054,0.0,0.43,0.0,-1.18,27.01,27.01,0.0,0.15,0
222.49586500,222495865,0.0,0.42,0.0,-1.17,27.12,27.12,0.0,0.13,0
222.59585700,222595857,0.0,0.4,0.0,-1.17,27.04,27.04,0.0,0.11,0
222.69597600,222695976,0.0,0.42,0.0,-1.17,27.0,27.0,0.0,0.11,0
222.79585500,222795855,0.0,0.42,0.0,-1.17,26.97,26.97,0.0,0.1,0
222.89585400,222895854,0.0,0.4,0.0,-1.17,26.89,26.89,0.0,0.09,0
222.99587300,222995873,0.0,0.41000000000000003,0.0,-1.17,26.97,26.97,0.0,0.08,0
223.09589100,223095891,0.0,0.41000000000000003,0.0,-1.18,26.94,26.94,0.0,0.07,0
223.19583800,223195838,0.0,0.42,0.0,-1.17,27.13,27.13,0.0,0.11,0
223.29585000,223295850,0.0,0.41000000000000003,0.0,-1.18,27.16,27.16,0.0,0.1,0
223.39617700,223396177,0.0,0.4,0.0,-1.18,26.97,26.97,0.0,0.13,0
223.49586400,223495864,0.0,0.42,0.0,-1.17,26.96,26.96,0.0,0.12,0
223.59586300,223595863,0.0,0.41000000000000003,0.0,-1.18,27.0,27.0,0.0,0.12,0
223.69583800,223695838,0.0,0.41000000000000003,0.0,-1.18,26.88,26.88,0.0,0.13,0
223.79588300,223795883,0.0,0.42,0.0,-1.17,26.69,26.69,0.0,0.18,0
223.89587500,223895875,0.0,0.41000000000000003,0.0,-1.18,26.57,26.57,0.0,0.17,0
223.99588600,223995886,0.0,0.43,0.0,-1.18,26.44,26.44,0.0,0.19,0
224.09586000,224095860,0.0,0.44,0.0,-1.17,26.47,26.47,0.0,0.17,0
224.19590300,224195903,0.0,0.41000000000000003,0.0,-1.18,26.61,26.61,0.0,0.18,0
224.29583900,224295839,0.0,0.43,0.0,-1.17,26.62,26.62,0.0,0.15,0
224.39618500,224396185,0.0,0.43,0.0,-1.18,26.73,26.73,0.0,0.16,0
224.49586500,224495865,0.0,0.41000000000000003,0.0,-1.18,26.77,26.77,0.0,0.13,0
224.59588100,224595881,0.0,0.42,0.0,-1.18,26.72,26.72,0.0,0.12,0
224.69584400,224695844,0.0,0.43,0.0,-1.18,26.64,26.64,0.0,0.12,0
224.79586900,224795869,0.0,0.43,0.0,-1.18,26.51,26.51,0.0,0.14,0
224.89586600,224895866,0.0,0.42,0.0,-1.18,26.7,26.7,0.0,0.19,0
224.99586100,224995861,0.0,0.42,0.0,-1.18,26.68,26.68,0.0,0.16,0
225.09585600,225095856,0.0,0.43,0.0,-1.18,26.66,26.66,0.0,0.13,0
227.19586900,227195869,0.0,0.41000000000000003,0.0,-1.19,27.26,27.26,0.0,0.08,0
227.29586700,227295867,0.0,0.41000000000000003,0.0,-1.19,27.21,27.21,0.0,0.09,0
227.39611600,227396116,0.0,0.41000000000000003,0.0,-1.19,27.16,27.16,0.0,0.09,0
227.49584800,227495848,0.0,0.42,0.0,-1.19,27.07,27.07,0.0,0.1,0
227.59584000,227595840,0.0,0.42,0.0,-1.18,27.03,27.03,0.0,0.09,0
227.69587900,227695879,0.0,0.42,0.0,-1.18,26.97,26.97,0.0,0.09,0
227.79595100,227795951,0.0,0.41000000000000003,0.0,-1.19,26.900000000000002,26.900000000000002,0.0,0.1,0
227.89586700,227895867,0.0,0.42,0.0,-1.18,26.79,26.79,0.0,0.12,0
227.99586200,227995862,0.0,0.43,0.0,-1.19,26.72,26.72,0.0,0.11,0
228.09586800,228095868,0.0,0.42,0.0,-1.19,26.77,26.77,0.0,0.11,0
228.19585100,228195851,0.0,0.41000000000000003,0.0,-1.19,26.86,26.86,0.0,0.12,0
228.29586100,228295861,0.0,0.43,0.0,-1.19,26.82,26.82,0.0,0.11,0
228.39612800,228396128,0.0,0.44,0.0,-1.19,26.740000000000002,26.740000000000002,0.0,0.12,0
230.49587300,230495873,0.0,0.4,0.0,-1.19,27.27,27.27,0.0,0.17,0
230.59587000,230595870,0.0,0.41000000000000003,0.0,-1.19,27.28,27.28,0.0,0.14,0
230.69601400,230696014,0.0,0.39,0.0,-1.19,27.23,27.23,0.0,0.13,0
230.79586100,230795861,0.0,0.41000000000000003,0.0,-1.19,27.1,27.1,0.0,0.15,0
230.89588500,230895885,0.0,0.41000000000000003,0.0,-1.19,27.02,27.02,0.0,0.14,0
230.99586600,230995866,0.0,0.41000000000000003,0.0,-1.19,26.85,26.85,0.0,0.17,0
231.09585900,231095859,0.0,0.42,0.0,-1.19,26.82,26.82,0.0,0.14,0
231.19583700,231195837,0.0,0.41000000000000003,0.0,-1.19,26.84,26.84,0.0,0.12,0
231.29586300,231295863,0.0,0.42,0.0,-1.19,26.73,26.73,0.0,0.13,0
231.39610800,231396108,0.0,0.42,0.0,-1.19,26.650000000000002,26.650000000000002,0.0,0.13,0
231.49588600,231495886,0.0,0.41000000000000003,0.0,-1.19,26.51,26.51,0.0,0.15,0
231.59588400,231595884,0.0,0.42,0.0,-1.19,26.490000000000002,26.490000000000002,0.0,0.13,0
231.69591200,231695912,0.0,0.41000000000000003,0.0,-1.19,26.650000000000002,26.650000000000002,0.0,0.16,0
231.79586900,231795869,0.0,0.41000000000000003,0.0,-1.19,26.63,26.63,0.0,0.13,0
231.89588200,231895882,0.0,0.41000000000000003,0.0,-1.19,26.68,26.68,0.0,0.12,0
231.99580900,231995809,0.0,0.4,0.0,-1.19,26.55,26.55,0.0,0.14,0
232.09583400,232095834,0.0,0.41000000000000003,0.0,-1.19,26.560000000000002,26.560000000000002,0.0,0.12,0
232.19583700,232195837,0.0,0.41000000000000003,0.0,-1.19,26.52,26.52,0.0,0.11,0
232.29587900,232295879,0.0,0.4,0.0,-1.19,26.54,26.54,0.0,0.09,0
232.39620800,232396208,0.0,0.41000000000000003,0.0,-1.19,26.71,26.71,0.0,0.13,0
232.49584600,232495846,0.0,0.4,0.0,-1.19,26.79,26.79,0.0,0.13,0
232.59588100,232595881,0.0,0.4,0.0,-1.19,26.830000000000002,26.830000000000002,0.0,0.12,0
232.69586900,232695869,0.0,0.4,0.0,-1.19,26.8,26.8,0.0,0.1,0
232.79588000,232795880,0.0,0.39,0.0,-1.19,26.89,26.89,0.0,0.11,0
232.89587900,232895879,0.0,0.4,0.0,-1.19,26.91,26.91,0.0,0.09,0
232.99585300,232995853,0.0,0.4,0.0,-1.19,26.91,26.91,0.0,0.07,0
233.09585600,233095856,0.0,0.39,0.0,-1.19,26.900000000000002,26.900000000000002,0.0,0.06,0
233.19588500,233195885,0.0,0.4,0.0,-1.19,26.79,26.79,0.0,0.08,0
233.29588300,233295883,0.0,0.39,0.0,-1.2,26.87,26.87,0.0,0.09,0
233.39607100,233396071,0.0,0.39,0.0,-1.2,27.0,27.0,0.0,0.12,0
233.49586900,233495869,0.0,0.4,0.0,-1.2,26.900000000000002,26.900000000000002,0.0,0.13,0
233.59589300,233595893,0.0,0.39,0.0,-1.19,26.830000000000002,26.830000000000002,0.0,0.13,0
235.69611900,235696119,0.0,0.39,0.0,-1.19,26.76,26.76,0.0,0.15,0
235.79587700,235795877,0.0,0.38,0.0,-1.18,26.650000000000002,26.650000000000002,0.0,0.16,0
235.89585700,235895857,0.0,0.38,0.0,-1.18,26.79,26.79,0.0,0.18,0
235.99587500,235995875,0.0,0.39,0.0,-1.19,26.830000000000002,26.830000000000002,0.0,0.16,0
236.09587200,236095872,0.0,0.39,0.0,-1.18,26.87,26.87,0.0,0.14,0
236.19584800,236195848,0.0,0.38,0.0,-1.18,26.79,26.79,0.0,0.13,0
236.29584000,236295840,0.0,0.38,0.0,-1.18,26.72,26.72,0.0,0.13,0
236.39608800,236396088,0.0,0.39,0.0,-1.18,26.740000000000002,26.740000000000002,0.0,0.11,0
236.49587900,236495879,0.0,0.39,0.0,-1.18,26.59,26.59,0.0,0.13,0
236.59584600,236595846,0.0,0.38,0.0,-1.18,26.66,26.66,0.0,0.13,0
236.69586000,236695860,0.0,0.39,0.0,-1.18,26.560000000000002,26.560000000000002,0.0,0.13,0
236.79588700,236795887,0.0,0.39,0.0,-1.18,26.45,26.45,0.0,0.14,0
236.89586700,236895867,0.0,0.41000000000000003,0.0,-1.19,26.52,26.52,0.0,0.13,0
236.99587900,236995879,0.0,0.4,0.0,-1.18,26.55,26.55,0.0,0.12,0
237.09587100,237095871,0.0,0.37,0.0,-1.18,26.36,26.36,0.0,0.16,0
237.19586300,237195863,0.0,0.39,0.0,-1.19,26.46,26.46,0.0,0.16,0
237.29586900,237295869,0.0,0.41000000000000003,0.0,-1.18,26.38,26.38,0.0,0.15,0
237.39606700,237396067,0.0,0.4,0.0,-1.18,26.38,26.38,0.0,0.12,0
237.49587200,237495872,0.0,0.39,0.0,-1.18,26.310000000000002,26.310000000000002,0.0,0.11,0
237.59586100,237595861,0.0,0.41000000000000003,0.0,-1.18,26.44,26.44,0.0,0.12,0
239.69588600,239695886,0.0,0.42,0.0,-1.22,27.150000000000002,27.150000000000002,0.0,0.19,0
239.79588600,239795886,0.0,0.44,0.0,-1.23,27.240000000000002,27.240000000000002,0.0,0.19,0
239.89588700,239895887,0.0,0.42,0.0,-1.23,27.080000000000002,27.080000000000002,0.0,0.21,0
239.99585900,239995859,0.0,0.4,0.0,-1.22,27.12,27.12,0.0,0.18,0
240.09585200,240095852,0.0,0.39,0.0,-1.21,27.12,27.12,0.0,0.14,0
240.19588400,240195884,0.0,0.41000000000000003,0.0,-1.22,27.080000000000002,27.080000000000002,0.0,0.12,0
240.29586000,240295860,0.0,0.39,0.0,-1.22,27.1,27.1,0.0,0.1,0
240.39615900,240396159,0.0,0.38,0.0,-1.21,27.12,27.12,0.0,0.09,0
240.49588900,240495889,0.0,0.38,0.0,-1.2,27.07,27.07,0.0,0.09,0
242.59608200,242596082,0.0,0.41000000000000003,0.0,-1.22,26.7,26.7,0.0,0.17,0
242.69588400,242695884,0.0,0.41000000000000003,0.0,-1.2,26.66,26.66,0.0,0.14,0
242.79584700,242795847,0.0,0.42,0.0,-1.2,26.59,26.59,0.0,0.13,0
242.89587000,242895870,0.0,0.38,0.0,-1.21,26.6,26.6,0.0,0.11,0
242.99583100,242995831,0.0,0.36,0.0,-1.18,26.51,26.51,0.0,0.12,0
243.09590500,243095905,0.0,0.38,0.0,-1.18,26.55,26.55,0.0,0.1,0
243.19586400,243195864,0.0,0.36,0.0,-1.2,26.55,26.55,0.0,0.08,0
243.29601500,243296015,0.0,0.37,0.0,-1.19,26.55,26.55,0.0,0.07,0
243.39613900,243396139,0.0,0.38,0.0,-1.18,26.6,26.6,0.0,0.07,0
243.49585100,243495851,0.0,0.35000000000000003,0.0,-1.2,26.79,26.79,0.0,0.12,0
243.59586700,243595867,0.0,0.37,0.0,-1.19,26.86,26.86,0.0,0.11,0
243.69587000,243695870,0.0,0.37,0.0,-1.19,26.900000000000002,26.900000000000002,0.0,0.11,0
243.79585900,243795859,0.0,0.36,0.0,-1.2,26.88,26.88,0.0,0.09,0
243.89585600,243895856,0.0,0.37,0.0,-1.19,26.95,26.95,0.0,0.09,0
243.99584400,243995844,0.0,0.36,0.0,-1.19,27.01,27.01,0.0,0.09,0
244.09589600,244095896,0.0,0.38,0.0,-1.2,26.98,26.98,0.0,0.09,0
244.19588100,244195881,0.0,0.37,0.0,-1.19,26.97,26.97,0.0,0.07,0
244.29586500,244295865,0.0,0.35000000000000003,0.0,-1.19,27.12,27.12,0.0,0.1,0
244.39607900,244396079,0.0,0.37,0.0,-1.2,27.09,27.09,0.0,0.09,0
244.49588000,244495880,0.0,0.37,0.0,-1.19,27.13,27.13,0.0,0.09,0
244.59601000,244596010,0.0,0.37,0.0,-1.19,27.11,27.11,0.0,0.08,0
244.69585800,244695858,0.0,0.37,0.0,-1.2,27.09,27.09,0.0,0.07,0
244.79586500,244795865,0.0,0.36,0.0,-1.19,26.990000000000002,26.990000000000002,0.0,0.08,0
244.89585700,244895857,0.0,0.38,0.0,-1.19,27.150000000000002,27.150000000000002,0.0,0.12,0
244.99590400,244995904,0.0,0.37,0.0,-1.21,27.12,27.12,0.0,0.1,0
245.09585800,245095858,0.0,0.36,0.0,-1.2,27.09,27.09,0.0,0.09,0
245.19586200,245195862,0.0,0.38,0.0,-1.2,26.990000000000002,26.990000000000002,0.0,0.1,0
245.29583800,245295838,0.0,0.38,0.0,-1.21,26.88,26.88,0.0,0.12,0
245.39623500,245396235,0.0,0.38,0.0,-1.19,26.89,26.89,0.0,0.1,0
245.49587000,245495870,0.0,0.38,0.0,-1.2,26.85,26.85,0.0,0.09,0
245.59585000,245595850,0.0,0.37,0.0,-1.2,26.78,26.78,0.0,0.1,0
245.69587900,245695879,0.0,0.38,0.0,-1.2,26.71,26.71,0.0,0.1,0
245.79589100,245795891,0.0,0.4,0.0,-1.21,26.48,26.48,0.0,0.15,0
245.89586400,245895864,0.0,0.38,0.0,-1.21,26.34,26.34,0.0,0.17,0
245.99586500,245995865,0.0,0.39,0.0,-1.2,26.25,26.25,0.0,0.16,0
246.09589600,246095896,0.0,0.4,0.0,-1.2,26.36,26.36,0.0,0.16,0
246.19587000,246195870,0.0,0.4,0.0,-1.2,26.47,26.47,0.0,0.16,0
246.29587200,246295872,0.0,0.39,0.0,-1.2,26.46,26.46,0.0,0.13,0
248.39609400,248396094,0.0,0.42,0.0,-1.2,26.240000000000002,26.240000000000002,0.0,0.15,0
248.49585700,248495857,0.0,0.4,0.0,-1.21,26.34,26.34,0.0,0.15,0
248.59587800,248595878,0.0,0.38,0.0,-1.21,26.34,26.34,0.0,0.12,0
248.69586000,248695860,0.0,0.41000000000000003,0.0,-1.2,26.16,26.16,0.0,0.16,0
248.79588400,248795884,0.0,0.43,0.0,-1.2,26.18,26.18,0.0,0.14,0
248.89588400,248895884,0.0,0.43,0.0,-1.2,26.19,26.19,0.0,0.11,0
248.99589100,248995891,0.0,0.4,0.0,-1.2,26.21,26.21,0.0,0.09,0
249.09588200,249095882,0.0,0.39,0.0,-1.2,26.18,26.18,0.0,0.07,0
249.19582000,249195820,0.0,0.42,0.0,-1.2,26.37,26.37,0.0,0.12,0
249.29590400,249295904,0.0,0.42,0.0,-1.2,26.29,26.29,0.0,0.12,0
251.39606700,251396067,0.0,0.4,0.0,-1.2,25.79,25.79,0.0,0.16,0
251.49584100,251495841,0.0,0.4,0.0,-1.2,25.69,25.69,0.0,0.16,0
251.59587100,251595871,0.0,0.41000000000000003,0.0,-1.2,25.69,25.69,0.0,0.13,0
251.69588000,251695880,0.0,0.41000000000000003,0.0,-1.2,25.64,25.64,0.0,0.12,0
251.79585300,251795853,0.0,0.41000000000000003,0.0,-1.2,25.54,25.54,0.0,0.13,0
251.89587800,251895878,0.0,0.41000000000000003,0.0,-1.21,25.59,25.59,0.0,0.12,0
251.99587700,251995877,0.0,0.41000000000000003,0.0,-1.2,25.64,25.64,0.0,0.11,0
252.09586200,252095862,0.0,0.41000000000000003,0.0,-1.21,25.64,25.64,0.0,0.09,0
252.19588000,252195880,0.0,0.4,0.0,-1.21,25.67,25.67,0.0,0.08,0
252.29590900,252295909,0.0,0.41000000000000003,0.0,-1.21,25.84,25.84,0.0,0.12,0
252.39608700,252396087,0.0,0.41000000000000003,0.0,-1.21,25.86,25.86,0.0,0.1,0
252.49585300,252495853,0.0,0.39,0.0,-1.21,26.02,26.02,0.0,0.13,0
252.59585600,252595856,0.0,0.4,0.0,-1.21,26.05,26.05,0.0,0.12,0
252.69587300,252695873,0.0,0.41000000000000003,0.0,-1.21,25.96,25.96,0.0,0.12,0
252.79591800,252795918,0.0,0.4,0.0,-1.21,25.97,25.97,0.0,0.1,0
252.89584600,252895846,0.0,0.41000000000000003,0.0,-1.21,25.85,25.85,0.0,0.12,0
252.99586600,252995866,0.0,0.4,0.0,-1.21,26.01,26.01,0.0,0.15,0
253.09584800,253095848,0.0,0.4,0.0,-1.22,26.04,26.04,0.0,0.13,0
253.19585000,253195850,0.0,0.4,0.0,-1.22,26.14,26.14,0.0,0.13,0
253.29586300,253295863,0.0,0.4,0.0,-1.22,26.13,26.13,0.0,0.11,0
253.39612500,253396125,0.0,0.4,0.0,-1.22,26.12,26.12,0.0,0.09,0
253.49585500,253495855,0.0,0.39,0.0,-1.22,26.23,26.23,0.0,0.11,0
253.59588400,253595884,0.0,0.4,0.0,-1.22,26.09,26.09,0.0,0.13,0
253.69586000,253695860,0.0,0.4,0.0,-1.22,26.05,26.05,0.0,0.12,0
253.79588800,253795888,0.0,0.39,0.0,-1.22,26.16,26.16,0.0,0.13,0
253.89581900,253895819,0.0,0.39,0.0,-1.22,26.18,26.18,0.0,0.11,0
253.99595500,253995955,0.0,0.39,0.0,-1.22,26.5,26.5,0.0,0.19,0
254.09586600,254095866,0.0,0.38,0.0,-1.22,26.52,26.52,0.0,0.16,0
254.19586100,254195861,0.0,0.39,0.0,-1.22,26.53,26.53,0.0,0.13,0
254.29588600,254295886,0.0,0.39,0.0,-1.22,26.6,26.6,0.0,0.13,0
254.39615600,254396156,0.0,0.39,0.0,-1.23,26.53,26.53,0.0,0.12,0
254.49585800,254495858,0.0,0.39,0.0,-1.22,26.43,26.43,0.0,0.13,0
254.59581600,254595816,0.0,0.39,0.0,-1.22,26.42,26.42,0.0,0.11,0
256.69595100,256695951,0.0,0.38,0.0,-1.24,27.01,27.01,0.0,0.15,0
256.79587000,256795870,0.0,0.37,0.0,-1.24,27.13,27.13,0.0,0.16,0
256.89588400,256895884,0.0,0.36,0.0,-1.23,27.1,27.1,0.0,0.13,0
256.99585500,256995855,0.0,0.37,0.0,-1.23,27.240000000000002,27.240000000000002,0.0,0.15,0
257.09584800,257095848,0.0,0.38,0.0,-1.23,27.0,27.0,0.0,0.2,0
257.19588000,257195880,0.0,0.38,0.0,-1.23,26.990000000000002,26.990000000000002,0.0,0.16,0
257.29586200,257295862,0.0,0.36,0.0,-1.23,27.13,27.13,0.0,0.17,0
257.39614400,257396144,0.0,0.37,0.0,-1.23,27.060000000000002,27.060000000000002,0.0,0.16,0
257.49585000,257495850,0.0,0.38,0.0,-1.22,27.02,27.02,0.0,0.14,0
257.59587300,257595873,0.0,0.37,0.0,-1.23,26.990000000000002,26.990000000000002,0.0,0.12,0
257.69585000,257695850,0.0,0.37,0.0,-1.22,27.01,27.01,0.0,0.1,0
257.79587200,257795872,0.0,0.38,0.0,-1.23,27.060000000000002,27.060000000000002,0.0,0.09,0
257.89586100,257895861,0.0,0.37,0.0,-1.23,27.21,27.21,0.0,0.13,0
257.99586000,257995860,0.0,0.36,0.0,-1.22,27.44,27.44,0.0,0.17,0
258.09587800,258095878,0.0,0.36,0.0,-1.23,27.43,27.43,0.0,0.14,0
258.19588100,258195881,0.0,0.37,0.0,-1.22,27.150000000000002,27.150000000000002,0.0,0.21,0
258.29587500,258295875,0.0,0.38,0.0,-1.22,27.07,27.07,0.0,0.19,0
258.39607500,258396075,0.0,0.37,0.0,-1.22,27.19,27.19,0.0,0.19,0
258.49590800,258495908,0.0,0.37,0.0,-1.22,27.150000000000002,27.150000000000002,0.0,0.17,0
258.59588200,258595882,0.0,0.38,0.0,-1.22,27.330000000000002,27.330000000000002,0.0,0.2,0
258.69589300,258695893,0.0,0.38,0.0,-1.22,27.11,27.11,0.0,0.23,0
258.79587700,258795877,0.0,0.38,0.0,-1.22,27.080000000000002,27.080000000000002,0.0,0.2,0
258.89587800,258895878,0.0,0.38,0.0,-1.22,26.91,26.91,0.0,0.21,0
258.99584200,258995842,0.0,0.38,0.0,-1.22,27.01,27.01,0.0,0.2,0
259.09586300,259095863,0.0,0.39,0.0,-1.22,26.830000000000002,26.830000000000002,0.0,0.22,0
259.19585900,259195859,0.0,0.37,0.0,-1.22,27.01,27.01,0.0,0.24,0
259.29585000,259295850,0.0,0.37,0.0,-1.22,27.25,27.25,0.0,0.27,0
259.39624900,259396249,0.0,0.38,0.0,-1.22,27.28,27.28,0.0,0.22,0
259.49586100,259495861,0.0,0.38,0.0,-1.22,27.36,27.36,0.0,0.2,0
259.59584800,259595848,0.0,0.37,0.0,-1.22,27.26,27.26,0.0,0.19,0
259.69587500,259695875,0.0,0.38,0.0,-1.22,27.28,27.28,0.0,0.16,0
259.79589100,259795891,0.0,0.38,0.0,-1.21,27.34,27.34,0.0,0.15,0
259.89587000,259895870,0.0,0.39,0.0,-1.22,27.26,27.26,0.0,0.14,0
259.99585200,259995852,0.0,0.38,0.0,-1.21,27.47,27.47,0.0,0.18,0
260.09595100,260095951,0.0,0.37,0.0,-1.21,27.57,27.57,0.0,0.18,0
260.19589500,260195895,0.0,0.38,0.0,-1.22,27.6,27.6,0.0,0.15,0
262.29585200,262295852,0.0,0.36,0.0,-1.22,27.97,27.97,0.0,0.14,0
262.39616400,262396164,0.0,0.39,0.0,-1.22,27.94,27.94,0.0,0.13,0
262.49586500,262495865,0.0,0.38,0.0,-1.21,27.990000000000002,27.990000000000002,0.0,0.12,0
262.59585900,262595859,0.0,0.37,0.0,-1.21,27.93,27.93,0.0,0.12,0
262.69584900,262695849,0.0,0.38,0.0,-1.22,27.84,27.84,0.0,0.12,0
262.79584500,262795845,0.0,0.4,0.0,-1.21,27.69,27.69,0.0,0.15,0
262.89587600,262895876,0.0,0.38,0.0,-1.21,27.69,27.69,0.0,0.12,0
262.99590800,262995908,0.0,0.38,0.0,-1.21,27.68,27.68,0.0,0.1,0
263.09586200,263095862,0.0,0.38,0.0,-1.21,27.87,27.87,0.0,0.14,0
263.19587600,263195876,0.0,0.38,0.0,-1.21,27.89,27.89,0.0,0.12,0
263.29581800,263295818,0.0,0.37,0.0,-1.21,27.85,27.85,0.0,0.11,0
263.39604800,263396048,0.0,0.38,0.0,-1.2,27.78,27.78,0.0,0.11,0
263.49585500,263495855,0.0,0.38,0.0,-1.21,27.7,27.7,0.0,0.12,0
263.59587600,263595876,0.0,0.37,0.0,-1.21,27.77,27.77,0.0,0.11,0
263.69583200,263695832,0.0,0.37,0.0,-1.21,27.76,27.76,0.0,0.09,0
263.79585900,263795859,0.0,0.37,0.0,-1.21,27.71,27.71,0.0,0.09,0
263.89586800,263895868,0.0,0.37,0.0,-1.21,27.66,27.66,0.0,0.09,0
263.99585000,263995850,0.0,0.38,0.0,-1.21,27.67,27.67,0.0,0.08,0
264.09586600,264095866,0.0,0.37,0.0,-1.21,27.830000000000002,27.830000000000002,0.0,0.11,0
264.19586500,264195865,0.0,0.37,0.0,-1.22,27.69,27.69,0.0,0.14,0
264.29587000,264295870,0.0,0.37,0.0,-1.21,27.64,27.64,0.0,0.13,0
264.39615000,264396150,0.0,0.37,0.0,-1.21,27.580000000000002,27.580000000000002,0.0,0.13,0
264.49587300,264495873,0.0,0.37,0.0,-1.21,27.72,27.72,0.0,0.15,0
264.59587200,264595872,0.0,0.37,0.0,-1.21,27.580000000000002,27.580000000000002,0.0,0.17,0
264.69588100,264695881,0.0,0.37,0.0,-1.21,27.580000000000002,27.580000000000002,0.0,0.14,0
264.79587600,264795876,0.0,0.37,0.0,-1.21,27.63,27.63,0.0,0.13,0
264.89583700,264895837,0.0,0.36,0.0,-1.21,27.78,27.78,0.0,0.15,0
264.99587100,264995871,0.0,0.36,0.0,-1.21,27.78,27.78,0.0,0.12,0
265.09584600,265095846,0.0,0.37,0.0,-1.2,27.84,27.84,0.0,0.12,0
265.19589500,265195895,0.0,0.36,0.0,-1.21,27.82,27.82,0.0,0.1,0
282.29587000,282295870,0.0,0.39,0.0,-1.17,27.73,27.73,0.0,0.13,0
282.39611400,282396114,0.0,0.39,0.0,-1.17,27.84,27.84,0.0,0.14,0
282.49586200,282495862,0.0,0.41000000000000003,0.0,-1.17,27.82,27.82,0.0,0.11,0
282.59585200,282595852,0.0,0.4,0.0,-1.17,27.75,27.75,0.0,0.11,0
282.69584100,282695841,0.0,0.39,0.0,-1.17,27.85,27.85,0.0,0.12,0
282.79589700,282795897,0.0,0.41000000000000003,0.0,-1.17,27.66,27.66,0.0,0.17,0
282.89584900,282895849,0.0,0.43,0.0,-1.18,27.62,27.62,0.0,0.14,0
282.99584600,282995846,0.0,0.41000000000000003,0.0,-1.18,27.63,27.63,0.0,0.12,0
283.09587400,283095874,0.0,0.4,0.0,-1.17,27.62,27.62,0.0,0.1,0
283.19589500,283195895,0.0,0.41000000000000003,0.0,-1.18,27.59,27.59,0.0,0.09,0
283.29592200,283295922,0.0,0.42,0.0,-1.18,27.57,27.57,0.0,0.08,0
283.39605900,283396059,0.0,0.41000000000000003,0.0,-1.17,27.490000000000002,27.490000000000002,0.0,0.09,0
283.49588100,283495881,0.0,0.41000000000000003,0.0,-1.18,27.43,27.43,0.0,0.09,0
283.59583600,283595836,0.0,0.42,0.0,-1.17,27.48,27.48,0.0,0.09,0
283.69591100,283695911,0.0,0.42,0.0,-1.18,27.32,27.32,0.0,0.12,0
283.79586600,283795866,0.0,0.42,0.0,-1.18,27.310000000000002,27.310000000000002,0.0,0.1,0
283.89588000,283895880,0.0,0.41000000000000003,0.0,-1.18,27.45,27.45,0.0,0.12,0
283.99592200,283995922,0.0,0.41000000000000003,0.0,-1.18,27.42,27.42,0.0,0.11,0
284.09584500,284095845,0.0,0.43,0.0,-1.18,27.34,27.34,0.0,0.11,0
284.19584900,284195849,0.0,0.42,0.0,-1.18,27.28,27.28,0.0,0.11,0
284.29585900,284295859,0.0,0.41000000000000003,0.0,-1.18,27.2,27.2,0.0,0.12,0
284.39609400,284396094,0.0,0.43,0.0,-1.18,27.14,27.14,0.0,0.11,0
284.49585800,284495858,0.0,0.43,0.0,-1.18,27.19,27.19,0.0,0.1,0
284.59587200,284595872,0.0,0.42,0.0,-1.18,27.1,27.1,0.0,0.12,0
284.69588100,284695881,0.0,0.41000000000000003,0.0,-1.18,27.01,27.01,0.0,0.12,0
284.79588900,284795889,0.0,0.43,0.0,-1.18,27.01,27.01,0.0,0.1,0
284.89586500,284895865,0.0,0.43,0.0,-1.18,27.080000000000002,27.080000000000002,0.0,0.1,0
284.99589400,284995894,0.0,0.41000000000000003,0.0,-1.18,27.13,27.13,0.0,0.09,0
285.09585800,285095858,0.0,0.42,0.0,-1.18,27.16,27.16,0.0,0.08,0
285.19590700,285195907,0.0,0.43,0.0,-1.18,27.03,27.03,0.0,0.11,0
285.29588100,285295881,0.0,0.42,0.0,-1.18,27.11,27.11,0.0,0.11,0
285.39612200,285396122,0.0,0.42,0.0,-1.18,27.01,27.01,0.0,0.12,0
285.49589000,285495890,0.0,0.42,0.0,-1.18,26.990000000000002,26.990000000000002,0.0,0.1,0
285.59580900,285595809,0.0,0.42,0.0,-1.18,27.0,27.0,0.0,0.08,0
285.69585300,285695853,0.0,0.43,0.0,-1.18,27.02,27.02,0.0,0.07,0
285.79583600,285795836,0.0,0.42,0.0,-1.19,26.95,26.95,0.0,0.08,0
285.89583200,285895832,0.0,0.42,0.0,-1.18,26.98,26.98,0.0,0.07,0
285.99585700,285995857,0.0,0.42,0.0,-1.18,27.01,27.01,0.0,0.06,0
286.09586200,286095862,0.0,0.43,0.0,-1.19,27.01,27.01,0.0,0.05,0
286.19587900,286195879,0.0,0.42,0.0,-1.18,27.02,27.02,0.0,0.04,0
286.29588600,286295886,0.0,0.41000000000000003,0.0,-1.19,27.01,27.01,0.0,0.04,0
286.39613200,286396132,0.0,0.43,0.0,-1.19,27.09,27.09,0.0,0.05,0
286.49585500,286495855,0.0,0.43,0.0,-1.19,26.97,26.97,0.0,0.08,0
286.59586700,286595867,0.0,0.41000000000000003,0.0,-1.19,26.95,26.95,0.0,0.07,0
286.69585200,286695852,0.0,0.41000000000000003,0.0,-1.19,27.11,27.11,0.0,0.11,0
286.79584600,286795846,0.0,0.43,0.0,-1.18,27.080000000000002,27.080000000000002,0.0,0.1,0
286.89589900,286895899,0.0,0.42,0.0,-1.19,27.2,27.2,0.0,0.12,0
286.99587100,286995871,0.0,0.41000000000000003,0.0,-1.18,27.26,27.26,0.0,0.12,0
287.09584700,287095847,0.0,0.41000000000000003,0.0,-1.18,27.310000000000002,27.310000000000002,0.0,0.11,0
287.19588500,287195885,0.0,0.42,0.0,-1.18,27.330000000000002,27.330000000000002,0.0,0.09,0
287.29588400,287295884,0.0,0.42,0.0,-1.18,27.22,27.22,0.0,0.11,0
287.39622200,287396222,0.0,0.41000000000000003,0.0,-1.18,27.22,27.22,0.0,0.08,0
287.49588100,287495881,0.0,0.41000000000000003,0.0,-1.18,27.29,27.29,0.0,0.09,0
287.59586500,287595865,0.0,0.42,0.0,-1.18,27.22,27.22,0.0,0.09,0
287.69584800,287695848,0.0,0.42,0.0,-1.18,27.150000000000002,27.150000000000002,0.0,0.1,0
287.79586700,287795867,0.0,0.42,0.0,-1.18,27.05,27.05,0.0,0.11,0
287.89589900,287895899,0.0,0.42,0.0,-1.17,26.830000000000002,26.830000000000002,0.0,0.16,0
287.99585200,287995852,0.0,0.44,0.0,-1.17,26.740000000000002,26.740000000000002,0.0,0.16,0
288.09586700,288095867,0.0,0.43,0.0,-1.17,26.740000000000002,26.740000000000002,0.0,0.13,0
288.19588400,288195884,0.0,0.42,0.0,-1.17,26.830000000000002,26.830000000000002,0.0,0.13,0
288.29582000,288295820,0.0,0.42,0.0,-1.17,26.810000000000002,26.810000000000002,0.0,0.11,0
288.39611100,288396111,0.0,0.43,0.0,-1.17,26.78,26.78,0.0,0.09,0
288.49585800,288495858,0.0,0.42,0.0,-1.18,26.94,26.94,0.0,0.12,0
288.59588300,288595883,0.0,0.41000000000000003,0.0,-1.18,26.85,26.85,0.0,0.12,0
288.69585700,288695857,0.0,0.43,0.0,-1.18,26.740000000000002,26.740000000000002,0.0,0.14,0
288.79586200,288795862,0.0,0.43,0.0,-1.18,26.72,26.72,0.0,0.11,0
288.89585900,288895859,0.0,0.42,0.0,-1.18,26.900000000000002,26.900000000000002,0.0,0.15,0
288.99586900,288995869,0.0,0.41000000000000003,0.0,-1.18,26.91,26.91,0.0,0.12,0
289.09590100,289095901,0.0,0.42,0.0,-1.18,26.87,26.87,0.0,0.11,0
289.19586200,289195862,0.0,0.42,0.0,-1.18,26.92,26.92,0.0,0.1,0
289.29585100,289295851,0.0,0.41000000000000003,0.0,-1.18,26.94,26.94,0.0,0.09,0
289.39609800,289396098,0.0,0.41000000000000003,0.0,-1.18,26.96,26.96,0.0,0.08,0
289.49590300,289495903,0.0,0.41000000000000003,0.0,-1.18,27.02,27.02,0.0,0.08,0
289.59585300,289595853,0.0,0.41000000000000003,0.0,-1.18,27.080000000000002,27.080000000000002,0.0,0.08,0
289.69587100,289695871,0.0,0.41000000000000003,0.0,-1.18,27.0,27.0,0.0,0.09,0
289.79588100,289795881,0.0,0.4,0.0,-1.18,27.0,27.0,0.0,0.08,0
289.89591100,289895911,0.0,0.41000000000000003,0.0,-1.18,27.0,27.0,0.0,0.06,0
289.99585600,289995856,0.0,0.42,0.0,-1.18,26.94,26.94,0.0,0.07,0
290.09588500,290095885,0.0,0.41000000000000003,0.0,-1.18,26.900000000000002,26.900000000000002,0.0,0.07,0
290.19583700,290195837,0.0,0.4,0.0,-1.18,26.93,26.93,0.0,0.07,0
290.29584100,290295841,0.0,0.41000000000000003,0.0,-1.18,26.900000000000002,26.900000000000002,0.0,0.06,0
290.39613400,290396134,0.0,0.41000000000000003,0.0,-1.18,26.92,26.92,0.0,0.05,0
290.49586200,290495862,0.0,0.4,0.0,-1.18,27.07,27.07,0.0,0.09,0
290.59585900,290595859,0.0,0.41000000000000003,0.0,-1.18,27.01,27.01,0.0,0.1,0
290.69584700,290695847,0.0,0.41000000000000003,0.0,-1.18,27.09,27.09,0.0,0.1,0
290.79585300,290795853,0.0,0.41000000000000003,0.0,-1.18,27.04,27.04,0.0,0.09,0
290.89591300,290895913,0.0,0.4,0.0,-1.18,27.17,27.17,0.0,0.12,0
290.99586800,290995868,0.0,0.4,0.0,-1.19,27.23,27.23,0.0,0.11,0
291.09588700,291095887,0.0,0.4,0.0,-1.18,27.22,27.22,0.0,0.09,0
291.19585600,291195856,0.0,0.4,0.0,-1.18,27.240000000000002,27.240000000000002,0.0,0.08,0
291.29586300,291295863,0.0,0.4,0.0,-1.18,27.03,27.03,0.0,0.13,0
291.39618500,291396185,0.0,0.4,0.0,-1.18,27.04,27.04,0.0,0.11,0
291.49585500,291495855,0.0,0.41000000000000003,0.0,-1.18,27.09,27.09,0.0,0.1,0
291.59588400,291595884,0.0,0.4,0.0,-1.18,27.240000000000002,27.240000000000002,0.0,0.13,0
291.69587600,291695876,0.0,0.39,0.0,-1.18,27.28,27.28,0.0,0.12,0
291.79589800,291795898,0.0,0.4,0.0,-1.18,27.22,27.22,0.0,0.12,0
291.89586200,291895862,0.0,0.4,0.0,-1.18,27.150000000000002,27.150000000000002,0.0,0.11,0
291.99585900,291995859,0.0,0.4,0.0,-1.18,27.29,27.29,0.0,0.14,0
292.09585300,292095853,0.0,0.39,0.0,-1.19,27.18,27.18,0.0,0.15,0
292.19586200,292195862,0.0,0.4,0.0,-1.19,27.2,27.2,0.0,0.12,0
292.29587100,292295871,0.0,0.4,0.0,-1.19,27.22,27.22,0.0,0.1,0
292.39611500,292396115,0.0,0.4,0.0,-1.19,27.17,27.17,0.0,0.1,0
292.49588500,292495885,0.0,0.39,0.0,-1.19,27.17,27.17,0.0,0.08,0
292.59588700,292595887,0.0,0.42,0.0,-1.17,27.240000000000002,27.240000000000002,0.0,0.07,0
292.69588700,292695887,0.0,0.47000000000000003,0.0,-1.18,27.23,27.23,0.0,0.06,0
292.79586400,292795864,0.0,0.45,0.0,-1.18,27.19,27.19,0.0,0.05,0
292.89582900,292895829,0.0,0.4,0.0,-1.17,27.02,27.02,0.0,0.1,0
292.99583200,292995832,0.0,0.39,0.0,-1.18,26.95,26.95,0.0,0.09,0
293.09585500,293095855,0.0,0.42,0.0,-1.16,26.96,26.96,0.0,0.07,0
293.19587000,293195870,0.0,0.4,0.0,-1.16,27.02,27.02,0.0,0.08,0
293.29587000,293295870,0.0,0.36,0.0,-1.17,26.95,26.95,0.0,0.09,0
293.39610300,293396103,0.0,0.39,0.0,-1.18,27.03,27.03,0.0,0.08,0
293.49586800,293495868,0.0,0.42,0.0,-1.19,27.09,27.09,0.0,0.1,0
293.59586300,293595863,0.0,0.38,0.0,-1.17,27.0,27.0,0.0,0.11,0
293.69589000,293695890,0.0,0.35000000000000003,0.0,-1.19,27.11,27.11,0.0,0.12,0
293.79587100,293795871,0.0,0.38,0.0,-1.19,27.060000000000002,27.060000000000002,0.0,0.1,0
293.89587100,293895871,0.0,0.39,0.0,-1.16,26.97,26.97,0.0,0.11,0
293.99585100,293995851,0.0,0.39,0.0,-1.18,26.98,26.98,0.0,0.09,0
294.09588600,294095886,0.0,0.38,0.0,-1.18,26.94,26.94,0.0,0.09,0
294.19587600,294195876,0.0,0.36,0.0,-1.18,26.97,26.97,0.0,0.07,0
294.29587000,294295870,0.0,0.4,0.0,-1.19,26.75,26.75,0.0,0.13,0
294.39608700,294396087,0.0,0.4,0.0,-1.19,26.67,26.67,0.0,0.13,0
294.49584600,294495846,0.0,0.35000000000000003,0.0,-1.19,26.580000000000002,26.580000000000002,0.0,0.14,0
294.59583200,294595832,0.0,0.36,0.0,-1.18,26.6,26.6,0.0,0.12,0
294.69586900,294695869,0.0,0.39,0.0,-1.18,26.55,26.55,0.0,0.12,0
294.79586900,294795869,0.0,0.37,0.0,-1.17,26.41,26.41,0.0,0.14,0
294.89584400,294895844,0.0,0.36,0.0,-1.18,26.38,26.38,0.0,0.12,0
294.99585900,294995859,0.0,0.38,0.0,-1.18,26.32,26.32,0.0,0.12,0
295.09586700,295095867,0.0,0.4,0.0,-1.17,26.240000000000002,26.240000000000002,0.0,0.12,0
295.19583100,295195831,0.0,0.38,0.0,-1.17,26.25,26.25,0.0,0.1,0
295.29586000,295295860,0.0,0.36,0.0,-1.17,26.310000000000002,26.310000000000002,0.0,0.1,0
295.39635600,295396356,0.0,0.42,0.0,-1.18,26.18,26.18,0.0,0.13,0
295.49584300,295495843,0.0,0.47000000000000003,0.0,-1.25,26.25,26.25,0.0,0.12,0
295.59593200,295595932,0.0,0.39,0.0,-1.17,26.04,26.04,0.0,0.1,0
295.69590700,295695907,0.0,0.31,0.0,-1.17,26.01,26.01,0.0,0.13,0
295.79589000,295795890,0.0,0.44,0.0,-1.19,25.97,25.97,0.01,0.13,0
295.89588500,295895885,0.0,0.45,0.0,-1.1400000000000001,25.88,25.88,0.01,0.11,0
295.99587900,295995879,0.0,0.41000000000000003,0.0,-1.16,25.91,25.91,0.0,0.09,0
296.09591900,296095919,0.0,0.41000000000000003,0.0,-1.1300000000000001,25.87,25.87,0.0,0.08,0
296.19587200,296195872,0.0,0.4,0.0,-1.17,25.82,25.82,0.0,0.07,0
296.29588500,296295885,0.0,0.45,0.0,-1.1400000000000001,26.02,26.02,0.0,0.1,0
296.39612600,296396126,0.0,0.47000000000000003,0.0,-1.1500000000000001,26.1,26.1,0.0,0.12,0
296.49587700,296495877,0.0,0.38,0.0,-1.16,26.04,26.04,0.0,0.1,0
296.59588200,296595882,0.0,0.35000000000000003,0.0,-1.16,25.94,25.94,0.0,0.12,0
296.69585900,296695859,0.0,0.39,0.0,-1.17,25.93,25.93,0.0,0.11,0
296.79584500,296795845,0.0,0.41000000000000003,0.0,-1.1500000000000001,25.8,25.8,0.0,0.14,0
296.89587800,296895878,0.0,0.4,0.0,-1.17,25.76,25.76,0.0,0.13,0
296.99586700,296995867,0.0,0.37,0.0,-1.16,25.72,25.72,0.0,0.11,0
297.09587400,297095874,0.0,0.4,0.0,-1.1500000000000001,25.69,25.69,0.0,0.11,0
297.19587400,297195874,0.0,0.41000000000000003,0.0,-1.17,25.94,25.94,0.0,0.18,0
