timestamp,TimeUS,Lat,Lng,Alt,RelHomeAlt,RelOriginAlt
1666654356.49950004,164709912,42.7307774,-84.4905521,224.8199920654297,-0.0007516276091337204,-0.6907516121864319
1666654356.53934908,164749761,42.730777599999996,-84.4905521,224.8199920654297,-0.0016412865370512009,-0.6916412711143494
1666654356.57988501,164790297,42.7307777,-84.4905521,224.8199920654297,-0.002438856288790703,-0.6924388408660889
1666654356.58008909,164790501,42.7307777,-84.4905521,224.8199920654297,-0.002438856288790703,-0.6924388408660889
1666654356.62009001,164830502,42.7307779,-84.4905521,224.8199920654297,-0.003320051357150078,-0.6933200359344482
1666654356.65941191,164869824,42.730778,-84.490552,224.8199920654297,-0.005388272926211357,-0.6953882575035095
1666654356.67984104,164890253,42.730778099999995,-84.490552,224.8199920654297,-0.0064414869993925095,-0.6964414715766907
1666654356.69941592,164909828,42.730778199999996,-84.490552,224.8199920654297,-0.0075349342077970505,-0.6975349187850952
1666654356.73941708,164949829,42.7307783,-84.490552,224.8199920654297,-0.00951768271625042,-0.6995176672935486
1666654356.77983904,164990251,42.7307785,-84.4905519,224.80999755859375,-0.011375321075320244,-0.7013753056526184
1666654356.77995205,164990364,42.7307785,-84.4905519,224.80999755859375,-0.011375321075320244,-0.7013753056526184
1666654356.81986809,165030280,42.7307786,-84.4905519,224.80999755859375,-0.01401062123477459,-0.7040106058120728
1666654356.85937095,165069783,42.730778799999996,-84.49055179999999,224.80999755859375,-0.016625357791781425,-0.7066253423690796
1666654356.88006902,165090481,42.7307789,-84.49055179999999,224.80999755859375,-0.017960382625460625,-0.7079603672027588
1666654356.89938998,165109802,42.730779,-84.49055179999999,224.80999755859375,-0.019309354946017265,-0.7093093395233154
1666654356.93938398,165149796,42.7307791,-84.49055179999999,224.79998779296875,-0.02167297713458538,-0.7116729617118835
1666654356.98005199,165190464,42.730779299999995,-84.4905517,224.79998779296875,-0.023899687454104424,-0.7138996720314026
1666654356.98019409,165190606,42.730779299999995,-84.4905517,224.79998779296875,-0.023899687454104424,-0.7138996720314026
1666654357.01987386,165230286,42.730779399999996,-84.4905517,224.79998779296875,-0.026813818141818047,-0.7168138027191162
1666654357.05940700,165269819,42.7307796,-84.49055159999999,224.79998779296875,-0.02964813821017742,-0.7196481227874756
1666654357.07993889,165290351,42.7307797,-84.49055159999999,224.7899932861328,-0.031140340492129326,-0.7211403250694275
1666654357.09941196,165309824,42.7307798,-84.49055159999999,224.7899932861328,-0.032558098435401917,-0.7225580811500549
1666654357.13937688,165349789,42.730779899999995,-84.4905515,224.7899932861328,-0.035060301423072815,-0.7250602841377258
1666654357.17993808,165390350,42.7307801,-84.4905515,224.7899932861328,-0.03731276094913483,-0.7273127436637878
1666654357.18000889,165390421,42.7307801,-84.4905515,224.7899932861328,-0.03731276094913483,-0.7273127436637878
1666654357.21995807,165430370,42.7307802,-84.4905514,224.77999877929688,-0.040590837597846985,-0.7305908203125
1666654357.25931287,165469725,42.7307804,-84.49055129999999,224.77999877929688,-0.043931975960731506,-0.7339319586753845
1666654357.27999997,165490412,42.7307805,-84.49055129999999,224.77999877929688,-0.045662179589271545,-0.7356621623039246
1666654357.29941487,165509827,42.730780599999996,-84.49055129999999,224.77999877929688,-0.04728366434574127,-0.7372836470603943
1666654357.33933496,165549747,42.7307807,-84.4905512,224.76998901367188,-0.05031163990497589,-0.7403116226196289
1666654357.38004494,165590457,42.7307809,-84.4905512,224.76998901367188,-0.05322094261646271,-0.7432209253311157
1666654357.38014603,165590558,42.7307809,-84.4905512,224.76998901367188,-0.05322094261646271,-0.7432209253311157
1666654357.41995907,165630371,42.730781,-84.49055109999999,224.76998901367188,-0.05525858700275421,-0.7452585697174072
1666654357.45940900,165669821,42.7307811,-84.49055109999999,224.76998901367188,-0.05677582323551178,-0.7467758059501648
1666654357.48004889,165690461,42.730781199999996,-84.49055109999999,224.76998901367188,-0.05744887888431549,-0.7474488615989685
1666654357.49932194,165709734,42.7307813,-84.490551,224.76998901367188,-0.05849047005176544,-0.7484904527664185
1666654357.53934407,165749756,42.7307814,-84.490551,224.75999450683594,-0.06003279983997345,-0.7500327825546265
1666654357.58007789,165790490,42.7307815,-84.490551,224.75999450683594,-0.06119336187839508,-0.7511933445930481
1666654357.58014894,165790561,42.7307815,-84.490551,224.75999450683594,-0.06119336187839508,-0.7511933445930481
1666654357.61998487,165830397,42.7307816,-84.4905509,224.75999450683594,-0.062317267060279846,-0.7523172497749329
1666654357.65943909,165869851,42.730781799999995,-84.4905509,224.75999450683594,-0.06313695013523102,-0.753136932849884
1666654357.67990494,165890317,42.730781799999995,-84.4905508,224.75999450683594,-0.063339963555336,-0.753339946269989
1666654357.69924688,165909659,42.7307819,-84.4905508,224.75999450683594,-0.0642147809267044,-0.7542147636413574
1666654357.73927903,165949691,42.730782,-84.4905507,224.75999450683594,-0.06535722315311432,-0.7553572058677673
1666654357.77988791,165990300,42.7307821,-84.4905507,224.75999450683594,-0.0661437064409256,-0.7561436891555786
1666654357.78002095,165990433,42.7307821,-84.4905507,224.75999450683594,-0.0661437064409256,-0.7561436891555786
1666654357.82001805,166030430,42.7307822,-84.49055059999999,224.75999450683594,-0.06750424206256866,-0.7575042247772217
1666654357.85936689,166069779,42.7307823,-84.4905505,224.75999450683594,-0.06852592527866364,-0.7585259079933167
1666654357.87982702,166090239,42.730782399999995,-84.49055039999999,224.75999450683594,-0.06891955435276031,-0.7589195370674133
1666654357.89934087,166109753,42.730782399999995,-84.49055039999999,224.75999450683594,-0.06983233988285065,-0.7598323225975037
1666654357.93934202,166149754,42.7307825,-84.4905503,224.75,-0.07078470289707184,-0.7607846856117249
1666654357.98013687,166190549,42.7307826,-84.4905501,224.75,-0.07112075388431549,-0.7611207365989685
1666654357.98023796,166190650,42.7307826,-84.4905501,224.75,-0.07112075388431549,-0.7611207365989685
1666654358.02003288,166230445,42.7307827,-84.4905501,224.75,-0.07206352055072784,-0.7620635032653809
1666654358.05941200,166269824,42.7307828,-84.49055,224.75,-0.07289578020572662,-0.7628957629203796
1666654358.07984304,166290255,42.7307829,-84.49054989999999,224.75,-0.07310988008975983,-0.7631098628044128
1666654358.09933305,166309745,42.7307829,-84.49054989999999,224.75,-0.0739525705575943,-0.7639525532722473
1666654358.13941693,166349829,42.730782999999995,-84.4905498,224.75,-0.07495523989200592,-0.7649552226066589
1666654358.17982507,166390237,42.7307831,-84.4905497,224.75,-0.07549019157886505,-0.7654901742935181
1666654358.17992806,166390340,42.7307831,-84.4905497,224.75,-0.07549019157886505,-0.7654901742935181
1666654358.21990299,166430315,42.7307832,-84.4905496,224.75,-0.07690884172916412,-0.7669088244438171
1666654358.25932789,166469740,42.7307834,-84.4905495,224.75,-0.07817383110523224,-0.7681738138198853
1666654358.27981400,166490226,42.7307834,-84.4905495,224.75,-0.07861842215061188,-0.7686184048652649
1666654358.29941893,166509831,42.7307834,-84.49054939999999,224.75,-0.07963241636753082,-0.7696323990821838
1666654358.33939195,166549804,42.7307835,-84.4905493,224.739990234375,-0.08090557157993317,-0.7709055542945862
1666654358.37996697,166590379,42.730783599999995,-84.49054919999999,224.739990234375,-0.08176656067371368,-0.7717665433883667
1666654358.38009095,166590503,42.730783599999995,-84.49054919999999,224.739990234375,-0.08176656067371368,-0.7717665433883667
1666654358.41985798,166630270,42.730783699999996,-84.4905491,224.739990234375,-0.08318538963794708,-0.7731853723526001
1666654358.45934892,166669761,42.7307838,-84.490549,224.739990234375,-0.08447559177875519,-0.7744755744934082
1666654358.48005295,166690465,42.7307839,-84.4905489,224.739990234375,-0.08495159447193146,-0.7749515771865845
1666654358.49939203,166709804,42.7307839,-84.4905489,224.739990234375,-0.08602620661258698,-0.77602618932724
1666654358.53943396,166749846,42.730784,-84.4905488,224.739990234375,-0.08698751032352448,-0.7769874930381775
1666654358.57999587,166790408,42.7307841,-84.49054869999999,224.739990234375,-0.08726556599140167,-0.7772655487060547
1666654358.58009100,166790503,42.7307841,-84.49054869999999,224.739990234375,-0.08726556599140167,-0.7772655487060547
1666654358.61990595,166830318,42.730784199999995,-84.4905486,224.739990234375,-0.08883120119571686,-0.7788311839103699
1666654358.65941095,166869823,42.730784299999996,-84.4905485,224.72999572753906,-0.0903414636850357,-0.7803414463996887
1666654358.67995286,166890365,42.7307844,-84.4905484,224.72999572753906,-0.09093053638935089,-0.7809305191040039
1666654358.69935799,166909770,42.7307844,-84.4905484,224.72999572753906,-0.09207029640674591,-0.7820702791213989
1666654358.73941588,166949828,42.7307845,-84.4905483,224.72999572753906,-0.09346266090869904,-0.783462643623352
1666654358.77993393,166990346,42.7307846,-84.49054819999999,224.72999572753906,-0.0943610817193985,-0.7843610644340515
1666654358.78002596,166990438,42.7307846,-84.49054819999999,224.72999572753906,-0.0943610817193985,-0.7843610644340515
1666654358.81995988,167030372,42.7307847,-84.4905481,224.72999572753906,-0.09705378115177155,-0.7870537638664246
1666654358.85934687,167069759,42.730784899999996,-84.49054799999999,224.72999572753906,-0.09984870254993439,-0.7898486852645874
1666654358.87999606,167090408,42.730784899999996,-84.49054799999999,224.72000122070312,-0.10124821960926056,-0.7912482023239136
1666654358.89940596,167109818,42.730785,-84.4905479,224.72000122070312,-0.10273070633411407,-0.7927306890487671
1666654358.93934488,167149757,42.7307851,-84.4905478,224.72000122070312,-0.10511095821857452,-0.7951109409332275
1666654358.98018789,167190600,42.7307853,-84.4905477,224.72000122070312,-0.10710139572620392,-0.7971013784408569
1666654358.98032308,167190735,42.7307853,-84.4905477,224.72000122070312,-0.10710139572620392,-0.7971013784408569
1666654359.02004600,167230458,42.730785399999995,-84.4905476,224.72000122070312,-0.10954774916172028,-0.7995477318763733
1666654359.05938888,167269801,42.730785499999996,-84.49054749999999,224.70999145507812,-0.1115654855966568,-0.8015654683113098
1666654359.07998800,167290400,42.7307856,-84.4905474,224.70999145507812,-0.11249293386936188,-0.8024929165840149
1666654359.09935308,167309765,42.7307857,-84.4905474,224.70999145507812,-0.11378379166126251,-0.8037837743759155
1666654359.13932991,167349742,42.7307858,-84.4905473,224.70999145507812,-0.1154714971780777,-0.8054714798927307
1666654359.17988300,167390295,42.730785999999995,-84.4905472,224.70999145507812,-0.11652977764606476,-0.8065297603607178
1666654359.18002391,167390436,42.730785999999995,-84.4905472,224.70999145507812,-0.11652977764606476,-0.8065297603607178
1666654359.21992993,167430342,42.730786099999996,-84.49054699999999,224.70999145507812,-0.11790217459201813,-0.8079021573066711
1666654359.25941300,167469825,42.7307863,-84.4905469,224.70999145507812,-0.11885686218738556,-0.8088568449020386
1666654359.27995300,167490365,42.7307864,-84.49054679999999,224.70999145507812,-0.11919154226779938,-0.8091915249824524
1666654359.29930186,167509714,42.7307864,-84.49054679999999,224.6999969482422,-0.12019480764865875,-0.8101947903633118
1666654359.33931899,167549731,42.7307865,-84.4905466,224.6999969482422,-0.12105460464954376,-0.8110545873641968
1666654359.37994909,167590361,42.730786699999996,-84.4905465,224.6999969482422,-0.12124462425708771,-0.8112446069717407
1666654359.38007903,167590491,42.730786699999996,-84.4905465,224.6999969482422,-0.12124462425708771,-0.8112446069717407
1666654359.41998196,167630394,42.7307868,-84.49054629999999,224.6999969482422,-0.12267644703388214,-0.8126764297485352
1666654359.45943499,167669847,42.730787,-84.4905462,224.6999969482422,-0.12353290617465973,-0.8135328888893127
1666654359.48005891,167690471,42.7307871,-84.4905461,224.6999969482422,-0.1237533837556839,-0.8137533664703369
1666654359.49935603,167709768,42.7307871,-84.490546,224.6999969482422,-0.12473131716251373,-0.8147312998771667
1666654359.53926706,167749679,42.730787299999996,-84.4905459,224.6999969482422,-0.1256178766489029,-0.8156178593635559
1666654359.57996607,167790378,42.7307874,-84.49054579999999,224.6999969482422,-0.12580622732639313,-0.8158062100410461
1666654359.58011794,167790530,42.7307874,-84.49054579999999,224.6999969482422,-0.12580622732639313,-0.8158062100410461
1666654359.61999202,167830404,42.7307876,-84.49054559999999,224.6999969482422,-0.1266135722398758,-0.8166135549545288
1666654359.65936899,167869781,42.7307877,-84.4905455,224.6999969482422,-0.1269679218530655,-0.8169679045677185
1666654359.67980695,167890219,42.730787799999995,-84.4905454,224.6999969482422,-0.12689818441867828,-0.8168981671333313
1666654359.69934297,167909755,42.730787899999996,-84.4905453,224.6999969482422,-0.12768901884555817,-0.8176890015602112
1666654359.73937297,167949785,42.730788,-84.4905452,224.6999969482422,-0.12762583792209625,-0.8176258206367493
1666654359.77983499,167990247,42.7307882,-84.49054509999999,224.6999969482422,-0.1263197809457779,-0.8163197636604309
1666654359.77993703,167990349,42.7307882,-84.49054509999999,224.6999969482422,-0.1263197809457779,-0.8163197636604309
1666654359.82015800,168030570,42.7307883,-84.4905449,224.6999969482422,-0.12625761330127716,-0.8162575960159302
1666654359.85939503,168069807,42.730788499999996,-84.4905447,224.6999969482422,-0.1259942203760147,-0.8159942030906677
1666654359.87982392,168090236,42.7307887,-84.49054459999999,224.6999969482422,-0.12555046379566193,-0.8155504465103149
1666654359.89934802,168109760,42.7307887,-84.49054459999999,224.6999969482422,-0.1261993795633316,-0.8161993622779846
1666654359.93937206,168149784,42.7307889,-84.49054439999999,224.6999969482422,-0.12621690332889557,-0.8162168860435486
1666654359.98010206,168190514,42.730789099999996,-84.4905443,224.6999969482422,-0.12561030685901642,-0.8156102895736694
1666654359.98023605,168190648,42.730789099999996,-84.4905443,224.6999969482422,-0.12561030685901642,-0.8156102895736694
1666654360.02013206,168230544,42.7307892,-84.4905441,224.6999969482422,-0.12674202024936676,-0.8167420029640198
1666654360.05935287,168269765,42.7307894,-84.490544,224.6999969482422,-0.1277906447649002,-0.8177906274795532
1666654360.07992792,168290340,42.7307895,-84.49054389999999,224.6999969482422,-0.1281253844499588,-0.8181253671646118
1666654360.09943008,168309842,42.7307895,-84.4905438,224.6999969482422,-0.12912900745868683,-0.8191289901733398
1666654360.13945007,168349862,42.7307896,-84.49054369999999,224.69000244140625,-0.13008727133274078,-0.8200872540473938
1666654360.17998290,168390395,42.7307898,-84.4905436,224.69000244140625,-0.13047106564044952,-0.8204710483551025
1666654360.18008399,168390496,42.7307898,-84.4905436,224.69000244140625,-0.13047106564044952,-0.8204710483551025
1666654360.21985888,168430271,42.73079,-84.4905435,224.69000244140625,-0.13167597353458405,-0.8216759562492371
1666654360.25931692,168469729,42.7307901,-84.4905433,224.69000244140625,-0.13253243267536163,-0.8225324153900146
1666654360.27993608,168490348,42.7307902,-84.49054319999999,224.69000244140625,-0.1327417641878128,-0.8227417469024658
1666654360.29935408,168509766,42.730790299999995,-84.49054319999999,224.69000244140625,-0.1337452083826065,-0.8237451910972595
1666654360.33940697,168549819,42.7307904,-84.490543,224.69000244140625,-0.1346823126077652,-0.8246822953224182
1666654360.38001704,168590429,42.7307906,-84.4905429,224.69000244140625,-0.1348945051431656,-0.8248944878578186
1666654360.38012004,168590532,42.7307906,-84.4905429,224.69000244140625,-0.1348945051431656,-0.8248944878578186
1666654360.41996002,168630372,42.7307907,-84.4905428,224.69000244140625,-0.13592292368412018,-0.8259229063987732
1666654360.45933795,168669750,42.730790899999995,-84.4905426,224.69000244140625,-0.13674791157245636,-0.8267478942871094
1666654360.48006487,168690477,42.730790999999996,-84.49054249999999,224.69000244140625,-0.13689233362674713,-0.8268923163414001
1666654360.49937201,168709784,42.730790999999996,-84.49054249999999,224.69000244140625,-0.13784916698932648,-0.8278491497039795
1666654360.53941107,168749823,42.7307912,-84.4905424,224.69000244140625,-0.13825483620166779,-0.8282548189163208
1666654360.58000302,168790415,42.7307913,-84.4905423,224.69000244140625,-0.13764502108097076,-0.8276450037956238
1666654360.58010387,168790516,42.7307913,-84.4905423,224.69000244140625,-0.13764502108097076,-0.8276450037956238
1666654360.61997795,168830390,42.730791499999995,-84.4905421,224.69000244140625,-0.1382436901330948,-0.8282436728477478
1666654360.65944505,168869857,42.730791599999996,-84.4905419,224.69000244140625,-0.13842786848545074,-0.8284278512001038
1666654360.67993999,168890352,42.7307917,-84.4905418,224.69000244140625,-0.13829149305820465,-0.8282914757728577
1666654360.69930887,168909721,42.7307917,-84.4905418,224.69000244140625,-0.13902147114276886,-0.8290214538574219
1666654360.73934197,168949754,42.7307918,-84.4905417,224.69000244140625,-0.1388801485300064,-0.8288801312446594
1666654360.77997899,168990391,42.730792,-84.49054149999999,224.69000244140625,-0.13764210045337677,-0.8276420831680298
1666654360.78009105,168990503,42.730792,-84.49054149999999,224.69000244140625,-0.13764210045337677,-0.8276420831680298
1666654360.82000709,169030419,42.730792199999996,-84.49054129999999,224.69000244140625,-0.13871438801288605,-0.8287143707275391
1666654360.85939002,169069802,42.7307923,-84.4905412,224.69000244140625,-0.13942821323871613,-0.8294281959533691
1666654360.87989998,169090312,42.7307925,-84.4905411,224.69000244140625,-0.13958926498889923,-0.8295892477035522
1666654360.89938402,169109796,42.7307925,-84.490541,224.67999267578125,-0.14052225649356842,-0.8305222392082214
1666654360.93932796,169149740,42.7307926,-84.4905409,224.67999267578125,-0.1411612182855606,-0.8311612010002136
1666654360.98007393,169190486,42.730792799999996,-84.4905407,224.67999267578125,-0.14098043739795685,-0.8309804201126099
1666654360.98019600,169190608,42.730792799999996,-84.4905407,224.67999267578125,-0.14098043739795685,-0.8309804201126099
1666654361.02004790,169230460,42.730793,-84.4905406,224.67999267578125,-0.14231152832508087,-0.8323115110397339
1666654361.05941105,169269823,42.7307932,-84.4905404,224.67999267578125,-0.14370740950107574,-0.8337073922157288
1666654361.08013487,169290547,42.730793299999995,-84.49054029999999,224.67999267578125,-0.14432211220264435,-0.8343220949172974
1666654361.09938407,169309796,42.730793299999995,-84.49054029999999,224.67999267578125,-0.1453917771577835,-0.8353917598724365
1666654361.13933086,169349743,42.7307935,-84.4905402,224.67999267578125,-0.14656080305576324,-0.8365607857704163
1666654361.17988086,169390293,42.7307936,-84.49054,224.67999267578125,-0.14701099693775177,-0.8370109796524048
1666654361.18000603,169390418,42.7307936,-84.49054,224.67999267578125,-0.14701099693775177,-0.8370109796524048
1666654361.22002697,169430439,42.7307938,-84.4905399,224.67999267578125,-0.14863552153110504,-0.8386355042457581
1666654361.25944495,169469857,42.730793899999995,-84.4905397,224.67999267578125,-0.14980246126651764,-0.8398024439811707
1666654361.27979398,169490206,42.730793999999996,-84.49053959999999,224.6699981689453,-0.15023507177829742,-0.8402350544929504
1666654361.29937100,169509783,42.7307941,-84.4905395,224.6699981689453,-0.1512242704629898,-0.8412242531776428
1666654361.33938909,169549801,42.7307942,-84.4905394,224.6699981689453,-0.15180213749408722,-0.8418021202087402
1666654361.37992501,169590337,42.7307943,-84.4905392,224.6699981689453,-0.15142346918582916,-0.8414234519004822
1666654361.38005090,169590463,42.7307943,-84.4905392,224.6699981689453,-0.15142346918582916,-0.8414234519004822
1666654361.41996408,169630376,42.7307944,-84.49053909999999,224.6699981689453,-0.15193505585193634,-0.8419350385665894
1666654361.45935202,169669764,42.730794499999995,-84.49053889999999,224.6699981689453,-0.15158827602863312,-0.8415882587432861
1666654361.47999191,169690404,42.730794599999996,-84.4905388,224.6699981689453,-0.1510835438966751,-0.8410835266113281
1666654361.49951386,169709926,42.730794599999996,-84.4905387,224.6699981689453,-0.15174706280231476,-0.8417470455169678
1666654361.53945708,169749869,42.7307947,-84.4905386,224.6699981689453,-0.15110565721988678,-0.8411056399345398
1666654361.58000588,169790418,42.7307948,-84.49053839999999,224.67999267578125,-0.1493484526872635,-0.8393484354019165
1666654361.58014202,169790554,42.7307948,-84.49053839999999,224.67999267578125,-0.1493484526872635,-0.8393484354019165
1666654361.61992598,169830338,42.7307949,-84.4905383,224.67999267578125,-0.14849735796451569,-0.8384973406791687
1666654361.65935302,169869765,42.730795099999995,-84.4905381,224.67999267578125,-0.14678604900836945,-0.8367860317230225
1666654361.67992902,169890341,42.730795099999995,-84.490538,224.67999267578125,-0.14543987810611725,-0.8354398608207703
1666654361.69940400,169909816,42.730795199999996,-84.490538,224.67999267578125,-0.14571203291416168,-0.8357120156288147
1666654361.73945403,169949866,42.7307953,-84.4905378,224.67999267578125,-0.14402766525745392,-0.8340276479721069
1666654361.77995706,169990369,42.7307954,-84.49053769999999,224.67999267578125,-0.14097674190998077,-0.8309767246246338
1666654361.78005886,169990471,42.7307954,-84.49053769999999,224.67999267578125,-0.14097674190998077,-0.8309767246246338
1666654361.81988287,170030295,42.7307955,-84.4905375,224.69000244140625,-0.13951225578784943,-0.8295122385025024
1666654361.85932803,170069740,42.7307956,-84.4905373,224.69000244140625,-0.1373264342546463,-0.8273264169692993
1666654361.87988400,170090296,42.7307957,-84.49053719999999,224.69000244140625,-0.13578839600086212,-0.8257883787155151
1666654361.89938903,170109801,42.730795799999996,-84.49053719999999,224.69000244140625,-0.1358921080827713,-0.8258920907974243
1666654361.93941593,170149828,42.7307959,-84.49053699999999,224.69000244140625,-0.13363982737064362,-0.8236398100852966
1666654361.98014498,170190557,42.730796,-84.4905369,224.6999969482422,-0.12977458536624908,-0.8197745680809021
1666654361.98028588,170190698,42.730796,-84.4905369,224.6999969482422,-0.12977458536624908,-0.8197745680809021
1666654362.01998091,170230393,42.7307961,-84.49053669999999,224.6999969482422,-0.12761487066745758,-0.8176148533821106
1666654362.05927706,170269689,42.7307963,-84.49053649999999,224.6999969482422,-0.12415672838687897,-0.814156711101532
1666654362.07996798,170290380,42.730796399999996,-84.4905364,224.6999969482422,-0.12180139124393463,-0.8118013739585876
1666654362.09940886,170309821,42.730796399999996,-84.4905363,224.6999969482422,-0.12147648632526398,-0.811476469039917
1666654362.13939095,170349803,42.7307965,-84.4905362,224.70999145507812,-0.11728914082050323,-0.8072891235351562
1666654362.17993402,170390346,42.7307967,-84.49053599999999,224.70999145507812,-0.11071319878101349,-0.8007131814956665
1666654362.18004990,170390462,42.7307967,-84.49053599999999,224.70999145507812,-0.11071319878101349,-0.8007131814956665
1666654362.21998191,170430394,42.7307968,-84.49053579999999,224.72000122070312,-0.10708631575107574,-0.7970862984657288
1666654362.25939107,170469803,42.730796999999995,-84.4905356,224.72000122070312,-0.1023157387971878,-0.7923157215118408
1666654362.27995491,170490367,42.730796999999995,-84.4905355,224.72999572753906,-0.09916897118091583,-0.7891689538955688
1666654362.29935598,170509768,42.7307971,-84.4905355,224.72999572753906,-0.09837247431278229,-0.7883724570274353
1666654362.33943701,170549849,42.7307972,-84.49053529999999,224.72999572753906,-0.09215010702610016,-0.7821500897407532
1666654362.38000488,170590417,42.7307973,-84.4905352,224.739990234375,-0.08268274366855621,-0.7726827263832092
1666654362.38011599,170590528,42.7307973,-84.4905352,224.739990234375,-0.08268274366855621,-0.7726827263832092
1666654362.42000890,170630421,42.7307975,-84.490535,224.75,-0.07548101246356964,-0.7654809951782227
1666654362.45943594,170669848,42.7307977,-84.4905347,224.75999450683594,-0.06566484272480011,-0.7556648254394531
1666654362.48003387,170690446,42.7307978,-84.49053459999999,224.76998901367188,-0.05961616337299347,-0.7496161460876465
1666654362.49939394,170709806,42.7307978,-84.4905345,224.76998901367188,-0.057278648018836975,-0.74727863073349
1666654362.53930807,170749720,42.730798,-84.4905344,224.77999877929688,-0.0461050420999527,-0.7361050248146057
1666654362.57994986,170790362,42.7307981,-84.4905342,224.7899932861328,-0.030309392139315605,-0.7203093767166138
1666654362.58009505,170790507,42.7307981,-84.4905342,224.7899932861328,-0.030309392139315605,-0.7203093767166138
1666654362.62001586,170830428,42.7307983,-84.490534,224.80999755859375,-0.017255021259188652,-0.7072550058364868
1666654362.65946102,170869873,42.7307985,-84.4905338,224.8199920654297,-9.555928409099579e-05,-0.6900955438613892
1666654362.67986798,170890280,42.7307986,-84.49053359999999,224.83999633789062,0.010519074276089668,-0.6794809103012085
1666654362.69942188,170909834,42.7307987,-84.49053359999999,224.83999633789062,0.016071246936917305,-0.6739287376403809
1666654362.73936987,170949782,42.730798799999995,-84.49053339999999,224.86000061035156,0.03621445596218109,-0.6537855267524719
1666654362.77980208,170990214,42.730799,-84.4905332,224.88999938964844,0.06233958899974823,-0.6276603937149048
1666654362.77991295,170990325,42.730799,-84.4905332,224.88999938964844,0.06233958899974823,-0.6276603937149048
1666654362.81998301,171030395,42.7307992,-84.490533,224.9099884033203,0.08353923261165619,-0.6064607501029968
1666654362.85942292,171069835,42.730799399999995,-84.4905328,224.92999267578125,0.10719935595989227,-0.5828006267547607
1666654362.87986302,171090275,42.730799499999996,-84.4905326,224.9499969482422,0.1211508959531784,-0.5688490867614746
1666654362.89938498,171109797,42.730799499999996,-84.4905326,224.9499969482422,0.12881343066692352,-0.5611865520477295
1666654362.93936586,171149778,42.7307997,-84.49053239999999,224.97999572753906,0.15332208573818207,-0.536677896976471
1666654362.98006296,171190475,42.7307998,-84.49053219999999,225.00999450683594,0.1839195340871811,-0.5060804486274719
1666654362.98021197,171190624,42.7307998,-84.49053219999999,225.00999450683594,0.1839195340871811,-0.5060804486274719
1666654363.01997900,171230391,42.730799999999995,-84.490532,225.02999877929688,0.20797692239284515,-0.48202306032180786
1666654363.05946994,171269882,42.7308002,-84.4905318,225.05999755859375,0.23417021334171295,-0.45582976937294006
1666654363.07987690,171290289,42.7308003,-84.4905316,225.0699920654297,0.24923743307590485,-0.44076254963874817
1666654363.09941196,171309824,42.7308003,-84.4905316,225.0800018310547,0.2578895688056946,-0.43211042881011963
1666654363.13938403,171349796,42.7308004,-84.4905314,225.11000061035156,0.2831890285015106,-0.4068109691143036
1666654363.18004894,171390461,42.730800599999995,-84.49053119999999,225.13999938964844,0.3137151598930359,-0.3762848377227783
1666654363.18018007,171390592,42.730800599999995,-84.49053119999999,225.13999938964844,0.3137151598930359,-0.3762848377227783
1666654363.21986890,171430281,42.730800699999996,-84.4905311,225.1599884033203,0.33697381615638733,-0.3530261814594269
1666654363.25937986,171469792,42.7308009,-84.4905309,225.19000244140625,0.3610420823097229,-0.3289579153060913
1666654363.27995706,171490369,42.730801,-84.4905308,225.1999969482422,0.3747391104698181,-0.3152608871459961
1666654363.29939699,171509809,42.7308011,-84.4905307,225.20999145507812,0.3833991289138794,-0.3066008687019348
1666654363.33941889,171549831,42.730801199999995,-84.49053049999999,225.239990234375,0.4147554337978363,-0.2752445638179779
1666654363.38004494,171590457,42.7308014,-84.4905304,225.27999877929688,0.4559343755245209,-0.23406562209129333
1666654363.38018394,171590596,42.7308014,-84.4905304,225.27999877929688,0.4559343755245209,-0.23406562209129333
1666654363.41995597,171630368,42.7308015,-84.4905302,225.3199920654297,0.4909445643424988,-0.19905543327331543
1666654363.45933008,171669742,42.7308017,-84.49052999999999,225.36000061035156,0.5341522097587585,-0.15584780275821686
1666654363.48004198,171690454,42.730801899999996,-84.4905299,225.37998962402344,0.5589991211891174,-0.13100086152553558
1666654363.49938607,171709798,42.730801899999996,-84.49052979999999,225.39999389648438,0.5730723142623901,-0.11692766845226288
1666654363.53942895,171749841,42.7308021,-84.4905297,225.44000244140625,0.6199266910552979,-0.07007332146167755
1666654363.58009195,171790504,42.7308023,-84.4905295,225.5,0.6789554357528687,-0.01104453019797802
1666654363.58019304,171790605,42.7308023,-84.4905295,225.5,0.6789554357528687,-0.01104453019797802
1666654363.61995602,171830368,42.730802399999995,-84.49052929999999,225.54998779296875,0.7249719500541687,0.034971967339515686
1666654363.65932488,171869737,42.7308026,-84.4905292,225.59999084472656,0.7767270803451538,0.0867270827293396
1666654363.67999792,171890410,42.7308027,-84.49052909999999,225.62998962402344,0.8067293763160706,0.11672937124967575
1666654363.69930196,171909714,42.7308027,-84.490529,225.64999389648438,0.822729766368866,0.13272978365421295
1666654363.73938990,171949802,42.7308029,-84.4905289,225.6999969482422,0.8708910942077637,0.18089112639427185
1666654363.77995896,171990371,42.730802999999995,-84.49052879999999,225.75,0.9291500449180603,0.2391500622034073
1666654363.78006005,171990472,42.730802999999995,-84.49052879999999,225.75,0.9291500449180603,0.2391500622034073
1666654363.82003593,172030448,42.7308032,-84.4905287,225.79998779296875,0.970180869102478,0.2801808714866638
1666654363.85937095,172069783,42.7308033,-84.4905285,225.83999633789062,1.0114246606826782,0.321424663066864
1666654363.87996888,172090381,42.7308034,-84.4905284,225.86000061035156,1.0351018905639648,0.34510186314582825
1666654363.89937305,172109785,42.7308035,-84.4905284,225.8699951171875,1.0480772256851196,0.35807719826698303
1666654363.93940401,172149816,42.7308036,-84.4905283,225.9099884033203,1.0878359079360962,0.3978358805179596
1666654363.98006797,172190480,42.730803699999996,-84.4905282,225.95999145507812,1.1357866525650024,0.4457866847515106
1666654363.98018098,172190593,42.730803699999996,-84.4905282,225.95999145507812,1.1357866525650024,0.4457866847515106
1666654364.02012300,172230535,42.7308039,-84.49052809999999,226.0,1.17013680934906,0.48013681173324585
1666654364.05941391,172269826,42.730804,-84.49052789999999,226.02999877929688,1.2051361799240112,0.515136182308197
1666654364.07991791,172290330,42.7308041,-84.4905278,226.04998779296875,1.225388765335083,0.5353888273239136
1666654364.09944606,172309858,42.7308042,-84.4905278,226.05999755859375,1.2363734245300293,0.5463734865188599
1666654364.13934398,172349756,42.730804299999996,-84.4905276,226.08999633789062,1.26663076877594,0.5766308307647705
1666654364.17983389,172390246,42.7308044,-84.4905275,226.12998962402344,1.3011280298233032,0.611128032207489
1666654364.17997003,172390382,42.7308044,-84.4905275,226.12998962402344,1.3011280298233032,0.611128032207489
1666654364.22002006,172430432,42.7308045,-84.49052739999999,226.14999389648438,1.3255094289779663,0.6355094313621521
1666654364.25946593,172469878,42.7308046,-84.4905273,226.1699981689453,1.3495440483093262,0.659544050693512
1666654364.27989197,172490304,42.7308047,-84.4905272,226.19000244140625,1.3632031679153442,0.67320317029953
1666654364.29940391,172509816,42.7308048,-84.4905272,226.1999969482422,1.3710734844207764,0.6810735464096069
1666654364.33934307,172549755,42.730804899999995,-84.4905271,226.22000122070312,1.394195318222046,0.7041953802108765
1666654364.37984300,172590255,42.730805,-84.49052689999999,226.25,1.4220207929611206,0.7320208549499512
1666654364.37997389,172590386,42.730805,-84.49052689999999,226.25,1.4220207929611206,0.7320208549499512
1666654364.41999102,172630403,42.7308051,-84.4905268,226.25999450683594,1.4387726783752441,0.7487726807594299
1666654364.45945001,172669862,42.7308052,-84.49052669999999,226.27999877929688,1.4513603448867798,0.7613603472709656
1666654364.47991300,172690325,42.7308052,-84.4905266,226.27999877929688,1.4582960605621338,0.7682960629463196
1666654364.49946404,172709876,42.7308053,-84.4905266,226.2899932861328,1.4641834497451782,0.774183452129364
1666654364.53938603,172749798,42.7308053,-84.4905265,226.29998779296875,1.4753082990646362,0.7853083610534668
1666654364.57994294,172790355,42.7308054,-84.4905264,226.30999755859375,1.4863284826278687,0.7963285446166992
1666654364.58006907,172790481,42.7308054,-84.4905264,226.30999755859375,1.4863284826278687,0.7963285446166992
1666654364.62002492,172830437,42.730805499999995,-84.4905263,226.3199920654297,1.4963593482971191,0.8063594102859497
1666654364.65938187,172869794,42.730805499999995,-84.4905261,226.3300018310547,1.5062439441680908,0.8162440061569214
1666654364.67996001,172890372,42.7308056,-84.490526,226.33999633789062,1.510972023010254,0.8209720253944397
1666654364.69939399,172909806,42.7308056,-84.490526,226.33999633789062,1.5175528526306152,0.8275529146194458
1666654364.73936486,172949777,42.7308057,-84.4905259,226.34999084472656,1.5274103879928589,0.8374103903770447
1666654364.77992606,172990338,42.7308057,-84.4905258,226.36000061035156,1.5354222059249878,0.8454222083091736
1666654364.77999687,172990409,42.7308057,-84.4905258,226.36000061035156,1.5354222059249878,0.8454222083091736
1666654364.81991196,173030324,42.7308057,-84.49052569999999,226.3699951171875,1.544554352760315,0.8545544147491455
1666654364.85943389,173069846,42.7308057,-84.4905256,226.37998962402344,1.5515201091766357,0.8615201711654663
1666654364.87994599,173090358,42.7308057,-84.49052549999999,226.37998962402344,1.5538145303726196,0.8638145327568054
1666654364.89936304,173109775,42.7308057,-84.49052549999999,226.38999938964844,1.5615477561950684,0.8715477585792542
1666654364.93939495,173149807,42.7308058,-84.4905254,226.38999938964844,1.5688422918319702,0.8788423538208008
1666654364.98008108,173190493,42.7308058,-84.4905253,226.39999389648438,1.5708367824554443,0.8808367848396301
1666654364.98022389,173190636,42.7308058,-84.4905253,226.39999389648438,1.5708367824554443,0.8808367848396301
1666654365.01997089,173230383,42.7308057,-84.4905253,226.39999389648438,1.576786994934082,0.8867869973182678
1666654365.05926299,173269675,42.7308056,-84.4905253,226.39999389648438,1.579432487487793,0.8894325494766235
1666654365.07999086,173290403,42.730805499999995,-84.4905252,226.39999389648438,1.5783425569534302,0.888342559337616
1666654365.09936190,173309774,42.730805499999995,-84.4905252,226.4099884033203,1.584971308708191,0.8949713110923767
1666654365.13944888,173349861,42.730805499999995,-84.4905252,226.4199981689453,1.590842843055725,0.9008428454399109
1666654365.17999601,173390408,42.7308054,-84.4905252,226.4199981689453,1.591992735862732,0.9019927978515625
1666654365.18006802,173390480,42.7308054,-84.4905252,226.4199981689453,1.591992735862732,0.9019927978515625
1666654365.22005200,173430464,42.7308053,-84.4905252,226.4199981689453,1.5983471870422363,0.9083472490310669
1666654365.25935292,173469765,42.7308052,-84.4905252,226.42999267578125,1.6030049324035645,0.913004994392395
1666654365.28008795,173490500,42.7308051,-84.4905252,226.42999267578125,1.6034352779388428,0.9134352803230286
1666654365.29932189,173509734,42.7308051,-84.4905252,226.44000244140625,1.610148310661316,0.9201483726501465
1666654365.33935905,173549771,42.730805,-84.4905252,226.44000244140625,1.6169865131378174,0.926986575126648
1666654365.38001704,173590429,42.730804899999995,-84.4905252,226.44000244140625,1.6181188821792603,0.928118884563446
1666654365.38013005,173590542,42.730804899999995,-84.4905252,226.44000244140625,1.6181188821792603,0.928118884563446
1666654365.42000389,173630416,42.7308048,-84.4905252,226.4499969482422,1.6256756782531738,0.9356756806373596
1666654365.45940804,173669820,42.7308047,-84.4905251,226.45999145507812,1.6336308717727661,0.9436309337615967
1666654365.48002100,173690433,42.7308046,-84.4905251,226.45999145507812,1.6360946893692017,0.9460946917533875
1666654365.49931693,173709729,42.7308046,-84.4905251,226.47000122070312,1.6441651582717896,0.9541652202606201
1666654365.53940797,173749820,42.7308046,-84.4905251,226.47999572753906,1.654752254486084,0.9647522568702698
1666654365.58008099,173790493,42.7308045,-84.4905251,226.489990234375,1.6620692014694214,0.9720692038536072
1666654365.58019900,173790611,42.7308045,-84.4905251,226.489990234375,1.6620692014694214,0.9720692038536072
1666654365.61997986,173830392,42.7308044,-84.4905251,226.5,1.6720460653305054,0.9820461273193359
1666654365.65936804,173869780,42.7308044,-84.4905251,226.50999450683594,1.680497407913208,0.9904974699020386
1666654365.67993093,173890343,42.730804299999996,-84.4905251,226.50999450683594,1.6830494403839111,0.9930494427680969
1666654365.69947290,173909885,42.730804299999996,-84.4905251,226.51998901367188,1.6904988288879395,1.00049889087677
1666654365.73932791,173949740,42.730804299999996,-84.4905251,226.52999877929688,1.7019461393356323,1.011946201324463
1666654365.77983809,173990250,42.7308042,-84.4905251,226.5399932861328,1.7102285623550415,1.020228624343872
1666654365.77996302,173990375,42.7308042,-84.4905251,226.5399932861328,1.7102285623550415,1.020228624343872
1666654365.82002091,174030433,42.7308042,-84.4905251,226.5399932861328,1.7183257341384888,1.0283257961273193
1666654365.85941005,174069822,42.7308042,-84.4905251,226.54998779296875,1.7243835926055908,1.0343836545944214
1666654365.87987995,174090292,42.7308042,-84.4905251,226.54998779296875,1.7254323959350586,1.0354324579238892
1666654365.89938998,174109802,42.7308042,-84.4905251,226.55999755859375,1.7317219972610474,1.041722059249878
1666654365.93939805,174149810,42.7308042,-84.4905252,226.55999755859375,1.7396291494369507,1.0496292114257812
1666654365.97993493,174190347,42.7308041,-84.4905252,226.5699920654297,1.7441710233688354,1.054171085357666
1666654365.98016596,174190578,42.7308041,-84.4905252,226.5699920654297,1.7441710233688354,1.054171085357666
1666654366.01994109,174230353,42.7308041,-84.4905252,226.5699920654297,1.7496867179870605,1.0596867799758911
1666654366.05945396,174269866,42.7308041,-84.4905252,226.5800018310547,1.7542489767074585,1.064249038696289
1666654366.07986403,174290276,42.7308041,-84.4905252,226.5800018310547,1.754613995552063,1.0646140575408936
1666654366.09942698,174309839,42.7308041,-84.4905252,226.58999633789062,1.760132074356079,1.0701321363449097
1666654366.13937306,174349785,42.7308041,-84.4905252,226.58999633789062,1.767581582069397,1.0775816440582275
1666654366.17999387,174390406,42.7308041,-84.4905252,226.59999084472656,1.772458553314209,1.0824586153030396
1666654366.18011808,174390530,42.7308041,-84.4905252,226.59999084472656,1.772458553314209,1.0824586153030396
1666654366.21991301,174430325,42.7308041,-84.4905252,226.59999084472656,1.7745319604873657,1.0845320224761963
1666654366.25943899,174469851,42.7308042,-84.4905252,226.59999084472656,1.7776762247085571,1.0876762866973877
1666654366.27996302,174490375,42.7308042,-84.4905252,226.59999084472656,1.7771440744400024,1.087144136428833
1666654366.29945207,174509864,42.7308042,-84.4905252,226.61000061035156,1.7819823026657104,1.091982364654541
1666654366.33942389,174549836,42.7308042,-84.4905252,226.61000061035156,1.7870475053787231,1.0970475673675537
1666654366.37996197,174590374,42.7308042,-84.4905252,226.61000061035156,1.7895773649215698,1.0995774269104004
1666654366.38006401,174590476,42.7308042,-84.4905252,226.61000061035156,1.7895773649215698,1.0995774269104004
1666654366.41993594,174630348,42.7308042,-84.4905252,226.6199951171875,1.793827772140503,1.1038278341293335
1666654366.45939589,174669808,42.7308042,-84.4905252,226.6199951171875,1.796965479850769,1.1069655418395996
1666654366.48005795,174690470,42.7308042,-84.4905252,226.6199951171875,1.7967429161071777,1.1067429780960083
1666654366.49937296,174709785,42.7308042,-84.4905252,226.62998962402344,1.8013458251953125,1.111345887184143
1666654366.53950500,174749917,42.7308042,-84.4905252,226.62998962402344,1.806663155555725,1.1166632175445557
1666654366.58010292,174790515,42.7308042,-84.4905252,226.62998962402344,1.8095223903656006,1.1195224523544312
1666654366.58023787,174790650,42.7308042,-84.4905252,226.62998962402344,1.8095223903656006,1.1195224523544312
1666654366.62003207,174830444,42.730804299999996,-84.4905251,226.63999938964844,1.813669204711914,1.1236692667007446
1666654366.65937304,174869785,42.730804299999996,-84.4905251,226.63999938964844,1.8173631429672241,1.1273632049560547
1666654366.67996693,174890379,42.730804299999996,-84.4905251,226.63999938964844,1.8176183700561523,1.127618432044983
1666654366.69935489,174909767,42.7308044,-84.4905251,226.64999389648438,1.8217988014221191,1.1317988634109497
1666654366.73935795,174949770,42.7308044,-84.49052499999999,226.64999389648438,1.8267954587936401,1.1367955207824707
1666654366.78000188,174990414,42.7308044,-84.49052499999999,226.6599884033203,1.8300589323043823,1.140058994293213
1666654366.78007507,174990487,42.7308044,-84.49052499999999,226.6599884033203,1.8300589323043823,1.140058994293213
1666654366.82002497,175030437,42.7308045,-84.49052499999999,226.6599884033203,1.8343595266342163,1.1443595886230469
1666654366.85933900,175069751,42.7308045,-84.4905249,226.6599884033203,1.8385716676712036,1.1485717296600342
1666654366.87992096,175090333,42.7308045,-84.4905249,226.6599884033203,1.839462399482727,1.1494624614715576
1666654366.89930105,175109713,42.7308046,-84.4905249,226.6699981689453,1.8430181741714478,1.1530182361602783
1666654366.93938708,175149799,42.7308046,-84.4905248,226.6699981689453,1.8482054471969604,1.158205509185791
1666654366.98011398,175190526,42.7308046,-84.4905248,226.67999267578125,1.8519322872161865,1.161932349205017
1666654366.98021507,175190627,42.7308046,-84.4905248,226.67999267578125,1.8519322872161865,1.161932349205017
1666654367.02006602,175230478,42.7308047,-84.4905247,226.67999267578125,1.856201171875,1.1662012338638306
1666654367.05939388,175269806,42.7308047,-84.4905247,226.69000244140625,1.8601326942443848,1.1701327562332153
1666654367.07994604,175290358,42.7308047,-84.4905246,226.69000244140625,1.8615745306015015,1.171574592590332
1666654367.09931898,175309731,42.7308047,-84.4905246,226.69000244140625,1.8645509481430054,1.174551010131836
1666654367.13934708,175349759,42.7308047,-84.4905246,226.69000244140625,1.8690993785858154,1.179099440574646
1666654367.17991209,175390324,42.7308048,-84.4905246,226.6999969482422,1.8724309206008911,1.1824309825897217
1666654367.18004704,175390459,42.7308048,-84.4905246,226.6999969482422,1.8724309206008911,1.1824309825897217
1666654367.21996593,175430378,42.7308048,-84.49052449999999,226.6999969482422,1.8757095336914062,1.1857095956802368
1666654367.25947309,175469885,42.7308048,-84.49052449999999,226.6999969482422,1.8781613111495972,1.1881613731384277
1666654367.27981496,175490227,42.730804899999995,-84.49052449999999,226.6999969482422,1.8788747787475586,1.1888748407363892
1666654367.29940987,175509822,42.730804899999995,-84.49052449999999,226.70999145507812,1.8805979490280151,1.1905980110168457
1666654367.33935189,175549764,42.730804899999995,-84.49052449999999,226.70999145507812,1.883068323135376,1.1930683851242065
1666654367.38020086,175590613,42.730804899999995,-84.49052449999999,226.70999145507812,1.8846936225891113,1.194693684577942
1666654367.38032699,175590739,42.730804899999995,-84.49052449999999,226.70999145507812,1.8846936225891113,1.194693684577942
1666654367.41990805,175630320,42.730805,-84.4905244,226.70999145507812,1.886916995048523,1.1969170570373535
1666654367.45938206,175669794,42.7308051,-84.4905244,226.70999145507812,1.8890429735183716,1.1990430355072021
1666654367.47999597,175690408,42.7308051,-84.49052429999999,226.70999145507812,1.8896430730819702,1.1996431350708008
1666654367.49939895,175709811,42.7308051,-84.49052429999999,226.72000122070312,1.8907824754714966,1.2007825374603271
1666654367.53940892,175749821,42.7308051,-84.49052429999999,226.72000122070312,1.8924763202667236,1.2024763822555542
1666654367.57993507,175790347,42.7308052,-84.49052429999999,226.72000122070312,1.8937827348709106,1.2037827968597412
1666654367.58015609,175790568,42.7308052,-84.49052429999999,226.72000122070312,1.8937827348709106,1.2037827968597412
1666654367.61997604,175830388,42.7308052,-84.49052429999999,226.72000122070312,1.8945451974868774,1.204545259475708
1666654367.65942407,175869836,42.7308053,-84.49052429999999,226.72000122070312,1.8949531316757202,1.2049531936645508
1666654367.67985296,175890265,42.7308053,-84.49052429999999,226.72000122070312,1.8949397802352905,1.204939842224121
1666654367.69948006,175909892,42.7308053,-84.49052429999999,226.72000122070312,1.8951054811477661,1.2051055431365967
1666654367.73943090,175949843,42.7308053,-84.49052429999999,226.72000122070312,1.8952292203903198,1.2052292823791504
1666654367.77988791,175990300,42.7308054,-84.49052429999999,226.72000122070312,1.8950012922286987,1.2050013542175293
1666654367.77995992,175990372,42.7308054,-84.49052429999999,226.72000122070312,1.8950012922286987,1.2050013542175293
1666654367.81990504,176030317,42.7308054,-84.49052429999999,226.72000122070312,1.8932678699493408,1.2032679319381714
1666654367.85938406,176069796,42.7308054,-84.49052429999999,226.72000122070312,1.8908638954162598,1.2008639574050903
1666654367.87997198,176090384,42.7308054,-84.49052429999999,226.70999145507812,1.8893531560897827,1.1993532180786133
1666654367.89941096,176109823,42.7308054,-84.49052429999999,226.70999145507812,1.8881654739379883,1.1981655359268188
1666654367.93938804,176149800,42.7308054,-84.49052429999999,226.70999145507812,1.885255217552185,1.1952552795410156
1666654367.98005605,176190468,42.7308054,-84.4905242,226.70999145507812,1.8819279670715332,1.1919280290603638
1666654367.98020005,176190612,42.7308054,-84.4905242,226.70999145507812,1.8819279670715332,1.1919280290603638
1666654368.01993108,176230343,42.7308054,-84.4905242,226.6999969482422,1.8772395849227905,1.187239646911621
1666654368.05938506,176269797,42.7308054,-84.4905242,226.6999969482422,1.8720605373382568,1.1820605993270874
1666654368.07995105,176290363,42.730805499999995,-84.4905242,226.69000244140625,1.8691139221191406,1.1791139841079712
1666654368.09940195,176309814,42.730805499999995,-84.4905242,226.69000244140625,1.8667020797729492,1.1767021417617798
1666654368.13938594,176349798,42.730805499999995,-84.4905242,226.69000244140625,1.8615617752075195,1.17156183719635
1666654368.17999697,176390409,42.730805499999995,-84.4905241,226.67999267578125,1.8564215898513794,1.16642165184021
1666654368.18009901,176390511,42.730805499999995,-84.4905241,226.67999267578125,1.8564215898513794,1.16642165184021
1666654368.22017908,176430591,42.730805499999995,-84.4905241,226.67999267578125,1.8506513833999634,1.160651445388794
1666654368.25935102,176469763,42.730805499999995,-84.4905241,226.6699981689453,1.8447864055633545,1.154786467552185
1666654368.28000498,176490417,42.730805499999995,-84.490524,226.6699981689453,1.8418110609054565,1.151811122894287
1666654368.29939294,176509805,42.730805499999995,-84.490524,226.6599884033203,1.8388075828552246,1.1488076448440552
1666654368.33936787,176549780,42.730805499999995,-84.490524,226.6599884033203,1.8327888250350952,1.1427888870239258
1666654368.38002586,176590438,42.730805499999995,-84.490524,226.64999389648438,1.8267319202423096,1.1367319822311401
1666654368.38009691,176590509,42.730805499999995,-84.490524,226.64999389648438,1.8267319202423096,1.1367319822311401
1666654368.42002988,176630442,42.730805499999995,-84.4905239,226.63999938964844,1.819414496421814,1.1294145584106445
1666654368.45943904,176669851,42.730805499999995,-84.4905239,226.63999938964844,1.8114993572235107,1.1214994192123413
1666654368.48004794,176690460,42.730805499999995,-84.49052379999999,226.62998962402344,1.8072282075881958,1.1172282695770264
1666654368.49933791,176709750,42.7308054,-84.49052379999999,226.62998962402344,1.8033901453018188,1.1133902072906494
1666654368.53941298,176749825,42.7308054,-84.49052379999999,226.6199951171875,1.7954670190811157,1.1054670810699463
1666654368.58006287,176790475,42.7308054,-84.49052379999999,226.61000061035156,1.787337064743042,1.0973371267318726
1666654368.58017492,176790587,42.7308054,-84.49052379999999,226.61000061035156,1.787337064743042,1.0973371267318726
1666654368.61999393,176830406,42.7308054,-84.49052379999999,226.59999084472656,1.778334617614746,1.0883346796035767
1666654368.65939808,176869810,42.7308053,-84.49052379999999,226.58999633789062,1.7691211700439453,1.0791212320327759
1666654368.67988491,176890297,42.7308053,-84.4905237,226.58999633789062,1.764277696609497,1.0742777585983276
1666654368.69930601,176909718,42.7308053,-84.4905237,226.5800018310547,1.7597730159759521,1.0697730779647827
1666654368.73935294,176949765,42.7308053,-84.4905237,226.5800018310547,1.7508594989776611,1.0608595609664917
1666654368.77990508,176990317,42.7308053,-84.4905236,226.5699920654297,1.7422339916229248,1.0522340536117554
1666654368.77997804,176990390,42.7308053,-84.4905236,226.5699920654297,1.7422339916229248,1.0522340536117554
1666654368.82006907,177030481,42.7308052,-84.4905236,226.55999755859375,1.7334203720092773,1.043420433998108
1666654368.85937190,177069784,42.7308052,-84.4905236,226.54998779296875,1.7246451377868652,1.0346451997756958
1666654368.87984586,177090258,42.7308051,-84.4905235,226.54998779296875,1.720085859298706,1.0300859212875366
1666654368.89939499,177109807,42.7308051,-84.4905235,226.5399932861328,1.7157844305038452,1.0257844924926758
1666654368.93930387,177149716,42.730805,-84.4905235,226.52999877929688,1.7072645425796509,1.0172646045684814
1666654368.98012400,177190536,42.730804899999995,-84.4905234,226.51998901367188,1.6991550922393799,1.0091551542282104
1666654368.98020291,177190615,42.730804899999995,-84.4905234,226.51998901367188,1.6991550922393799,1.0091551542282104
1666654369.01999402,177230406,42.7308048,-84.4905234,226.51998901367188,1.690341830253601,1.0003418922424316
1666654369.05955386,177269966,42.7308048,-84.4905234,226.50999450683594,1.6819398403167725,0.991939902305603
1666654369.07988691,177290299,42.7308047,-84.4905234,226.5,1.6777324676513672,0.987732470035553
1666654369.09938598,177309798,42.7308047,-84.4905234,226.5,1.673580288887024,0.9835802912712097
1666654369.13940287,177349815,42.7308046,-84.4905234,226.489990234375,1.665510892868042,0.9755109548568726
1666654369.17995787,177390370,42.7308045,-84.4905234,226.47999572753906,1.6576712131500244,0.9676712155342102
1666654369.18013000,177390542,42.7308045,-84.4905234,226.47999572753906,1.6576712131500244,0.9676712155342102
1666654369.21986794,177430280,42.7308044,-84.49052329999999,226.47000122070312,1.64784574508667,0.9578458070755005
1666654369.25942802,177469840,42.7308044,-84.4905232,226.45999145507812,1.637669324874878,0.9476693272590637
1666654369.27985597,177490268,42.7308044,-84.4905232,226.45999145507812,1.6323676109313965,0.942367672920227
1666654369.29946089,177509873,42.730804299999996,-84.4905232,226.4499969482422,1.62763512134552,0.9376351833343506
1666654369.33937907,177549791,42.730804299999996,-84.4905232,226.44000244140625,1.6175693273544312,0.9275693297386169
1666654369.37998486,177590397,42.7308042,-84.49052309999999,226.42999267578125,1.6071830987930298,0.9171831011772156
1666654369.38011408,177590526,42.7308042,-84.49052309999999,226.42999267578125,1.6071830987930298,0.9171831011772156
1666654369.41993308,177630345,42.7308042,-84.49052309999999,226.4199981689453,1.5963048934936523,0.9063049554824829
1666654369.45940590,177669818,42.7308041,-84.490523,226.4099884033203,1.5854824781417847,0.8954825401306152
1666654369.48021603,177690628,42.7308041,-84.490523,226.4099884033203,1.5800811052322388,0.8900811076164246
1666654369.49944186,177709854,42.7308041,-84.490523,226.39999389648438,1.5748127698898315,0.8848127722740173
1666654369.53950500,177749917,42.7308041,-84.490523,226.38999938964844,1.5647380352020264,0.8747380375862122
1666654369.58003092,177790443,42.730804,-84.490523,226.37998962402344,1.554844856262207,0.8648448586463928
1666654369.58010292,177790515,42.730804,-84.490523,226.37998962402344,1.554844856262207,0.8648448586463928
1666654369.61993408,177830346,42.730804,-84.4905229,226.3699951171875,1.543674349784851,0.8536743521690369
1666654369.65941787,177869830,42.7308041,-84.4905229,226.36000061035156,1.5336616039276123,0.8436616659164429
1666654369.67996693,177890379,42.7308041,-84.4905229,226.34999084472656,1.5288689136505127,0.8388689160346985
1666654369.69937587,177909788,42.7308041,-84.4905229,226.34999084472656,1.5238429307937622,0.8338429927825928
1666654369.73940396,177949816,42.7308041,-84.4905228,226.33999633789062,1.515163540840149,0.8251636028289795
1666654369.77995205,177990364,42.7308041,-84.4905228,226.3300018310547,1.5071951150894165,0.8171951174736023
1666654369.78006387,177990476,42.7308041,-84.4905228,226.3300018310547,1.5071951150894165,0.8171951174736023
1666654369.81997108,178030383,42.7308041,-84.4905227,226.3199920654297,1.4985785484313965,0.8085785508155823
1666654369.85930204,178069714,42.7308041,-84.49052259999999,226.3199920654297,1.490181565284729,0.8001816272735596
1666654369.87994695,178090359,42.7308041,-84.49052259999999,226.30999755859375,1.4862494468688965,0.796249508857727
1666654369.89945102,178109863,42.7308041,-84.49052259999999,226.30999755859375,1.4818187952041626,0.7918187975883484
1666654369.93933797,178149750,42.7308041,-84.4905225,226.29998779296875,1.4740229845046997,0.7840229868888855
1666654369.98015499,178190567,42.7308041,-84.4905225,226.2899932861328,1.4670202732086182,0.777020275592804
1666654369.98022699,178190639,42.7308041,-84.4905225,226.2899932861328,1.4670202732086182,0.777020275592804
1666654370.02004194,178230454,42.7308041,-84.4905225,226.27999877929688,1.4596389532089233,0.7696389555931091
1666654370.05939507,178269807,42.7308041,-84.4905224,226.27999877929688,1.4529229402542114,0.7629229426383972
1666654370.08001900,178290431,42.730804,-84.4905224,226.27999877929688,1.4499903917312622,0.759990394115448
1666654370.09929800,178309710,42.730804,-84.4905224,226.26998901367188,1.446003794670105,0.7560038566589355
1666654370.13937998,178349792,42.730804,-84.4905224,226.25999450683594,1.4397504329681396,0.7497504353523254
1666654370.18001986,178390432,42.7308039,-84.4905224,226.25999450683594,1.4345073699951172,0.744507372379303
1666654370.18009090,178390503,42.7308039,-84.4905224,226.25999450683594,1.4345073699951172,0.744507372379303
1666654370.22002006,178430432,42.7308039,-84.4905224,226.25,1.4281517267227173,0.7381517887115479
1666654370.25946999,178469882,42.7308039,-84.4905225,226.25,1.4218860864639282,0.731886088848114
1666654370.27989006,178490302,42.7308038,-84.4905225,226.239990234375,1.4187572002410889,0.7287572622299194
1666654370.29934406,178509756,42.7308038,-84.4905225,226.239990234375,1.4148547649383545,0.7248548269271851
1666654370.33930087,178549713,42.7308038,-84.4905225,226.22999572753906,1.4083645343780518,0.7183645367622375
1666654370.37995887,178590371,42.7308038,-84.4905225,226.22999572753906,1.403049111366272,0.7130491733551025
1666654370.38013506,178590547,42.7308038,-84.4905225,226.22999572753906,1.403049111366272,0.7130491733551025
1666654370.42000103,178630413,42.7308038,-84.4905225,226.22000122070312,1.3946233987808228,0.7046234607696533
1666654370.45938492,178669797,42.730803699999996,-84.4905225,226.20999145507812,1.3872417211532593,0.6972417831420898
1666654370.47996306,178690375,42.730803699999996,-84.4905225,226.20999145507812,1.383541464805603,0.6935415267944336
1666654370.49954891,178709961,42.730803699999996,-84.4905225,226.1999969482422,1.3794833421707153,0.6894833445549011
1666654370.53933001,178749742,42.730803699999996,-84.4905225,226.1999969482422,1.3727128505706787,0.6827128529548645
1666654370.58000898,178790421,42.730803699999996,-84.4905225,226.19000244140625,1.3669352531433105,0.6769352555274963
1666654370.58015704,178790569,42.730803699999996,-84.4905225,226.19000244140625,1.3669352531433105,0.6769352555274963
1666654370.62003994,178830452,42.7308036,-84.4905225,226.17999267578125,1.3591010570526123,0.6691011190414429
1666654370.65940595,178869818,42.7308036,-84.49052259999999,226.17999267578125,1.3513586521148682,0.661358654499054
1666654370.67980409,178890216,42.7308035,-84.49052259999999,226.1699981689453,1.3474305868148804,0.6574305891990662
1666654370.69943309,178909845,42.7308035,-84.49052259999999,226.1699981689453,1.343181848526001,0.6531818509101868
1666654370.73947501,178949887,42.7308035,-84.4905227,226.1599884033203,1.3357526063919067,0.6457526683807373
1666654370.77991486,178990327,42.7308034,-84.4905227,226.14999389648438,1.3291957378387451,0.6391957402229309
1666654370.78003693,178990449,42.7308034,-84.4905227,226.14999389648438,1.3291957378387451,0.6391957402229309
1666654370.81988192,179030294,42.7308033,-84.4905228,226.14999389648438,1.322637915611267,0.6326379776000977
1666654370.85934997,179069762,42.7308033,-84.4905228,226.13999938964844,1.316808819770813,0.6268088817596436
1666654370.87987804,179090290,42.7308033,-84.4905228,226.13999938964844,1.3142907619476318,0.6242907643318176
1666654370.89948797,179109900,42.7308032,-84.4905229,226.13999938964844,1.310510516166687,0.6205105185508728
1666654370.93940306,179149815,42.7308032,-84.4905229,226.12998962402344,1.3046528100967407,0.6146528720855713
1666654370.98019695,179190609,42.730803099999996,-84.490523,226.1199951171875,1.2996304035186768,0.6096304655075073
1666654370.98033309,179190745,42.730803099999996,-84.490523,226.1199951171875,1.2996304035186768,0.6096304655075073
1666654371.01985908,179230271,42.730802999999995,-84.490523,226.1199951171875,1.2946075201034546,0.6046075820922852
1666654371.05937386,179269786,42.730802999999995,-84.490523,226.1199951171875,1.2907108068466187,0.6007108688354492
1666654371.07999587,179290408,42.7308029,-84.490523,226.11000061035156,1.2895153760910034,0.599515438079834
1666654371.09943986,179309852,42.7308029,-84.49052309999999,226.11000061035156,1.2863317728042603,0.5963318347930908
1666654371.13950706,179349919,42.7308028,-84.49052309999999,226.11000061035156,1.2820428609848022,0.592042863368988
1666654371.17995000,179390362,42.7308027,-84.4905232,226.09999084472656,1.2791391611099243,0.5891391634941101
1666654371.18005204,179390464,42.7308027,-84.4905232,226.09999084472656,1.2791391611099243,0.5891391634941101
1666654371.21991706,179430329,42.7308027,-84.4905232,226.09999084472656,1.2738944292068481,0.5838944315910339
1666654371.25931692,179469729,42.7308026,-84.4905232,226.08999633789062,1.2689472436904907,0.5789473056793213
1666654371.27997494,179490387,42.7308026,-84.4905232,226.08999633789062,1.2668994665145874,0.5768994688987732
1666654371.29938006,179509792,42.7308026,-84.4905232,226.08999633789062,1.2632802724838257,0.5732803344726562
1666654371.33947706,179549889,42.730802499999996,-84.49052329999999,226.0800018310547,1.257920742034912,0.5679207444190979
1666654371.38005304,179590465,42.730802499999996,-84.4905234,226.0800018310547,1.2538518905639648,0.5638519525527954
1666654371.38015509,179590567,42.730802499999996,-84.4905234,226.0800018310547,1.2538518905639648,0.5638519525527954
1666654371.41994596,179630358,42.730802399999995,-84.4905234,226.0699920654297,1.2490464448928833,0.5590465068817139
1666654371.45934892,179669761,42.7308022,-84.49052329999999,226.0699920654297,1.2445935010910034,0.5545935034751892
1666654371.48008490,179690497,42.7308022,-84.49052329999999,226.0699920654297,1.2432050704956055,0.5532050728797913
1666654371.49932599,179709738,42.7308021,-84.49052329999999,226.05999755859375,1.2396749258041382,0.549674928188324
