timestamp,TimeUS,C,Q1,Q2,Q3,Q4
1666654356.49865294,164709065,1,0.9958454370498657,0.0034247911535203457,-0.0018075298285111785,-0.09097704291343689
1666654356.53865600,164749068,1,0.9958421587944031,0.0034180437214672565,-0.0017976376693695784,-0.09101351350545883
1666654356.57864404,164789056,1,0.9958410263061523,0.0034109652042388916,-0.0017712963744997978,-0.09102701395750046
1666654356.61863589,164829048,1,0.9958388209342957,0.0034388666972517967,-0.0017529967008158565,-0.09105008095502853
1666654356.65866208,164869074,1,0.995836615562439,0.003418736159801483,-0.0017610302893444896,-0.09107507765293121
1666654356.67861795,164889030,1,0.9958356022834778,0.0034126564860343933,-0.001740874839015305,-0.09108643978834152
1666654356.69866109,164909073,1,0.9958345890045166,0.0034090953413397074,-0.0017370334826409817,-0.09109798073768616
1666654356.73869300,164949105,1,0.9958314895629883,0.003391686826944351,-0.0017104059224948287,-0.09113283455371857
1666654356.77861595,164989028,1,0.9958290457725525,0.003383493982255459,-0.0017037901561707258,-0.09116017073392868
1666654356.81863809,165029050,1,0.9958296418190002,0.0033787766005843878,-0.0016976905753836036,-0.09115397185087204
1666654356.85863805,165069050,1,0.9958271384239197,0.0033761169761419296,-0.0016940584173426032,-0.09118136763572693
1666654356.87868595,165089098,1,0.9958263635635376,0.0033803372643887997,-0.0016615629428997636,-0.0911904126405716
1666654356.89866400,165109076,1,0.9958245754241943,0.0033960926812142134,-0.0016765645705163479,-0.09120910614728928
1666654356.93865490,165149067,1,0.9958242177963257,0.0033783107064664364,-0.001654515159316361,-0.09121394157409668
1666654356.97869492,165189107,1,0.9958222508430481,0.003361739916726947,-0.0016219118842855096,-0.09123679250478745
1666654357.01860809,165229020,1,0.9958176612854004,0.0033505288884043694,-0.0015972174005582929,-0.09128741174936295
1666654357.05864000,165269052,1,0.9958134889602661,0.0033541731536388397,-0.0015912891831248999,-0.09133297204971313
1666654357.07868505,165289097,1,0.9958114624023438,0.0033524343743920326,-0.0015918327262625098,-0.09135499596595764
1666654357.09864497,165309057,1,0.9958100914955139,0.0033503063023090363,-0.0015854500234127045,-0.09137021005153656
1666654357.13866091,165349073,1,0.9958091378211975,0.0033330749720335007,-0.0015677879564464092,-0.09138169139623642
1666654357.17863297,165389045,1,0.9958072900772095,0.003302590688690543,-0.0015562237240374088,-0.09140287339687347
1666654357.21869397,165429106,1,0.9958057999610901,0.0033070549834519625,-0.0015462219016626477,-0.09141898900270462
1666654357.25863695,165469049,1,0.9958046078681946,0.0033021022100001574,-0.001511785201728344,-0.09143330156803131
1666654357.27865696,165489069,1,0.9958044290542603,0.0033042910508811474,-0.001503731356933713,-0.09143532067537308
1666654357.29864287,165509055,1,0.9958040118217468,0.0032943282276391983,-0.00150096055585891,-0.0914401039481163
1666654357.33863401,165549046,1,0.9958022832870483,0.0033093600068241358,-0.0014918956439942122,-0.09145868569612503
1666654357.37865496,165589067,1,0.9958005547523499,0.0033050517085939646,-0.0015002985019236803,-0.09147705137729645
1666654357.41869092,165629103,1,0.9958014488220215,0.003291031578555703,-0.0015163773205131292,-0.09146777540445328
1666654357.45867705,165669089,1,0.9958008527755737,0.0032744661439210176,-0.0015095202252268791,-0.09147519618272781
1666654357.47866488,165689077,1,0.9958012104034424,0.0032757818698883057,-0.0014958217507228255,-0.09147129952907562
1666654357.49866390,165709076,1,0.99579918384552,0.003272036788985133,-0.0014906226424500346,-0.0914931669831276
1666654357.53863597,165749048,1,0.9957969188690186,0.0032688560895621777,-0.001449618604965508,-0.09151879698038101
1666654357.57866788,165789080,1,0.9957979917526245,0.0032745215576142073,-0.0014301248593255877,-0.09150725603103638
1666654357.61866403,165829076,1,0.9957981109619141,0.0032590841874480247,-0.001405293238349259,-0.09150677919387817
1666654357.65871596,165869128,1,0.9957980513572693,0.0032619605772197247,-0.001395396189764142,-0.0915076956152916
1666654357.67863488,165889047,1,0.9957978129386902,0.0032612269278615713,-0.001398754771798849,-0.09151046723127365
1666654357.69860792,165909020,1,0.9957976937294006,0.003260691650211811,-0.001401780522428453,-0.09151124209165573
1666654357.73863888,165949051,1,0.9957998394966125,0.0032411403954029083,-0.0014036090578883886,-0.09148913621902466
1666654357.77864695,165989059,1,0.9958025813102722,0.0032340253237634897,-0.0013879472389817238,-0.09145966172218323
1666654357.81866503,166029077,1,0.9958023428916931,0.0032462356612086296,-0.0013675970258191228,-0.09146179258823395
1666654357.85865998,166069072,1,0.9958044290542603,0.0032620106358081102,-0.0013671059859916568,-0.09143894165754318
1666654357.87863493,166089047,1,0.9958050847053528,0.00325035466812551,-0.0013582765823230147,-0.09143214672803879
1666654357.89869094,166109103,1,0.995805025100708,0.003258492797613144,-0.0013512030709534883,-0.09143280982971191
1666654357.93864202,166149054,1,0.9958062171936035,0.003267596010118723,-0.0013328362256288528,-0.09141934663057327
1666654357.97864294,166189055,1,0.9958051443099976,0.003297914285212755,-0.0013169391313567758,-0.09143031388521194
1666654358.01863694,166229049,1,0.9958049654960632,0.0033330561127513647,-0.0013007114175707102,-0.09143111854791641
1666654358.05866599,166269078,1,0.9958040714263916,0.0033423257991671562,-0.001305010518990457,-0.0914405807852745
1666654358.07864189,166289054,1,0.9958030581474304,0.0033423122949898243,-0.0013066913234069943,-0.09145180881023407
1666654358.09862494,166309037,1,0.9958027601242065,0.0033301967196166515,-0.0013128741411492229,-0.09145504981279373
1666654358.13867402,166349086,1,0.9958037734031677,0.0033357988577336073,-0.001337365247309208,-0.09144355356693268
1666654358.17863488,166389047,1,0.9958029389381409,0.003361003240570426,-0.001347854034975171,-0.0914517194032669
1666654358.21863794,166429050,1,0.9958024621009827,0.003363140160217881,-0.0013569921720772982,-0.09145654737949371
1666654358.25866199,166469074,1,0.9958051443099976,0.003365511307492852,-0.001353282481431961,-0.09142762422561646
1666654358.27864695,166489059,1,0.9958081841468811,0.003359611378982663,-0.001354513457044959,-0.09139441698789597
1666654358.29866195,166509074,1,0.9958085417747498,0.003364969976246357,-0.0013567341957241297,-0.09139043837785721
1666654358.33869290,166549105,1,0.9958081245422363,0.0033793370239436626,-0.0013860518811270595,-0.09139354526996613
1666654358.37866807,166589080,1,0.995807945728302,0.0033892514184117317,-0.0013881135964766145,-0.09139512479305267
1666654358.41863799,166629050,1,0.9958087205886841,0.0033989420626312494,-0.0014112006174400449,-0.09138655662536621
1666654358.45863700,166669049,1,0.9958072900772095,0.0034100483171641827,-0.001428502844646573,-0.09140121191740036
1666654358.47869587,166689108,1,0.9958060383796692,0.00341643369756639,-0.0014383337693288922,-0.09141433238983154
1666654358.49866486,166709077,1,0.9958066344261169,0.0034291355405002832,-0.0014367447001859546,-0.09140720218420029
1666654358.53866291,166749075,1,0.9958047866821289,0.0034310470800846815,-0.0014651119709014893,-0.09142674505710602
1666654358.57870388,166789116,1,0.995803713798523,0.003456476144492626,-0.00148304202593863,-0.09143757075071335
1666654358.61863899,166829051,1,0.9958016276359558,0.003471595700830221,-0.0015011699870228767,-0.09145946055650711
1666654358.65863609,166869048,1,0.9958010911941528,0.0034735850058496,-0.001532128662802279,-0.09146460890769958
1666654358.67869401,166889106,1,0.9958019852638245,0.0034776993561536074,-0.0015466734766960144,-0.09145478159189224
1666654358.69863892,166909051,1,0.9958029389381409,0.003463911823928356,-0.0015534776030108333,-0.09144467115402222
1666654358.73865795,166949070,1,0.9958004355430603,0.003458103397861123,-0.0015774354105815291,-0.09147173166275024
1666654358.77864599,166989058,1,0.995798647403717,0.0034887322690337896,-0.001585626625455916,-0.0914895236492157
1666654358.81869102,167029103,1,0.9957963824272156,0.0035077740903943777,-0.0016301454743370414,-0.09151309728622437
1666654358.85865808,167069070,1,0.9957959055900574,0.0035295095294713974,-0.001640336005948484,-0.09151679277420044
1666654358.87867308,167089085,1,0.995793342590332,0.0035307500511407852,-0.0016473273281008005,-0.09154466539621353
1666654358.89863706,167109049,1,0.9957901835441589,0.0035412367433309555,-0.0016723242588341236,-0.09157825261354446
1666654358.93863893,167149051,1,0.9957907795906067,0.0035634085070341825,-0.0016847673105075955,-0.09157083928585052
1666654358.97866702,167189079,1,0.9957876801490784,0.0035790412221103907,-0.001695692422799766,-0.09160345047712326
1666654359.01868486,167229097,1,0.9957852959632874,0.003590286709368229,-0.001716985716484487,-0.09162884950637817
1666654359.05867696,167269089,1,0.9957826733589172,0.003613104810938239,-0.0017191399820148945,-0.09165648370981216
1666654359.07867098,167289083,1,0.9957812428474426,0.0036179216112941504,-0.0017390104476362467,-0.09167138487100601
1666654359.09864902,167309061,1,0.9957793354988098,0.003623229218646884,-0.0017479774542152882,-0.09169179946184158
1666654359.13862991,167349042,1,0.9957762956619263,0.0036615103017538786,-0.001762407599017024,-0.09172246605157852
1666654359.17867804,167389090,1,0.995776355266571,0.0036719441413879395,-0.001764618675224483,-0.09172135591506958
1666654359.21864700,167429059,1,0.9957751631736755,0.0036956965923309326,-0.0017820398788899183,-0.09173306822776794
1666654359.25869799,167469110,1,0.9957756400108337,0.003725816495716572,-0.0018004869343712926,-0.0917266234755516
1666654359.27863908,167489051,1,0.9957772493362427,0.0037303410936146975,-0.0017890951130539179,-0.09170899540185928
1666654359.29864407,167509056,1,0.9957756996154785,0.0037341120187193155,-0.00179287267383188,-0.09172552824020386
1666654359.33864093,167549053,1,0.9957687258720398,0.003750741947442293,-0.0018385116709396243,-0.09179946780204773
1666654359.37864399,167589056,1,0.9957752227783203,0.0037293159402906895,-0.0018558528972789645,-0.09172963351011276
1666654359.41866493,167629077,1,0.9957785606384277,0.003797930898144841,-0.0019208731828257442,-0.0916890874505043
1666654359.45866704,167669079,1,0.9957798719406128,0.0037605296820402145,-0.0019373935647308826,-0.09167638421058655
1666654359.47864103,167689053,1,0.9957790970802307,0.0038057067431509495,-0.0019394094124436378,-0.091682568192482
1666654359.49867892,167709091,1,0.9957805275917053,0.0037799715064466,-0.0019295456586405635,-0.09166883677244186
1666654359.53861904,167749031,1,0.9957793354988098,0.0037670976016670465,-0.0019384640036150813,-0.0916820615530014
1666654359.57864308,167789055,1,0.9957765936851501,0.0037713281344622374,-0.0019392921822145581,-0.0917116031050682
1666654359.61865401,167829066,1,0.9957708120346069,0.003807574510574341,-0.0019253706559538841,-0.0917729064822197
1666654359.65867186,167869084,1,0.9957670569419861,0.00384483952075243,-0.0019391069654375315,-0.09181208908557892
1666654359.67864299,167889055,1,0.9957670569419861,0.0038735929410904646,-0.001952017773874104,-0.0918102040886879
1666654359.69865203,167909064,1,0.9957703351974487,0.003882846562191844,-0.001961513189598918,-0.09177423268556595
1666654359.73866892,167949081,1,0.9957780241966248,0.0038832491263747215,-0.0019842912442982197,-0.0916903167963028
1666654359.77864099,167989053,1,0.9957815408706665,0.0037516832817345858,-0.0019853285048156977,-0.0916573703289032
1666654359.81863904,168029051,1,0.99578857421875,0.00364457699470222,-0.0019633746705949306,-0.09158562123775482
1666654359.85865498,168069067,1,0.9957908391952515,0.00363185559399426,-0.002028831047937274,-0.09156060218811035
1666654359.87862706,168089039,1,0.9957861304283142,0.00381780625320971,-0.002006244845688343,-0.09160454571247101
1666654359.89866686,168109079,1,0.9957829713821411,0.0038917227648198605,-0.001991167664527893,-0.0916362777352333
1666654359.93869305,168149105,1,0.9957858920097351,0.0038299760781228542,-0.002123631304129958,-0.09160412847995758
1666654359.97866297,168189075,1,0.9957842826843262,0.0036463371943682432,-0.0020397568587213755,-0.09163068979978561
1666654360.01864290,168229055,1,0.9957788586616516,0.003810704918578267,-0.002071589231491089,-0.09168203175067902
1666654360.05864286,168269055,1,0.9957928657531738,0.0038471666630357504,-0.002017824910581112,-0.09153001755475998
1666654360.07869887,168289111,1,0.9957893490791321,0.0036788915749639273,-0.002154942601919174,-0.09157180041074753
1666654360.09867096,168309083,1,0.9957917928695679,0.003789785783737898,-0.002182204043492675,-0.09154015779495239
1666654360.13866687,168349079,1,0.995795726776123,0.003842014353722334,-0.002100276295095682,-0.09149707853794098
1666654360.17868996,168389102,1,0.995804488658905,0.004129689186811447,-0.0021816969383507967,-0.09138736128807068
1666654360.21864009,168429052,1,0.9958061575889587,0.0036847314331680536,-0.0020668990910053253,-0.09139043092727661
1666654360.25864291,168469055,1,0.9957998394966125,0.004139251075685024,-0.0021475001703947783,-0.0914381593465805
1666654360.27862597,168489038,1,0.9958024024963379,0.0037992990110069513,-0.0021338709630072117,-0.09142535924911499
1666654360.29864097,168509053,1,0.9958095550537109,0.003801780752837658,-0.0020926506258547306,-0.09134850651025772
1666654360.33866906,168549081,1,0.9958105087280273,0.0037078717723488808,-0.0020685638301074505,-0.09134197980165482
1666654360.37865901,168589071,1,0.9958192706108093,0.0042115082032978535,-0.0021783693227916956,-0.09122209995985031
1666654360.41868997,168629102,1,0.9958254098892212,0.0038112737238407135,-0.0021487248595803976,-0.09117365628480911
1666654360.45863509,168669047,1,0.9958239793777466,0.003976942040026188,-0.0022360330913215876,-0.09118003398180008
1666654360.47868705,168689099,1,0.9958245754241943,0.003826834261417389,-0.0022231850307434797,-0.09118025004863739
1666654360.49864793,168709060,1,0.9958192110061646,0.0039667836390435696,-0.0022005061618983746,-0.09123332798480988
1666654360.53864908,168749061,1,0.9958168268203735,0.003957550972700119,-0.0021895573008805513,-0.09125997126102448
1666654360.57866597,168789078,1,0.9958198070526123,0.0038072639144957066,-0.0022557592019438744,-0.09123211354017258
1666654360.61863708,168829049,1,0.9958215355873108,0.004007100127637386,-0.002204000251367688,-0.09120593965053558
1666654360.65868807,168869100,1,0.9958261847496033,0.004079773556441069,-0.0022975027095526457,-0.09114956110715866
1666654360.67865705,168889069,1,0.9958265423774719,0.004173195455223322,-0.002291465178132057,-0.09114158153533936
1666654360.69864392,168909056,1,0.9958295822143555,0.003991118632256985,-0.0022700137924402952,-0.09111733734607697
1666654360.73864293,168949055,1,0.9958340525627136,0.00410511065274477,-0.0023248037323355675,-0.09106167405843735
1666654360.77866888,168989081,1,0.9958351254463196,0.004003324545919895,-0.0022950726561248302,-0.09105540812015533
1666654360.81867003,169029082,1,0.9958354830741882,0.00400153361260891,-0.0023514037020504475,-0.0910501703619957
1666654360.85869598,169069108,1,0.9958337545394897,0.003996436484158039,-0.0023579455446451902,-0.09106908738613129
1666654360.87864399,169089056,1,0.9958366751670837,0.004010013770312071,-0.0023446024861186743,-0.09103701263666153
1666654360.89865494,169109067,1,0.9958364963531494,0.0039239563047885895,-0.002342361956834793,-0.09104254841804504
1666654360.93864393,169149056,1,0.9958373308181763,0.004027542658150196,-0.00232921470887959,-0.09102947264909744
1666654360.97864199,169189054,1,0.9958480596542358,0.004255206324160099,-0.002380046062171459,-0.09090021252632141
1666654361.01866794,169229080,1,0.9958465695381165,0.004104226361960173,-0.002387341344729066,-0.09092318266630173
1666654361.05866909,169269081,1,0.9958458542823792,0.004005935974419117,-0.0023813636507838964,-0.09093581140041351
1666654361.07864189,169289054,1,0.9958431124687195,0.0039208377711474895,-0.002331692026928067,-0.09097104519605637
1666654361.09869504,169309107,1,0.9958410263061523,0.004177751485258341,-0.002429710002616048,-0.09097995609045029
1666654361.13867092,169349083,1,0.9958370923995972,0.004348536487668753,-0.0023714599665254354,-0.09101618081331253
1666654361.17864203,169389054,1,0.9958507418632507,0.004268973134458065,-0.002455168403685093,-0.09086830168962479
1666654361.21863103,169429043,1,0.9958508610725403,0.004074296448379755,-0.0023441584780812263,-0.09087909758090973
1666654361.25866795,169469080,1,0.9958623647689819,0.004332580603659153,-0.0022176625207066536,-0.09074404835700989
1666654361.27864599,169489058,1,0.9958624839782715,0.004096018150448799,-0.0023905502166599035,-0.09074942022562027
1666654361.29864001,169509052,1,0.9958683848381042,0.004376178607344627,-0.002336423145607114,-0.09067299962043762
1666654361.33869505,169549107,1,0.9958630204200745,0.0044548180885612965,-0.0024451010394841433,-0.09072528779506683
1666654361.37863588,169589048,1,0.9958614706993103,0.004573834594339132,-0.0023209431674331427,-0.0907394289970398
1666654361.41864395,169629056,1,0.9958564639091492,0.00423876428976655,-0.002507263794541359,-0.09080550819635391
1666654361.45864391,169669056,1,0.9958623647689819,0.003956048283725977,-0.0022478909231722355,-0.09076062589883804
1666654361.47864103,169689053,1,0.9958679676055908,0.004472300410270691,-0.002410405082628131,-0.0906708613038063
1666654361.49867988,169709092,1,0.9958675503730774,0.004213081207126379,-0.0024160549510270357,-0.09068772941827774
1666654361.53866792,169749080,1,0.995884895324707,0.0041205426678061485,-0.0022825070191174746,-0.09050452709197998
1666654361.57866788,169789080,1,0.9958948493003845,0.004622999113053083,-0.0025690102484077215,-0.09036311507225037
1666654361.61864495,169829057,1,0.9959131479263306,0.003846539882943034,-0.0023723822087049484,-0.090203195810318
1666654361.65863991,169869052,1,0.995936393737793,0.0044038016349077225,-0.0023081498220562935,-0.089922234416008
1666654361.67869306,169889105,1,0.9959500432014465,0.004277743864804506,-0.0024665785022079945,-0.08977282792329788
1666654361.69867396,169909086,1,0.99595046043396,0.004127047024667263,-0.002459559589624405,-0.08977524191141129
1666654361.73866701,169949079,1,0.9959662556648254,0.004114086739718914,-0.0022242304403334856,-0.089606374502182
1666654361.77871990,169989132,1,0.9959891438484192,0.004262599162757397,-0.0022115164902061224,-0.08934543281793594
1666654361.81865287,170029065,1,0.9960160851478577,0.004432714078575373,-0.002371534937992692,-0.08903161436319351
1666654361.85866594,170069078,1,0.9960493445396423,0.004540484864264727,-0.002267966978251934,-0.08865600824356079
1666654361.87864494,170089057,1,0.996059000492096,0.0043205274268984795,-0.0022699758410453796,-0.08855902403593063
1666654361.89864206,170109054,1,0.99607253074646,0.004608879331499338,-0.0023784784134477377,-0.08838879317045212
1666654361.93866587,170149078,1,0.9961099624633789,0.004288891796022654,-0.002423229394480586,-0.08798104524612427
1666654361.97866702,170189079,1,0.9961446523666382,0.004362603649497032,-0.0024391126353293657,-0.08758354187011719
1666654362.01870704,170229119,1,0.9961777925491333,0.004100138321518898,-0.0023543976712971926,-0.08722101151943207
1666654362.05862093,170269033,1,0.9962177276611328,0.004233931191265583,-0.0023253457620739937,-0.08675789088010788
1666654362.07866406,170289076,1,0.9962376952171326,0.004148852080106735,-0.0023447684943675995,-0.08653207868337631
1666654362.09865308,170309065,1,0.996251106262207,0.004059957340359688,-0.0024799827951937914,-0.08637750893831253
1666654362.13863897,170349051,1,0.9962878227233887,0.003816288197413087,-0.0024812074843794107,-0.08596391975879669
1666654362.17866492,170389077,1,0.9963221549987793,0.00388348032720387,-0.0024646231904625893,-0.08556319028139114
1666654362.21865201,170429064,1,0.9963559508323669,0.004410898312926292,-0.0023272940889000893,-0.08514650166034698
1666654362.25871086,170469123,1,0.9963855743408203,0.004202163312584162,-0.0021753236651420593,-0.08481396734714508
1666654362.27867103,170489083,1,0.9964051842689514,0.004697947297245264,-0.002182350493967533,-0.0845571905374527
1666654362.29866195,170509074,1,0.9964269399642944,0.004829892888665199,-0.0019456177251413465,-0.08429879695177078
1666654362.33864808,170549060,1,0.9964619278907776,0.004144905600696802,-0.002081371145322919,-0.08391765505075455
1666654362.37864089,170589053,1,0.9964976906776428,0.00412738136947155,-0.001743266242556274,-0.08350012451410294
1666654362.41866207,170629074,1,0.9965324997901917,0.0041279541328549385,-0.0017182775773108006,-0.08308430761098862
1666654362.45865297,170669065,1,0.9965795874595642,0.003955874126404524,-0.0011087021557614207,-0.08253655582666397
1666654362.47864008,170689052,1,0.9965947270393372,0.004437550902366638,-0.0007835269789211452,-0.08233276009559631
1666654362.49868703,170709099,1,0.9966220259666443,0.003800688311457634,-0.0009956802241504192,-0.08203139156103134
1666654362.53864193,170749054,1,0.9966603517532349,0.003451216733083129,-0.0015665466198697686,-0.08157085627317429
1666654362.57864499,170789057,1,0.9966886639595032,0.003091363934800029,-0.001459870021790266,-0.08124054223299026
1666654362.61867809,170829090,1,0.99671870470047,0.001319762086495757,-0.00014374888269230723,-0.08093240112066269
1666654362.65869093,170869103,1,0.9967427849769592,0.00020393900922499597,0.0004660924896597862,-0.08064466714859009
1666654362.67861509,170889027,1,0.9967508316040039,-0.00046684459084644914,-0.00022438859741669148,-0.08054506778717041
1666654362.69869304,170909105,1,0.9967588782310486,-0.0004120747616980225,0.0002557332336436957,-0.0804457813501358
1666654362.73866487,170949077,1,0.996764600276947,-0.0017278684535995126,0.0006396050448529422,-0.08035539090633392
1666654362.77864194,170989054,1,0.9967799782752991,-0.0026604223530739546,0.0006468863575719297,-0.08013875037431717
1666654362.81864405,171029056,1,0.9967799782752991,-0.0024198482278734446,0.0008332504658028483,-0.08014415204524994
1666654362.85866594,171069078,1,0.9967809319496155,-0.0029975143261253834,0.001704716356471181,-0.08009885251522064
1666654362.87864399,171089056,1,0.9967958331108093,-0.0036547884810715914,0.002088901586830616,-0.07987721264362335
1666654362.89867187,171109084,1,0.9967927932739258,-0.00264568068087101,0.0024856836535036564,-0.07994335144758224
1666654362.93869996,171149112,1,0.9967967867851257,-0.0018812228227034211,0.00300833978690207,-0.07989722490310669
1666654362.97864294,171189055,1,0.9967832565307617,-0.0020934937056154013,0.003060464048758149,-0.0800589919090271
1666654363.01864195,171229054,1,0.9967879056930542,-0.001626097597181797,0.0028076190501451492,-0.08002112060785294
1666654363.05864096,171269053,1,0.9967784881591797,-0.0013547131093218923,0.002479750197380781,-0.08015428483486176
1666654363.07865906,171289071,1,0.996772050857544,-0.001761930761858821,0.0031678713858127594,-0.08020162582397461
1666654363.09866786,171309080,1,0.9967706799507141,-0.0012554700952023268,0.0019604517146945,-0.0802672952413559
1666654363.13864207,171349054,1,0.996761679649353,-0.00043169857235625386,0.001218617893755436,-0.08040188997983932
1666654363.17866588,171389078,1,0.9967415928840637,0.00015923996397759765,0.0011675357818603516,-0.08065234869718552
1666654363.21863008,171429042,1,0.9967179894447327,0.00170056929346174,0.0014073011698201299,-0.08092229068279266
1666654363.25865197,171469064,1,0.9967014193534851,0.004963100887835026,0.0006220802315510809,-0.08100167661905289
1666654363.27873397,171489146,1,0.9966631531715393,0.006450669374316931,-0.0001366017386317253,-0.0813693031668663
1666654363.29864097,171509053,1,0.9966534376144409,0.00690529914572835,0.0001974433835130185,-0.08145034313201904
1666654363.33866787,171549080,1,0.9966155886650085,0.008829720318317413,3.1162896902969806e-06,-0.08172743022441864
1666654363.37870288,171589115,1,0.9965698719024658,0.010341828688979149,-0.0004562952963169664,-0.08210541307926178
1666654363.41865087,171629063,1,0.9965365529060364,0.010143742896616459,-0.0006350926123559475,-0.08253274112939835
1666654363.45864105,171669053,1,0.9965211153030396,0.007683910895138979,-0.0004318414139561355,-0.08298429846763611
1666654363.47865009,171689062,1,0.9965344667434692,0.005864734761416912,0.00041143226553685963,-0.08297298103570938
1666654363.49864101,171709053,1,0.9965036511421204,0.005402728449553251,-0.0003436417900957167,-0.08337373286485672
1666654363.53866792,171749080,1,0.21000757813453674,0.0022842332255095243,0.0071660908870399,0.9776708483695984
1666654363.57867908,171789091,1,0.21052663028240204,0.0021930441725999117,0.007356660440564156,0.9775579571723938
1666654363.61870503,171829117,1,0.2110251933336258,0.002282519359141588,0.009581631049513817,0.9774309992790222
1666654363.65866089,171869073,1,0.21000610291957855,0.0022107427939772606,0.01110354345291853,0.9776345491409302
1666654363.67866993,171889082,1,0.20927196741104126,0.002627237467095256,0.011543745175004005,0.9777858257293701
1666654363.69863987,171909052,1,0.20878906548023224,0.0030213131103664637,0.011456807143986225,0.9778889417648315
1666654363.73864508,171949057,1,0.2069738209247589,0.003232200164347887,0.012396097183227539,0.9782626032829285
1666654363.77866507,171989077,1,0.20440469682216644,0.0029445006512105465,0.012558141723275185,0.9788014888763428
1666654363.81867099,172029083,1,0.201773539185524,0.0029122282285243273,0.012164386920630932,0.9793523550033569
1666654363.85869694,172069109,1,0.19825083017349243,0.0025691771879792213,0.011519159190356731,0.980080246925354
1666654363.87867808,172089090,1,0.19671830534934998,0.0032795893494039774,0.010801305994391441,0.9803950786590576
1666654363.89866590,172109078,1,0.1949976682662964,0.0026467398274689913,0.008984623476862907,0.9807589650154114
1666654363.93867588,172149088,1,0.1920965611934662,0.0027355968486517668,0.00738169252872467,0.98134446144104
1666654363.97864199,172189054,1,0.1896817535161972,0.0026708284858614206,0.006115667521953583,0.9818229675292969
1666654364.01867795,172229090,1,0.18765708804130554,0.002135954797267914,0.005066416691988707,0.9822192192077637
1666654364.05863500,172269047,1,0.18570689857006073,0.0016020991606637836,0.0042773461900651455,0.9825945496559143
1666654364.07864189,172289054,1,0.18484680354595184,0.002482340671122074,0.004357699304819107,0.9827545285224915
1666654364.09871101,172309123,1,0.18404722213745117,0.0017585611203685403,0.003571368521079421,0.9829093217849731
1666654364.13862801,172349040,1,0.182965949177742,0.001982739893719554,0.00267557124607265,0.9831135869026184
1666654364.17864490,172389057,1,0.1821766495704651,0.002102453727275133,0.0013862577034160495,0.9832625985145569
1666654364.21868300,172429095,1,0.1816406100988388,0.002476814901456237,-0.0004943014937452972,0.9833617210388184
1666654364.25867200,172469084,1,0.1812114268541336,0.002438280964270234,-0.001257371506653726,0.9834403395652771
1666654364.27864408,172489056,1,0.18116195499897003,0.0025535786990076303,-0.0008979108533822,0.9834495782852173
1666654364.29869509,172509107,1,0.18104013800621033,0.002479289658367634,-0.0025029119569808245,0.9834694266319275
1666654364.33867407,172549086,1,0.1808912307024002,0.002680503763258457,-0.003442614572122693,0.983493447303772
1666654364.37863994,172589052,1,0.1808026134967804,0.002483837539330125,-0.00358165567740798,0.9835097193717957
1666654364.41863990,172629052,1,0.18091608583927155,0.0023556137457489967,-0.0034117752220481634,0.9834898114204407
1666654364.45866895,172669081,1,0.18106400966644287,0.0018637740286067128,-0.0024941826704889536,0.983466386795044
1666654364.47864509,172689057,1,0.1808573454618454,0.0013215321814641356,-0.0028863288462162018,0.9835042357444763
1666654364.49866986,172709082,1,0.18113121390342712,0.0015191072598099709,-0.00215548207052052,0.9834554195404053
1666654364.53869796,172749110,1,0.18120716512203217,0.0009572617709636688,-0.000849301228299737,0.983444094657898
1666654364.57864594,172789058,1,0.18128079175949097,0.00044109634472988546,0.000842227425891906,0.9834309220314026
1666654364.61864209,172829054,1,0.18145668506622314,0.00028395766275934875,0.002388613997027278,0.9833959937095642
1666654364.65864086,172869053,1,0.18170452117919922,-0.0004288060590624809,0.0038923807442188263,0.9833453893661499
1666654364.67864895,172889061,1,0.18184249103069305,-0.0006904735346324742,0.0034721214324235916,0.9833213090896606
1666654364.69866896,172909081,1,0.1819140464067459,-0.001584334997460246,0.0043171304278075695,0.9833036661148071
1666654364.73865604,172949068,1,0.18200482428073883,-0.003005752107128501,0.004461097531020641,0.9832829236984253
1666654364.77870488,172989117,1,0.18212583661079407,-0.004008492920547724,0.004927122034132481,0.9832547307014465
1666654364.81862187,173029034,1,0.18234525620937347,-0.004908304661512375,0.004365971777588129,0.9832125902175903
1666654364.85864806,173069060,1,0.18240585923194885,-0.004787088371813297,0.004264251794666052,0.9832023978233337
1666654364.87869692,173089109,1,0.18230125308036804,-0.004436320625245571,0.0035829367116093636,0.9832261800765991
1666654364.89864087,173109053,1,0.18231362104415894,-0.004145569633692503,0.0038257986307144165,0.9832242727279663
1666654364.93867707,173149089,1,0.18208669126033783,-0.0029402112122625113,0.0035702111199498177,0.983271598815918
1666654364.97862792,173189040,1,0.18174877762794495,-0.0011936670634895563,0.005066796205937862,0.9833312034606934
1666654365.01866794,173229080,1,0.1814960390329361,0.0013621688121929765,0.005291493609547615,0.9833765029907227
1666654365.05864096,173269053,1,0.18106383085250854,0.00420412328094244,0.005860629491508007,0.98344486951828
1666654365.07867599,173289088,1,0.18072634935379028,0.005680467002093792,0.004654956515878439,0.9835060238838196
1666654365.09864497,173309057,1,0.18051622807979584,0.006641114596277475,0.005247727036476135,0.9835355877876282
1666654365.13866901,173349081,1,0.1800161600112915,0.008865315467119217,0.00414826488122344,0.983614981174469
1666654365.17866492,173389077,1,0.17964880168437958,0.011399461887776852,0.0030551329255104065,0.9836600422859192
1666654365.21869707,173429109,1,0.17935994267463684,0.013796374201774597,0.002997239585965872,0.9836822152137756
1666654365.25866008,173469072,1,0.1789923906326294,0.014947374351322651,0.003130311379209161,0.9837319254875183
1666654365.27866793,173489080,1,0.17890915274620056,0.01514799427241087,0.0034850421361625195,0.9837428331375122
1666654365.29865193,173509064,1,0.17870543897151947,0.014584732241928577,0.002953402465209365,0.9837900996208191
1666654365.33863902,173549051,1,0.17833742499351501,0.012687751092016697,0.0033049057237803936,0.9838820099830627
1666654365.37867403,173589086,1,0.1780301034450531,0.010609768331050873,0.003878739196807146,0.9839602112770081
1666654365.41866708,173629079,1,0.17769810557365417,0.009198023937642574,0.004306059796363115,0.9840326309204102
1666654365.45869303,173669105,1,0.17758536338806152,0.007632254622876644,0.004426474682986736,0.98406583070755
1666654365.47863889,173689051,1,0.17763662338256836,0.007214835844933987,0.005465036723762751,0.9840545058250427
1666654365.49863005,173709042,1,0.17748364806175232,0.006762403063476086,0.004384424537420273,0.9840907454490662
1666654365.53864098,173749053,1,0.17727136611938477,0.005638142582029104,0.004001139663159847,0.9841377139091492
1666654365.57864094,173789053,1,0.1770513951778412,0.004889240954071283,0.003021962707862258,0.9841848015785217
1666654365.61867309,173829085,1,0.17684432864189148,0.004442262463271618,0.0026700454764068127,0.9842252135276794
1666654365.65865803,173869070,1,0.17673179507255554,0.0041589862667024136,0.002192256273701787,0.9842478036880493
1666654365.67864299,173889055,1,0.17660604417324066,0.003935539163649082,0.00221576658077538,0.984271228313446
1666654365.69869494,173909107,1,0.1765347421169281,0.003976794891059399,0.0018328161677345634,0.9842846989631653
1666654365.73864508,173949057,1,0.17631486058235168,0.0037894046399742365,0.0018445620080456138,0.9843248128890991
1666654365.77863908,173989051,1,0.1759764403104782,0.003329229773953557,0.0011976896785199642,0.984387993812561
1666654365.81864095,174029053,1,0.17567522823810577,0.0030588083900511265,0.00017947275773622096,0.9844434261322021
1666654365.85869193,174069104,1,0.17533576488494873,0.0028431154787540436,-0.0014004171825945377,0.9845035672187805
1666654365.87863994,174089052,1,0.1752014458179474,0.0034063297789543867,-0.0010766173945739865,0.9845260977745056
1666654365.89862204,174109034,1,0.17497184872627258,0.0035977244842797518,-0.002673247829079628,0.9845632314682007
1666654365.93868089,174149093,1,0.17457473278045654,0.00498960493132472,-0.003494650823995471,0.9846251010894775
1666654365.97864199,174189054,1,0.17431895434856415,0.0066564795561134815,-0.0037262081168591976,0.9846596717834473
1666654366.01864600,174229058,1,0.17404566705226898,0.007708618883043528,-0.003722358262166381,0.9847003817558289
1666654366.05866909,174269081,1,0.17377714812755585,0.007693186402320862,-0.0035457510966807604,0.9847485423088074
1666654366.07861590,174289028,1,0.17364270985126495,0.007407797500491142,-0.00359559478238225,0.9847742915153503
1666654366.09870100,174309113,1,0.17353616654872894,0.007311075925827026,-0.003482548054307699,0.9847941994667053
1666654366.13869286,174349105,1,0.17339441180229187,0.006918423343449831,-0.0029905184637755156,0.9848236441612244
1666654366.17865896,174389071,1,0.17318014800548553,0.007053022738546133,-0.002605799585580826,0.9848614931106567
1666654366.21864390,174429056,1,0.17315243184566498,0.007805762812495232,-0.0022836674470454454,0.984861433506012
1666654366.25864005,174469052,1,0.17334982752799988,0.00913266371935606,-0.00221277610398829,0.9848154783248901
1666654366.27865887,174489071,1,0.17348720133304596,0.009685900993645191,-0.0017817049520090222,0.984786868095398
1666654366.29867005,174509082,1,0.173543319106102,0.010319184511899948,-0.002017073566094041,0.9847701191902161
1666654366.33867002,174549082,1,0.17379821836948395,0.01060387585312128,-0.0018218016484752297,0.9847224950790405
1666654366.37869096,174589103,1,0.17401377856731415,0.009232165291905403,-0.0013355226255953312,0.984699010848999
1666654366.41861892,174629031,1,0.17424003779888153,0.007015302311629057,-0.0008571387734264135,0.9846778512001038
1666654366.45864391,174669056,1,0.17440563440322876,0.004794216249138117,-0.0002961770223919302,0.9846621751785278
1666654366.47869205,174689104,1,0.17451107501983643,0.00405829306691885,0.0006908171926625073,0.9846466183662415
1666654366.49864292,174709055,1,0.17463786900043488,0.002911049174144864,2.573809433670249e-05,0.984628438949585
1666654366.53866696,174749079,1,0.1748407632112503,0.0017432899912819266,-0.0001134096528403461,0.9845951795578003
1666654366.57865191,174789064,1,0.17517200112342834,0.0014730694238096476,-1.0207463674305473e-05,0.9845367670059204
1666654366.61871195,174829124,1,0.1754956841468811,0.001994370250031352,-0.00029762022313661873,0.9844781160354614
1666654366.65864205,174869054,1,0.17577333748340607,0.002694391878321767,-0.0006364693981595337,0.9844267964363098
1666654366.67867088,174889083,1,0.17587228119373322,0.0028998057823628187,-4.368252484709956e-05,0.9844087362289429
1666654366.69864392,174909056,1,0.17594893276691437,0.0031082388013601303,-0.0007207662565633655,0.9843941330909729
1666654366.73863888,174949051,1,0.17622403800487518,0.0029317152220755816,-0.001212873263284564,0.9843449592590332
1666654366.77867007,174989082,1,0.17639654874801636,0.0022399956360459328,-0.0016116381157189608,0.9843153357505798
1666654366.81867003,175029082,1,0.17652931809425354,0.0014821564545854926,-0.0013977778144180775,0.9842932820320129
1666654366.85867405,175069086,1,0.17661269009113312,0.0009848519694060087,-0.0005910074105486274,0.9842797517776489
1666654366.87866902,175089081,1,0.17671377956867218,0.000785861280746758,0.0013561190571635962,0.9842610359191895
1666654366.89864492,175109057,1,0.17668671905994415,0.0010505113750696182,0.0007979577640071511,0.9842662811279297
1666654366.93864608,175149058,1,0.17681045830249786,0.001798346289433539,0.002645675325766206,0.9842396974563599
1666654366.97866797,175189080,1,0.17689484357833862,0.003165808040648699,0.003914153669029474,0.9842168688774109
1666654367.01867008,175229082,1,0.17697995901107788,0.005533584393560886,0.005108502693474293,0.9841856360435486
1666654367.05869889,175269111,1,0.17683818936347961,0.007821405306458473,0.006228442303836346,0.9841891527175903
1666654367.07864094,175289053,1,0.17678320407867432,0.008964799344539642,0.007498939521610737,0.9841803908348083
1666654367.09864187,175309054,1,0.17679689824581146,0.008901605382561684,0.008147693239152431,0.9841733574867249
1666654367.13863993,175349052,1,0.17670993506908417,0.008705886080861092,0.009999115020036697,0.9841736555099487
1666654367.17864108,175389053,1,0.17668014764785767,0.007684660144150257,0.012158721685409546,0.984163224697113
1666654367.21866989,175429082,1,0.17658883333206177,0.006658703554421663,0.01485796831548214,0.9841500520706177
1666654367.25867200,175469084,1,0.17676419019699097,0.006262117065489292,0.017073357477784157,0.984085202217102
1666654367.27864099,175489053,1,0.17679128050804138,0.005998570006340742,0.019751818850636482,0.9840318560600281
1666654367.29869795,175509110,1,0.17686399817466736,0.006376070436090231,0.01972672902047634,0.9840169548988342
1666654367.33865190,175549064,1,0.17683400213718414,0.006797168403863907,0.022508705034852028,0.9839597940444946
1666654367.37867403,175589086,1,0.1767900437116623,0.007343470584601164,0.02487853914499283,0.9839066863059998
1666654367.41864300,175629055,1,0.17682111263275146,0.007484107743948698,0.02632484771311283,0.9838624596595764
1666654367.45866799,175669080,1,0.17661860585212708,0.007201936095952988,0.0273540448397398,0.9838728308677673
1666654367.47864890,175689061,1,0.17643964290618896,0.007255254779011011,0.028426585718989372,0.9838741421699524
1666654367.49865198,175709064,1,0.1763797551393509,0.006860923953354359,0.027175940573215485,0.983923077583313
1666654367.53867102,175749083,1,0.17608825862407684,0.006306163035333157,0.026159171015024185,0.9840065240859985
1666654367.57864189,175789054,1,0.1757647544145584,0.005625405348837376,0.02316242642700672,0.9841436147689819
1666654367.61864591,175829058,1,0.17550212144851685,0.004533906001597643,0.019415391609072685,0.9842771291732788
1666654367.65867686,175869089,1,0.17508624494075775,0.003733865451067686,0.015078873373568058,0.9844305515289307
1666654367.67861390,175889026,1,0.1747075319290161,0.003944189753383398,0.01209686417132616,0.9845381379127502
1666654367.69866800,175909080,1,0.17455792427062988,0.003542941063642502,0.011738286353647709,0.9845705628395081
1666654367.73869705,175949109,1,0.17401903867721558,0.0032021666411310434,0.008603702299296856,0.9846994876861572
1666654367.77866697,175989079,1,0.1735314577817917,0.003849830012768507,0.006235549692064524,0.9848010540008545
1666654367.81865096,176029063,1,0.17307405173778534,0.005445042159408331,0.002886167960241437,0.9848895072937012
1666654367.85864401,176069056,1,0.17241810262203217,0.008486595936119556,0.0006759997922927141,0.9849870800971985
1666654367.87870002,176089112,1,0.1722451150417328,0.010166834108531475,-0.001043556141667068,0.9850010871887207
1666654367.89867592,176109088,1,0.17188133299350739,0.011630347929894924,-0.0007611603359691799,0.9850487112998962
1666654367.93866491,176149077,1,0.17135877907276154,0.013763591647148132,-0.0023776523303240538,0.9851096868515015
1666654367.97869492,176189107,1,0.17096556723117828,0.014817968010902405,-0.0035482023376971483,0.985159158706665
1666654368.01865292,176229065,1,0.17048095166683197,0.014576432295143604,-0.003939255140721798,0.9852452874183655
1666654368.05864096,176269053,1,0.1701924204826355,0.014029830694198608,-0.004123656544834375,0.9853023290634155
1666654368.07864904,176289061,1,0.1699816733598709,0.013668963685631752,-0.005920665338635445,0.9853346347808838
1666654368.09865189,176309064,1,0.16986434161663055,0.01423825602978468,-0.004319265950471163,0.9853551387786865
1666654368.13866997,176349082,1,0.16976375877857208,0.014932096004486084,-0.004077172838151455,0.985363245010376
1666654368.17866492,176389077,1,0.16988466680049896,0.015573342330753803,-0.0037590283900499344,0.9853337407112122
1666654368.21869397,176429106,1,0.17015677690505981,0.015904279425740242,-0.0033944190945476294,0.9852827787399292
1666654368.25863409,176469046,1,0.17028027772903442,0.016254862770438194,-0.0021773790940642357,0.9852591753005981
1666654368.27869105,176489103,1,0.1703968495130539,0.016539067029953003,-0.0020810093265026808,0.9852344989776611
1666654368.29864192,176509054,1,0.17043761909008026,0.017052698880434036,-0.0001748018548823893,0.9852209091186523
1666654368.33864307,176549055,1,0.1706978976726532,0.01784631609916687,0.0021770622115582228,0.9851593971252441
1666654368.37866497,176589077,1,0.1711377203464508,0.01816106215119362,0.003766322275623679,0.9850724935531616
1666654368.41863489,176629047,1,0.1715380847454071,0.018401360139250755,0.004904833622276783,0.9849933981895447
1666654368.45869207,176669104,1,0.1720157116651535,0.01867695525288582,0.005162460263818502,0.9849036335945129
1666654368.47867393,176689086,1,0.17215269804000854,0.018376396968960762,0.0047072796151041985,0.9848875999450684
1666654368.49864292,176709055,1,0.17249666154384613,0.018492240458726883,0.005140202585607767,0.9848231077194214
1666654368.53864193,176749054,1,0.17305193841457367,0.018367238342761993,0.005118040833622217,0.9847280979156494
1666654368.57867193,176789084,1,0.17369990050792694,0.018585750833153725,0.005248809698969126,0.9846092462539673
1666654368.61866903,176829081,1,0.17414309084415436,0.018845334649086,0.005510733928531408,0.9845246076583862
1666654368.65869498,176869107,1,0.17482371628284454,0.018836237490177155,0.005895799957215786,0.9844018816947937
1666654368.67864108,176889053,1,0.1750732660293579,0.017982449382543564,0.006170383654534817,0.9843718409538269
1666654368.69863105,176909043,1,0.17539146542549133,0.018729783594608307,0.005411731544882059,0.984305739402771
1666654368.73864508,176949057,1,0.17600926756858826,0.01845196634531021,0.005397941917181015,0.9842007756233215
1666654368.77864790,176989060,1,0.1765916347503662,0.01771000772714615,0.0051810601726174355,0.9841112494468689
1666654368.81867003,177029082,1,0.17714086174964905,0.01685885153710842,0.00516018271446228,0.9840275645256042
1666654368.85867190,177069084,1,0.17756465077400208,0.01637660153210163,0.004920504055917263,0.9839605689048767
1666654368.87864399,177089056,1,0.17762993276119232,0.015939874574542046,0.004021906293928623,0.9839600324630737
1666654368.89871597,177109128,1,0.17787618935108185,0.01606755144894123,0.004662387538701296,0.9839106202125549
1666654368.93862104,177149033,1,0.17805016040802002,0.015742316842079163,0.004654540214687586,0.9838844537734985
1666654368.97863603,177189048,1,0.1782480925321579,0.015432247892022133,0.004191429354250431,0.9838556051254272
1666654369.01864600,177229058,1,0.17847533524036407,0.014409100636839867,0.0035392530262470245,0.9838325381278992
1666654369.05867100,177269083,1,0.17870941758155823,0.012179375626146793,0.002929574577137828,0.9838221669197083
1666654369.07865000,177289062,1,0.1786666214466095,0.01029149442911148,0.0016989076975733042,0.983854353427887
1666654369.09865403,177309066,1,0.17882689833641052,0.009106900542974472,0.002211690880358219,0.9838359355926514
1666654369.13870406,177349116,1,0.17888709902763367,0.005577096249908209,0.002050261478871107,0.9838516712188721
1666654369.17864799,177389060,1,0.1790071576833725,0.0026935958303511143,0.001925186486914754,0.9838421940803528
1666654369.21864104,177429053,1,0.1792183369398117,0.0009064305922947824,0.0016941704088822007,0.9838074445724487
1666654369.25864100,177469053,1,0.17950645089149475,-0.0004992054891772568,0.0007495734025724232,0.9837563633918762
1666654369.27864599,177489058,1,0.17942260205745697,-0.0008743723738007247,7.77479654061608e-05,0.9837716817855835
1666654369.29866695,177509079,1,0.17949216067790985,-0.0014984265435487032,0.0002989651693496853,0.9837582111358643
1666654369.33862591,177549038,1,0.17953422665596008,-0.002294206991791725,0.0002669666428118944,0.9837490320205688
1666654369.37864900,177589061,1,0.17954687774181366,-0.002713578287512064,0.00012326790601946414,0.9837456941604614
1666654369.41866207,177629074,1,0.1795930713415146,-0.0026229580398648977,9.976917499443516e-05,0.9837374687194824
1666654369.45864105,177669053,1,0.17945091426372528,-0.0027626310475170612,-3.4966651583090425e-05,0.9837630391120911
1666654369.47868991,177689102,1,0.17944331467151642,-0.0026275799609720707,0.0015681617660447955,0.983763575553894
1666654369.49867296,177709085,1,0.17941054701805115,-0.0027633248828351498,-0.0002471128827892244,0.9837703704833984
1666654369.53866887,177749081,1,0.17919471859931946,-0.0020683156326413155,0.00014309899415820837,0.9838114380836487
1666654369.57869101,177789103,1,0.1790946125984192,-0.0021757548674941063,0.0005845529376529157,0.9838292598724365
1666654369.61866307,177829075,1,0.17893965542316437,-0.0016635142965242267,0.0008308880496770144,0.9838582873344421
1666654369.65864396,177869056,1,0.17866671085357666,-0.001378694549202919,0.0006759846000932157,0.983908474445343
1666654369.67864299,177889055,1,0.17838448286056519,-0.001451338641345501,0.00015027793415356427,0.9839597940444946
1666654369.69865203,177909064,1,0.1784839928150177,-0.0012055770494043827,0.0008457805379293859,0.9839417338371277
1666654369.73867106,177949083,1,0.17811843752861023,-0.00104470772203058,0.001095052808523178,0.9840078949928284
1666654369.77867198,177989084,1,0.17788207530975342,-0.0008934700163081288,0.0012496112613007426,0.9840506315231323
1666654369.81868887,178029101,1,0.17747843265533447,-0.0008279641624540091,0.0010146377608180046,0.9841238260269165
1666654369.85862994,178069042,1,0.17712457478046417,-0.0006353036733344197,0.0010341220768168569,0.984187662601471
1666654369.87866092,178089073,1,0.17698410153388977,0.0003996278392150998,0.001439107465557754,0.9842125773429871
1666654369.89863992,178109052,1,0.1767146736383438,-0.00043843427556566894,0.00030228597461245954,0.9842619895935059
1666654369.93863988,178149052,1,0.17634239792823792,6.503525946754962e-05,0.0003313110792078078,0.9843288064002991
1666654369.97868896,178189101,1,0.17589280009269714,0.00023802551731932908,0.0010582200484350324,0.9844087362289429
1666654370.01865196,178229064,1,0.17542587220668793,0.0005997052066959441,0.0006529513630084693,0.9844922423362732
1666654370.05869889,178269111,1,0.17507144808769226,0.0006201525684446096,0.0005618380382657051,0.9845553636550903
1666654370.07865787,178289070,1,0.17473462224006653,0.0005602832534350455,0.001265749684534967,0.9846146106719971
1666654370.09862804,178309040,1,0.17468267679214478,0.0008528352482244372,0.0008578062406741083,0.9846240282058716
1666654370.13864088,178349053,1,0.17412133514881134,0.001213096547871828,0.0015428238548338413,0.9847222566604614
1666654370.17864490,178389057,1,0.17335189878940582,0.0011899720411747694,0.0024979424197226763,0.9848560690879822
1666654370.21865988,178429072,1,0.17264197766780853,0.0010091214207932353,0.0023082001134753227,0.9849814176559448
1666654370.25871801,178469130,1,0.17200203239917755,0.0007119377260096371,0.0016320584109053016,0.9850949645042419
1666654370.27864790,178489060,1,0.17176499962806702,0.0014118088874965906,0.001918906345963478,0.9851350784301758
1666654370.29866695,178509079,1,0.17145377397537231,0.0005612525856122375,0.00179779389873147,0.9851903915405273
1666654370.33865190,178549064,1,0.17079713940620422,0.000824019021820277,0.0015293192118406296,0.9853046536445618
1666654370.37862706,178589039,1,0.17015501856803894,0.0010122550884261727,0.002697051502764225,0.9854130744934082
1666654370.41867304,178629085,1,0.16956496238708496,0.0016582721145823598,0.005360988900065422,0.9855030179023743
1666654370.45866895,178669081,1,0.16878098249435425,0.002660228870809078,0.011599820107221603,0.9855817556381226
1666654370.47864008,178689052,1,0.16838981211185455,0.002851705299690366,0.013669848442077637,0.9856215715408325
1666654370.49870086,178709113,1,0.16807712614536285,0.003609933890402317,0.017389120534062386,0.9856138825416565
1666654370.53863406,178749046,1,0.16743464767932892,0.004605225753039122,0.02366768568754196,0.9855883121490479
1666654370.57865000,178789062,1,0.16678591072559357,0.005590077955275774,0.029192188754677773,0.9855450391769409
1666654370.61864495,178829057,1,0.16614067554473877,0.006050636526197195,0.03311941772699356,0.9855271577835083
1666654370.65867186,178869084,1,0.1654386967420578,0.00650588795542717,0.03639772906899452,0.9855267405509949
1666654370.67864108,178889053,1,0.16526617109775543,0.006856341380625963,0.03687715157866478,0.9855354428291321
1666654370.69866896,178909081,1,0.16483724117279053,0.006836225278675556,0.03862294554710388,0.9855405688285828
1666654370.73869205,178949104,1,0.16425129771232605,0.007208334747701883,0.04014892503619194,0.9855747818946838
1666654370.77863002,178989042,1,0.16374312341213226,0.007733442820608616,0.04249772056937218,0.9855568408966064
1666654370.81864500,179029057,1,0.16312110424041748,0.008100549690425396,0.043820708990097046,0.9855991005897522
1666654370.85863996,179069052,1,0.16263781487941742,0.008450502529740334,0.044212255626916885,0.985658586025238
1666654370.87866688,179089079,1,0.16250333189964294,0.008432039991021156,0.044564999639987946,0.9856650233268738
1666654370.89867306,179109085,1,0.1620476096868515,0.00851998571306467,0.04487735033035278,0.9857251048088074
1666654370.93864489,179149057,1,0.16148675978183746,0.008637592196464539,0.04494624584913254,0.9858129620552063
1666654370.97867393,179189086,1,0.16087660193443298,0.008481131866574287,0.04505642503499985,0.985909104347229
1666654371.01863098,179229043,1,0.1602412611246109,0.008297760970890522,0.04500497132539749,0.9860164523124695
1666654371.05864406,179269056,1,0.15957802534103394,0.00844475906342268,0.04447360336780548,0.986146867275238
1666654371.07869601,179289108,1,0.1594325602054596,0.0087485546246171,0.04491059482097626,0.986147940158844
1666654371.09864092,179309053,1,0.15899260342121124,0.00869231391698122,0.04482639208436012,0.9862232804298401
1666654371.13867092,179349083,1,0.15833939611911774,0.008909556083381176,0.0452178530395031,0.9863085746765137
1666654371.17863393,179389046,1,0.15770341455936432,0.008942939341068268,0.04520246386528015,0.9864108562469482
1666654371.21864986,179429062,1,0.15722903609275818,0.008907590992748737,0.04480590298771858,0.9865049719810486
1666654371.25864100,179469053,1,0.15679581463336945,0.008765976876020432,0.04451025277376175,0.9865885972976685
1666654371.27865005,179489062,1,0.15644729137420654,0.009137080982327461,0.04498504847288132,0.9866190552711487
1666654371.29864001,179509052,1,0.15637221932411194,0.008593323640525341,0.04384011775255203,0.9866873621940613
1666654371.33867598,179549088,1,0.1559172421693802,0.008370703086256981,0.04305685684084892,0.9867957234382629
1666654371.37867999,179589092,1,0.15538665652275085,0.008327154442667961,0.04258250072598457,0.9869003891944885
1666654371.41871691,179629129,1,0.15489904582500458,0.008342491462826729,0.04198506474494934,0.9870024919509888
1666654371.45863605,179669048,1,0.1544145792722702,0.00844632275402546,0.0416470468044281,0.9870918393135071
1666654371.47867393,179689086,1,0.15437206625938416,0.008684243075549603,0.04297655075788498,0.9870394468307495
1666654371.49865007,179709062,1,0.1540953516960144,0.008396037854254246,0.041416872292757034,0.9871518611907959
1666654371.53864098,179749053,1,0.15372887253761292,0.008119715377688408,0.04103294014930725,0.9872273206710815
1666654371.57865906,179789071,1,0.15330642461776733,0.007958655245602131,0.04049148038029671,0.9873166680335999
1666654371.61866593,179829078,1,0.15312913060188293,0.008103528060019016,0.04006202146410942,0.9873605370521545
1666654371.65870500,179869117,1,0.1529083251953125,0.008400174789130688,0.03979369252920151,0.987403154373169
1666654371.67867589,179889088,1,0.15285466611385345,0.008108985610306263,0.04041651636362076,0.987388551235199
1666654371.69861507,179909027,1,0.15286004543304443,0.008490822277963161,0.03951208293437958,0.9874211549758911
1666654371.73867202,179949084,1,0.15283416211605072,0.008256988599896431,0.03904539719223976,0.9874457120895386
1666654371.77864599,179989058,1,0.15278908610343933,0.00787456426769495,0.03867051377892494,0.9874705672264099
1666654371.81867099,180029083,1,0.15278387069702148,0.00779549079015851,0.03858198598027229,0.9874754548072815
1666654371.85864592,180069058,1,0.15294471383094788,0.00785509031265974,0.03789995238184929,0.9874764680862427
1666654371.87863994,180089052,1,0.15298445522785187,0.007867841050028801,0.037767015397548676,0.9874753355979919
1666654371.89871407,180109126,1,0.15308625996112823,0.007786997593939304,0.03672550246119499,0.987499475479126
1666654371.93864107,180149053,1,0.153336301445961,0.007569670211523771,0.03317779675126076,0.9875879287719727
1666654371.97864509,180189057,1,0.1536640077829361,0.006794222164899111,0.026848649606108665,0.9877349734306335
1666654372.01867008,180229082,1,0.1542719155550003,0.005469277501106262,0.018590793013572693,0.9878383874893188
1666654372.05866790,180269080,1,0.15483629703521729,0.004208473488688469,0.009687142446637154,0.9878836870193481
1666654372.07864404,180289056,1,0.1551186740398407,0.003223865758627653,0.007627343293279409,0.987861156463623
1666654372.09870505,180309117,1,0.15550553798675537,0.0033402745611965656,0.0020857227500528097,0.9878271818161011
1666654372.13866997,180349082,1,0.15608513355255127,0.002866149879992008,-0.003762408159673214,0.9877322912216187
1666654372.17864299,180389055,1,0.15669718384742737,0.0020095682702958584,-0.008428523316979408,0.9876086711883545
1666654372.21864295,180429055,1,0.15734060108661652,0.0008930051699280739,-0.01252562366425991,0.9874645471572876
1666654372.25866604,180469078,1,0.1578560769557953,-0.0002190162194892764,-0.01544018741697073,0.9873414039611816
1666654372.27866602,180489078,1,0.1579906940460205,-6.386072345776483e-05,-0.01852480322122574,0.9872668385505676
1666654372.29866505,180509077,1,0.1582910716533661,-0.0008975286036729813,-0.018267575651407242,0.9872230887413025
1666654372.33869290,180549105,1,0.1588178128004074,-0.0010232235072180629,-0.02106715552508831,0.9870826005935669
1666654372.37861300,180589025,1,0.1593845933675766,-0.0004279821878299117,-0.019738875329494476,0.9870191216468811
1666654372.41864586,180629058,1,0.16008782386779785,-0.0005771875148639083,-0.017993560060858727,0.9869385957717896
1666654372.45864487,180669057,1,0.1607348471879959,-3.488663787720725e-05,-0.01558032538741827,0.9868746399879456
1666654372.47867203,180689084,1,0.16097426414489746,-0.00024312287860084325,-0.014444994740188122,0.9868528842926025
1666654372.49866986,180709082,1,0.1611669659614563,0.0008229963714256883,-0.012370745651423931,0.9868492484092712
1666654372.53866291,180749075,1,0.1617184728384018,0.0013271033531054854,-0.010134761221706867,0.9867839813232422
1666654372.57865596,180789068,1,0.16243520379066467,0.002036765217781067,-0.008457187563180923,0.9866808652877808
1666654372.61862588,180829038,1,0.16302472352981567,0.002488401485607028,-0.007678091060370207,0.9865889549255371
1666654372.65864086,180869053,1,0.16356836259365082,0.002776225097477436,-0.0068237693049013615,0.9865044951438904
1666654372.67869997,180889112,1,0.1639644205570221,0.0023088154848665,-0.006464096717536449,0.9864423871040344
1666654372.69864392,180909056,1,0.1641533225774765,0.0026038188952952623,-0.00613043550401926,0.9864123463630676
1666654372.73867202,180949084,1,0.164674773812294,0.0030593760311603546,-0.005118647590279579,0.9863299131393433
1666654372.77862597,180989038,1,0.1653304100036621,0.002339678118005395,-0.006564433220773935,0.9862136244773865
1666654372.81865692,181029069,1,0.16600337624549866,0.0018574659479781985,-0.010051827877759933,0.9860721826553345
1666654372.85864091,181069053,1,0.16671031713485718,0.001493558520451188,-0.014794537797570229,0.9858937859535217
1666654372.87866592,181089078,1,0.1671905219554901,0.0010721497237682343,-0.015546169131994247,0.9858014583587646
1666654372.89864087,181109053,1,0.16736064851284027,0.0011266246438026428,-0.01915578357875347,0.985709011554718
1666654372.93866897,181149081,1,0.16811829805374146,0.00041404616786167026,-0.022684497758746147,0.9855057001113892
1666654372.97866488,181189077,1,0.16869786381721497,-0.0005687985103577375,-0.025668809190392494,0.9853333830833435
1666654373.01869893,181229111,1,0.16903553903102875,-0.0010993046453222632,-0.02752261608839035,0.9852249622344971
1666654373.05867290,181269085,1,0.16956496238708496,-0.0009000581339932978,-0.027675392106175423,0.9851299524307251
1666654373.07866788,181289080,1,0.16982214152812958,-0.0012132438132539392,-0.027426335960626602,0.985092282295227
1666654373.09866691,181309079,1,0.16980235278606415,-0.000839168147649616,-0.027693334966897964,0.985088586807251
1666654373.13864088,181349053,1,0.17014896869659424,-0.000643437379039824,-0.02651422843337059,0.9850613474845886
1666654373.17866588,181389078,1,0.17051179707050323,-0.0004888300318270922,-0.025296306237578392,0.9850307703018188
1666654373.21866703,181429079,1,0.17070287466049194,-0.0005684260395355523,-0.024694696068763733,0.9850128889083862
1666654373.25869298,181469105,1,0.17090173065662384,-0.0006036792183294892,-0.024983301758766174,0.9849711060523987
1666654373.27865195,181489064,1,0.17089581489562988,-0.00023816472094040364,-0.02458428591489792,0.9849823117256165
1666654373.29865289,181509065,1,0.17093411087989807,-0.0004727981286123395,-0.02520134672522545,0.9849600195884705
1666654373.33863997,181549052,1,0.171213299036026,-3.4728784612525487e-06,-0.024069419130682945,0.9849399328231812
1666654373.37864399,181589056,1,0.17135103046894073,-4.548806100501679e-05,-0.023304469883441925,0.984934389591217
1666654373.41866708,181629079,1,0.17138466238975525,0.00015739376249257475,-0.022865790873765945,0.9849388003349304
1666654373.45865297,181669065,1,0.17147788405418396,0.0011787175899371505,-0.02351689152419567,0.9849065542221069
1666654373.47864890,181689061,1,0.17150095105171204,0.002456149086356163,-0.02351590245962143,0.984900176525116
1666654373.49869609,181709108,1,0.17149677872657776,0.0036306472029536963,-0.023661382496356964,0.984893798828125
1666654373.53863406,181749046,1,0.17148998379707336,0.006787572987377644,-0.024885624647140503,0.984848141670227
1666654373.57864189,181789054,1,0.17139704525470734,0.010180563665926456,-0.026627695187926292,0.9847894906997681
1666654373.61864495,181829057,1,0.1713121384382248,0.013365904800593853,-0.027267005294561386,0.9847487211227417
1666654373.65873909,181869151,1,0.17123623192310333,0.01578708551824093,-0.02783036418259144,0.9847103357315063
1666654373.67864799,181889060,1,0.1712331771850586,0.0171656534075737,-0.027201533317565918,0.9847053289413452
1666654373.69867992,181909092,1,0.1712288111448288,0.01786002330482006,-0.028447745367884636,0.9846585392951965
1666654373.73867393,181949086,1,0.17092642188072205,0.020072976127266884,-0.02822369523346424,0.984674870967865
1666654373.77866793,181989080,1,0.170793354511261,0.021994059905409813,-0.027561329305171967,0.9846757054328918
1666654373.81864500,182029057,1,0.17078742384910583,0.023105839267373085,-0.02749945968389511,0.9846529960632324
1666654373.85867190,182069084,1,0.1706761121749878,0.023817509412765503,-0.028448034077882767,0.9846283793449402
1666654373.87864900,182089061,1,0.17048434913158417,0.024620071053504944,-0.028972705826163292,0.9846265912055969
1666654373.89869094,182109103,1,0.17040090262889862,0.023910382762551308,-0.02848614566028118,0.9846727252006531
1666654373.93869805,182149110,1,0.17019475996494293,0.023978644981980324,-0.028680386021733284,0.9847010970115662
