timestamp,TimeUS,C,Roll,Pitch,Yaw,VN,VE,VD,dPD,PN,PE,PD,GX,GY,GZ,OH
1666654356.49865294,164709065,1,0.4,-0.17,349.55,0.26560547947883606,0.06455788761377335,0.05545933544635773,0.02006085030734539,6.0434794425964355,-1.0089491605758667,0.6847158074378967,0.05,0.0,-0.04,225.53
1666654356.53865600,164749068,1,0.4,-0.16,349.55,0.2671317756175995,0.06405304372310638,0.05621150881052017,0.03400098532438278,6.061088562011719,-1.0070664882659912,0.6857139468193054,0.05,0.0,-0.04,225.53
1666654356.57864404,164789056,1,0.4,-0.16,349.55,0.26868030428886414,0.06344301253557205,0.0568145252764225,0.03691345080733299,6.077746391296387,-1.0052399635314941,0.6869456171989441,0.05,0.0,-0.04,225.53
1666654356.61863589,164829048,1,0.41000000000000003,-0.16,349.55,0.2697589695453644,0.06235629692673683,0.05742482468485832,0.03701690211892128,6.0963335037231445,-1.0033198595046997,0.6880596876144409,0.05,0.0,-0.04,225.53
1666654356.65866208,164869074,1,0.4,-0.16,349.54,0.2698293924331665,0.061647456139326096,0.058636344969272614,0.04259943962097168,6.1145124435424805,-1.0005818605422974,0.6902303099632263,0.05,0.0,-0.04,225.53
1666654356.67861795,164889030,1,0.4,-0.16,349.54,0.2702198326587677,0.06146302446722984,0.05897248536348343,0.046969231218099594,6.122113227844238,-0.9993004202842712,0.6913716793060303,0.05,0.0,-0.04,225.53
1666654356.69866109,164909073,1,0.4,-0.16,349.54,0.27016639709472656,0.06109938025474548,0.059701792895793915,0.05174974352121353,6.1316962242126465,-0.9980041980743408,0.6925380229949951,0.05,0.0,-0.04,225.53
1666654356.73869300,164949105,1,0.4,-0.15,349.54,0.27073270082473755,0.060540080070495605,0.0603429414331913,0.05791087821125984,6.147791385650635,-0.9956186413764954,0.694637656211853,0.05,0.0,-0.04,225.53
1666654356.77861595,164989028,1,0.4,-0.15,349.53000000000003,0.2711770534515381,0.0607873871922493,0.06095229461789131,0.059541255235672,6.163069248199463,-0.9933279156684875,0.6967179775238037,0.05,0.0,-0.04,225.53
1666654356.81863809,165029050,1,0.4,-0.15,349.53000000000003,0.2708919942378998,0.06038253381848335,0.06160605698823929,0.061900679022073746,6.1822614669799805,-0.9897684454917908,0.6993449926376343,0.05,0.0,-0.04,225.53
1666654356.85863805,165069050,1,0.4,-0.15,349.53000000000003,0.2710517942905426,0.059911638498306274,0.06251085549592972,0.06813623756170273,6.200683116912842,-0.9857528805732727,0.702028751373291,0.05,0.0,-0.04,225.53
1666654356.87868595,165089098,1,0.4,-0.15,349.53000000000003,0.271540105342865,0.060300279408693314,0.06305531412363052,0.07082006335258484,6.208367347717285,-0.9840831160545349,0.7033568024635315,0.05,0.0,-0.04,225.53
1666654356.89866400,165109076,1,0.4,-0.15,349.53000000000003,0.27150607109069824,0.06009487435221672,0.0637303963303566,0.07307536154985428,6.217967987060547,-0.9820328950881958,0.704779326915741,0.05,0.0,-0.04,225.53
1666654356.93865490,165149067,1,0.4,-0.15,349.53000000000003,0.2718051075935364,0.06028665229678154,0.06405733525753021,0.0738293007016182,6.234389305114746,-0.978527843952179,0.7072603702545166,0.05,0.0,-0.04,225.53
1666654356.97869492,165189107,1,0.4,-0.14,349.52,0.2720643877983093,0.059659235179424286,0.06445715576410294,0.07027848809957504,6.249847412109375,-0.9752718210220337,0.7096241116523743,0.05,0.0,-0.04,225.53
1666654357.01860809,165229020,1,0.39,-0.14,349.52,0.27136027812957764,0.05845912545919418,0.06500493735074997,0.0686151310801506,6.26963472366333,-0.9706445336341858,0.7124768495559692,0.05,0.0,-0.04,225.53
1666654357.05864000,165269052,1,0.39,-0.14,349.51,0.27132272720336914,0.05786049738526344,0.06570369750261307,0.07174718379974365,6.2887282371521,-0.9660015106201172,0.7153556942939758,0.05,0.0,-0.04,225.53
1666654357.07868505,165289097,1,0.39,-0.14,349.51,0.2711884677410126,0.05778626725077629,0.06610014289617538,0.07335203886032104,6.296731472015381,-0.9641349911689758,0.716789960861206,0.05,0.0,-0.04,225.53
1666654357.09864497,165309057,1,0.39,-0.14,349.51,0.27060040831565857,0.05741916969418526,0.06662878394126892,0.07478868216276169,6.306570053100586,-0.961758553981781,0.718269407749176,0.05,0.0,-0.04,225.53
1666654357.13866091,165349073,1,0.39,-0.14,349.51,0.2707062363624573,0.056562867015600204,0.066933773458004,0.07425874471664429,6.323333740234375,-0.957870602607727,0.7207702398300171,0.05,0.0,-0.04,225.53
1666654357.17863297,165389045,1,0.39,-0.14,349.51,0.2704305052757263,0.05587209388613701,0.06769852340221405,0.06925986707210541,6.339292049407959,-0.9542679190635681,0.7231680154800415,0.05,0.0,-0.04,225.53
1666654357.21869397,165429106,1,0.39,-0.14,349.5,0.2686323821544647,0.05487646162509918,0.06910214573144913,0.06816376745700836,6.359217166900635,-0.9491826295852661,0.7263619303703308,0.05,0.0,-0.04,225.53
1666654357.25863695,165469049,1,0.39,-0.13,349.5,0.26611340045928955,0.05359199643135071,0.07034485787153244,0.07591134309768677,6.378067970275879,-0.9442760348320007,0.72972571849823,0.05,0.0,-0.04,225.53
1666654357.27865696,165489069,1,0.39,-0.13,349.5,0.2654895484447479,0.053831953555345535,0.07082831859588623,0.07972069084644318,6.385922431945801,-0.9423694014549255,0.7313540577888489,0.05,0.0,-0.04,225.53
1666654357.29864287,165509055,1,0.39,-0.13,349.5,0.26402297616004944,0.05324586480855942,0.07160777598619461,0.08311153948307037,6.395566463470459,-0.9398479461669922,0.7331066131591797,0.05,0.0,-0.04,225.53
1666654357.33863401,165549046,1,0.39,-0.13,349.5,0.2623647451400757,0.052589356899261475,0.07233776897192001,0.08583097159862518,6.41202449798584,-0.9358097314834595,0.7362056374549866,0.05,0.0,-0.04,225.53
1666654357.37865496,165589067,1,0.39,-0.13,349.5,0.26089194416999817,0.05200684070587158,0.07322978973388672,0.08359631150960922,6.427243232727051,-0.9321765303611755,0.7391261458396912,0.05,0.0,-0.04,225.53
1666654357.41869092,165629103,1,0.39,-0.13,349.5,0.25570428371429443,0.04942357912659645,0.07366733998060226,0.07885589450597763,6.445186614990234,-0.9276676774024963,0.741283655166626,0.06,0.0,-0.04,225.53
1666654357.45867705,165669089,1,0.38,-0.13,349.5,0.24950380623340607,0.04601189121603966,0.07349376380443573,0.0615193247795105,6.46136474609375,-0.9237839579582214,0.7428519129753113,0.06,0.0,-0.04,225.53
1666654357.47866488,165689077,1,0.38,-0.13,349.5,0.24747821688652039,0.04500584676861763,0.07339753210544586,0.05339190363883972,6.467953681945801,-0.9223453402519226,0.7438628673553467,0.06,0.0,-0.04,225.53
1666654357.49866390,165709076,1,0.38,-0.13,349.5,0.2441863864660263,0.043311957269907,0.07326893508434296,0.04640771448612213,6.476104259490967,-0.9204661250114441,0.7445714473724365,0.06,0.0,-0.04,225.53
1666654357.53863597,165749048,1,0.38,-0.13,349.49,0.23882901668548584,0.04058009758591652,0.07338827848434448,0.03716760128736496,6.489679336547852,-0.9176154136657715,0.7461058497428894,0.06,0.0,-0.04,225.53
1666654357.57866788,165789080,1,0.38,-0.12,349.49,0.2345132827758789,0.03840576112270355,0.0734666958451271,0.03094172663986683,6.502243518829346,-0.9151636362075806,0.7476686239242554,0.06,0.0,-0.04,225.53
1666654357.61866403,165829076,1,0.38,-0.12,349.49,0.2261589765548706,0.035845451056957245,0.07326465845108032,0.02863641083240509,6.51699686050415,-0.9100053906440735,0.7484185099601746,0.06,0.0,-0.04,225.53
1666654357.65871596,165869128,1,0.38,-0.12,349.49,0.21719524264335632,0.03388651832938194,0.07337799668312073,0.020179202780127525,6.530483722686768,-0.9043985605239868,0.7492068409919739,0.06,0.0,-0.04,225.53
1666654357.67863488,165889047,1,0.38,-0.12,349.49,0.21423125267028809,0.03317735344171524,0.07347685098648071,0.016819290816783905,6.535994529724121,-0.9024904370307922,0.7499855756759644,0.06,0.0,-0.04,225.53
1666654357.69860792,165909020,1,0.38,-0.12,349.49,0.20924384891986847,0.03246297314763069,0.07341925799846649,0.014323227107524872,6.542593002319336,-0.8995144367218018,0.750261664390564,0.06,0.0,-0.04,225.53
1666654357.73863888,165949051,1,0.38,-0.12,349.5,0.2017102688550949,0.03127161040902138,0.07292991131544113,0.01310341339558363,6.553511142730713,-0.8952264785766602,0.7513806819915771,0.06,0.0,-0.04,225.53
1666654357.77864695,165989059,1,0.38,-0.12,349.5,0.19489654898643494,0.03004595823585987,0.07283509522676468,0.015147117897868156,6.563397407531738,-0.8914576172828674,0.7526299953460693,0.06,0.0,-0.04,225.53
1666654357.81866503,166029077,1,0.38,-0.12,349.5,0.18577180802822113,0.030354805290699005,0.07255677133798599,0.020704399794340134,6.57673978805542,-0.8832278251647949,0.7534891366958618,0.06,0.0,-0.04,225.53
1666654357.85865998,166069072,1,0.38,-0.12,349.5,0.17754234373569489,0.031801510602235794,0.07231660932302475,0.02177584171295166,6.590104579925537,-0.8744954466819763,0.7545351982116699,0.06,0.0,-0.04,225.53
1666654357.87863493,166089047,1,0.38,-0.12,349.5,0.17462725937366486,0.03226981684565544,0.0722251608967781,0.021797150373458862,6.595353126525879,-0.871575653553009,0.7554041147232056,0.06,0.0,-0.04,225.53
1666654357.89869094,166109103,1,0.38,-0.12,349.5,0.17002372443675995,0.03303426504135132,0.07236812263727188,0.02252422273159027,6.601909160614014,-0.8666510581970215,0.7557767629623413,0.06,0.0,-0.04,225.53
1666654357.93864202,166149054,1,0.38,-0.11,349.5,0.1628570854663849,0.03397008031606674,0.07245875895023346,0.022675979882478714,6.612429141998291,-0.8595629334449768,0.7566709518432617,0.06,0.0,-0.04,225.53
1666654357.97864294,166189055,1,0.39,-0.11,349.5,0.15632523596286774,0.035093072801828384,0.07216659933328629,0.019443204626441002,6.621852874755859,-0.8531259894371033,0.7575421333312988,0.06,0.0,-0.04,225.53
1666654358.01863694,166229049,1,0.39,-0.11,349.5,0.14808689057826996,0.03523418679833412,0.07174259424209595,0.019003339111804962,6.635667324066162,-0.8435814380645752,0.7578031420707703,0.06,0.0,-0.04,225.53
1666654358.05866599,166269078,1,0.39,-0.11,349.5,0.14137570559978485,0.034832410514354706,0.0716160461306572,0.01625971496105194,6.649331092834473,-0.8353565335273743,0.7585684657096863,0.06,0.0,-0.04,225.53
1666654358.07864189,166289054,1,0.39,-0.11,349.5,0.13864092528820038,0.03437849134206772,0.07181163132190704,0.01574822887778282,6.654512882232666,-0.8325762152671814,0.759392261505127,0.06,0.0,-0.04,225.53
1666654358.09862494,166309037,1,0.39,-0.11,349.5,0.13471384346485138,0.03391457721590996,0.07161276787519455,0.01582357846200466,6.661487102508545,-0.8280200362205505,0.7596292495727539,0.06,0.0,-0.04,225.53
1666654358.13867402,166349086,1,0.39,-0.11,349.5,0.12925276160240173,0.03285042569041252,0.07125315815210342,0.017038950696587563,6.672234535217285,-0.8215094804763794,0.7605541348457336,0.06,0.0,-0.04,225.53
1666654358.17863488,166389047,1,0.39,-0.11,349.5,0.12380866706371307,0.03219263628125191,0.07123227417469025,0.01843663677573204,6.681825637817383,-0.815717339515686,0.7615617513656616,0.06,0.0,-0.04,225.53
1666654358.21863794,166429050,1,0.39,-0.11,349.5,0.11557049304246902,0.03131648898124695,0.07098526507616043,0.02241317555308342,6.695147514343262,-0.8061959743499756,0.7623441219329834,0.06,0.0,-0.04,225.53
1666654358.25866199,166469074,1,0.39,-0.11,349.5,0.1075633242726326,0.03104759380221367,0.07140891999006271,0.025934549048542976,6.707358360290527,-0.7974739670753479,0.7635635137557983,0.06,0.0,-0.04,225.53
1666654358.27864695,166489059,1,0.39,-0.11,349.51,0.10444824397563934,0.030707450583577156,0.07170798629522324,0.027601417154073715,6.711745738983154,-0.7945961356163025,0.764489471912384,0.06,0.0,-0.04,225.53
1666654358.29866195,166509074,1,0.39,-0.11,349.51,0.10033220797777176,0.030433783307671547,0.07159089297056198,0.029055427759885788,6.717895030975342,-0.789783775806427,0.7649515271186829,0.06,0.0,-0.04,225.53
1666654358.33869290,166549105,1,0.4,-0.12,349.51,0.09309091418981552,0.02985388971865177,0.07167606800794601,0.031486038118600845,6.727144241333008,-0.7829477787017822,0.7662034630775452,0.06,0.0,-0.04,225.53
1666654358.37866807,166589080,1,0.4,-0.12,349.51,0.08624213188886642,0.029012156650424004,0.0718427374958992,0.03145119547843933,6.735137462615967,-0.7768983840942383,0.7674540877342224,0.06,0.0,-0.04,225.53
1666654358.41863799,166629050,1,0.4,-0.12,349.51,0.07901300489902496,0.028616011142730713,0.07184574007987976,0.03269275277853012,6.7486042976379395,-0.7666916251182556,0.7683100700378418,0.06,0.0,-0.04,225.53
1666654358.45863700,166669049,1,0.4,-0.12,349.51,0.0726872906088829,0.028251929208636284,0.07148037105798721,0.03124517947435379,6.761684894561768,-0.7573054432868958,0.76957106590271,0.06,0.0,-0.04,225.53
1666654358.47869587,166689108,1,0.4,-0.12,349.5,0.07000520825386047,0.028157442808151245,0.07137353718280792,0.031038500368595123,6.76611328125,-0.7542434930801392,0.7705117464065552,0.06,0.0,-0.04,225.53
1666654358.49866486,166709077,1,0.4,-0.12,349.51,0.06712145358324051,0.02786494418978691,0.0713142603635788,0.03138596937060356,6.7730302810668945,-0.7490167021751404,0.7710313200950623,0.06,0.0,-0.04,225.53
1666654358.53866291,166749075,1,0.4,-0.13,349.5,0.061737168580293655,0.02747214399278164,0.0712190717458725,0.0304434671998024,6.78292989730835,-0.7416653633117676,0.7719605565071106,0.06,0.0,-0.04,225.53
1666654358.57870388,166789116,1,0.4,-0.13,349.5,0.05660761520266533,0.02724733203649521,0.07098111510276794,0.0242629274725914,6.791500568389893,-0.7351540327072144,0.7727548480033875,0.06,0.0,-0.04,225.53
1666654358.61863899,166829051,1,0.41000000000000003,-0.13,349.5,0.0503309890627861,0.02594326063990593,0.0715935006737709,0.023729531094431877,6.805176258087158,-0.7255035042762756,0.77361661195755,0.05,0.0,-0.04,225.53
1666654358.65863609,166869048,1,0.41000000000000003,-0.13,349.5,0.04430215805768967,0.024309182539582253,0.07155860960483551,0.027003424242138863,6.8175177574157715,-0.7173843383789062,0.7750577926635742,0.05,0.0,-0.04,225.53
1666654358.67869401,166889106,1,0.41000000000000003,-0.14,349.5,0.041632670909166336,0.023592358455061913,0.07159896194934845,0.029121747240424156,6.821513652801514,-0.7147641777992249,0.776059627532959,0.05,0.0,-0.04,225.53
1666654358.69863892,166909051,1,0.41000000000000003,-0.14,349.5,0.03823227807879448,0.02259286306798458,0.07168248295783997,0.031623028218746185,6.828123092651367,-0.7103227972984314,0.7766954898834229,0.05,0.0,-0.04,225.53
1666654358.73865795,166949070,1,0.41000000000000003,-0.14,349.5,0.032990433275699615,0.02059144899249077,0.07205229997634888,0.03514476120471954,6.837215423583984,-0.7041956782341003,0.7780620455741882,0.05,0.0,-0.04,225.53
1666654358.77864599,166989058,1,0.41000000000000003,-0.14,349.5,0.027708420529961586,0.018490217626094818,0.0725216269493103,0.03482815995812416,6.844974517822266,-0.6989189386367798,0.7794014811515808,0.05,0.0,-0.04,225.53
1666654358.81869102,167029103,1,0.41000000000000003,-0.14,349.49,0.02484806813299656,0.017358435317873955,0.07320612668991089,0.039275478571653366,6.860940456390381,-0.6890934705734253,0.7815901041030884,0.05,0.0,-0.04,225.53
1666654358.85865808,167069070,1,0.41000000000000003,-0.15,349.49,0.023017538711428642,0.01709531433880329,0.07373245060443878,0.0537753589451313,6.876772880554199,-0.6797538995742798,0.7843697667121887,0.05,0.0,-0.04,225.53
1666654358.87867308,167089085,1,0.42,-0.15,349.49,0.021753041073679924,0.016924066469073296,0.07382949441671371,0.06043579801917076,6.881753444671631,-0.676792562007904,0.7858028411865234,0.05,0.0,-0.04,225.53
1666654358.89863706,167109049,1,0.42,-0.15,349.49,0.021407047286629677,0.016680080443620682,0.07428538799285889,0.0664578303694725,6.8906569480896,-0.6715753078460693,0.7872182726860046,0.05,0.0,-0.04,225.53
1666654358.93863893,167149051,1,0.42,-0.15,349.49,0.01930917240679264,0.0162785816937685,0.07472896575927734,0.07236321270465851,6.902835369110107,-0.6644147634506226,0.7895535826683044,0.05,0.0,-0.04,225.53
1666654358.97866702,167189079,1,0.42,-0.15,349.48,0.01772906258702278,0.01569373533129692,0.07530257105827332,0.06957700848579407,6.9135284423828125,-0.6581405997276306,0.7917494177818298,0.05,0.0,-0.04,225.53
1666654359.01868486,167229097,1,0.42,-0.15,349.48,0.019057270139455795,0.016007592901587486,0.0758964791893959,0.06771543622016907,6.933584690093994,-0.6471849083900452,0.7940042614936829,0.05,0.0,-0.04,225.53
1666654359.05867696,167269089,1,0.43,-0.15,349.48,0.02011558786034584,0.016161881387233734,0.07654495537281036,0.06330419331789017,6.952430248260498,-0.6372093558311462,0.7960083484649658,0.05,0.0,-0.04,225.53
1666654359.07867098,167289083,1,0.43,-0.16,349.47,0.019738558679819107,0.01600341871380806,0.07684473693370819,0.06080450117588043,6.958359241485596,-0.6340553164482117,0.7971948385238647,0.05,0.0,-0.04,225.53
1666654359.09864902,167309061,1,0.43,-0.16,349.47,0.02097822166979313,0.01657308265566826,0.07722797244787216,0.058771632611751556,6.969178676605225,-0.6284196972846985,0.7981981039047241,0.05,0.0,-0.04,225.53
1666654359.13862991,167349042,1,0.43,-0.16,349.47,0.021517448127269745,0.016491618007421494,0.0777456983923912,0.053798940032720566,6.984086513519287,-0.6206686496734619,0.7998560070991516,0.05,0.0,-0.04,225.53
1666654359.17867804,167389090,1,0.43,-0.16,349.47,0.02135060541331768,0.016748011112213135,0.0784996896982193,0.04532463103532791,6.997350692749023,-0.6138238906860352,0.8014247417449951,0.05,0.0,-0.04,225.53
1666654359.21864700,167429059,1,0.44,-0.16,349.47,0.0220342967659235,0.018678953871130943,0.07909344881772995,0.040576107800006866,7.01793909072876,-0.6012137532234192,0.8023810982704163,0.05,0.0,-0.04,225.53
1666654359.25869799,167469110,1,0.44,-0.16,349.47,0.02064918912947178,0.02037227898836136,0.07916218787431717,0.03066950850188732,7.035290241241455,-0.5893754959106445,0.8034124970436096,0.05,0.0,-0.04,225.53
1666654359.27863908,167489051,1,0.44,-0.16,349.47,0.018999261781573296,0.020843418315052986,0.07948621362447739,0.027068769559264183,7.0407280921936035,-0.5855855345726013,0.8043498396873474,0.05,0.0,-0.04,225.53
1666654359.29864407,167509056,1,0.44,-0.16,349.47,0.019236324355006218,0.021257249638438225,0.07970909774303436,0.024712976068258286,7.050548076629639,-0.578835666179657,0.8047352433204651,0.05,0.0,-0.04,225.53
1666654359.33864093,167549053,1,0.44,-0.17,349.46,0.01754012703895569,0.022895222529768944,0.0791844055056572,0.020546892657876015,7.064032077789307,-0.569439172744751,0.8056567311286926,0.05,0.0,-0.04,225.53
1666654359.37864399,167589056,1,0.44,-0.17,349.47,0.017702486366033554,0.02378557063639164,0.07961748540401459,0.0157981738448143,7.075817108154297,-0.5610644221305847,0.8065972328186035,0.05,0.0,-0.04,225.53
1666654359.41866493,167629077,1,0.45,-0.17,349.47,0.016670461744070053,0.027289630845189095,0.08009188622236252,0.020653191953897476,7.102627277374268,-0.542647123336792,0.8075448274612427,0.05,0.0,-0.04,225.53
1666654359.45866704,167669079,1,0.44,-0.18,349.47,0.018157215788960457,0.030177095904946327,0.07888894528150558,0.018940851092338562,7.12006950378418,-0.5303670167922974,0.808443009853363,0.05,0.0,-0.04,225.53
1666654359.47864103,167689053,1,0.45,-0.18,349.47,0.01567063294351101,0.0296948179602623,0.07894551753997803,0.018352799117565155,7.125527858734131,-0.5263410210609436,0.8093332648277283,0.05,0.0,-0.04,225.53
1666654359.49867892,167709091,1,0.45,-0.18,349.47,0.015461113303899765,0.029742855578660965,0.07883428782224655,0.01831824891269207,7.1354241371154785,-0.5193319916725159,0.8096663951873779,0.05,0.0,-0.04,225.53
1666654359.53861904,167749031,1,0.45,-0.18,349.47,0.01522792037576437,0.03298776596784592,0.0796608254313469,0.019364912062883377,7.148939609527588,-0.5094659924507141,0.810506284236908,0.05,0.0,-0.04,225.53
1666654359.57864308,167789055,1,0.45,-0.18,349.47,0.013393294997513294,0.033791959285736084,0.08015668392181396,0.017562303692102432,7.1608052253723145,-0.5005661249160767,0.8114413619041443,0.05,0.0,-0.04,225.53
1666654359.61865401,167829066,1,0.45,-0.17,349.46,0.013840384781360626,0.03601546213030815,0.07975389808416367,0.01838456466794014,7.181519031524658,-0.48625150322914124,0.8115613460540771,0.05,0.0,-0.04,225.53
1666654359.65867186,167869084,1,0.45,-0.18,349.46,0.015364238992333412,0.037620630115270615,0.0796634703874588,0.012907972559332848,7.200133800506592,-0.47356513142585754,0.811930239200592,0.05,0.0,-0.04,225.53
1666654359.67864299,167889055,1,0.46,-0.18,349.46,0.015232530422508717,0.038467321544885635,0.08035686612129211,0.010949688032269478,7.205963134765625,-0.46935805678367615,0.8127168416976929,0.05,0.0,-0.04,225.53
1666654359.69865203,167909064,1,0.46,-0.18,349.46,0.016095342114567757,0.039093319326639175,0.08000652492046356,0.009187753312289715,7.216609477996826,-0.4621487557888031,0.8127705454826355,0.05,0.0,-0.04,225.53
1666654359.73866892,167949081,1,0.46,-0.18,349.47,0.015887804329395294,0.0417470782995224,0.07955558598041534,0.004757641348987818,7.231154441833496,-0.4519299268722534,0.8126739263534546,0.05,0.0,-0.04,225.53
1666654359.77864099,167989053,1,0.44,-0.18,349.48,0.015756383538246155,0.043148573487997055,0.0806078091263771,-0.004206283017992973,7.243958950042725,-0.4427078068256378,0.8124585747718811,0.05,0.0,-0.04,225.53
1666654359.81863904,168029051,1,0.43,-0.18,349.48,0.018745047971606255,0.04610208049416542,0.07740283757448196,-0.011220546439290047,7.26719331741333,-0.4274517595767975,0.8113518357276917,0.05,0.0,-0.04,225.53
1666654359.85865498,168069067,1,0.43,-0.19,349.49,0.024695392698049545,0.04745395481586456,0.0775870755314827,-0.016392098739743233,7.288575172424316,-0.41353684663772583,0.8110890984535217,0.05,0.0,-0.04,225.53
1666654359.87862706,168089039,1,0.45,-0.18,349.48,0.022869545966386795,0.043259598314762115,0.07597967237234116,-0.019153334200382233,7.295325756072998,-0.40889284014701843,0.8116440176963806,0.05,0.0,-0.04,225.53
1666654359.89866686,168109079,1,0.46,-0.18,349.48,0.02163182757794857,0.05252283811569214,0.08080361038446426,-0.013874039053916931,7.307605743408203,-0.40107443928718567,0.811281144618988,0.05,0.0,-0.04,225.53
1666654359.93869305,168149105,1,0.45,-0.2,349.48,0.025826741009950638,0.04591566324234009,0.07537596672773361,-0.015867535024881363,7.324563503265381,-0.38996535539627075,0.8113519549369812,0.05,0.0,-0.04,225.53
1666654359.97866297,168189075,1,0.43,-0.19,349.48,0.02544061839580536,0.05125536024570465,0.08145637065172195,-0.005991517100483179,7.33968448638916,-0.3798381984233856,0.8116087913513184,0.05,0.0,-0.04,225.53
1666654360.01864290,168229055,1,0.45,-0.19,349.47,0.03240331634879112,0.0571051724255085,0.07604269683361053,-0.002312992699444294,7.362117290496826,-0.36535149812698364,0.8118270635604858,0.05,0.0,-0.04,225.53
1666654360.05864286,168269055,1,0.46,-0.18,349.49,0.03594847768545151,0.054555896669626236,0.07536070048809052,0.00820600613951683,7.380582809448242,-0.35318881273269653,0.8128448128700256,0.05,0.0,-0.04,225.53
1666654360.07869887,168289111,1,0.44,-0.2,349.49,0.028882596641778946,0.05893334746360779,0.07006540149450302,0.008210428059101105,7.386496543884277,-0.3490397334098816,0.8138405680656433,0.05,0.0,-0.04,225.53
1666654360.09867096,168309083,1,0.45,-0.2,349.49,0.031631916761398315,0.04564895108342171,0.08785051852464676,0.030677443370223045,7.396907329559326,-0.3423823416233063,0.8141896724700928,0.05,0.0,-0.04,225.53
1666654360.13866687,168349079,1,0.46,-0.19,349.49,0.029744599014520645,0.060086190700531006,0.07601094245910645,0.025633899495005608,7.411299705505371,-0.3328278958797455,0.815215528011322,0.05,0.0,-0.04,225.53
1666654360.17868996,168389102,1,0.49,-0.2,349.51,0.025900017470121384,0.04795828089118004,0.07047628611326218,0.020725250244140625,7.424020767211914,-0.3242504298686981,0.8162479400634766,0.05,0.0,-0.04,225.53
1666654360.21864009,168429052,1,0.44,-0.19,349.51,0.033442363142967224,0.055368732661008835,0.08414845913648605,0.03647114336490631,7.445631980895996,-0.3105899691581726,0.8167027235031128,0.05,0.0,-0.04,225.53
1666654360.25864291,168469055,1,0.49,-0.2,349.5,0.029151665046811104,0.05844217166304588,0.08041100203990936,0.029435032978653908,7.465273380279541,-0.29809215664863586,0.8175182342529297,0.05,0.0,-0.04,225.53
1666654360.27862597,168489038,1,0.45,-0.2,349.5,0.031274378299713135,0.060892559587955475,0.08412052690982819,0.03156409040093422,7.471479415893555,-0.2938436269760132,0.8184274435043335,0.05,0.0,-0.04,225.53
1666654360.29864097,168509053,1,0.45,-0.19,349.51,0.03165263310074806,0.05536435544490814,0.07914441078901291,0.025674931704998016,7.4825358390808105,-0.2869495749473572,0.8186157941818237,0.05,0.0,-0.04,225.53
1666654360.33866906,168549081,1,0.44,-0.19,349.51,0.03618653118610382,0.051849015057086945,0.0791802629828453,0.02455306611955166,7.497889041900635,-0.27703985571861267,0.8194570541381836,0.05,0.0,-0.04,225.53
1666654360.37865901,168589071,1,0.5,-0.2,349.53000000000003,0.030763810500502586,0.05941775068640709,0.07931758463382721,0.021892938762903214,7.511462688446045,-0.2681359648704529,0.820356011390686,0.05,0.0,-0.04,225.53
1666654360.41868997,168629102,1,0.45,-0.2,349.53000000000003,0.036121293902397156,0.04902856424450874,0.07784493267536163,0.021330874413251877,7.532657623291016,-0.25477471947669983,0.820711612701416,0.05,0.0,-0.04,225.53
1666654360.45863509,168669047,1,0.47000000000000003,-0.21,349.53000000000003,0.032017678022384644,0.0585668683052063,0.08115032315254211,0.022183619439601898,7.550893306732178,-0.24286606907844543,0.8214883804321289,0.05,0.0,-0.04,225.53
1666654360.47868705,168689099,1,0.45,-0.21,349.53000000000003,0.034464769065380096,0.05525130406022072,0.07970301806926727,0.02008705772459507,7.5567145347595215,-0.2387804239988327,0.8223863244056702,0.05,0.0,-0.04,225.53
1666654360.49864793,168709060,1,0.47000000000000003,-0.2,349.52,0.03770751878619194,0.05548819899559021,0.07462490350008011,0.015095224604010582,7.567024230957031,-0.23215162754058838,0.8226296305656433,0.05,0.0,-0.04,225.53
1666654360.53864908,168749061,1,0.47000000000000003,-0.2,349.52,0.030563434585928917,0.05512140691280365,0.08591342717409134,0.024790773168206215,7.5812087059021,-0.22263586521148682,0.8229891657829285,0.05,0.0,-0.04,225.53
1666654360.57866597,168789078,1,0.45,-0.21,349.53000000000003,0.03937879204750061,0.056078556925058365,0.07777868211269379,0.008809860795736313,7.59372091293335,-0.2141619473695755,0.8232042193412781,0.05,0.0,-0.04,225.53
1666654360.61863708,168829049,1,0.48,-0.2,349.53000000000003,0.030666233971714973,0.05313405394554138,0.07833915948867798,0.00742377107962966,7.6130828857421875,-0.1999349445104599,0.8230505585670471,0.05,0.0,-0.05,225.53
1666654360.65868807,168869100,1,0.48,-0.21,349.53000000000003,0.038224197924137115,0.05303127318620682,0.0769490972161293,0.0021577002480626106,7.629674434661865,-0.18670709431171417,0.8232618570327759,0.05,0.0,-0.05,225.53
1666654360.67865705,168889069,1,0.5,-0.21,349.54,0.03494475409388542,0.05876051262021065,0.07797780632972717,0.001806860906071961,7.634988307952881,-0.1822446882724762,0.823925256729126,0.05,0.0,-0.05,225.53
1666654360.69864392,168909056,1,0.47000000000000003,-0.21,349.54,0.031212247908115387,0.06131560727953911,0.07743231952190399,0.00097517145331949,7.6442484855651855,-0.1748163253068924,0.8238898515701294,0.05,0.0,-0.05,225.53
1666654360.73864293,168949055,1,0.49,-0.22,349.54,0.03337225690484047,0.055792998522520065,0.08167796581983566,0.004081569612026215,7.6569719314575195,-0.16421450674533844,0.8237758278846741,0.05,0.0,-0.05,225.53
1666654360.77866888,168989081,1,0.48,-0.22,349.55,0.031318336725234985,0.061680179089307785,0.07619526237249374,-0.008456842973828316,7.668206214904785,-0.15462012588977814,0.8235465288162231,0.05,0.0,-0.05,225.53
1666654360.81867003,169029082,1,0.48,-0.22,349.55,0.03614460676908493,0.06241247057914734,0.07934292405843735,0.00013804661284666508,7.696936130523682,-0.1355026513338089,0.82383131980896,0.05,0.0,-0.05,225.53
1666654360.85869598,169069108,1,0.48,-0.22,349.54,0.03671737015247345,0.059762176126241684,0.07780966907739639,0.004616908263415098,7.716039180755615,-0.12244493514299393,0.8245322108268738,0.05,0.0,-0.05,225.53
1666654360.87864399,169089056,1,0.48,-0.22,349.55,0.03447486832737923,0.06457388401031494,0.07846017926931381,0.008041750639677048,7.72209358215332,-0.11798080056905746,0.82535719871521,0.05,0.0,-0.05,225.53
1666654360.89865494,169109067,1,0.47000000000000003,-0.22,349.55,0.03736419230699539,0.06158139184117317,0.07971082627773285,0.012616395950317383,7.732801914215088,-0.11074502766132355,0.8255457282066345,0.05,0.0,-0.05,225.53
1666654360.93864393,169149056,1,0.48,-0.22,349.55,0.040480054914951324,0.06268403679132462,0.0785348042845726,0.015575563535094261,7.747782230377197,-0.1003422811627388,0.8261234164237976,0.05,0.0,-0.05,225.53
1666654360.97864199,169189054,1,0.51,-0.22,349.56,0.03706733137369156,0.0701974406838417,0.08691779524087906,0.022526398301124573,7.761029243469238,-0.09082192182540894,0.8266466856002808,0.05,0.0,-0.05,225.53
1666654361.01866794,169229080,1,0.49,-0.22,349.56,0.046162620186805725,0.06564252823591232,0.07971685379743576,0.01823558658361435,7.783681869506836,-0.07632637768983841,0.8272126317024231,0.05,0.0,-0.05,225.53
1666654361.05866909,169269081,1,0.48,-0.23,349.56,0.04487614333629608,0.06823987513780594,0.07717042416334152,0.022965051233768463,7.804354667663574,-0.06317745894193649,0.8286728262901306,0.05,0.0,-0.05,225.53
1666654361.07864189,169289054,1,0.47000000000000003,-0.22,349.56,0.045678991824388504,0.06578042358160019,0.07666455209255219,0.026532871648669243,7.811004161834717,-0.05868004262447357,0.8297311067581177,0.05,0.0,-0.05,225.53
1666654361.09869504,169309107,1,0.5,-0.23,349.55,0.048187676817178726,0.06463102996349335,0.07811331003904343,0.03214264661073685,7.822717666625977,-0.05151116102933884,0.8303452134132385,0.05,0.0,-0.05,225.53
1666654361.13867092,169349083,1,0.52,-0.22,349.55,0.051509957760572433,0.06609322875738144,0.08220362663269043,0.04085814580321312,7.839194297790527,-0.04108216241002083,0.8315072059631348,0.05,0.0,-0.05,225.53
1666654361.17864203,169389054,1,0.51,-0.23,349.57,0.049439527094364166,0.06864985078573227,0.09074363112449646,0.046518031507730484,7.853751182556152,-0.03172192722558975,0.8325811624526978,0.05,0.0,-0.05,225.53
1666654361.21863103,169429043,1,0.48,-0.22,349.57,0.053636081516742706,0.07096622884273529,0.08066315203905106,0.037155505269765854,7.87378454208374,-0.01675703004002571,0.833545982837677,0.05,0.0,-0.05,225.53
1666654361.25866795,169469080,1,0.51,-0.2,349.58,0.05135393515229225,0.07176957279443741,0.08031481504440308,0.035789988934993744,7.889770984649658,-0.002832577796652913,0.834697961807251,0.05,0.0,-0.05,225.53
1666654361.27864599,169489058,1,0.49,-0.23,349.58,0.05250277370214462,0.06948017328977585,0.09138505160808563,0.045965489000082016,7.8950114250183105,0.0019239080138504505,0.8357378840446472,0.05,0.0,-0.05,225.53
1666654361.29864001,169509052,1,0.52,-0.22,349.59000000000003,0.04597656801342964,0.07911469042301178,0.08232513815164566,0.03666321933269501,7.903848648071289,0.009655006229877472,0.8361748456954956,0.05,0.0,-0.05,225.53
1666654361.33869505,169549107,1,0.53,-0.23,349.58,0.04628836363554001,0.07413015514612198,0.07104688882827759,0.02174467407166958,7.916264057159424,0.020763009786605835,0.8367534279823303,0.05,0.0,-0.05,225.53
1666654361.37863588,169589048,1,0.54,-0.21,349.58,0.04359377548098564,0.06940805912017822,0.07387431710958481,0.013856126926839352,7.927177906036377,0.030772751197218895,0.8371358513832092,0.05,0.0,-0.05,225.53
1666654361.41864395,169629056,1,0.5,-0.24,349.57,0.044801805168390274,0.06236395239830017,0.0725257620215416,0.007792956195771694,7.942741870880127,0.04658186435699463,0.8368721604347229,0.05,0.0,-0.05,225.53
1666654361.45864391,169669056,1,0.47000000000000003,-0.21,349.58,0.04608580470085144,0.0684143602848053,0.08440902084112167,0.009108971804380417,7.955664157867432,0.061222050338983536,0.8366865515708923,0.05,0.0,-0.05,225.53
1666654361.47864103,169689053,1,0.53,-0.22,349.59000000000003,0.04107717424631119,0.06684020161628723,0.07919890433549881,-0.0009185001254081726,7.9598708152771,0.06623036414384842,0.8372048139572144,0.05,0.0,-0.05,225.53
1666654361.49867988,169709092,1,0.5,-0.23,349.59000000000003,0.0455503910779953,0.08608419448137283,0.06884046643972397,-0.014379826374351978,7.966813564300537,0.07426507771015167,0.8368567824363708,0.05,0.0,-0.05,225.53
1666654361.53866792,169749080,1,0.49,-0.21,349.61,0.03442259877920151,0.06093868240714073,0.08155176788568497,-0.0074722967110574245,7.976457118988037,0.08602279424667358,0.8363131880760193,0.05,0.0,-0.05,225.53
1666654361.57866788,169789080,1,0.55,-0.24,349.62,0.031091993674635887,0.08060512691736221,0.07453806698322296,-0.024166589602828026,7.984778881072998,0.09662216901779175,0.8356994390487671,0.05,0.0,-0.05,225.53
1666654361.61864495,169829057,1,0.46,-0.23,349.64,0.042389966547489166,0.08547207713127136,0.09055675566196442,-0.010381918400526047,7.999610424041748,0.11192059516906738,0.8337171673774719,0.05,0.0,-0.05,225.53
1666654361.65863991,169869052,1,0.52,-0.21,349.68,0.032643504440784454,0.07637977600097656,0.07537530362606049,-0.03956292197108269,8.013614654541016,0.12535522878170013,0.8319758772850037,0.05,0.0,-0.05,225.53
1666654361.67869306,169889105,1,0.51,-0.23,349.69,0.030193442478775978,0.07344929128885269,0.062127258628606796,-0.05889303982257843,8.01806926727295,0.12999849021434784,0.8320531845092773,0.05,0.0,-0.05,225.53
1666654361.69867396,169909086,1,0.49,-0.23,349.69,0.029905391857028008,0.07153461128473282,0.07057514041662216,-0.054260365664958954,8.02574634552002,0.13729503750801086,0.8308590054512024,0.05,0.0,-0.05,225.53
1666654361.73866701,169949079,1,0.49,-0.21,349.71,0.0310885701328516,0.07053323835134506,0.0715913325548172,-0.056509602814912796,8.0362548828125,0.14795295894145966,0.82913738489151,0.05,0.0,-0.05,225.53
1666654361.77871990,169989132,1,0.5,-0.2,349.74,0.02761058136820793,0.07587879151105881,0.07365212589502335,-0.059304527938365936,8.045382499694824,0.1577085703611374,0.8275613188743591,0.05,0.0,-0.05,225.53
1666654361.81865287,170029065,1,0.53,-0.22,349.78000000000003,0.02931888774037361,0.07429537922143936,0.0744234248995781,-0.05498227849602699,8.061532974243164,0.173213928937912,0.8245388269424438,0.05,0.0,-0.05,225.53
1666654361.85866594,170069078,1,0.54,-0.21,349.82,0.03301199898123741,0.07737008482217789,0.08174820244312286,-0.05354827269911766,8.076554298400879,0.18770214915275574,0.8222654461860657,0.05,0.0,-0.05,225.53
1666654361.87864494,170089057,1,0.51,-0.21,349.83,0.03385600820183754,0.08076383918523788,0.07719054818153381,-0.060383930802345276,8.081313133239746,0.19268830120563507,0.8221550583839417,0.05,0.0,-0.05,225.53
1666654361.89864206,170109054,1,0.55,-0.22,349.85,0.03462966904044151,0.07781293988227844,0.07778323441743851,-0.06019145995378494,8.089694023132324,0.20065879821777344,0.8206595182418823,0.05,0.0,-0.05,225.53
1666654361.93866587,170149078,1,0.51,-0.23,349.90000000000003,0.029711928218603134,0.074138343334198,0.06778418272733688,-0.07042820751667023,8.101171493530273,0.21232753992080688,0.8182523846626282,0.05,0.0,-0.06,225.53
1666654361.97866702,170189079,1,0.52,-0.23,349.94,0.023333599790930748,0.0862584263086319,0.07421271502971649,-0.06889252364635468,8.111186027526855,0.22295109927654266,0.815893292427063,0.05,0.0,-0.06,225.53
1666654362.01870704,170229119,1,0.49,-0.22,349.99,0.02570990100502968,0.08650927990674973,0.061300210654735565,-0.07780647277832031,8.129532814025879,0.240060493350029,0.811923086643219,0.05,0.0,-0.06,225.53
1666654362.05862093,170269033,1,0.5,-0.22,350.04,0.03248857706785202,0.07928171008825302,0.06451768428087234,-0.08626747876405716,8.146862030029297,0.2560565769672394,0.808211624622345,0.05,0.0,-0.06,225.53
1666654362.07866406,170289076,1,0.49,-0.22,350.07,0.03154773637652397,0.07868203520774841,0.07138341665267944,-0.08557254821062088,8.152393341064453,0.2614985704421997,0.8075795769691467,0.05,0.0,-0.06,225.53
1666654362.09865308,170309065,1,0.48,-0.24,350.08,0.034688133746385574,0.08597320318222046,0.06339871138334274,-0.09743430465459824,8.162161827087402,0.2703644335269928,0.8052854537963867,0.05,0.0,-0.06,225.53
1666654362.13863897,170349051,1,0.46,-0.24,350.13,0.03284841030836105,0.08464749157428741,0.06563538312911987,-0.10327542573213577,8.175578117370605,0.2832850217819214,0.800858736038208,0.05,0.0,-0.06,225.53
1666654362.17866492,170389077,1,0.46,-0.24,350.18,0.031700145453214645,0.09545456618070602,0.0671607106924057,-0.11980658024549484,8.18734073638916,0.29503220319747925,0.7962599396705627,0.05,0.0,-0.06,225.53
1666654362.21865201,170429064,1,0.52,-0.22,350.22,0.024931970983743668,0.0837622657418251,0.07275878638029099,-0.11577405780553818,8.205965995788574,0.31213316321372986,0.7902677655220032,0.05,0.0,-0.06,225.53
1666654362.25871086,170469123,1,0.5,-0.2,350.26,0.03531373292207718,0.09476252645254135,0.06859582662582397,-0.1290200650691986,8.22217082977295,0.32720932364463806,0.7853030562400818,0.05,0.0,-0.06,225.53
1666654362.27867103,170489083,1,0.55,-0.2,350.29,0.02110183611512184,0.07846952229738235,0.07098209112882614,-0.1296696662902832,8.227283477783203,0.33244702219963074,0.7842012643814087,0.05,0.0,-0.06,225.53
1666654362.29866195,170509074,1,0.5700000000000001,-0.17,350.32,0.03038851171731949,0.09655722230672836,0.06222189590334892,-0.13896426558494568,8.236332893371582,0.3407071828842163,0.7811170816421509,0.05,0.0,-0.06,225.53
1666654362.33864808,170549060,1,0.49,-0.19,350.37,0.022347263991832733,0.08256226778030396,0.06474339962005615,-0.14185307919979095,8.24869441986084,0.3529340922832489,0.7746385931968689,0.05,0.0,-0.06,225.53
1666654362.37864089,170589053,1,0.48,-0.15,350.41,0.026378465816378593,0.09520938247442245,0.04690888524055481,-0.18514221906661987,8.259550094604492,0.36407047510147095,0.7677103877067566,0.05,0.0,-0.06,225.53
1666654362.41866207,170629074,1,0.48,-0.15,350.46,0.02971396967768669,0.10775633156299591,0.0679931715130806,-0.17172443866729736,8.280069351196289,0.38265731930732727,0.7573552131652832,0.05,0.0,-0.07,225.53
1666654362.45865297,170669065,1,0.46,-0.08,350.53000000000003,0.0317196324467659,0.11071284115314484,0.06574821472167969,-0.21149277687072754,8.299515724182129,0.40046292543411255,0.7472578883171082,0.05,0.0,-0.07,225.53
1666654362.47864008,170689052,1,0.51,-0.04,350.55,0.025861550122499466,0.0886668935418129,0.047408170998096466,-0.2471269965171814,8.305628776550293,0.40670058131217957,0.7445631623268127,0.05,0.0,-0.07,225.53
1666654362.49868703,170709099,1,0.44,-0.07,350.58,0.031227072700858116,0.09345348179340363,0.03916199505329132,-0.2661670744419098,8.316640853881836,0.4165109694004059,0.7386006712913513,0.05,0.0,-0.07,225.53
1666654362.53864193,170749054,1,0.4,-0.14,350.64,0.03094543144106865,0.07652183622121811,0.036345724016427994,-0.28771156072616577,8.331737518310547,0.4309307634830475,0.7271692752838135,0.05,0.0,-0.07,225.53
1666654362.57864499,170789057,1,0.36,-0.13,350.67,0.03350314497947693,0.07879752665758133,0.021473128348588943,-0.33451300859451294,8.345101356506348,0.44402483105659485,0.7151267528533936,0.05,0.0,-0.07,225.53
1666654362.61867809,170829090,1,0.15,0.0,350.71,0.03153133764863014,0.07304379343986511,-0.006056911312043667,-0.3655538558959961,8.36828899383545,0.4633312523365021,0.6979864239692688,0.05,0.0,-0.07,225.53
1666654362.65869093,170869103,1,0.01,0.05,350.74,0.042550280690193176,0.08019272983074188,-0.031293634325265884,-0.43193015456199646,8.389518737792969,0.4807046949863434,0.680905282497406,0.05,0.0,-0.07,225.53
1666654362.67861509,170889027,1,-0.05,-0.02,350.76,0.029838817194104195,0.10823085904121399,-0.04830365255475044,-0.4647083878517151,8.396286964416504,0.4866690933704376,0.6751834154129028,0.05,0.0,-0.07,225.53
1666654362.69869304,170909105,1,-0.04,0.02,350.77,0.03740457072854042,0.07830657064914703,-0.057193413376808167,-0.48365798592567444,8.40832805633545,0.4962104558944702,0.6647743582725525,0.05,0.0,-0.07,225.53
1666654362.73866487,170949077,1,-0.2,0.05,350.78000000000003,0.027821363881230354,0.08261812478303909,-0.09400378912687302,-0.5369192957878113,8.42500114440918,0.510077953338623,0.6447557210922241,0.05,0.0,-0.07,225.53
1666654362.77864194,170989054,1,-0.3,0.04,350.8,0.015900587663054466,0.0864759311079979,-0.10363130271434784,-0.5812217593193054,8.439732551574707,0.5225671529769897,0.6240701079368591,0.05,0.0,-0.07,225.53
1666654362.81864405,171029056,1,-0.28,0.07,350.8,0.01789523847401142,0.08112965524196625,-0.0989433005452156,-0.5804261565208435,8.463940620422363,0.543351411819458,0.5972282886505127,0.05,0.0,-0.07,225.53
1666654362.85866594,171069078,1,-0.35000000000000003,0.16,350.81,0.025413472205400467,0.09298717975616455,-0.09734917432069778,-0.6182252168655396,8.485365867614746,0.5628849864006042,0.5732501149177551,0.05,0.0,-0.07,225.53
1666654362.87864399,171089056,1,-0.43,0.2,350.83,0.03963301330804825,0.0951477438211441,-0.09368319064378738,-0.6293110847473145,8.492130279541016,0.5694869756698608,0.5650181770324707,0.05,0.0,-0.07,225.53
1666654362.89867187,171109084,1,-0.32,0.25,350.82,0.024213088676333427,0.08662110567092896,-0.08951955288648605,-0.6311169862747192,8.504189491271973,0.5804017186164856,0.5511667728424072,0.05,0.0,-0.07,225.53
1666654362.93869996,171149112,1,-0.24,0.32,350.83,0.026905929669737816,0.08837731927633286,-0.1128845140337944,-0.6576265692710876,8.520735740661621,0.5961220264434814,0.5262631773948669,0.05,0.0,-0.08,225.53
1666654362.97864294,171189055,1,-0.26,0.33,350.81,0.030254105105996132,0.0971602275967598,-0.1501937359571457,-0.7049967646598816,8.535395622253418,0.6102297902107239,0.5012462735176086,0.05,0.0,-0.08,225.53
1666654363.01864195,171229054,1,-0.21,0.3,350.81,0.021808108314871788,0.1036042869091034,-0.16037781536579132,-0.6906341910362244,8.557096481323242,0.6300639510154724,0.47145265340805054,0.05,0.0,-0.08,225.53
1666654363.05864096,171269053,1,-0.17,0.27,350.8,0.026603473350405693,0.09379417449235916,-0.16374093294143677,-0.6912335753440857,8.57498550415039,0.6469770669937134,0.4455481171607971,0.05,0.0,-0.08,225.53
1666654363.07865906,171289071,1,-0.23,0.34,350.79,0.02656206674873829,0.07324079424142838,-0.18377964198589325,-0.708495557308197,8.58056640625,0.652732789516449,0.4363417327404022,0.05,0.0,-0.08,225.53
1666654363.09866786,171309080,1,-0.16,0.21,350.79,0.037422798573970795,0.10330300778150558,-0.1516169160604477,-0.6671688556671143,8.59062671661377,0.6621292233467102,0.4219967722892761,0.05,0.0,-0.08,225.53
1666654363.13864207,171349054,1,-0.06,0.13,350.77,0.03576023504137993,0.09830965101718903,-0.15984897315502167,-0.6561065316200256,8.604281425476074,0.6757933497428894,0.39669525623321533,0.05,0.0,-0.08,225.53
1666654363.17866588,171389078,1,0.0,0.13,350.74,0.037660159170627594,0.09589958935976028,-0.18111951649188995,-0.6732378602027893,8.616186141967773,0.6879971027374268,0.37188830971717834,0.05,0.0,-0.08,225.53
1666654363.21863008,171429042,1,0.18,0.17,350.71,0.03987943381071091,0.09314962476491928,-0.17592352628707886,-0.6390880942344666,8.637459754943848,0.7056620717048645,0.3435458540916443,0.05,0.0,-0.08,225.53
1666654363.25865197,171469064,1,0.56,0.11,350.7,0.03845728188753128,0.09161073714494705,-0.18608634173870087,-0.6302565336227417,8.657129287719727,0.7214457392692566,0.3198624551296234,0.05,0.0,-0.08,225.53
1666654363.27873397,171489146,1,0.73,0.04,350.66,0.023251386359333992,0.09472713619470596,-0.2048085331916809,-0.6366891264915466,8.663395881652832,0.7270699143409729,0.310918927192688,0.05,0.0,-0.08,225.53
1666654363.29864097,171509053,1,0.78,0.08,350.65000000000003,0.03202541917562485,0.0912432074546814,-0.1947912573814392,-0.6122766733169556,8.674510955810547,0.735755443572998,0.2979145646095276,0.05,0.0,-0.08,225.53
1666654363.33866787,171549080,1,1.0,0.08,350.62,0.03057108074426651,0.0947335734963417,-0.20654557645320892,-0.6330106854438782,8.689836502075195,0.7486422657966614,0.2669450640678406,0.05,0.0,-0.08,225.53
1666654363.37870288,171589115,1,1.18,0.04,350.58,0.024483701214194298,0.10399259626865387,-0.20705774426460266,-0.7356396913528442,8.703258514404297,0.7603405714035034,0.23357881605625153,0.05,0.0,-0.08,225.53
1666654363.41865087,171629063,1,1.16,0.02,350.53000000000003,0.031840983778238297,0.10586927086114883,-0.21952618658542633,-0.8036326169967651,8.726841926574707,0.7774398326873779,0.1912742555141449,0.05,0.0,-0.09,225.53
1666654363.45864105,171669053,1,0.88,0.02,350.47,0.035214200615882874,0.12124256789684296,-0.24103520810604095,-0.9648978114128113,8.748601913452148,0.7928807139396667,0.14834417402744293,0.05,0.0,-0.09,225.53
1666654363.47865009,171689062,1,0.66,0.1,350.48,0.0339764840900898,0.08696199953556061,-0.221951425075531,-1.0123295783996582,8.755464553833008,0.798347532749176,0.13343031704425812,0.05,0.0,-0.09,225.53
1666654363.49864101,171709053,1,0.62,0.01,350.43,0.050674960017204285,0.13210125267505646,-0.2360474020242691,-1.0722880363464355,8.767792701721191,0.806710422039032,0.10963773727416992,0.05,0.0,-0.09,225.53
1666654363.53866792,171749080,1,0.85,-0.08,155.75,0.004498295020312071,0.0794304758310318,-0.23619410395622253,-1.1494102478027344,8.784236907958984,0.8192996978759766,0.06291138380765915,0.05,0.0,-0.09,225.53
1666654363.57867908,171789091,1,0.87,-0.06,155.69,0.0005825270782224834,0.07615813612937927,-0.2211214303970337,-1.2413402795791626,8.798288345336914,0.8302728533744812,0.015543635934591293,0.05,0.0,-0.09,225.53
1666654363.61870503,171829117,1,1.12,-0.02,155.63,0.01110075693577528,0.07165994495153427,-0.23959524929523468,-1.2839432954788208,8.816679000854492,0.8434247970581055,-0.04224560037255287,0.05,0.0,-0.09,225.53
1666654363.65866089,171869073,1,1.29,0.01,155.75,0.021406706422567368,0.06487006694078445,-0.25806209444999695,-1.3850250244140625,8.830512046813965,0.8535628914833069,-0.09422896057367325,0.05,0.0,-0.09,225.53
1666654363.67866993,171889082,1,1.35,-0.01,155.83,0.03525995835661888,0.08188750594854355,-0.20215895771980286,-1.3549143075942993,8.834929466247559,0.8569937348365784,-0.1116088405251503,0.05,0.0,-0.09,225.53
1666654363.69863987,171909052,1,1.35,-0.06,155.89000000000001,0.02400078810751438,0.0494973324239254,-0.20597073435783386,-1.3693550825119019,8.842718124389648,0.8620941042900085,-0.14030015468597412,0.05,0.0,-0.09,225.53
1666654363.73864508,171949057,1,1.46,-0.06,156.1,0.03299224004149437,0.04594646766781807,-0.1913062036037445,-1.3420429229736328,8.853671073913574,0.8694441914558411,-0.18870271742343903,0.05,0.0,-0.09,225.53
1666654363.77866507,171989077,1,1.47,-0.03,156.4,0.043718013912439346,0.048207879066467285,-0.20142336189746857,-1.344525694847107,8.863919258117676,0.8757168650627136,-0.23530533909797668,0.05,0.0,-0.09,225.53
1666654363.81867099,172029083,1,1.43,-0.04,156.71,0.04920985922217369,0.05757039412856102,-0.17778527736663818,-1.249240517616272,8.881616592407227,0.8866833448410034,-0.288318932056427,0.05,0.0,-0.09,225.53
1666654363.85869694,172069109,1,1.35,-0.02,157.12,0.056676965206861496,0.05848202854394913,-0.17907199263572693,-1.1871083974838257,8.898080825805664,0.8972887992858887,-0.3296620547771454,0.05,0.0,-0.09,225.53
1666654363.87867808,172089090,1,1.28,-0.12,157.3,0.07020667940378189,0.03032013401389122,-0.22215691208839417,-1.1935150623321533,8.9036226272583,0.9007396101951599,-0.3436494469642639,0.05,0.0,-0.09,225.53
1666654363.89866590,172109078,1,1.06,-0.09,157.5,0.0723162516951561,0.05081215500831604,-0.19405828416347504,-1.1207940578460693,8.91315746307373,0.9064734578132629,-0.366537481546402,0.05,0.0,-0.09,225.53
1666654363.93867588,172149088,1,0.89,-0.14,157.84,0.09355590492486954,0.05209185555577278,-0.1752481758594513,-1.0270748138427734,8.927022933959961,0.9144923686981201,-0.4061765670776367,0.05,0.0,-0.09,225.53
1666654363.97864199,172189054,1,0.74,-0.16,158.12,0.0957307517528534,0.04737204685807228,-0.17404639720916748,-0.9985654354095459,8.939870834350586,0.9214451909065247,-0.44458794593811035,0.05,0.0,-0.09,225.53
1666654364.01867795,172229090,1,0.61,-0.13,158.36,0.0954071581363678,0.05050775036215782,-0.15359587967395782,-0.9226695895195007,8.959227561950684,0.9354122877120972,-0.48853224515914917,0.05,0.0,-0.09,225.53
1666654364.05863500,172269047,1,0.51,-0.08,158.59,0.09589321166276932,0.04371940344572067,-0.14524546265602112,-0.8902658224105835,8.976584434509277,0.9494034647941589,-0.5236441493034363,0.05,0.0,-0.09,225.53
1666654364.07864189,172289054,1,0.54,-0.18,158.69,0.09778109192848206,0.02031993307173252,-0.16108734905719757,-0.8901435732841492,8.98261547088623,0.9539009928703308,-0.5354450941085815,0.05,0.0,-0.09,225.53
1666654364.09871101,172309123,1,0.43,-0.12,158.78,0.10577578842639923,0.036308594048023224,-0.15371131896972656,-0.862140953540802,8.992399215698242,0.9618500471115112,-0.5548239350318909,0.05,0.0,-0.09,225.53
1666654364.13862801,172349040,1,0.34,-0.16,158.91,0.11750523746013641,0.039981450885534286,-0.15310038626194,-0.8084449172019958,9.006885528564453,0.9729288220405579,-0.5849502682685852,0.05,0.0,-0.09,225.53
1666654364.17864490,172389057,1,0.2,-0.2,159.0,0.1222158893942833,0.045745883136987686,-0.15137845277786255,-0.7522937059402466,9.0201416015625,0.9828327298164368,-0.6129986643791199,0.05,0.0,-0.09,225.53
1666654364.21868300,172429095,1,0.0,-0.28,159.06,0.1267092227935791,0.05672898888587952,-0.15533383190631866,-0.6802113056182861,9.037742614746094,0.9977590441703796,-0.6439369320869446,0.05,0.0,-0.09,225.53
1666654364.25867200,172469084,1,-0.09,-0.3,159.11,0.12785184383392334,0.059970393776893616,-0.1396675407886505,-0.6051860451698303,9.052968978881836,1.0107436180114746,-0.66783607006073,0.05,0.0,-0.09,225.53
1666654364.27864408,172489056,1,-0.04,-0.3,159.12,0.1290961056947708,0.04163825511932373,-0.1660737693309784,-0.6041991710662842,9.058642387390137,1.0150871276855469,-0.6763623952865601,0.05,0.0,-0.09,225.53
1666654364.29869509,172509107,1,-0.23,-0.33,159.13,0.12077251821756363,0.05532853677868843,-0.13610178232192993,-0.546704888343811,9.067001342773438,1.0225454568862915,-0.6894259452819824,0.05,0.0,-0.09,225.53
1666654364.33867407,172549086,1,-0.33,-0.37,159.15,0.12083973735570908,0.04718342423439026,-0.16110612452030182,-0.5327765345573425,9.079861640930176,1.033229112625122,-0.7124615907669067,0.05,0.0,-0.09,225.53
1666654364.37863994,172589052,1,-0.35000000000000003,-0.35000000000000003,159.16,0.1261918544769287,0.047394584864377975,-0.17599830031394958,-0.5366091132164001,9.091679573059082,1.042992353439331,-0.7354005575180054,0.05,0.0,-0.09,225.53
1666654364.41863990,172629052,1,-0.33,-0.33,159.15,0.12903979420661926,0.04622267559170723,-0.20618484914302826,-0.539656400680542,9.106223106384277,1.0572072267532349,-0.7568901181221008,0.05,0.0,-0.09,225.53
1666654364.45866895,172669081,1,-0.24,-0.26,159.13,0.1416032612323761,0.06914062052965164,-0.23188446462154388,-0.461942195892334,9.11885929107666,1.06979501247406,-0.7694376707077026,0.05,0.0,-0.09,225.53
1666654364.47864509,172689057,1,-0.29,-0.2,159.16,0.1454077959060669,0.06382659077644348,-0.21687643229961395,-0.38651424646377563,9.123906135559082,1.0743306875228882,-0.7752841711044312,0.05,0.0,-0.09,225.53
1666654364.49866986,172709082,1,-0.21,-0.21,159.12,0.15883056819438934,0.08968058973550797,-0.24542643129825592,-0.361359566450119,9.130599975585938,1.081412434577942,-0.7821298837661743,0.05,0.0,-0.09,225.53
1666654364.53869796,172749110,1,-0.07,-0.12,159.11,0.1609036922454834,0.08169487118721008,-0.2500409185886383,-0.27231812477111816,9.14147663116455,1.0920335054397583,-0.7931333184242249,0.05,0.0,-0.09,225.53
1666654364.57864594,172789058,1,0.1,-0.03,159.11,0.1583874523639679,0.08132228255271912,-0.2739012837409973,-0.21738329529762268,9.151580810546875,1.1017500162124634,-0.8039563894271851,0.05,0.0,-0.09,225.53
1666654364.61864209,172829054,1,0.27,0.01,159.09,0.160700261592865,0.07466074079275131,-0.3411036729812622,-0.23386706411838531,9.160894393920898,1.115913987159729,-0.8136681914329529,0.05,0.0,-0.09,225.53
1666654364.65864086,172869053,1,0.42,0.12,159.06,0.16907580196857452,0.09605037420988083,-0.3902122676372528,-0.22208605706691742,9.168198585510254,1.1286673545837402,-0.8233598470687866,0.05,0.0,-0.09,225.53
1666654364.67864895,172889061,1,0.37,0.15,159.04,0.15621984004974365,0.07387320697307587,-0.39169156551361084,-0.19909042119979858,9.171585083007812,1.1331548690795898,-0.829440176486969,0.05,0.0,-0.09,225.53
1666654364.69866896,172909081,1,0.45,0.26,159.03,0.17049963772296906,0.10175694525241852,-0.41683897376060486,-0.20714117586612701,9.17503833770752,1.1399145126342773,-0.8342406749725342,0.05,0.0,-0.09,225.53
1666654364.73865604,172949068,1,0.43,0.43,159.02,0.16296589374542236,0.08955777436494827,-0.44638699293136597,-0.20994582772254944,9.181928634643555,1.1500728130340576,-0.8446252346038818,0.05,0.0,-0.09,225.53
1666654364.77870488,172989117,1,0.47000000000000003,0.55,159.01,0.16481401026248932,0.07758355885744095,-0.45730212330818176,-0.19465371966362,9.188467025756836,1.159136414527893,-0.855285108089447,0.05,0.0,-0.09,225.53
1666654364.81862187,173029034,1,0.38,0.64,158.98,0.17324243485927582,0.056282639503479004,-0.5091639161109924,-0.23740054666996002,9.190574645996094,1.1703909635543823,-0.8620771765708923,0.05,0.0,-0.09,225.53
1666654364.85864806,173069060,1,0.38,0.62,158.98,0.1716056913137436,0.08001525700092316,-0.5594025254249573,-0.2201419174671173,9.191303253173828,1.1796915531158447,-0.8690552711486816,0.05,0.0,-0.09,225.53
1666654364.87869692,173089109,1,0.31,0.5700000000000001,158.99,0.18360969424247742,0.0739431232213974,-0.5525817275047302,-0.1811010241508484,9.19286823272705,1.1830872297286987,-0.8758878707885742,0.05,0.0,-0.09,225.53
1666654364.89864087,173109053,1,0.34,0.54,158.99,0.18245579302310944,0.08590905368328094,-0.5912306904792786,-0.19625307619571686,9.192599296569824,1.187842845916748,-0.879145622253418,0.05,0.0,-0.09,225.53
1666654364.93867707,173149089,1,0.34,0.4,159.01,0.17255164682865143,0.07124997675418854,-0.5966352820396423,-0.1628698855638504,9.19431209564209,1.1949429512023926,-0.8864515423774719,0.05,0.0,-0.09,225.53
1666654364.97862792,173189040,1,0.54,0.24,159.05,0.18222267925739288,0.07380108535289764,-0.6131141781806946,-0.12849634885787964,9.196624755859375,1.201149344444275,-0.8943833112716675,0.05,0.0,-0.09,225.53
1666654365.01866794,173229080,1,0.62,-0.04,159.08,0.17486268281936646,0.06168030574917793,-0.6231253147125244,-0.12113030254840851,9.188127517700195,1.2062638998031616,-0.8945728540420532,0.06,0.0,-0.09,225.53
1666654365.05864096,173269053,1,0.74,-0.35000000000000003,159.13,0.17435020208358765,0.06235552951693535,-0.6373828649520874,-0.06564988940954208,9.177806854248047,1.2091748714447021,-0.8968873620033264,0.06,0.0,-0.09,225.53
1666654365.07867599,173289088,1,0.64,-0.54,159.17000000000002,0.15833723545074463,0.04709482565522194,-0.6325347423553467,-0.031257517635822296,9.175755500793457,1.2104682922363281,-0.9026311635971069,0.06,0.0,-0.09,225.53
1666654365.09864497,173309057,1,0.72,-0.63,159.19,0.16974346339702606,0.07223539054393768,-0.6455796360969543,-0.025765325874090195,9.168737411499023,1.2115345001220703,-0.9024720191955566,0.06,0.0,-0.09,225.53
1666654365.13866901,173349081,1,0.65,-0.91,159.25,0.1509791910648346,0.07271622866392136,-0.6646550893783569,-0.03200354799628258,9.160719871520996,1.2133814096450806,-0.9080731868743896,0.06,0.0,-0.09,225.53
1666654365.17866492,173389077,1,0.5700000000000001,-1.22,159.29,0.12964275479316711,0.0632106140255928,-0.6849862933158875,-0.05372406169772148,9.153498649597168,1.2148455381393433,-0.9151342511177063,0.06,0.0,-0.09,225.53
1666654365.21869707,173429109,1,0.62,-1.49,159.32,0.1096063181757927,0.04225626215338707,-0.6818614602088928,-0.08287636935710907,9.138327598571777,1.216392159461975,-0.9157806634902954,0.06,0.0,-0.09,225.53
1666654365.25866008,173469072,1,0.65,-1.62,159.36,0.10087791085243225,0.04516375809907913,-0.6815742254257202,-0.07251639664173126,9.125799179077148,1.2180293798446655,-0.9205838441848755,0.06,0.0,-0.09,225.53
1666654365.27866793,173489080,1,0.7000000000000001,-1.6300000000000001,159.37,0.1122269257903099,0.03161967173218727,-0.6704582571983337,-0.06039651855826378,9.122549057006836,1.2186481952667236,-0.9268525242805481,0.06,0.0,-0.09,225.53
1666654365.29865193,173509064,1,0.63,-1.58,159.4,0.09197751432657242,0.039551880210638046,-0.6696193218231201,-0.06529192626476288,9.114453315734863,1.2190972566604614,-0.9276223182678223,0.06,0.0,-0.09,225.53
1666654365.33863902,173549051,1,0.63,-1.36,159.44,0.08765663951635361,0.03765822947025299,-0.6517928838729858,-0.06999258697032928,9.10405445098877,1.2197316884994507,-0.9340982437133789,0.06,0.0,-0.09,225.53
1666654365.37867403,173589086,1,0.65,-1.11,159.48,0.0757327452301979,0.03138431906700134,-0.647643506526947,-0.08841600269079208,9.094486236572266,1.2198821306228638,-0.9413972496986389,0.06,0.0,-0.09,225.53
1666654365.41866708,173629079,1,0.67,-0.9400000000000001,159.52,0.06638015061616898,0.034153491258621216,-0.6566166281700134,-0.13694222271442413,9.079472541809082,1.2209752798080444,-0.943754255771637,0.06,0.0,-0.09,225.53
1666654365.45869303,173669105,1,0.65,-0.77,159.53,0.05251292511820793,0.03113744594156742,-0.6532206535339355,-0.14881402254104614,9.068202018737793,1.2228388786315918,-0.9517378211021423,0.06,0.0,-0.09,225.53
1666654365.47863889,173689051,1,0.76,-0.7000000000000001,159.53,0.057097066193819046,0.014963281340897083,-0.6783482432365417,-0.18499961495399475,9.064966201782227,1.223471760749817,-0.9592956900596619,0.06,0.0,-0.09,225.53
1666654365.49863005,173709042,1,0.63,-0.67,159.54,0.04023688659071922,0.02365446463227272,-0.642993688583374,-0.16347448527812958,9.057865142822266,1.224286675453186,-0.9619479179382324,0.06,0.0,-0.09,225.53
1666654365.53864098,173749053,1,0.56,-0.55,159.57,0.04069984704256058,0.014744678512215614,-0.6535845994949341,-0.20915992558002472,9.048529624938965,1.2253111600875854,-0.9728149175643921,0.06,0.0,-0.09,225.53
1666654365.57864094,173789053,1,0.44,-0.49,159.6,0.033636756241321564,0.009469859302043915,-0.6414369344711304,-0.2309281826019287,9.039996147155762,1.2259386777877808,-0.9845287799835205,0.06,0.0,-0.09,225.53
1666654365.61867309,173829085,1,0.39,-0.44,159.62,0.02870079316198826,0.007595406379550695,-0.6381850838661194,-0.26374295353889465,9.02995491027832,1.2263741493225098,-0.9899768829345703,0.06,0.0,-0.09,225.53
1666654365.65865803,173869070,1,0.33,-0.42,159.63,0.03235257416963577,0.009019657969474792,-0.6215256452560425,-0.23569193482398987,9.024112701416016,1.226736068725586,-0.9988986253738403,0.06,0.0,-0.09,225.53
1666654365.67864299,173889055,1,0.32,-0.39,159.65,0.027231600135564804,0.008348373696208,-0.6322932243347168,-0.24176158010959625,9.0225248336792,1.22684645652771,-1.006240725517273,0.06,0.0,-0.09,225.53
1666654365.69869494,173909107,1,0.28,-0.41000000000000003,159.66,0.03071168251335621,-0.0010349246440455317,-0.6117533445358276,-0.22171653807163239,9.01898193359375,1.226861596107483,-1.0090330839157104,0.06,0.0,-0.09,225.53
1666654365.73864508,173949057,1,0.28,-0.39,159.68,0.02865830436348915,0.0029444352257996798,-0.6170861721038818,-0.2404637634754181,9.01455020904541,1.2267849445343018,-1.0199447870254517,0.06,0.0,-0.09,225.53
1666654365.77863908,173989051,1,0.2,-0.35000000000000003,159.72,0.03887490928173065,0.0074587371200323105,-0.6000994443893433,-0.24648399651050568,9.010756492614746,1.226450800895691,-1.0321416854858398,0.06,0.0,-0.09,225.53
1666654365.81864095,174029053,1,0.08,-0.34,159.76,0.039878495037555695,0.008957293815910816,-0.5891544222831726,-0.2609620690345764,9.006844520568848,1.225281834602356,-1.0363683700561523,0.06,0.0,-0.09,225.53
1666654365.85869193,174069104,1,-0.1,-0.34,159.8,0.03583810105919838,-0.0016215157229453325,-0.5637069940567017,-0.18717344105243683,9.005361557006836,1.2238757610321045,-1.0423078536987305,0.06,0.0,-0.09,225.53
1666654365.87863994,174089052,1,-0.05,-0.4,159.81,0.034454118460416794,-0.0007616582443006337,-0.5926675796508789,-0.19509808719158173,9.00512981414795,1.2233325242996216,-1.0481483936309814,0.06,0.0,-0.09,225.53
1666654365.89862204,174109034,1,-0.22,-0.45,159.84,0.03168461099267006,-0.009131208062171936,-0.5522739887237549,-0.13854357600212097,9.004216194152832,1.222335934638977,-1.0495100021362305,0.06,0.0,-0.09,225.53
