timestamp,TimeUS,I,Status,GMS,GWk,NSats,HDop,Lat,Lng,Alt,Spd,GCrs,VZ,Yaw,U
1666743720.19899988,200483307,0,3,260538199,2233,10,1.33,42.730775099999995,-84.49047569999999,208.9,0.0984124019742012,207.86700439453125,0.13100001215934753,0.0,1
1666743720.39889503,200683202,0,3,260538399,2233,10,1.33,42.7307752,-84.49047569999999,208.89000000000001,0.03324154019355774,15.708637237548828,0.11700000613927841,0.0,1
1666743720.59889603,200883203,0,3,260538599,2233,10,1.33,42.7307753,-84.4904756,208.9,0.14512065052986145,209.74488830566406,0.164000004529953,0.0,1
1666743720.79889297,201083200,0,3,260538799,2233,10,1.33,42.7307753,-84.4904756,208.9,0.053150732070207596,41.18592071533203,0.07900000363588333,0.0,1
1666743720.99891591,201283223,0,3,260538999,2233,10,1.33,42.7307755,-84.4904754,208.87,0.1131591871380806,25.659263610839844,0.01900000125169754,0.0,1
1666743721.19897389,201483281,0,3,260539199,2233,10,1.33,42.7307756,-84.4904754,208.88,0.1170341894030571,229.50491333007812,0.1850000023841858,0.0,1
1666743721.37896204,201663269,0,3,260539399,2233,10,1.33,42.7307754,-84.4904754,208.85,0.03275667876005173,148.73626708984375,0.03700000047683716,0.0,1
1666743721.59899998,201883307,0,3,260539599,2233,10,1.33,42.7307753,-84.4904754,208.84,0.04531004652380943,202.03622436523438,0.036000002175569534,0.0,1
1666743721.79897809,202083285,0,3,260539799,2233,10,1.33,42.7307752,-84.4904755,208.82,0.10124228894710541,237.0947723388672,0.15700000524520874,0.0,1
1666743721.99897599,202283283,0,3,260539999,2233,10,1.33,42.7307753,-84.4904754,208.81,0.04318564757704735,42.18444061279297,0.14400000870227814,0.0,1
1666743722.19894695,202483254,0,3,260540199,2233,10,1.33,42.7307756,-84.4904751,208.8,0.15276452898979187,19.5024471282959,0.04200000315904617,0.0,1
1666743722.39897704,202683284,0,3,260540399,2233,10,1.33,42.7307756,-84.49047499999999,208.79,0.06562012434005737,187.88314819335938,0.07600000500679016,0.0,1
1666743722.59892106,202883228,0,3,260540599,2233,10,1.33,42.7307754,-84.4904751,208.75,0.10184301435947418,199.50245666503906,0.07200000435113907,0.0,1
1666743722.79893303,203083240,0,3,260540799,2233,10,1.33,42.7307752,-84.49047499999999,208.75,0.07392564415931702,23.096818923950195,-0.04800000041723251,0.0,1
1666743722.99895310,203283260,0,3,260540999,2233,10,1.33,42.7307753,-84.49047499999999,208.78,0.05968249589204788,31.29303550720215,0.08000000566244125,0.0,1
1666743723.19899797,203483305,0,3,260541199,2233,10,1.33,42.7307748,-84.4904751,208.69,0.14806081354618073,207.7765655517578,-0.01900000125169754,0.0,1
1666743723.39901304,203683320,0,3,260541399,2233,10,1.33,42.730774499999995,-84.49047519999999,208.69,0.046000003814697266,0.0,0.10600000619888306,0.0,1
1666743723.59897995,203883287,0,3,260541599,2233,10,1.33,42.7307743,-84.4904753,208.66,0.030413813889026642,242.59243774414062,0.0990000069141388,0.0,1
1666743723.79894805,204083255,0,3,260541799,2233,10,1.33,42.730773899999996,-84.4904754,208.62,0.032893769443035126,289.5366516113281,0.00800000037997961,0.0,1
1666743723.99897408,204283281,0,3,260541999,2233,10,1.33,42.7307737,-84.4904754,208.58,0.03471311181783676,191.63365173339844,0.04800000041723251,0.0,1
1666743724.19893003,204483237,0,3,260542199,2233,10,1.33,42.730773299999996,-84.4904755,208.53,0.08964373916387558,38.65980911254883,0.04700000211596489,0.0,1
1666743724.37893009,204663237,0,3,260542399,2233,10,1.33,42.7307728,-84.49047569999999,208.47,0.14996667206287384,204.00128173828125,0.06300000101327896,0.0,1
1666743724.59897399,204883281,0,3,260542599,2233,10,1.33,42.730772099999996,-84.49047589999999,208.39000000000001,0.07840918749570847,217.74681091308594,0.14600001275539398,0.0,1
1666743724.79895091,205083258,0,3,260542799,2233,10,1.33,42.7307716,-84.49047589999999,208.33,0.06985700130462646,156.37062072753906,0.07000000029802322,0.0,1
1666743724.99901390,205283321,0,3,260542999,2233,10,1.33,42.730771,-84.490476,208.24,0.10816654562950134,213.69007873535156,0.07300000637769699,0.0,1
1666743725.19899011,205483297,0,3,260543199,2233,10,1.33,42.7307704,-84.49047619999999,208.14000000000001,0.03328663483262062,122.7352294921875,0.12800000607967377,0.0,1
1666743725.37902689,205663334,0,3,260543399,2233,11,1.33,42.73077,-84.49047619999999,208.09,0.017117243260145187,276.7098388671875,0.09300000220537186,0.0,1
1666743725.59903693,205883344,0,3,260543599,2233,11,1.33,42.730769699999996,-84.49047619999999,208.02,0.09577056765556335,208.70596313476562,0.20400001108646393,0.0,1
1666743725.77901506,206063322,0,3,260543799,2233,11,1.33,42.7307693,-84.49047619999999,207.91,0.013416407629847527,243.43496704101562,0.14300000667572021,0.0,1
1666743725.99900389,206283311,0,3,260543999,2233,11,1.07,42.730768999999995,-84.49047619999999,207.84,0.16871574521064758,188.17813110351562,0.15200001001358032,0.0,1
1666743726.17891502,206463222,0,3,260544199,2233,11,1.07,42.730768399999995,-84.4904761,207.73000000000002,0.13448049128055573,196.41358947753906,0.20200000703334808,0.0,1
1666743726.39896297,206683270,0,3,260544399,2233,11,1.07,42.7307677,-84.490476,207.57,0.07930952310562134,174.93638610839844,0.17500001192092896,0.0,1
1666743726.59898496,206883292,0,3,260544599,2233,11,1.07,42.7307671,-84.490476,207.47,0.15876083076000214,206.56504821777344,0.18000000715255737,0.0,1
1666743726.77896690,207063274,0,3,260544799,2233,11,1.07,42.730766599999995,-84.490476,207.33,0.050328921526670456,40.97173309326172,0.10600000619888306,0.0,1
1666743726.99904609,207283353,0,3,260544999,2233,12,1.04,42.7307653,-84.4904767,207.20000000000002,0.11301770061254501,1.0139787197113037,0.009000000543892384,0.0,1
1666743727.19896197,207483269,0,3,260545199,2233,12,1.04,42.7307637,-84.4904778,207.02,0.13132022321224213,339.4950256347656,-0.0690000057220459,0.0,1
1666743727.39900708,207683314,0,3,260545399,2233,13,1.04,42.7307602,-84.4904797,206.64000000000001,0.09476286172866821,225.8551025390625,-0.22800001502037048,0.0,1
1666743727.59899712,207883304,0,3,260545599,2233,13,1.04,42.7307578,-84.4904806,206.34,0.1692601591348648,246.31246948242188,-0.01900000125169754,0.0,1
1666743727.79897594,208083283,0,3,260545799,2233,13,1.04,42.730756299999996,-84.4904821,206.06,0.12448695302009583,5.069420337677002,0.026000000536441803,0.0,1
1666743727.99898005,208283287,0,3,260545999,2233,13,0.87,42.7307543,-84.4904866,205.57,0.11901681125164032,307.832763671875,-0.12800000607967377,0.0,1
1666743728.19897604,208483283,0,3,260546199,2233,13,0.87,42.730753199999995,-84.49049029999999,205.38,0.11088733375072479,320.85601806640625,0.13600000739097595,0.0,1
1666743728.39893508,208683242,0,3,260546399,2233,13,0.87,42.7307527,-84.4904913,205.4,0.12066897004842758,350.4596252441406,0.07300000637769699,0.0,1
1666743728.59905410,208883361,0,3,260546599,2233,11,0.87,42.7307534,-84.49049079999999,205.5,0.09832599014043808,355.3331298828125,0.0650000050663948,0.0,1
1666743728.79895902,209083266,0,3,260546799,2233,9,0.87,42.7307543,-84.4904901,205.65,0.05099019780755043,258.6900634765625,-0.12200000882148743,0.0,1
1666743728.99901795,209283325,0,3,260546999,2233,11,1.0,42.7307542,-84.4904901,205.77,0.0820731446146965,226.97494506835938,-0.2630000114440918,0.0,1
1666743729.19899297,209483300,0,3,260547199,2233,11,1.0,42.730754,-84.4904902,205.86,0.1416933387517929,354.32965087890625,-0.3970000147819519,0.0,1
1666743729.39894104,209683248,0,3,260547399,2233,11,1.0,42.7307547,-84.4904907,206.08,0.21705760061740875,358.6800537109375,-0.30000001192092896,0.0,1
1666743729.59896302,209883270,0,3,260547599,2233,10,1.0,42.730756799999995,-84.4904901,206.57,0.366869181394577,328.2594909667969,-0.25200000405311584,0.0,1
1666743729.79898906,210083296,0,3,260547799,2233,10,1.0,42.730758699999996,-84.49048979999999,206.96,0.2283725142478943,340.2955322265625,-0.3570000231266022,0.0,1
1666743729.99892998,210283237,0,3,260547999,2233,10,1.41,42.7307591,-84.4904899,207.25,0.12120231240987778,236.4410400390625,-0.27000001072883606,0.0,1
1666743730.19890404,210483211,0,3,260548199,2233,10,1.41,42.730759,-84.4904902,207.45000000000002,0.09751410782337189,346.9613342285156,-0.164000004529953,0.0,1
1666743730.39897108,210683278,0,3,260548399,2233,11,1.41,42.730759,-84.49049079999999,207.70000000000002,0.23127689957618713,223.77366638183594,-0.37700000405311584,0.0,1
1666743730.59902096,210883328,0,3,260548599,2233,11,1.41,42.7307573,-84.49049219999999,207.68,0.3425273895263672,213.69007873535156,-0.2580000162124634,0.0,1
1666743730.77901602,211063323,0,3,260548799,2233,11,1.41,42.7307547,-84.49049389999999,207.34,0.15821820497512817,36.00074768066406,0.03700000047683716,0.0,1
1666743730.99900007,211283307,0,3,260548999,2233,10,1.03,42.7307525,-84.4904948,206.88,0.08354640007019043,222.08917236328125,0.02500000037252903,0.0,1
1666743731.19900298,211483310,0,3,260549199,2233,10,1.03,42.7307511,-84.49049579999999,206.73000000000002,0.16546300053596497,67.61985778808594,0.17500001192092896,0.0,1
1666743731.37898493,211663292,0,3,260549399,2233,10,1.03,42.7307497,-84.4904966,206.56,0.10630146414041519,78.05582427978516,0.10400000214576721,0.0,1
1666743731.57901597,211863323,0,3,260549599,2233,11,1.03,42.730748999999996,-84.49049699999999,206.34,0.2270154356956482,14.281094551086426,0.164000004529953,0.0,1
1666743731.77898097,212063288,0,3,260549799,2233,11,1.03,42.7307485,-84.4904969,206.02,0.048093657940626144,3.576334238052368,0.14600001275539398,0.0,1
1666743731.99894404,212283251,0,3,260549999,2233,10,1.23,42.7307481,-84.4904966,205.8,0.09100000560283661,202.619873046875,0.11300000548362732,0.0,1
1666743732.17900300,212463310,0,3,260550199,2233,9,1.23,42.730747799999996,-84.4904961,205.62,0.21095024049282074,185.4403533935547,0.0990000069141388,0.0,1
1666743732.39899802,212683305,0,3,260550399,2233,9,1.23,42.730747099999995,-84.4904961,205.31,0.49329304695129395,206.09756469726562,0.1850000023841858,0.0,1
1666743732.59904599,212883353,0,3,260550599,2233,9,1.23,42.730746499999995,-84.4904961,205.13,0.18023596704006195,195.11572265625,0.2160000056028366,0.0,1
1666743732.79901695,213083324,0,3,260550799,2233,9,1.23,42.7307463,-84.4904956,205.11,0.21357201039791107,229.74789428710938,-0.0650000050663948,0.0,1
1666743732.99900389,213283311,0,3,260550999,2233,9,1.8800000000000001,42.7307452,-84.49049629999999,205.21,0.6254119277000427,220.7205352783203,-0.12200000882148743,0.0,1
1666743733.19896603,213483273,0,3,260551199,2233,10,1.8800000000000001,42.7307448,-84.49049749999999,205.27,0.8090155124664307,206.34335327148438,0.17100000381469727,0.0,1
1666743733.39891601,213683223,0,3,260551399,2233,10,1.8800000000000001,42.730743,-84.4904992,205.28,0.18912959098815918,231.00901794433594,0.2980000078678131,0.0,1
1666743733.57908511,213863392,0,3,260551599,2233,9,1.8800000000000001,42.7307426,-84.4904998,205.57,0.6717269420623779,220.47178649902344,-0.06100000441074371,0.0,1
1666743733.79899502,214083302,0,3,260551799,2233,10,1.8800000000000001,42.7307426,-84.4905,205.9,0.5116141438484192,217.29547119140625,0.1720000058412552,0.0,1
1666743733.99902606,214283333,0,3,260551999,2233,11,1.01,42.7307424,-84.49050059999999,206.18,0.15226949751377106,218.60104370117188,0.10200000554323196,0.0,1
1666743734.19901896,214483326,0,3,260552199,2233,10,1.01,42.7307431,-84.4905005,206.67000000000002,0.3703687787055969,209.61056518554688,0.16100001335144043,0.0,1
1666743734.39899707,214683304,0,3,260552399,2233,10,1.01,42.7307433,-84.49050009999999,206.97,0.33521634340286255,198.9754638671875,0.1080000028014183,0.0,1
1666743734.59900093,214883308,0,3,260552599,2233,10,1.01,42.7307436,-84.4904995,207.26,0.07138627022504807,168.6900634765625,-0.003000000026077032,0.0,1
1666743734.79899096,215083298,0,3,260552799,2233,10,1.01,42.7307442,-84.49049839999999,207.4,0.03361547365784645,292.7509765625,0.11500000208616257,0.0,1
1666743734.97901511,215263322,0,3,260552999,2233,10,1.01,42.7307449,-84.4904971,207.45000000000002,0.16949927806854248,350.148681640625,-0.0010000000474974513,0.0,1
1666743735.19898796,215483295,0,3,260553199,2233,9,1.08,42.7307458,-84.49049579999999,207.57,0.009899495169520378,45.0,-0.07500000298023224,0.0,1
1666743735.39900088,215683308,0,3,260553399,2233,9,1.08,42.7307473,-84.4904945,207.67000000000002,0.06095900759100914,228.9909210205078,-0.010000000707805157,0.0,1
1666743735.59902692,215883334,0,3,260553599,2233,9,1.08,42.7307487,-84.4904932,207.81,0.07840918749570847,232.25320434570312,-0.023000001907348633,0.0,1
1666743735.79902291,216083330,0,3,260553799,2233,10,1.08,42.730752599999995,-84.4904913,208.24,0.08009994029998779,272.8624267578125,-0.021000001579523087,0.0,1
1666743735.99899602,216283303,0,3,260553999,2233,10,1.08,42.730756,-84.4904897,208.55,0.05547071620821953,303.9765625,-0.15000000596046448,0.0,1
1666743736.19899392,216483301,0,3,260554199,2233,10,1.08,42.7307584,-84.4904888,208.79,0.10375452041625977,333.6819152832031,-0.007000000216066837,0.0,1
1666743736.39899802,216683305,0,3,260554399,2233,10,1.08,42.730761099999995,-84.4904877,209.12,0.09264988452196121,346.26373291015625,-0.05700000375509262,0.0,1
1666743736.59894300,216883250,0,3,260554599,2233,10,1.08,42.730762299999995,-84.49048719999999,209.29,0.057723481208086014,284.0362548828125,-0.09200000762939453,0.0,1
1666743736.79897594,217083283,0,3,260554799,2233,9,1.08,42.7307626,-84.4904869,209.26,0.2095375955104828,4.105097770690918,0.08500000089406967,0.0,1
1666743736.99896789,217283275,0,3,260554999,2233,9,1.5,42.730762999999996,-84.49048669999999,209.12,0.13243867456912994,14.87568187713623,-0.010000000707805157,0.0,1
1666743737.19903111,217483338,0,3,260555199,2233,9,1.5,42.7307639,-84.4904865,209.07,0.09415413439273834,22.479433059692383,0.07900000363588333,0.0,1
1666743737.39897704,217683284,0,3,260555399,2233,10,1.5,42.7307628,-84.4904875,208.86,0.1543826460838318,69.92176818847656,-0.2370000183582306,0.0,1
1666743737.57901406,217863321,0,3,260555599,2233,9,1.5,42.7307628,-84.4904881,208.69,0.022472206503152847,159.14552307128906,-0.16600000858306885,0.0,1
1666743737.79901695,218083324,0,3,260555799,2233,11,1.5,42.7307634,-84.4904892,208.68,0.12847179174423218,31.95810890197754,0.0,0.0,1
1666743737.99901104,218283318,0,3,260555999,2233,11,1.01,42.730764799999996,-84.4904894,208.8,0.2886693775653839,46.96525955200195,-0.024000000208616257,0.0,1
1666743738.17901993,218463327,0,3,260556199,2233,10,1.01,42.730764799999996,-84.4904894,208.92000000000002,0.19839860498905182,48.67823791503906,0.11800000816583633,0.0,1
1666743738.39901710,218683324,0,3,260556399,2233,10,1.01,42.7307649,-84.4904893,209.16,0.16430459916591644,31.561811447143555,0.05700000375509262,0.0,1
1666743738.59897208,218883279,0,3,260556599,2233,10,1.01,42.7307653,-84.4904893,209.71,0.02402082458138466,177.61404418945312,0.10300000756978989,0.0,1
1666743738.79899597,219083303,0,3,260556799,2233,10,1.01,42.7307657,-84.490489,210.32,0.44023630023002625,61.80501937866211,-0.06800000369548798,0.0,1
1666743738.97895408,219263261,0,3,260556999,2233,10,1.41,42.7307659,-84.4904889,210.86,0.2003696709871292,152.66763305664062,0.06700000166893005,0.0,1
1666743739.17893696,219463244,0,3,260557199,2233,10,1.41,42.7307649,-84.4904889,211.14000000000001,0.48648330569267273,141.17465209960938,-0.18700000643730164,0.0,1
1666743739.39896488,219683272,0,3,260557399,2233,11,1.41,42.7307664,-84.4904882,211.58,0.21275807917118073,32.71904373168945,0.21000000834465027,0.0,1
1666743739.59902501,219883332,0,3,260557599,2233,11,1.41,42.7307688,-84.4904876,212.22,0.21486973762512207,80.62535095214844,-0.13300000131130219,0.0,1
1666743739.79898810,220083295,0,3,260557799,2233,11,1.41,42.7307695,-84.4904873,212.4,0.44088321924209595,169.14881896972656,0.19600000977516174,0.0,1
1666743739.99898505,220283292,0,3,260557999,2233,10,1.08,42.7307725,-84.49048599999999,212.79,0.06100820004940033,89.06080627441406,-0.023000001907348633,0.0,1
1666743740.19898891,220483296,0,3,260558199,2233,12,1.08,42.7307706,-84.4904876,212.82,0.20089052617549896,140.04835510253906,-0.19600000977516174,0.0,1
1666743740.37895799,220663265,0,3,260558399,2233,9,1.08,42.730770199999995,-84.490488,212.58,0.1892828643321991,6.674468517303467,-0.09300000220537186,0.0,1
1666743740.59899712,220883304,0,3,260558599,2233,9,1.08,42.730771,-84.4904871,212.45000000000002,0.7770695686340332,40.14543151855469,0.11300000548362732,0.0,1
1666743740.79897690,221083284,0,3,260558799,2233,9,1.08,42.730771399999995,-84.4904861,212.33,0.2526697516441345,83.40938568115234,0.09100000560283661,0.0,1
1666743740.97899103,221263298,0,3,260558999,2233,9,1.5,42.7307713,-84.4904864,212.25,0.08008121699094772,344.0545959472656,0.06700000166893005,0.0,1
1666743741.17901897,221463326,0,3,260559199,2233,10,1.5,42.730773,-84.49048599999999,212.17000000000002,0.29821136593818665,37.36944580078125,0.07900000363588333,0.0,1
1666743741.37900209,221663309,0,3,260559399,2233,10,1.5,42.7307777,-84.49048409999999,212.6,0.13220061361789703,36.696533203125,-0.013000000268220901,0.0,1
1666743741.59900308,221883310,0,3,260559599,2233,10,1.5,42.7307809,-84.4904833,212.83,0.2733093500137329,222.03396606445312,-0.0020000000949949026,0.0,1
1666743741.77902603,222063333,0,3,260559799,2233,10,1.5,42.7307802,-84.4904852,212.53,0.09024965763092041,285.42218017578125,-0.1300000101327896,0.0,1
1666743741.99897790,222283285,0,3,260559999,2233,10,1.08,42.7307813,-84.4904861,212.61,0.42808645963668823,244.69203186035156,-0.04200000315904617,0.0,1
1666743742.17899394,222463301,0,3,260560199,2233,9,1.08,42.7307816,-84.49048839999999,212.24,0.09433981776237488,147.99461364746094,-0.28200000524520874,0.0,1
1666743742.37897706,222663284,0,3,260560399,2233,10,1.08,42.7307816,-84.4904888,211.96,0.43613874912261963,181.44525146484375,-0.30400002002716064,0.0,1
1666743742.57901001,222863317,0,3,260560599,2233,10,1.08,42.730783699999996,-84.4904883,212.21,0.3909130394458771,218.24778747558594,-0.030000001192092896,0.0,1
1666743742.77903008,223063337,0,3,260560799,2233,11,1.08,42.7307864,-84.490488,212.84,0.4242004454135895,255.6689453125,0.19700001180171967,0.0,1
1666743742.99897194,223283279,0,3,260560999,2233,11,1.01,42.730786699999996,-84.4904885,213.28,0.7813072800636292,207.02420043945312,-0.14400000870227814,0.0,1
1666743743.17903805,223463345,0,3,260561199,2233,11,1.01,42.7307876,-84.4904892,213.79,0.08205486088991165,267.9047546386719,0.0860000029206276,0.0,1
1666743743.37900901,223663316,0,3,260561399,2233,11,1.01,42.730787799999995,-84.4904892,214.05,0.5049207806587219,184.99923706054688,-0.18200001120567322,0.0,1
1666743743.57898998,223863297,0,3,260561599,2233,11,1.01,42.7307886,-84.49048859999999,214.44,0.04904080182313919,339.7174377441406,-0.01600000075995922,0.0,1
1666743743.77900195,224063309,0,3,260561799,2233,11,1.01,42.7307912,-84.4904878,214.99,0.08254089951515198,19.093490600585938,-0.006000000052154064,0.0,1
1666743743.97900891,224263316,0,3,260561999,2233,11,1.01,42.730793,-84.4904878,215.45000000000002,0.06268173456192017,326.0564270019531,-0.16500000655651093,0.0,1
1666743744.17902398,224463331,0,3,260562199,2233,11,1.01,42.7307955,-84.4904876,216.11,0.11645600199699402,69.3863754272461,-0.20100000500679016,0.0,1
1666743744.37896991,224663277,0,3,260562399,2233,12,1.01,42.7307965,-84.490489,217.32,0.13260844349861145,32.37178039550781,-0.16600000858306885,0.0,1
1666743744.57900000,224863307,0,3,260562599,2233,10,1.01,42.7307968,-84.4904897,218.13,0.04365776106715202,20.095230102539062,-0.125,0.0,1
1666743744.77897692,225063284,0,3,260562799,2233,10,1.01,42.730797599999995,-84.4904906,218.62,0.06400781869888306,0.8951736688613892,-0.08000000566244125,0.0,1
1666743744.97900796,225263315,0,3,260562999,2233,10,1.41,42.7307986,-84.4904937,218.91,0.10160709172487259,169.7960205078125,-0.06100000441074371,0.0,1
1666743745.17896509,225463272,0,3,260563199,2233,10,1.41,42.730798799999995,-84.4904962,219.15,0.050159748643636703,113.4985580444336,-0.036000002175569534,0.0,1
1666743745.39899302,225683300,0,3,260563399,2233,12,1.41,42.7307979,-84.4904968,219.57,0.09334881603717804,134.13194274902344,-0.021000001579523087,0.0,1
1666743745.59902000,225883327,0,3,260563599,2233,11,1.41,42.7307975,-84.4904969,219.68,0.21371476352214813,120.04414367675781,0.14900000393390656,0.0,1
1666743745.77901292,226063320,0,3,260563799,2233,11,1.41,42.7307967,-84.4904972,220.02,0.47774577140808105,164.3346405029297,-0.2410000115633011,0.0,1
1666743745.99891305,226283220,0,3,260563999,2233,10,1.23,42.7307961,-84.49049749999999,220.22,0.2602249085903168,142.33743286132812,0.14000000059604645,0.0,1
1666743746.19898391,226483291,0,3,260564199,2233,10,1.23,42.7307967,-84.4904969,220.26,1.0833730697631836,34.203453063964844,0.6370000243186951,0.0,1
1666743746.39897490,226683282,0,3,260564399,2233,12,1.23,42.730801199999995,-84.4904944,221.37,0.5004647970199585,24.05548095703125,-0.09400000423192978,0.0,1
1666743746.59898996,226883297,0,3,260564599,2233,12,1.23,42.730802499999996,-84.49049339999999,221.53,0.8613072037696838,57.32472229003906,-0.029000001028180122,0.0,1
1666743746.79899597,227083303,0,3,260564799,2233,11,1.23,42.7308029,-84.4904926,221.28,0.5579113364219666,81.65203857421875,0.2840000092983246,0.0,1
1666743746.99899197,227283299,0,3,260564999,2233,9,1.11,42.7308032,-84.4904919,221.37,0.43765971064567566,198.5177459716797,0.42900002002716064,0.0,1
1666743747.17897606,227463283,0,3,260565199,2233,9,1.11,42.7308034,-84.4904909,220.96,1.4072000980377197,45.51823425292969,0.44700002670288086,0.0,1
1666743747.39898491,227683292,0,3,260565399,2233,9,1.11,42.7308044,-84.4904887,220.8,0.4748052656650543,119.80473327636719,0.1940000057220459,0.0,1
1666743747.59894991,227883257,0,3,260565599,2233,11,1.11,42.730802399999995,-84.4904887,220.25,0.402273565530777,138.22451782226562,0.8740000128746033,0.0,1
1666743747.79895496,228083262,0,3,260565799,2233,11,1.11,42.7308011,-84.4904889,219.81,0.4222913980484009,156.4094696044922,0.5290000438690186,0.0,1
1666743747.99898005,228283287,0,3,260565999,2233,11,1.0,42.730800099999996,-84.4904889,219.61,0.28332316875457764,149.45242309570312,0.1680000126361847,0.0,1
1666743748.17893291,228463240,0,3,260566199,2233,10,1.0,42.730797599999995,-84.4904892,219.64000000000001,0.9490932822227478,149.40896606445312,-0.0650000050663948,0.0,1
1666743748.37896299,228663270,0,3,260566399,2233,10,1.0,42.7307963,-84.49048839999999,219.79,0.30580058693885803,143.2425079345703,0.005000000353902578,0.0,1
1666743748.57898903,228863296,0,3,260566599,2233,10,1.0,42.7307966,-84.4904873,219.91,0.19673587381839752,121.91276550292969,0.15900000929832458,0.0,1
1666743748.77906299,229063370,0,3,260566799,2233,8,1.0,42.7307977,-84.4904869,219.88,0.4696648120880127,52.17850875854492,0.24700000882148743,0.0,1
1666743748.99899197,229283299,0,3,260566999,2233,9,1.4000000000000001,42.730799,-84.4904864,219.72,0.23272515833377838,30.75264549255371,0.1770000010728836,0.0,1
1666743749.19897008,229483277,0,3,260567199,2233,11,1.4000000000000001,42.7307979,-84.4904885,219.34,0.16682027280330658,125.97686004638672,0.14100000262260437,0.0,1
1666743749.39897990,229683287,0,3,260567399,2233,11,1.4000000000000001,42.7307984,-84.4904911,218.84,0.2064000964164734,194.30555725097656,0.07800000160932541,0.0,1
1666743749.59896588,229883273,0,3,260567599,2233,11,1.4000000000000001,42.7307969,-84.4904921,218.74,0.46638721227645874,177.66519165039062,-0.08400000631809235,0.0,1
1666743749.79897594,230083283,0,3,260567799,2233,11,1.4000000000000001,42.730794599999996,-84.4904937,218.69,0.7237852215766907,212.41656494140625,0.18800000846385956,0.0,1
1666743749.97896290,230263270,0,3,260567999,2233,10,1.4000000000000001,42.7307931,-84.49049629999999,218.03,0.31944015622138977,194.6887969970703,0.06400000303983688,0.0,1
1666743750.19901705,230483324,0,3,260568199,2233,9,1.4000000000000001,42.7307938,-84.49049869999999,217.35,0.2277059555053711,224.28829956054688,0.22700001299381256,0.0,1
1666743750.37905407,230663361,0,3,260568399,2233,10,1.4000000000000001,42.7307938,-84.4904999,216.75,0.076419897377491,96.00900268554688,0.22300000488758087,0.0,1
1666743750.59902692,230883334,0,3,260568599,2233,11,1.4000000000000001,42.730792699999995,-84.49049939999999,215.86,0.27389049530029297,189.66868591308594,0.4660000205039978,0.0,1
1666743750.77900910,231063316,0,3,260568799,2233,11,1.4000000000000001,42.730793299999995,-84.49049889999999,215.56,0.16521501541137695,353.04705810546875,0.9360000491142273,0.0,1
1666743750.97902989,231263337,0,3,260568999,2233,10,1.08,42.7307941,-84.49049819999999,215.47,0.6211191415786743,169.142333984375,0.20000000298023224,0.0,1
1666743751.17901111,231463318,0,3,260569199,2233,11,1.08,42.730793299999995,-84.4904979,215.04,0.411821573972702,176.38026428222656,0.29600000381469727,0.0,1
1666743751.37894797,231663255,0,3,260569399,2233,11,1.08,42.730792099999995,-84.4904973,214.81,0.7680631875991821,188.30946350097656,0.49800002574920654,0.0,1
1666743751.57898688,231863294,0,3,260569599,2233,12,1.08,42.7307902,-84.4904976,214.12,0.2900431156158447,107.24796295166016,0.2939999997615814,0.0,1
1666743751.77897596,232063283,0,3,260569799,2233,12,1.08,42.7307884,-84.49049699999999,213.55,0.24732975661754608,210.08969116210938,0.5460000038146973,0.0,1
1666743751.99900508,232283312,0,3,260569999,2233,9,1.08,42.730788,-84.4904969,213.28,0.6280326843261719,86.7138900756836,0.3460000157356262,0.0,1
1666743752.17899895,232463306,0,3,260570199,2233,10,1.08,42.7307868,-84.490496,212.9,0.36169877648353577,195.2273406982422,0.6630000472068787,0.0,1
1666743752.39902496,232683332,0,3,260570399,2233,11,1.08,42.730786599999995,-84.49049509999999,212.4,0.5166120529174805,76.34033966064453,0.6370000243186951,0.0,1
1666743752.57905388,232863361,0,3,260570599,2233,11,1.08,42.7307864,-84.4904937,211.87,0.23409400880336761,199.9831085205078,0.9830000400543213,0.0,1
1666743752.79902101,233083328,0,3,260570799,2233,12,1.08,42.7307868,-84.49049289999999,211.78,0.4840661287307739,79.5257568359375,0.597000002861023,0.0,1
1666743752.97901297,233263320,0,3,260570999,2233,12,0.91,42.7307862,-84.4904921,211.33,0.1461232304573059,30.425783157348633,0.8710000514984131,0.0,1
1666743753.19889092,233483198,0,3,260571199,2233,12,0.91,42.7307862,-84.49049219999999,211.07,0.18828171491622925,153.8432159423828,0.609000027179718,0.0,1
1666743753.39894390,233683251,0,3,260571399,2233,11,0.91,42.7307856,-84.4904926,210.76,0.22717836499214172,57.21931076049805,0.6170000433921814,0.0,1
1666743753.59897590,233883283,0,3,260571599,2233,11,0.91,42.730785,-84.4904936,210.4,0.13980701565742493,52.55634307861328,0.7200000286102295,0.0,1
1666743753.77897310,234063280,0,3,260571799,2233,11,0.91,42.7307844,-84.490495,210.0,0.2233942747116089,194.78273010253906,0.6040000319480896,0.0,1
1666743753.97901511,234263322,0,3,260571999,2233,11,0.93,42.730784199999995,-84.4904961,209.70000000000002,0.36711034178733826,1.404792070388794,0.9200000166893005,0.0,1
1666743754.19904208,234483349,0,3,260572199,2233,12,0.93,42.7307846,-84.4904973,209.29,0.3296862244606018,82.68097686767578,0.5170000195503235,0.0,1
1666743754.39901900,234683326,0,3,260572399,2233,11,0.93,42.730785,-84.49049769999999,209.06,0.11703845858573914,178.53118896484375,0.550000011920929,0.0,1
1666743754.57902002,234863327,0,3,260572599,2233,11,0.93,42.730785399999995,-84.4904976,209.04,0.25203174352645874,90.90937805175781,0.5330000519752502,0.0,1
1666743754.79899192,235083299,0,3,260572799,2233,12,0.93,42.7307851,-84.49049769999999,208.83,0.23113849759101868,141.14662170410156,0.4310000240802765,0.0,1
1666743754.99895000,235283257,0,3,260572999,2233,13,0.87,42.730785499999996,-84.4904978,208.9,0.20874148607254028,137.13546752929688,0.5240000486373901,0.0,1
1666743755.19891191,235483219,0,3,260573199,2233,13,0.87,42.730786599999995,-84.49049769999999,208.87,0.32721400260925293,186.66893005371094,0.5900000333786011,0.0,1
1666743755.37900496,235663312,0,3,260573399,2233,12,0.87,42.7307884,-84.49049699999999,208.74,0.20134051144123077,120.7685317993164,0.4870000183582306,0.0,1
1666743755.59901404,235883321,0,3,260573599,2233,12,0.87,42.7307888,-84.4904968,207.82,0.2736585736274719,167.33493041992188,0.5110000371932983,0.0,1
1666743755.79898810,236083295,0,3,260573799,2233,13,0.87,42.730789099999996,-84.4904968,206.71,0.2605552077293396,176.25906372070312,0.6110000014305115,0.0,1
1666743755.99895406,236283261,0,3,260573999,2233,12,0.91,42.7307901,-84.4904968,206.3,0.18080100417137146,174.60472106933594,0.550000011920929,0.0,1
1666743756.19900393,236483311,0,3,260574199,2233,12,0.91,42.730790299999995,-84.49049699999999,205.95000000000002,0.25849565863609314,190.7013702392578,0.8360000252723694,0.0,1
1666743756.39891911,236683226,0,3,260574399,2233,13,0.91,42.7307894,-84.4904992,205.19,0.13315029442310333,162.5176239013672,0.6130000352859497,0.0,1
1666743756.59895492,236883262,0,3,260574599,2233,11,0.91,42.7307884,-84.4905015,204.62,0.17551353573799133,198.9511260986328,0.8660000562667847,0.0,1
1666743756.77899289,237063300,0,3,260574799,2233,11,0.91,42.730787899999996,-84.4905033,204.29,0.11150337010622025,124.40265655517578,0.1900000125169754,0.0,1
1666743756.99893188,237283239,0,3,260574999,2233,12,0.89,42.730786699999996,-84.4905051,204.0,0.42712998390197754,224.2411651611328,0.021000001579523087,0.0,1
1666743757.17895007,237463257,0,3,260575199,2233,12,0.89,42.7307863,-84.49050629999999,203.93,0.12425780296325684,86.30860900878906,0.445000022649765,0.0,1
1666743757.37899494,237663302,0,3,260575399,2233,11,0.89,42.730786099999996,-84.4905071,203.81,0.14538227021694183,172.0928192138672,0.1420000046491623,0.0,1
1666743757.59898996,237883297,0,3,260575599,2233,13,0.89,42.7307868,-84.4905076,203.81,0.14682303369045258,215.855224609375,0.19600000977516174,0.0,1
1666743757.79899311,238083300,0,3,260575799,2233,13,0.89,42.730787799999995,-84.49050799999999,203.94,0.036055512726306915,56.309932708740234,0.24400001764297485,0.0,1
1666743757.99893308,238283240,0,3,260575999,2233,13,0.87,42.730789099999996,-84.4905083,204.11,0.07569015771150589,133.3939971923828,0.16200000047683716,0.0,1
1666743758.19905210,238483359,0,3,260576199,2233,13,0.87,42.730790299999995,-84.49050869999999,204.36,0.06865857541561127,192.6193389892578,0.10700000822544098,0.0,1
1666743758.39891291,238683220,0,3,260576399,2233,13,0.87,42.7307918,-84.490509,204.57,0.09976472705602646,208.1062774658203,0.0990000069141388,0.0,1
1666743758.59890103,238883208,0,3,260576599,2233,13,0.87,42.7307935,-84.4905091,204.79,0.08935882896184921,211.7335205078125,0.2410000115633011,0.0,1
1666743758.79895711,239083264,0,3,260576799,2233,13,0.87,42.730796,-84.490509,205.1,0.12300000339746475,347.3196105957031,0.06599999964237213,0.0,1
1666743758.99897599,239283283,0,3,260576999,2233,13,0.87,42.730798199999995,-84.4905088,205.33,0.09861542284488678,186.40435791015625,0.06200000271201134,0.0,1
1666743759.19901490,239483322,0,3,260577199,2233,13,0.87,42.7308009,-84.4905084,205.65,0.11275194585323334,186.6207733154297,0.012000000104308128,0.0,1
1666743759.37899399,239663301,0,3,260577399,2233,13,0.87,42.730803699999996,-84.4905079,205.99,0.004242640919983387,315.0,-0.08700000494718552,0.0,1
1666743759.59898210,239883289,0,3,260577599,2233,13,0.87,42.730806699999995,-84.4905074,206.31,0.05921148881316185,85.15599060058594,-0.06700000166893005,0.0,1
1666743759.79897094,240083278,0,3,260577799,2233,13,0.87,42.73081,-84.4905067,206.69,0.06746850907802582,11.9761323928833,-0.024000000208616257,0.0,1
1666743759.99891996,240283227,0,3,260577999,2233,13,0.87,42.7308129,-84.4905062,207.04,0.0505964420735836,288.4349365234375,-0.046000003814697266,0.0,1
1666743760.19890690,240483214,0,3,260578199,2233,13,0.87,42.7308161,-84.49050559999999,207.42000000000002,0.02751363441348076,70.90650177001953,-0.06300000101327896,0.0,1
1666743760.37892509,240663232,0,3,260578399,2233,12,0.87,42.7308192,-84.490505,207.71,0.024698179215192795,211.7594757080078,0.03400000184774399,0.0,1
1666743760.59895301,240883260,0,3,260578599,2233,12,0.87,42.730821899999995,-84.4905048,208.03,0.1130707785487175,177.97267150878906,0.046000003814697266,0.0,1
1666743760.77891803,241063225,0,3,260578799,2233,12,0.87,42.7308245,-84.4905045,208.37,0.011180340312421322,153.43495178222656,0.007000000216066837,0.0,1
1666743760.99891210,241283219,0,3,260578999,2233,12,0.87,42.730827399999995,-84.49050419999999,208.78,0.03106445074081421,326.82147216796875,0.013000000268220901,0.0,1
1666743761.19893503,241483242,0,3,260579199,2233,12,0.87,42.730829899999996,-84.490504,209.09,0.03841874748468399,218.65982055664062,0.06300000101327896,0.0,1
1666743761.39895201,241683259,0,3,260579399,2233,12,0.87,42.7308325,-84.49050369999999,209.44,0.05656854808330536,315.0,-0.003000000026077032,0.0,1
1666743761.59894991,241883257,0,3,260579599,2233,12,0.87,42.730835,-84.4905033,209.70000000000002,0.13503333926200867,181.27304077148438,-0.06800000369548798,0.0,1
1666743761.79895806,242083265,0,3,260579799,2233,12,0.87,42.7308373,-84.49050299999999,209.91,0.09808160364627838,182.33731079101562,0.03500000014901161,0.0,1
1666743761.99891996,242283227,0,3,260579999,2233,12,0.87,42.730840199999996,-84.4905026,210.29,0.1351480633020401,10.229007720947266,-0.02800000086426735,0.0,1
1666743762.17890906,242463216,0,3,260580199,2233,12,0.87,42.7308429,-84.4905023,210.55,0.08900000900030136,205.98924255371094,0.07200000435113907,0.0,1
1666743762.39892197,242683229,0,3,260580399,2233,12,0.87,42.730845599999995,-84.49050199999999,210.89000000000001,0.2147091180086136,205.37158203125,0.03100000135600567,0.0,1
1666743762.59887505,242883182,0,3,260580599,2233,12,0.87,42.730848099999996,-84.49050179999999,211.20000000000002,0.06788225471973419,225.0,-0.013000000268220901,0.0,1
1666743762.79893303,243083240,0,3,260580799,2233,12,0.87,42.7308501,-84.49050179999999,211.45000000000002,0.21176639199256897,175.12400817871094,-0.04100000113248825,0.0,1
1666743762.99891210,243283219,0,3,260580999,2233,11,1.04,42.7308506,-84.4905021,211.54,0.11717508733272552,158.47097778320312,-0.05100000277161598,0.0,1
1666743763.19893289,243483240,0,3,260581199,2233,11,1.04,42.730851,-84.4905024,211.59,0.2640473544597626,178.91497802734375,-0.09000000357627869,0.0,1
1666743763.39897299,243683280,0,3,260581399,2233,11,1.04,42.7308514,-84.4905028,211.58,0.05780138820409775,127.26638793945312,0.09400000423192978,0.0,1
1666743763.57897401,243863281,0,3,260581599,2233,9,1.04,42.7308513,-84.49050319999999,211.44,0.2452305257320404,194.8862762451172,0.14300000667572021,0.0,1
1666743763.77891302,244063220,0,3,260581799,2233,9,1.04,42.7308503,-84.4905041,211.28,0.9822800159454346,196.25787353515625,-0.023000001907348633,0.0,1
1666743763.97894597,244263253,0,3,260581999,2233,9,1.04,42.7308494,-84.49050489999999,211.23000000000002,0.4448022246360779,185.15945434570312,0.0950000062584877,0.0,1
1666743764.17892098,244463228,0,3,260582199,2233,9,1.04,42.7308495,-84.4905058,211.27,0.36526840925216675,357.8034362792969,0.3840000033378601,0.0,1
1666743764.37895393,244663261,0,3,260582399,2233,9,1.04,42.7308498,-84.4905065,211.24,0.25074490904808044,171.51441955566406,0.029000001028180122,0.0,1
1666743764.57897902,244863286,0,3,260582599,2233,9,1.04,42.7308501,-84.4905072,211.20000000000002,0.20618924498558044,341.0378112792969,0.28300002217292786,0.0,1
1666743764.77896190,245063269,0,3,260582799,2233,10,1.04,42.730850499999995,-84.4905079,211.11,0.11610771715641022,200.15174865722656,0.13500000536441803,0.0,1
1666743764.97897410,245263281,0,3,260582999,2233,10,1.16,42.7308506,-84.49050849999999,211.01,0.1923980414867401,190.78431701660156,0.14300000667572021,0.0,1
1666743765.17899990,245463307,0,3,260583199,2233,11,1.16,42.730852899999995,-84.4905086,211.17000000000002,0.06432729214429855,348.3406982421875,0.22700001299381256,0.0,1
1666743765.37893295,245663240,0,3,260583399,2233,11,1.16,42.7308551,-84.4905088,211.32,0.06964194774627686,212.09259033203125,0.18000000715255737,0.0,1
1666743765.57898402,245863291,0,3,260583599,2233,11,1.16,42.7308573,-84.490509,211.42000000000002,0.05092150717973709,340.49755859375,0.10200000554323196,0.0,1
1666743765.79887891,246083186,0,3,260583799,2233,11,1.16,42.730859599999995,-84.490509,211.59,0.07694154232740402,81.0273666381836,0.1510000079870224,0.0,1
1666743765.99893093,246283238,0,3,260583999,2233,11,0.93,42.7308619,-84.490509,211.81,0.05197114869952202,149.98162841796875,0.09000000357627869,0.0,1
1666743766.17897010,246463277,0,3,260584199,2233,10,0.93,42.7308646,-84.490509,212.06,0.09786215424537659,21.583969116210938,0.2070000171661377,0.0,1
1666743766.39895010,246683257,0,3,260584399,2233,12,0.93,42.730867499999995,-84.490509,212.45000000000002,0.17424409091472626,198.7469024658203,0.02500000037252903,0.0,1
1666743766.59894705,246883254,0,3,260584599,2233,12,0.93,42.730869899999995,-84.4905094,212.72,0.17494285106658936,261.45306396484375,0.11600000411272049,0.0,1
1666743766.79896808,247083275,0,3,260584799,2233,11,0.93,42.7308721,-84.4905098,212.99,0.052172791212797165,167.8285369873047,0.052000001072883606,0.0,1
1666743766.99896097,247283268,0,3,260584999,2233,12,0.89,42.7308744,-84.4905098,213.27,0.17831432819366455,23.114206314086914,0.07400000095367432,0.0,1
1666743767.19896793,247483275,0,3,260585199,2233,12,0.89,42.7308763,-84.4905101,213.49,0.22200225293636322,217.12799072265625,0.19100001454353333,0.0,1
1666743767.39894199,247683249,0,3,260585399,2233,12,0.89,42.7308783,-84.4905105,213.66,0.09972462058067322,15.708637237548828,0.08300000429153442,0.0,1
1666743767.57895708,247863264,0,3,260585599,2233,12,0.89,42.7308806,-84.49051039999999,214.02,0.04346263036131859,113.02548217773438,0.024000000208616257,0.0,1
1666743767.79888797,248083195,0,3,260585799,2233,12,0.89,42.7308829,-84.4905105,214.34,0.13413426280021667,182.56378173828125,0.014000000432133675,0.0,1
1666743767.99894500,248283252,0,3,260585999,2233,12,0.89,42.730885199999996,-84.49051039999999,214.68,0.16051480174064636,82.12229919433594,-0.08300000429153442,0.0,1
1666743768.19895101,248483258,0,3,260586199,2233,12,0.89,42.7308873,-84.4905103,214.87,0.1983128786087036,48.270484924316406,-0.05900000408291817,0.0,1
1666743768.39898491,248683292,0,3,260586399,2233,12,0.89,42.7308898,-84.4905102,215.12,0.26459214091300964,33.7501220703125,0.010000000707805157,0.0,1
1666743768.59902906,248883336,0,3,260586599,2233,12,0.89,42.7308922,-84.49051,215.43,0.06985700130462646,113.6293716430664,-0.07300000637769699,0.0,1
1666743768.79889297,249083200,0,3,260586799,2233,12,0.89,42.7308944,-84.49051,215.77,0.1245792955160141,174.47244262695312,-0.0430000014603138,0.0,1
1666743768.97898889,249263296,0,3,260586999,2233,12,0.89,42.7308962,-84.4905102,216.08,0.3232336640357971,192.144287109375,-0.11300000548362732,0.0,1
1666743769.19888592,249483193,0,3,260587199,2233,12,0.89,42.7308983,-84.49051039999999,216.45000000000002,0.0538516528904438,301.3287048339844,-0.08900000154972076,0.0,1
1666743769.37888193,249663189,0,3,260587399,2233,13,0.89,42.730900399999996,-84.4905108,216.72,0.25636303424835205,221.83770751953125,0.030000001192092896,0.0,1
1666743769.59895992,249883267,0,3,260587599,2233,13,0.89,42.7309023,-84.490511,216.96,0.1290736198425293,102.52880096435547,-0.13900001347064972,0.0,1
1666743769.79892302,250083230,0,3,260587799,2233,13,0.89,42.7309042,-84.49051109999999,217.18,0.19416488707065582,204.9812469482422,-0.09800000488758087,0.0,1
1666743769.99896193,250283269,0,3,260587999,2233,13,0.87,42.7309061,-84.4905112,217.36,0.23375415802001953,19.752750396728516,-0.125,0.0,1
1666743770.19896793,250483275,0,3,260588199,2233,12,0.87,42.730908299999996,-84.4905112,217.56,0.46128952503204346,16.62786102294922,-0.11100000888109207,0.0,1
1666743770.37898207,250663289,0,3,260588399,2233,12,0.87,42.73091,-84.4905115,217.56,0.16702695190906525,336.3509826660156,0.08000000566244125,0.0,1
1666743770.59900594,250883313,0,3,260588599,2233,12,0.87,42.730911299999995,-84.4905119,217.57,0.135203555226326,209.21925354003906,-0.0860000029206276,0.0,1
1666743770.77896404,251063271,0,3,260588799,2233,12,0.87,42.730912499999995,-84.4905122,217.63,0.049091752618551254,236.63363647460938,-0.08800000697374344,0.0,1
1666743770.99890900,251283216,0,3,260588999,2233,13,0.87,42.730914399999996,-84.49051209999999,217.88,0.2168986052274704,26.56505012512207,-0.06000000238418579,0.0,1
1666743771.17893410,251463241,0,3,260589199,2233,12,0.87,42.7309159,-84.49051209999999,217.88,0.17517134547233582,12.52880859375,-0.06599999964237213,0.0,1
1666743771.37898207,251663289,0,3,260589399,2233,13,0.87,42.7309181,-84.4905118,218.06,0.2825969159603119,6.093903541564941,-0.08800000697374344,0.0,1
1666743771.57891393,251863221,0,3,260589599,2233,13,0.87,42.730919799999995,-84.49051159999999,218.14000000000001,0.29724234342575073,182.31373596191406,-0.15900000929832458,0.0,1
1666743771.77891493,252063222,0,3,260589799,2233,13,0.87,42.730920999999995,-84.4905117,217.94,0.047010637819767,268.7811279296875,-0.03800000250339508,0.0,1
1666743771.97904491,252263352,0,3,260589999,2233,12,0.87,42.7309227,-84.49051109999999,217.68,0.11154372245073318,84.34050750732422,-0.004000000189989805,0.0,1
1666743772.17892194,252463229,0,3,260590199,2233,12,0.91,42.7309246,-84.49051039999999,217.65,0.14368019998073578,218.7843780517578,-0.1469999998807907,0.0,1
1666743772.39890409,252683211,0,3,260590399,2233,12,0.91,42.7309263,-84.4905098,217.48000000000002,0.18200275301933289,179.6851806640625,-0.024000000208616257,0.0,1
1666743772.59894896,252883256,0,3,260590599,2233,12,0.91,42.7309279,-84.4905093,217.20000000000002,0.19665707647800446,226.64834594726562,0.04200000315904617,0.0,1
1666743772.79891205,253083219,0,3,260590799,2233,12,0.91,42.7309299,-84.4905088,217.0,0.12448695302009583,354.9305725097656,0.0,0.0,1
1666743772.97890401,253263211,0,3,260590999,2233,11,0.93,42.7309323,-84.49050799999999,216.81,0.02284732088446617,66.80140686035156,-0.05100000277161598,0.0,1
1666743773.17890501,253463212,0,3,260591199,2233,11,0.93,42.7309343,-84.4905072,216.61,0.04651881754398346,154.53663635253906,0.0020000000949949026,0.0,1
1666743773.37896991,253663277,0,3,260591399,2233,11,0.93,42.7309364,-84.4905065,216.45000000000002,0.05185557156801224,50.47736740112305,0.02200000174343586,0.0,1
1666743773.57892203,253863229,0,3,260591599,2233,11,0.93,42.7309378,-84.4905064,216.11,0.20780040323734283,170.58299255371094,-0.003000000026077032,0.0,1
