timestamp,TimeUS,Lat,Lng,Alt,RelHomeAlt,RelOriginAlt
1666743720.13940406,200423711,42.7307876,-84.4904695,246.61000061035156,0.007093604654073715,-0.692906379699707
1666743720.17948103,200463788,42.7307874,-84.4904696,246.6199951171875,0.010579165071249008,-0.6894208192825317
1666743720.17963910,200463946,42.7307874,-84.4904696,246.6199951171875,0.010579165071249008,-0.6894208192825317
1666743720.22022295,200504530,42.730787199999995,-84.49046969999999,246.6199951171875,0.013978715986013412,-0.6860212683677673
1666743720.25959992,200543907,42.730787,-84.4904698,246.6199951171875,0.01591300591826439,-0.6840869784355164
1666743720.27942300,200563730,42.730787,-84.4904698,246.6199951171875,0.016766663640737534,-0.6832333207130432
1666743720.29924607,200583553,42.7307869,-84.4904699,246.6199951171875,0.017758186906576157,-0.6822417974472046
1666743720.33929992,200623607,42.730786699999996,-84.49047,246.6199951171875,0.019535180181264877,-0.6804648041725159
1666743720.37957096,200663878,42.7307865,-84.4904701,246.62998962402344,0.021232303231954575,-0.6787676811218262
1666743720.37973404,200664041,42.7307865,-84.4904701,246.62998962402344,0.021232303231954575,-0.6787676811218262
1666743720.41988397,200704191,42.7307864,-84.49047019999999,246.62998962402344,0.021866735070943832,-0.6781332492828369
1666743720.45957208,200743879,42.7307862,-84.4904703,246.62998962402344,0.0219954214990139,-0.6780045628547668
1666743720.47944903,200763756,42.730786099999996,-84.4904703,246.62998962402344,0.022264834493398666,-0.6777351498603821
1666743720.49926090,200783568,42.730785999999995,-84.49047039999999,246.62998962402344,0.022194620221853256,-0.6778053641319275
1666743720.53930306,200823610,42.7307859,-84.4904705,246.62998962402344,0.02278434857726097,-0.6772156357765198
1666743720.57958198,200863889,42.7307858,-84.4904705,246.62998962402344,0.023563560098409653,-0.6764364242553711
1666743720.57965398,200863961,42.7307858,-84.4904705,246.62998962402344,0.023563560098409653,-0.6764364242553711
1666743720.61991501,200904222,42.7307856,-84.4904706,246.62998962402344,0.0229262076318264,-0.6770737767219543
1666743720.65958595,200943893,42.730785399999995,-84.4904707,246.62998962402344,0.02202581986784935,-0.6779741644859314
1666743720.67950201,200963809,42.730785399999995,-84.4904708,246.62998962402344,0.021949943155050278,-0.6780500411987305
1666743720.69928789,200983595,42.7307853,-84.4904708,246.62998962402344,0.021277006715536118,-0.6787229776382446
1666743720.73927903,201023586,42.7307851,-84.49047089999999,246.62998962402344,0.020842548459768295,-0.6791574358940125
1666743720.77951908,201063826,42.730785,-84.490471,246.62998962402344,0.020594652742147446,-0.6794053316116333
1666743720.77963305,201063940,42.730785,-84.490471,246.62998962402344,0.020594652742147446,-0.6794053316116333
1666743720.81992292,201104230,42.730784799999995,-84.4904711,246.6199951171875,0.019292768090963364,-0.6807072162628174
1666743720.85965490,201143962,42.7307847,-84.4904712,246.6199951171875,0.01819562539458275,-0.681804358959198
1666743720.87952089,201163828,42.7307847,-84.4904712,246.6199951171875,0.01802670583128929,-0.6819732785224915
1666743720.89930105,201183608,42.7307846,-84.4904712,246.6199951171875,0.017279382795095444,-0.6827206015586853
1666743720.93932295,201223630,42.7307845,-84.4904713,246.6199951171875,0.01658022031188011,-0.6834197640419006
1666743720.97949100,201263798,42.7307844,-84.4904713,246.6199951171875,0.016031678766012192,-0.6839683055877686
1666743720.97960401,201263911,42.7307844,-84.4904713,246.6199951171875,0.016031678766012192,-0.6839683055877686
1666743721.01995897,201304266,42.730784299999996,-84.49047139999999,246.6199951171875,0.014912482351064682,-0.6850875020027161
1666743721.05962300,201343930,42.730784199999995,-84.4904715,246.6199951171875,0.014227207750082016,-0.6857727766036987
1666743721.07941198,201363719,42.7307841,-84.4904715,246.6199951171875,0.014154847711324692,-0.685845136642456
1666743721.09936404,201383671,42.7307841,-84.4904715,246.6199951171875,0.0136641226708889,-0.6863358616828918
1666743721.13925505,201423562,42.730784,-84.49047159999999,246.6199951171875,0.013199564069509506,-0.6868004202842712
1666743721.17944503,201463752,42.7307839,-84.49047159999999,246.6199951171875,0.012842591851949692,-0.687157392501831
1666743721.17959309,201463900,42.7307839,-84.49047159999999,246.6199951171875,0.012842591851949692,-0.687157392501831
1666743721.21989703,201504204,42.7307838,-84.4904717,246.6199951171875,0.010534580796957016,-0.6894654035568237
1666743721.25962901,201543936,42.730783699999996,-84.4904717,246.61000061035156,0.00798022374510765,-0.6920197606086731
1666743721.27947497,201563782,42.730783699999996,-84.4904718,246.61000061035156,0.007289525121450424,-0.6927104592323303
1666743721.29935598,201583663,42.730783699999996,-84.4904718,246.61000061035156,0.005725380033254623,-0.6942746043205261
1666743721.33927107,201623578,42.730783599999995,-84.4904719,246.61000061035156,0.003930743783712387,-0.6960692405700684
1666743721.37957191,201663879,42.7307835,-84.4904719,246.61000061035156,0.0024394355714321136,-0.6975605487823486
1666743721.37970996,201664017,42.7307835,-84.4904719,246.61000061035156,0.0024394355714321136,-0.6975605487823486
1666743721.41987801,201704185,42.7307834,-84.490472,246.59999084472656,-0.00016016140580177307,-0.7001601457595825
1666743721.45962906,201743936,42.7307833,-84.49047209999999,246.59999084472656,-0.0014941133558750153,-0.7014940977096558
1666743721.47945905,201763766,42.7307833,-84.49047209999999,246.59999084472656,-0.001835886389017105,-0.7018358707427979
1666743721.49930811,201783615,42.7307832,-84.49047209999999,246.59999084472656,-0.002667192369699478,-0.7026671767234802
1666743721.53932595,201823633,42.7307831,-84.49047209999999,246.59999084472656,-0.003344658762216568,-0.7033446431159973
1666743721.57948804,201863795,42.7307831,-84.4904722,246.59999084472656,-0.0037788189947605133,-0.7037788033485413
1666743721.57963300,201863940,42.7307831,-84.4904722,246.59999084472656,-0.0037788189947605133,-0.7037788033485413
1666743721.61994100,201904248,42.730782999999995,-84.4904722,246.59999084472656,-0.0047152079641819,-0.7047151923179626
1666743721.65964103,201943948,42.7307829,-84.4904723,246.59999084472656,-0.005513731390237808,-0.7055137157440186
1666743721.67944407,201963751,42.7307829,-84.4904723,246.59999084472656,-0.005715552717447281,-0.705715537071228
1666743721.69925594,201983563,42.7307828,-84.4904724,246.59999084472656,-0.006221953779459,-0.7062219381332397
1666743721.73922205,202023529,42.7307828,-84.4904724,246.59999084472656,-0.006555858999490738,-0.7065558433532715
1666743721.77943110,202063738,42.7307827,-84.4904724,246.59999084472656,-0.006695274263620377,-0.7066952586174011
1666743721.77953196,202063839,42.7307827,-84.4904724,246.59999084472656,-0.006695274263620377,-0.7066952586174011
1666743721.81997204,202104279,42.7307826,-84.4904725,246.59999084472656,-0.008223596960306168,-0.7082235813140869
1666743721.85963106,202143938,42.7307825,-84.49047259999999,246.59999084472656,-0.00997031107544899,-0.7099702954292297
1666743721.87944293,202163750,42.7307825,-84.49047259999999,246.58999633789062,-0.010487738996744156,-0.7104877233505249
1666743721.89924502,202183552,42.730782399999995,-84.49047259999999,246.58999633789062,-0.01153123751282692,-0.7115312218666077
1666743721.93930006,202223607,42.7307823,-84.4904727,246.58999633789062,-0.012920800596475601,-0.7129207849502563
1666743721.97947788,202263785,42.7307823,-84.49047279999999,246.58999633789062,-0.014161292463541031,-0.7141612768173218
1666743721.97958589,202263893,42.7307823,-84.49047279999999,246.58999633789062,-0.014161292463541031,-0.7141612768173218
1666743722.01997590,202304283,42.7307822,-84.49047279999999,246.58999633789062,-0.01684761419892311,-0.7168475985527039
1666743722.05958295,202343890,42.7307821,-84.4904729,246.58999633789062,-0.01919746771454811,-0.7191974520683289
1666743722.07944393,202363751,42.7307821,-84.4904729,246.58999633789062,-0.019937101751565933,-0.7199370861053467
1666743722.09922099,202383528,42.7307821,-84.4904729,246.5800018310547,-0.021322909742593765,-0.7213228940963745
1666743722.13932490,202423632,42.730782,-84.490473,246.5800018310547,-0.022789660841226578,-0.7227896451950073
1666743722.17949891,202463806,42.730782,-84.490473,246.5800018310547,-0.02392006292939186,-0.7239200472831726
1666743722.17960191,202463909,42.730782,-84.490473,246.5800018310547,-0.02392006292939186,-0.7239200472831726
1666743722.21990895,202504216,42.7307819,-84.490473,246.5800018310547,-0.02550685778260231,-0.7255068421363831
1666743722.25957394,202543881,42.7307819,-84.4904731,246.5800018310547,-0.02661401405930519,-0.7266139984130859
1666743722.27952003,202563827,42.7307819,-84.4904731,246.5800018310547,-0.02699822559952736,-0.7269982099533081
1666743722.29931402,202583621,42.7307819,-84.4904731,246.5800018310547,-0.02764052525162697,-0.7276405096054077
1666743722.33926010,202623567,42.7307819,-84.4904731,246.5800018310547,-0.028465572744607925,-0.7284655570983887
1666743722.37960291,202663910,42.7307819,-84.4904731,246.5800018310547,-0.029175106436014175,-0.7291750907897949
1666743722.37970400,202664011,42.7307819,-84.4904731,246.5800018310547,-0.029175106436014175,-0.7291750907897949
1666743722.41991997,202704227,42.730781799999995,-84.4904731,246.5699920654297,-0.030556026846170425,-0.7305560111999512
1666743722.45978403,202744091,42.730781799999995,-84.4904732,246.5699920654297,-0.03176015987992287,-0.7317601442337036
1666743722.47949696,202763804,42.730781799999995,-84.4904732,246.5699920654297,-0.032195571810007095,-0.7321955561637878
1666743722.49930000,202783607,42.7307817,-84.4904732,246.5699920654297,-0.03288478031754494,-0.7328847646713257
1666743722.53931403,202823621,42.7307817,-84.4904732,246.5699920654297,-0.033707741647958755,-0.7337077260017395
1666743722.57945204,202863759,42.7307817,-84.4904732,246.5699920654297,-0.034391287714242935,-0.7343912720680237
1666743722.57962704,202863934,42.7307817,-84.4904732,246.5699920654297,-0.034391287714242935,-0.7343912720680237
1666743722.61990309,202904210,42.7307816,-84.49047329999999,246.5699920654297,-0.03564972057938576,-0.7356497049331665
1666743722.65967107,202943978,42.7307815,-84.49047329999999,246.5699920654297,-0.036870721727609634,-0.7368707060813904
1666743722.67943501,202963742,42.7307815,-84.49047329999999,246.5699920654297,-0.03733349218964577,-0.7373334765434265
1666743722.69929600,202983603,42.7307815,-84.49047329999999,246.5699920654297,-0.038017336279153824,-0.7380173206329346
1666743722.73934102,203023648,42.7307814,-84.4904734,246.5699920654297,-0.03906304016709328,-0.739063024520874
1666743722.77945495,203063762,42.7307814,-84.4904734,246.55999755859375,-0.04004288092255592,-0.7400428652763367
1666743722.77959299,203063900,42.7307814,-84.4904734,246.55999755859375,-0.04004288092255592,-0.7400428652763367
1666743722.81993008,203104237,42.7307813,-84.4904734,246.55999755859375,-0.04045254364609718,-0.7404525279998779
1666743722.85963798,203143945,42.7307813,-84.4904734,246.55999755859375,-0.040324632078409195,-0.7403246164321899
1666743722.87959504,203163902,42.7307813,-84.4904735,246.55999755859375,-0.04037922993302345,-0.7403792142868042
1666743722.89935994,203183667,42.730781199999996,-84.4904735,246.55999755859375,-0.04025614634156227,-0.740256130695343
1666743722.93931007,203223617,42.730781199999996,-84.4904735,246.55999755859375,-0.04018968716263771,-0.7401896715164185
1666743722.97942710,203263734,42.730781199999996,-84.4904735,246.55999755859375,-0.040151361376047134,-0.7401513457298279
1666743722.97956395,203263871,42.730781199999996,-84.4904735,246.55999755859375,-0.040151361376047134,-0.7401513457298279
1666743723.01985312,203304160,42.7307811,-84.4904735,246.55999755859375,-0.04076522961258888,-0.7407652139663696
1666743723.05962110,203343928,42.7307811,-84.4904735,246.55999755859375,-0.04194158688187599,-0.7419415712356567
1666743723.07957792,203363885,42.7307811,-84.4904735,246.55999755859375,-0.042407337576150894,-0.7424073219299316
1666743723.09941292,203383720,42.730781,-84.4904736,246.55999755859375,-0.04304039850831032,-0.7430403828620911
1666743723.13932896,203423636,42.730781,-84.4904736,246.55999755859375,-0.04387832060456276,-0.7438783049583435
1666743723.17946100,203463768,42.730781,-84.4904736,246.55999755859375,-0.04460728541016579,-0.7446072697639465
1666743723.17959499,203463902,42.730781,-84.4904736,246.55999755859375,-0.04460728541016579,-0.7446072697639465
1666743723.21992111,203504228,42.7307809,-84.4904736,246.55999755859375,-0.044983748346567154,-0.7449837327003479
1666743723.25961089,203543918,42.7307808,-84.4904737,246.55999755859375,-0.04512447491288185,-0.7451244592666626
1666743723.27953291,203563840,42.7307808,-84.4904737,246.55999755859375,-0.04530555382370949,-0.7453055381774902
1666743723.29931808,203583625,42.7307808,-84.4904737,246.55999755859375,-0.04537767544388771,-0.7453776597976685
1666743723.33927011,203623577,42.7307807,-84.4904737,246.55999755859375,-0.04565024748444557,-0.7456502318382263
1666743723.37958193,203663889,42.7307807,-84.49047379999999,246.55999755859375,-0.04594898596405983,-0.7459489703178406
1666743723.37972307,203664030,42.7307807,-84.49047379999999,246.55999755859375,-0.04594898596405983,-0.7459489703178406
1666743723.41987801,203704185,42.730780599999996,-84.49047379999999,246.55999755859375,-0.04731399193406105,-0.7473139762878418
1666743723.45967007,203743977,42.7307804,-84.4904739,246.55999755859375,-0.04923165217041969,-0.7492316365242004
1666743723.47944689,203763754,42.7307804,-84.4904739,246.55999755859375,-0.04995996132493019,-0.7499599456787109
1666743723.49928808,203783595,42.7307804,-84.4904739,246.54998779296875,-0.05103731527924538,-0.7510372996330261
1666743723.53927207,203823579,42.7307803,-84.4904739,246.54998779296875,-0.052356187254190445,-0.7523561716079712
1666743723.57949805,203863805,42.7307803,-84.4904739,246.54998779296875,-0.05339724197983742,-0.7533972263336182
1666743723.57959700,203863904,42.7307803,-84.4904739,246.54998779296875,-0.05339724197983742,-0.7533972263336182
1666743723.61995196,203904259,42.7307803,-84.49047399999999,246.54998779296875,-0.0554511584341526,-0.7554511427879333
1666743723.65956688,203943874,42.7307802,-84.49047399999999,246.54998779296875,-0.05738282576203346,-0.7573828101158142
1666743723.67947507,203963782,42.7307802,-84.49047399999999,246.54998779296875,-0.05816001072525978,-0.7581599950790405
1666743723.69924402,203983551,42.7307802,-84.4904741,246.54998779296875,-0.05923885479569435,-0.7592388391494751
1666743723.73926592,204023573,42.7307801,-84.4904741,246.5399932861328,-0.06058556213974953,-0.7605855464935303
1666743723.77947998,204063787,42.7307801,-84.4904741,246.5399932861328,-0.061744216829538345,-0.7617442011833191
1666743723.77961802,204063925,42.7307801,-84.4904741,246.5399932861328,-0.061744216829538345,-0.7617442011833191
1666743723.81997991,204104287,42.730779999999996,-84.4904742,246.5399932861328,-0.062407199293375015,-0.7624071836471558
1666743723.85959101,204143898,42.730779999999996,-84.4904742,246.5399932861328,-0.06258034706115723,-0.7625803351402283
1666743723.87945008,204163757,42.730779899999995,-84.4904742,246.5399932861328,-0.06282877922058105,-0.7628287672996521
1666743723.89926910,204183576,42.730779899999995,-84.4904742,246.5399932861328,-0.06282556056976318,-0.7628255486488342
1666743723.93928289,204223590,42.730779899999995,-84.4904743,246.5399932861328,-0.06293690204620361,-0.7629368901252747
1666743723.97953105,204263838,42.7307798,-84.4904743,246.5399932861328,-0.06300103664398193,-0.763001024723053
1666743723.97964001,204263947,42.7307798,-84.4904743,246.5399932861328,-0.06300103664398193,-0.763001024723053
1666743724.01995993,204304267,42.7307798,-84.4904744,246.5399932861328,-0.06303906440734863,-0.7630390524864197
1666743724.05958390,204343891,42.7307797,-84.4904744,246.5399932861328,-0.0630418062210083,-0.7630417943000793
1666743724.07940888,204363716,42.7307797,-84.4904744,246.5399932861328,-0.06323927640914917,-0.7632392644882202
1666743724.09930396,204383611,42.7307796,-84.4904744,246.5399932861328,-0.06316214799880981,-0.7631621360778809
1666743724.13938093,204423688,42.7307796,-84.49047449999999,246.5399932861328,-0.06319236755371094,-0.763192355632782
1666743724.17954111,204463848,42.7307795,-84.49047449999999,246.5399932861328,-0.06327652931213379,-0.7632765173912048
1666743724.17964005,204463947,42.7307795,-84.49047449999999,246.5399932861328,-0.06327652931213379,-0.7632765173912048
1666743724.21986198,204504169,42.7307795,-84.49047449999999,246.5399932861328,-0.06335955858230591,-0.763359546661377
1666743724.25958800,204543895,42.730779399999996,-84.49047449999999,246.5399932861328,-0.06366610527038574,-0.7636660933494568
1666743724.27946901,204563776,42.730779399999996,-84.49047449999999,246.5399932861328,-0.06394290924072266,-0.7639428973197937
1666743724.29939389,204583701,42.730779399999996,-84.4904746,246.5399932861328,-0.06406295299530029,-0.7640629410743713
1666743724.33933806,204623645,42.730779299999995,-84.4904746,246.5399932861328,-0.06453615427017212,-0.7645361423492432
1666743724.37958908,204663896,42.730779299999995,-84.4904746,246.5399932861328,-0.06506019830703735,-0.7650601863861084
1666743724.37968898,204663996,42.730779299999995,-84.4904746,246.5399932861328,-0.06506019830703735,-0.7650601863861084
1666743724.41983509,204704142,42.7307792,-84.4904746,246.5399932861328,-0.06630635261535645,-0.7663063406944275
1666743724.45960188,204743909,42.730779,-84.4904747,246.5399932861328,-0.06741601228713989,-0.7674160003662109
1666743724.47953010,204763837,42.730779,-84.4904747,246.5399932861328,-0.06796550750732422,-0.7679654955863953
1666743724.49934602,204783653,42.7307789,-84.4904747,246.5399932861328,-0.06848430633544922,-0.7684842944145203
1666743724.53936195,204823669,42.730778799999996,-84.4904747,246.5399932861328,-0.06884747743606567,-0.7688474655151367
1666743724.57946205,204863769,42.730778799999996,-84.4904747,246.5399932861328,-0.068900465965271,-0.768900454044342
1666743724.57969594,204864003,42.730778799999996,-84.4904747,246.5399932861328,-0.068900465965271,-0.768900454044342
1666743724.61983490,204904142,42.730778699999995,-84.4904748,246.52999877929688,-0.0700838565826416,-0.7700838446617126
1666743724.65961194,204943919,42.730778699999995,-84.4904748,246.52999877929688,-0.07187360525131226,-0.7718735933303833
1666743724.67944098,204963748,42.730778699999995,-84.4904748,246.52999877929688,-0.07266241312026978,-0.7726624011993408
1666743724.69935393,204983661,42.7307786,-84.4904749,246.52999877929688,-0.07360565662384033,-0.7736056447029114
1666743724.73931694,205023624,42.7307785,-84.4904749,246.52999877929688,-0.07453453540802002,-0.7745345234870911
1666743724.77946591,205063773,42.7307785,-84.4904749,246.52999877929688,-0.07516026496887207,-0.7751602530479431
1666743724.77960396,205063911,42.7307785,-84.4904749,246.52999877929688,-0.07516026496887207,-0.7751602530479431
1666743724.81991696,205104224,42.7307784,-84.49047499999999,246.52999877929688,-0.07583928108215332,-0.7758392691612244
1666743724.85961509,205143922,42.7307783,-84.49047499999999,246.52999877929688,-0.0762324333190918,-0.7762324213981628
1666743724.87948394,205163791,42.730778199999996,-84.49047499999999,246.52999877929688,-0.07663750648498535,-0.7766374945640564
1666743724.89941096,205183718,42.730778199999996,-84.49047499999999,246.52999877929688,-0.07676738500595093,-0.776767373085022
1666743724.93935704,205223664,42.730778099999995,-84.49047499999999,246.52999877929688,-0.07668846845626831,-0.7766884565353394
1666743724.97952509,205263832,42.730778,-84.4904751,246.52999877929688,-0.07638990879058838,-0.7763898968696594
1666743724.97967005,205263977,42.730778,-84.4904751,246.52999877929688,-0.07638990879058838,-0.7763898968696594
1666743725.01992989,205304237,42.7307779,-84.4904751,246.52999877929688,-0.07603496313095093,-0.776034951210022
1666743725.05966806,205343975,42.7307778,-84.4904751,246.52999877929688,-0.07580244541168213,-0.7758024334907532
1666743725.07952094,205363828,42.7307778,-84.49047519999999,246.52999877929688,-0.07600969076156616,-0.7760096788406372
1666743725.09924388,205383551,42.7307777,-84.49047519999999,246.52999877929688,-0.07576990127563477,-0.7757698893547058
1666743725.13928699,205423594,42.730777599999996,-84.49047519999999,246.52999877929688,-0.0750652551651001,-0.7750652432441711
1666743725.17961693,205463924,42.730777599999996,-84.49047519999999,246.52999877929688,-0.07417714595794678,-0.7741771340370178
1666743725.17980504,205464112,42.730777599999996,-84.49047519999999,246.52999877929688,-0.07417714595794678,-0.7741771340370178
1666743725.21993995,205504247,42.7307774,-84.4904753,246.52999877929688,-0.07361060380935669,-0.7736105918884277
1666743725.25966406,205543971,42.7307773,-84.4904753,246.52999877929688,-0.07357567548751831,-0.7735756635665894
1666743725.27947807,205563785,42.7307773,-84.4904753,246.52999877929688,-0.07383280992507935,-0.7738327980041504
1666743725.29923606,205583543,42.7307773,-84.4904753,246.52999877929688,-0.07370585203170776,-0.7737058401107788
1666743725.33928204,205623589,42.7307772,-84.4904753,246.52999877929688,-0.07346963882446289,-0.7734696269035339
1666743725.37965488,205663962,42.7307771,-84.4904754,246.52999877929688,-0.07321661710739136,-0.7732166051864624
1666743725.37972689,205664034,42.7307771,-84.4904754,246.52999877929688,-0.07321661710739136,-0.7732166051864624
1666743725.41992092,205704228,42.730776999999996,-84.4904754,246.52999877929688,-0.07392054796218872,-0.7739205360412598
1666743725.45964098,205743948,42.7307768,-84.4904754,246.52999877929688,-0.07440125942230225,-0.7744012475013733
1666743725.47951889,205763826,42.7307768,-84.4904754,246.52999877929688,-0.07482564449310303,-0.7748256325721741
1666743725.49927902,205783586,42.7307767,-84.4904754,246.52999877929688,-0.0750543475151062,-0.7750543355941772
1666743725.53928208,205823589,42.7307767,-84.4904755,246.52999877929688,-0.0747562050819397,-0.7747561931610107
1666743725.57951593,205863823,42.7307767,-84.4904755,246.52999877929688,-0.07423895597457886,-0.7742389440536499
1666743725.57962394,205863931,42.7307767,-84.4904755,246.52999877929688,-0.07423895597457886,-0.7742389440536499
1666743725.62000203,205904309,42.7307766,-84.4904755,246.52999877929688,-0.07526916265487671,-0.7752691507339478
1666743725.65959501,205943902,42.7307765,-84.4904756,246.52999877929688,-0.07695960998535156,-0.7769595980644226
1666743725.67940998,205963717,42.7307765,-84.4904756,246.52999877929688,-0.07778578996658325,-0.7777857780456543
1666743725.69929695,205983604,42.730776399999996,-84.4904756,246.52999877929688,-0.078704833984375,-0.778704822063446
1666743725.73930192,206023609,42.730776299999995,-84.4904756,246.52999877929688,-0.07953602075576782,-0.7795360088348389
1666743725.77952600,206063833,42.730776299999995,-84.49047569999999,246.51998901367188,-0.08009058237075806,-0.7800905704498291
1666743725.77963209,206063939,42.730776299999995,-84.49047569999999,246.51998901367188,-0.08009058237075806,-0.7800905704498291
1666743725.82000208,206104309,42.7307761,-84.49047569999999,246.51998901367188,-0.08296853303909302,-0.7829685211181641
1666743725.85960698,206143914,42.730776,-84.49047569999999,246.51998901367188,-0.08460825681686401,-0.7846082448959351
1666743725.87942100,206163728,42.730776,-84.49047569999999,246.51998901367188,-0.08540791273117065,-0.7854079008102417
1666743725.89933991,206183647,42.730776,-84.4904758,246.51998901367188,-0.08622145652770996,-0.786221444606781
1666743725.93931198,206223619,42.7307759,-84.4904758,246.51998901367188,-0.08697015047073364,-0.7869701385498047
1666743725.97951198,206263819,42.730775799999996,-84.4904758,246.51998901367188,-0.08740741014480591,-0.787407398223877
1666743725.97965002,206263957,42.730775799999996,-84.4904758,246.51998901367188,-0.08740741014480591,-0.787407398223877
1666743726.01995707,206304264,42.730775699999995,-84.4904758,246.51998901367188,-0.08842158317565918,-0.7884215712547302
1666743726.05964708,206343954,42.7307756,-84.49047589999999,246.51998901367188,-0.08935666084289551,-0.7893566489219666
1666743726.07951307,206363820,42.7307756,-84.49047589999999,246.50999450683594,-0.09001010656356812,-0.7900100946426392
1666743726.09936690,206383674,42.7307755,-84.49047589999999,246.50999450683594,-0.09042388200759888,-0.7904238700866699
1666743726.13937807,206423685,42.7307754,-84.49047589999999,246.50999450683594,-0.09018808603286743,-0.7901880741119385
1666743726.17946506,206463772,42.7307753,-84.490476,246.51998901367188,-0.08953636884689331,-0.7895363569259644
1666743726.17964411,206463951,42.7307753,-84.490476,246.51998901367188,-0.08953636884689331,-0.7895363569259644
1666743726.21985292,206504160,42.7307752,-84.490476,246.50999450683594,-0.09171700477600098,-0.791716992855072
1666743726.25962901,206543936,42.730775,-84.490476,246.50999450683594,-0.09226101636886597,-0.792261004447937
1666743726.27944398,206563751,42.730775,-84.490476,246.50999450683594,-0.09279358386993408,-0.7927935719490051
1666743726.29939294,206583700,42.7307749,-84.4904761,246.50999450683594,-0.09302908182144165,-0.7930290699005127
1666743726.33935189,206623659,42.7307748,-84.4904761,246.50999450683594,-0.0922931432723999,-0.792293131351471
1666743726.37960792,206663915,42.7307748,-84.4904761,246.50999450683594,-0.09110724925994873,-0.7911072373390198
1666743726.37974191,206664049,42.7307748,-84.4904761,246.50999450683594,-0.09110724925994873,-0.7911072373390198
1666743726.41990900,206704216,42.7307746,-84.4904761,246.50999450683594,-0.09029161930084229,-0.7902916073799133
1666743726.45962691,206743934,42.7307744,-84.49047619999999,246.51998901367188,-0.08977985382080078,-0.7897798418998718
1666743726.47947693,206763784,42.7307744,-84.49047619999999,246.50999450683594,-0.09003162384033203,-0.7900316119194031
1666743726.49926090,206783568,42.7307743,-84.49047619999999,246.51998901367188,-0.08958214521408081,-0.7895821332931519
1666743726.53938198,206823689,42.7307743,-84.49047619999999,246.51998901367188,-0.08757692575454712,-0.7875769138336182
1666743726.57951307,206863820,42.7307742,-84.49047619999999,246.51998901367188,-0.08507949113845825,-0.7850794792175293
1666743726.57962704,206863934,42.7307742,-84.49047619999999,246.51998901367188,-0.08507949113845825,-0.7850794792175293
1666743726.61996102,206904268,42.7307741,-84.49047619999999,246.51998901367188,-0.08238285779953003,-0.7823828458786011
1666743726.65977311,206944080,42.730774,-84.4904763,246.51998901367188,-0.08011853694915771,-0.7801185250282288
1666743726.67949605,206963803,42.730773899999996,-84.4904763,246.52999877929688,-0.07979190349578857,-0.7797918915748596
1666743726.69930100,206983608,42.730773899999996,-84.4904763,246.52999877929688,-0.07829570770263672,-0.7782956957817078
1666743726.73927402,207023581,42.7307738,-84.4904763,246.52999877929688,-0.07404011487960815,-0.7740401029586792
1666743726.77949810,207063805,42.7307737,-84.49047639999999,246.5399932861328,-0.06903743743896484,-0.7690374255180359
1666743726.77960396,207063911,42.7307737,-84.49047639999999,246.5399932861328,-0.06903743743896484,-0.7690374255180359
1666743726.81996894,207104276,42.7307735,-84.49047639999999,246.5399932861328,-0.06246531382203102,-0.7624652981758118
1666743726.85972309,207144030,42.7307735,-84.49047639999999,246.54998779296875,-0.053575459867715836,-0.7535754442214966
1666743726.87953091,207163838,42.7307734,-84.49047639999999,246.54998779296875,-0.05011308565735817,-0.7501130700111389
1666743726.89929891,207183606,42.7307734,-84.49047639999999,246.55999755859375,-0.043969038873910904,-0.7439690232276917
1666743726.93925190,207223559,42.730773299999996,-84.49047639999999,246.5800018310547,-0.029099885374307632,-0.7290998697280884
1666743726.97951198,207263819,42.730773299999996,-84.4904765,246.58999633789062,-0.011807207018136978,-0.7118071913719177
1666743726.97963905,207263946,42.730773299999996,-84.4904765,246.58999633789062,-0.011807207018136978,-0.7118071913719177
1666743727.01993203,207304239,42.7307732,-84.4904765,246.6199951171875,0.010892387479543686,-0.6891075968742371
1666743727.05970311,207344010,42.7307731,-84.4904765,246.63999938964844,0.03431254252791405,-0.6656874418258667
1666743727.07954502,207363852,42.7307731,-84.4904765,246.64999389648438,0.0436127744615078,-0.656387209892273
1666743727.09928989,207383597,42.7307731,-84.4904765,246.6599884033203,0.05720561370253563,-0.6427943706512451
1666743727.13925409,207423561,42.7307731,-84.4904765,246.6899871826172,0.08406788110733032,-0.6159321069717407
1666743727.17951989,207463827,42.7307731,-84.4904765,246.72000122070312,0.11243420839309692,-0.5875657796859741
1666743727.17959499,207463902,42.7307731,-84.4904765,246.72000122070312,0.11243420839309692,-0.5875657796859741
1666743727.22000003,207504307,42.730773,-84.4904765,246.75,0.14482879638671875,-0.5551711916923523
1666743727.25959396,207543901,42.730773,-84.4904766,246.77999877929688,0.17578047513961792,-0.5242195129394531
1666743727.27955103,207563858,42.730773,-84.4904766,246.7899932861328,0.18820130825042725,-0.5117986798286438
1666743727.29931498,207583622,42.7307729,-84.4904766,246.80999755859375,0.20529359579086304,-0.494706392288208
1666743727.33930492,207623612,42.7307729,-84.4904766,246.83999633789062,0.2387775480747223,-0.46122244000434875
1666743727.37962794,207663935,42.7307729,-84.4904767,246.87998962402344,0.2727820575237274,-0.42721793055534363
1666743727.37975407,207664061,42.7307729,-84.4904767,246.87998962402344,0.2727820575237274,-0.42721793055534363
1666743727.42000294,207704310,42.7307729,-84.4904767,246.9099884033203,0.30949902534484863,-0.3905009627342224
1666743727.45962095,207743928,42.730772699999996,-84.49047689999999,246.9499969482422,0.3425080180168152,-0.35749197006225586
1666743727.47946692,207763774,42.730772599999995,-84.49047689999999,246.95999145507812,0.3555382490158081,-0.34446173906326294
1666743727.49935794,207783665,42.730772599999995,-84.49047689999999,246.97999572753906,0.37300005555152893,-0.3269999325275421
1666743727.53933096,207823638,42.7307725,-84.49047689999999,247.00999450683594,0.40506115555763245,-0.2949388325214386
1666743727.57952809,207863835,42.7307725,-84.490477,247.0399932861328,0.4363957941532135,-0.26360419392585754
1666743727.57971907,207864026,42.7307725,-84.490477,247.0399932861328,0.4363957941532135,-0.26360419392585754
1666743727.61983895,207904146,42.7307723,-84.49047709999999,247.0800018310547,0.4704563021659851,-0.22954368591308594
1666743727.65961695,207943924,42.7307723,-84.4904772,247.11000061035156,0.5077064037322998,-0.19229359924793243
1666743727.67943907,207963746,42.7307722,-84.4904772,247.12998962402344,0.5221524238586426,-0.17784754931926727
1666743727.69940591,207983713,42.730772099999996,-84.4904773,247.14999389648438,0.5422288179397583,-0.15777118504047394
1666743727.73937201,208023679,42.730771999999995,-84.4904774,247.1899871826172,0.5846872925758362,-0.11531266570091248
1666743727.77953792,208063845,42.7307719,-84.4904775,247.22999572753906,0.6286278367042542,-0.0713721215724945
1666743727.77966690,208063974,42.7307719,-84.4904775,247.22999572753906,0.6286278367042542,-0.0713721215724945
1666743727.81985307,208104160,42.7307718,-84.49047759999999,247.27999877929688,0.6761916875839233,-0.023808280006051064
1666743727.85958695,208143894,42.7307716,-84.4904777,247.3199920654297,0.7190536856651306,0.019053693860769272
1666743727.87947488,208163782,42.730771499999996,-84.4904778,247.33999633789062,0.7345287799835205,0.03452879935503006
1666743727.89929295,208183600,42.730771399999995,-84.4904779,247.36000061035156,0.7575783133506775,0.057578302919864655
1666743727.93934608,208223653,42.7307713,-84.490478,247.39999389648438,0.7979056239128113,0.09790562093257904
1666743727.97947598,208263783,42.7307712,-84.49047809999999,247.4399871826172,0.836828351020813,0.13682839274406433
1666743727.97961903,208263926,42.7307712,-84.49047809999999,247.4399871826172,0.836828351020813,0.13682839274406433
1666743728.01994395,208304251,42.730771,-84.4904782,247.47999572753906,0.8778629899024963,0.17786303162574768
1666743728.05964088,208343948,42.730770799999995,-84.4904784,247.51998901367188,0.9104052186012268,0.21040523052215576
1666743728.07954597,208363853,42.730770799999995,-84.4904784,247.52999877929688,0.9223887324333191,0.22238877415657043
1666743728.09935188,208383659,42.7307706,-84.4904785,247.54998779296875,0.9400830864906311,0.24008308351039886
1666743728.13934112,208423648,42.7307705,-84.4904786,247.5800018310547,0.9700045585632324,0.2700045704841614
1666743728.17946911,208463776,42.7307704,-84.49047879999999,247.59999084472656,0.9982855319976807,0.2982855439186096
1666743728.17957401,208463881,42.7307704,-84.49047879999999,247.59999084472656,0.9982855319976807,0.2982855439186096
1666743728.21990204,208504209,42.730770199999995,-84.4904789,247.62998962402344,1.0231069326400757,0.3231070041656494
1666743728.25967789,208543985,42.73077,-84.4904791,247.63999938964844,1.0379024744033813,0.3379025161266327
1666743728.27949691,208563804,42.7307699,-84.4904792,247.64999389648438,1.0439523458480835,0.34395235776901245
1666743728.29927111,208583578,42.7307698,-84.49047929999999,247.6599884033203,1.0511356592178345,0.3511357009410858
1666743728.33933401,208623641,42.730769699999996,-84.4904794,247.6599884033203,1.058772087097168,0.3587720990180969
1666743728.37962604,208663933,42.730769599999995,-84.49047949999999,247.6699981689453,1.0636318922042847,0.36363187432289124
1666743728.37976503,208664072,42.730769599999995,-84.49047949999999,247.6699981689453,1.0636318922042847,0.36363187432289124
1666743728.41991401,208704221,42.7307694,-84.4904797,247.6699981689453,1.0626497268676758,0.3626497685909271
1666743728.45962691,208743934,42.730769099999996,-84.4904799,247.6599884033203,1.0581556558609009,0.35815566778182983
1666743728.47951198,208763819,42.730769099999996,-84.49047999999999,247.6599884033203,1.0581738948822021,0.3581739366054535
1666743728.49933410,208783641,42.730768999999995,-84.4904801,247.6599884033203,1.0549994707107544,0.35499951243400574
1666743728.53928494,208823592,42.7307688,-84.4904802,247.6599884033203,1.0516465902328491,0.35164666175842285
1666743728.57951307,208863820,42.7307687,-84.4904803,247.64999389648438,1.0491695404052734,0.34916961193084717
1666743728.57963109,208863938,42.7307687,-84.4904803,247.64999389648438,1.0491695404052734,0.34916961193084717
1666743728.61997795,208904285,42.7307686,-84.49048049999999,247.64999389648438,1.0428781509399414,0.34287822246551514
1666743728.65961409,208943921,42.730768499999996,-84.49048069999999,247.63999938964844,1.039320468902588,0.3393205404281616
1666743728.67954993,208963857,42.730768399999995,-84.49048069999999,247.64999389648438,1.0402228832244873,0.34022292494773865
1666743728.69930696,208983614,42.7307683,-84.4904808,247.63999938964844,1.0376830101013184,0.3376830816268921
1666743728.73924804,209023555,42.7307682,-84.490481,247.63999938964844,1.0363950729370117,0.33639514446258545
1666743728.77951407,209063821,42.7307681,-84.4904811,247.63999938964844,1.0364121198654175,0.33641213178634644
1666743728.77962303,209063930,42.7307681,-84.4904811,247.63999938964844,1.0364121198654175,0.33641213178634644
1666743728.81996894,209104276,42.7307679,-84.49048119999999,247.63999938964844,1.0343108177185059,0.3343107998371124
1666743728.85963106,209143938,42.730767799999995,-84.4904814,247.63999938964844,1.0365022420883179,0.3365022838115692
1666743728.87942290,209163730,42.7307677,-84.4904814,247.64999389648438,1.0400285720825195,0.3400286138057709
1666743728.89930606,209183613,42.7307676,-84.4904815,247.64999389648438,1.0408718585968018,0.3408718705177307
1666743728.93927503,209223582,42.7307675,-84.49048169999999,247.64999389648438,1.047074556350708,0.34707459807395935
1666743728.97945595,209263763,42.7307674,-84.4904818,247.6599884033203,1.054954171180725,0.35495415329933167
1666743728.97959304,209263900,42.7307674,-84.4904818,247.6599884033203,1.054954171180725,0.35495415329933167
1666743729.01997900,209304286,42.730767199999995,-84.49048189999999,247.6699981689453,1.0610610246658325,0.3610610067844391
1666743729.05964804,209343955,42.7307671,-84.4904821,247.67999267578125,1.0704044103622437,0.3704044222831726
1666743729.07946801,209363775,42.730767,-84.4904821,247.67999267578125,1.0770862102508545,0.3770862817764282
1666743729.09930706,209383614,42.7307669,-84.4904822,247.6899871826172,1.0816044807434082,0.38160455226898193
1666743729.13933396,209423641,42.7307668,-84.4904823,247.6999969482422,1.0928525924682617,0.3928526043891907
1666743729.17962408,209463931,42.7307667,-84.49048239999999,247.70999145507812,1.1053084135055542,0.40530845522880554
1666743729.17971301,209464020,42.7307667,-84.49048239999999,247.70999145507812,1.1053084135055542,0.40530845522880554
1666743729.21988392,209504191,42.7307665,-84.49048259999999,247.72000122070312,1.1159390211105347,0.41593900322914124
1666743729.25967097,209543978,42.7307663,-84.4904827,247.72999572753906,1.1287933588027954,0.42879337072372437
1666743729.27945209,209563759,42.7307663,-84.4904828,247.739990234375,1.1367396116256714,0.43673962354660034
1666743729.29926801,209583575,42.7307662,-84.4904828,247.75,1.1430060863494873,0.44300606846809387
1666743729.33933091,209623638,42.7307661,-84.49048289999999,247.75999450683594,1.1566424369812012,0.45664241909980774
1666743729.37964392,209663951,42.730765999999996,-84.490483,247.77999877929688,1.171141266822815,0.4711413085460663
1666743729.37977791,209664085,42.730765999999996,-84.490483,247.77999877929688,1.171141266822815,0.4711413085460663
1666743729.41989589,209704203,42.7307658,-84.4904832,247.7899932861328,1.1820130348205566,0.482013076543808
1666743729.45956898,209743876,42.7307656,-84.4904833,247.79998779296875,1.1947803497314453,0.4947803318500519
1666743729.47948098,209763788,42.7307656,-84.4904833,247.80999755859375,1.2031643390655518,0.5031644105911255
1666743729.49938202,209783689,42.7307656,-84.4904834,247.80999755859375,1.208843469619751,0.5088435411453247
1666743729.53936601,209823673,42.7307655,-84.4904835,247.8300018310547,1.2240095138549805,0.5240095257759094
1666743729.57953906,209863846,42.730765399999996,-84.4904835,247.83999633789062,1.239427924156189,0.5394279956817627
1666743729.57974792,209864055,42.730765399999996,-84.4904835,247.83999633789062,1.239427924156189,0.5394279956817627
1666743729.61989403,209904201,42.7307653,-84.49048359999999,247.86000061035156,1.2514547109603882,0.5514547824859619
1666743729.65963793,209943945,42.7307652,-84.49048379999999,247.8699951171875,1.264962911605835,0.5649629235267639
1666743729.67950010,209963807,42.7307652,-84.49048379999999,247.87998962402344,1.2731026411056519,0.5731026530265808
1666743729.69928408,209983591,42.7307652,-84.4904839,247.87998962402344,1.2787415981292725,0.5787416696548462
1666743729.73932910,210023636,42.7307651,-84.490484,247.89999389648438,1.2925078868865967,0.5925078988075256
1666743729.77948809,210063795,42.7307651,-84.490484,247.9099884033203,1.305617332458496,0.605617344379425
1666743729.77959704,210063904,42.7307651,-84.490484,247.9099884033203,1.305617332458496,0.605617344379425
1666743729.81990194,210104209,42.730765,-84.4904842,247.9199981689453,1.316520094871521,0.61652010679245
1666743729.85969090,210143998,42.730765,-84.49048429999999,247.92999267578125,1.3294256925582886,0.6294257640838623
1666743729.87948298,210163790,42.7307649,-84.49048429999999,247.9399871826172,1.3368358612060547,0.6368358731269836
1666743729.89926195,210183569,42.7307649,-84.49048429999999,247.9499969482422,1.3423177003860474,0.6423177123069763
1666743729.93937111,210223678,42.7307649,-84.4904844,247.95999145507812,1.3550926446914673,0.6550926566123962
1666743729.97953200,210263839,42.7307649,-84.4904845,247.97000122070312,1.3676249980926514,0.6676250696182251
1666743729.97965407,210263961,42.7307649,-84.4904845,247.97000122070312,1.3676249980926514,0.6676250696182251
1666743730.02001190,210304319,42.730764799999996,-84.4904846,247.97999572753906,1.3778938055038452,0.6778938174247742
1666743730.05964088,210343948,42.730764799999996,-84.4904847,247.989990234375,1.3883782625198364,0.6883783340454102
1666743730.07954907,210363856,42.730764699999995,-84.49048479999999,248.0,1.3940403461456299,0.6940403580665588
1666743730.09934402,210383651,42.730764699999995,-84.49048479999999,248.0,1.398390769958496,0.698390781879425
1666743730.13925004,210423557,42.730764699999995,-84.4904849,248.00999450683594,1.4080052375793457,0.7080052495002747
1666743730.17949891,210463806,42.7307646,-84.49048499999999,248.01998901367188,1.4175200462341309,0.7175200581550598
1666743730.17957497,210463882,42.7307646,-84.49048499999999,248.01998901367188,1.4175200462341309,0.7175200581550598
1666743730.22006893,210504376,42.7307646,-84.4904851,248.02999877929688,1.4248623847961426,0.7248623967170715
1666743730.25957990,210543887,42.7307645,-84.4904852,248.0399932861328,1.4322617053985596,0.7322617769241333
1666743730.27952909,210563836,42.7307645,-84.4904852,248.0399932861328,1.4361242055892944,0.7361242771148682
1666743730.29935193,210583659,42.7307645,-84.4904853,248.0399932861328,1.439164161682129,0.7391642332077026
1666743730.33930802,210623615,42.7307645,-84.4904854,248.04998779296875,1.4465951919555664,0.7465952634811401
1666743730.37956691,210663874,42.7307645,-84.49048549999999,248.05999755859375,1.4537891149520874,0.7537891268730164
1666743730.37966800,210663975,42.7307645,-84.49048549999999,248.05999755859375,1.4537891149520874,0.7537891268730164
1666743730.41988707,210704194,42.7307644,-84.4904856,248.0699920654297,1.461140513420105,0.7611405253410339
1666743730.45962501,210743932,42.7307643,-84.4904857,248.0699920654297,1.4690393209457397,0.7690393328666687
1666743730.47956800,210763875,42.7307643,-84.4904858,248.0800018310547,1.472571849822998,0.7725719213485718
1666743730.49931002,210783617,42.7307643,-84.4904859,248.0800018310547,1.4763104915618896,0.7763105630874634
1666743730.53930497,210823612,42.7307643,-84.49048599999999,248.08999633789062,1.4836336374282837,0.7836337089538574
1666743730.57950091,210863808,42.7307643,-84.4904861,248.09999084472656,1.490563154220581,0.79056316614151
1666743730.57964611,210863953,42.7307643,-84.4904861,248.09999084472656,1.490563154220581,0.79056316614151
1666743730.61993790,210904245,42.730764199999996,-84.49048619999999,248.09999084472656,1.4974424839019775,0.7974425554275513
1666743730.65968800,210943995,42.730764099999995,-84.4904864,248.11000061035156,1.5032029151916504,0.8032029867172241
1666743730.67947102,210963778,42.730764099999995,-84.4904864,248.11000061035156,1.5055320262908936,0.8055320978164673
1666743730.69934702,210983654,42.730764099999995,-84.4904865,248.11000061035156,1.5082508325576782,0.8082508444786072
1666743730.73933005,211023637,42.730764,-84.4904866,248.1199951171875,1.5126525163650513,0.812652587890625
1666743730.77952194,211063829,42.730764,-84.4904868,248.1199951171875,1.5164498090744019,0.8164498805999756
1666743730.77970099,211064008,42.730764,-84.4904868,248.1199951171875,1.5164498090744019,0.8164498805999756
1666743730.81987810,211104185,42.7307639,-84.4904869,248.1199951171875,1.5188218355178833,0.818821907043457
1666743730.85969901,211144006,42.7307639,-84.490487,248.12998962402344,1.5203739404678345,0.8203740119934082
1666743730.87942004,211163727,42.7307639,-84.4904871,248.12998962402344,1.5209567546844482,0.820956826210022
1666743730.89937806,211183685,42.7307638,-84.4904871,248.12998962402344,1.5214046239852905,0.8214046359062195
1666743730.93934703,211223654,42.7307638,-84.49048719999999,248.12998962402344,1.5220085382461548,0.8220085501670837
1666743730.97951508,211263822,42.7307638,-84.4904873,248.12998962402344,1.522074580192566,0.8220746517181396
1666743730.97968793,211263995,42.7307638,-84.4904873,248.12998962402344,1.522074580192566,0.8220746517181396
1666743731.01992011,211304227,42.7307638,-84.4904875,248.12998962402344,1.5214303731918335,0.8214304447174072
1666743731.05965710,211343964,42.7307637,-84.4904876,248.12998962402344,1.5201560258865356,0.8201560378074646
1666743731.07945704,211363764,42.7307637,-84.4904876,248.1199951171875,1.5194251537322998,0.8194251656532288
1666743731.09937906,211383686,42.730763599999996,-84.4904877,248.1199951171875,1.5184987783432007,0.8184988498687744
1666743731.13936090,211423668,42.730763599999996,-84.4904878,248.1199951171875,1.5164997577667236,0.8164998292922974
1666743731.17953300,211463840,42.730763599999996,-84.49048789999999,248.1199951171875,1.5141841173171997,0.8141841888427734
1666743731.17970204,211464009,42.730763599999996,-84.49048789999999,248.1199951171875,1.5141841173171997,0.8141841888427734
1666743731.21986508,211504172,42.730763499999995,-84.490488,248.1199951171875,1.5105311870574951,0.8105311989784241
1666743731.25954890,211543856,42.7307634,-84.4904881,248.11000061035156,1.5061665773391724,0.8061665892601013
1666743731.27957797,211563885,42.7307634,-84.4904881,248.11000061035156,1.5040929317474365,0.8040930032730103
1666743731.29927206,211583579,42.7307633,-84.4904882,248.11000061035156,1.5015530586242676,0.8015530705451965
1666743731.33928990,211623597,42.7307632,-84.4904882,248.09999084472656,1.496850609779358,0.7968506813049316
1666743731.37966394,211663971,42.7307632,-84.4904883,248.09999084472656,1.4920985698699951,0.7920985817909241
1666743731.37979293,211664100,42.7307632,-84.4904883,248.09999084472656,1.4920985698699951,0.7920985817909241
1666743731.41989803,211704205,42.730762899999995,-84.49048839999999,248.08999633789062,1.4864593744277954,0.7864593863487244
1666743731.45963192,211743939,42.7307627,-84.49048839999999,248.08999633789062,1.4812508821487427,0.7812509536743164
1666743731.47957611,211763883,42.7307627,-84.4904885,248.0800018310547,1.4786897897720337,0.7786898016929626
1666743731.49926710,211783574,42.7307626,-84.4904885,248.0800018310547,1.4760392904281616,0.7760393023490906
1666743731.53932405,211823631,42.7307625,-84.49048859999999,248.0800018310547,1.4709175825119019,0.7709176540374756
1666743731.57952094,211863828,42.730762399999996,-84.49048859999999,248.0699920654297,1.4658339023590088,0.7658339738845825
1666743731.57963991,211863947,42.730762399999996,-84.49048859999999,248.0699920654297,1.4658339023590088,0.7658339738845825
1666743731.61993098,211904238,42.7307622,-84.4904887,248.05999755859375,1.459854245185852,0.759854257106781
1666743731.65961504,211943922,42.730762,-84.4904888,248.05999755859375,1.4543033838272095,0.7543033957481384
1666743731.67951703,211963824,42.730762,-84.4904888,248.05999755859375,1.4513572454452515,0.7513572573661804
1666743731.69939089,211983698,42.7307619,-84.4904888,248.04998779296875,1.4484783411026,0.7484784126281738
1666743731.73928809,212023595,42.7307619,-84.4904888,248.04998779296875,1.4429185390472412,0.7429185509681702
1666743731.77948594,212063793,42.730761799999996,-84.4904889,248.0399932861328,1.437214970588684,0.7372150421142578
1666743731.77956200,212063869,42.730761799999996,-84.4904889,248.0399932861328,1.437214970588684,0.7372150421142578
1666743731.81999111,212104298,42.7307616,-84.490489,248.0399932861328,1.431331753730774,0.7313318252563477
1666743731.85960793,212143915,42.7307614,-84.490489,248.02999877929688,1.4255642890930176,0.7255643606185913
1666743731.87950397,212163811,42.7307614,-84.49048909999999,248.02999877929688,1.422719120979309,0.722719132900238
1666743731.89936090,212183668,42.7307613,-84.49048909999999,248.01998901367188,1.4199293851852417,0.7199293971061707
1666743731.93929291,212223600,42.730761199999996,-84.49048909999999,248.01998901367188,1.4143128395080566,0.7143129110336304
1666743731.97952104,212263828,42.730761099999995,-84.49048909999999,248.00999450683594,1.4087187051773071,0.7087187170982361
1666743731.97959590,212263903,42.730761099999995,-84.49048909999999,248.00999450683594,1.4087187051773071,0.7087187170982361
1666743732.01989698,212304204,42.7307608,-84.4904892,248.00999450683594,1.4034035205841064,0.7034035325050354
1666743732.05967999,212343987,42.730760599999996,-84.4904892,248.0,1.3982406854629517,0.6982406973838806
1666743732.07947993,212363787,42.730760599999996,-84.4904892,248.0,1.3954154253005981,0.6954154968261719
1666743732.09941411,212383721,42.730760499999995,-84.4904893,248.0,1.3928585052490234,0.6928585767745972
1666743732.13930297,212423610,42.7307603,-84.4904893,247.989990234375,1.3875527381896973,0.687552809715271
1666743732.17948294,212463790,42.7307602,-84.4904892,247.989990234375,1.3822745084762573,0.6822745203971863
1666743732.17962098,212463928,42.7307602,-84.4904892,247.989990234375,1.3822745084762573,0.6822745203971863
1666743732.21985388,212504161,42.7307598,-84.4904893,247.97999572753906,1.3774977922439575,0.6774978041648865
1666743732.25965595,212543963,42.7307596,-84.4904893,247.97999572753906,1.3722957372665405,0.6722957491874695
1666743732.27954888,212563856,42.7307595,-84.4904893,247.97000122070312,1.36952543258667,0.6695254445075989
1666743732.29934692,212583654,42.7307594,-84.4904893,247.97000122070312,1.3668782711029053,0.6668782830238342
1666743732.33927989,212623587,42.7307592,-84.4904892,247.97000122070312,1.3617748022079468,0.6617748737335205
1666743732.37961888,212663926,42.730759,-84.4904892,247.95999145507812,1.3565375804901123,0.656537652015686
1666743732.37979198,212664099,42.730759,-84.4904892,247.95999145507812,1.3565375804901123,0.656537652015686
1666743732.41987801,212704185,42.730758699999996,-84.49048909999999,247.95999145507812,1.351575255393982,0.6515753269195557
1666743732.45970988,212744017,42.7307584,-84.4904892,247.9499969482422,1.3462944030761719,0.6462944149971008
1666743732.47942805,212763735,42.7307583,-84.4904892,247.9499969482422,1.3434159755706787,0.6434159874916077
1666743732.49929094,212783598,42.7307582,-84.4904892,247.9499969482422,1.3408223390579224,0.6408224105834961
1666743732.53940392,212823711,42.730758,-84.49048909999999,247.9399871826172,1.335290789604187,0.635290801525116
1666743732.57947803,212863785,42.7307578,-84.490489,247.92999267578125,1.3297685384750366,0.6297685503959656
1666743732.57961988,212863927,42.7307578,-84.490489,247.92999267578125,1.3297685384750366,0.6297685503959656
1666743732.61993790,212904245,42.730757499999996,-84.490489,247.92999267578125,1.3243882656097412,0.6243882775306702
1666743732.65962005,212943927,42.7307572,-84.4904889,247.9199981689453,1.3190479278564453,0.619047999382019
1666743732.67945790,212963765,42.7307571,-84.4904889,247.9199981689453,1.3160717487335205,0.6160717606544495
1666743732.69929004,212983597,42.730756899999996,-84.4904888,247.9199981689453,1.3134676218032837,0.6134676337242126
1666743732.73942494,213023732,42.7307567,-84.4904887,247.9099884033203,1.3081938028335571,0.6081938743591309
1666743732.77949905,213063806,42.7307565,-84.49048859999999,247.9099884033203,1.3029950857162476,0.6029951572418213
1666743732.77968001,213063987,42.7307565,-84.49048859999999,247.9099884033203,1.3029950857162476,0.6029951572418213
1666743732.81995106,213104258,42.730756199999995,-84.49048859999999,247.89999389648438,1.2990407943725586,0.5990408062934875
1666743732.85954595,213143853,42.7307559,-84.49048859999999,247.89999389648438,1.2951873540878296,0.5951874256134033
1666743732.87947488,213163782,42.7307558,-84.4904885,247.89999389648438,1.2925711870193481,0.5925711989402771
1666743732.89924788,213183555,42.730755699999996,-84.4904885,247.89999389648438,1.2909269332885742,0.5909269452095032
1666743732.93931699,213223624,42.7307554,-84.49048839999999,247.88999938964844,1.286919355392456,0.5869194269180298
1666743732.97960401,213263911,42.7307552,-84.4904883,247.88999938964844,1.2829214334487915,0.5829215049743652
1666743732.97974491,213264052,42.7307552,-84.4904883,247.88999938964844,1.2829214334487915,0.5829215049743652
1666743733.01993489,213304242,42.7307549,-84.49048839999999,247.88999938964844,1.2807554006576538,0.5807554125785828
1666743733.05959392,213343901,42.7307546,-84.4904885,247.87998962402344,1.278187870979309,0.578187882900238
1666743733.07949996,213363807,42.730754499999996,-84.4904885,247.87998962402344,1.276045799255371,0.5760458111763
1666743733.09930897,213383616,42.7307543,-84.4904885,247.87998962402344,1.275085210800171,0.5750852823257446
1666743733.13929009,213423597,42.7307541,-84.4904885,247.87998962402344,1.2717528343200684,0.5717529058456421
1666743733.17956805,213463875,42.730753899999996,-84.4904885,247.8699951171875,1.2678192853927612,0.567819356918335
1666743733.17967200,213463979,42.730753899999996,-84.4904885,247.8699951171875,1.2678192853927612,0.567819356918335
1666743733.21989989,213504207,42.7307535,-84.4904887,247.8699951171875,1.2645248174667358,0.5645248293876648
1666743733.25953007,213543837,42.730753199999995,-84.4904889,247.8699951171875,1.2604491710662842,0.5604492425918579
1666743733.27952409,213563831,42.7307531,-84.4904889,247.86000061035156,1.2578485012054443,0.5578485727310181
1666743733.29930902,213583616,42.7307529,-84.490489,247.86000061035156,1.2560770511627197,0.5560771226882935
1666743733.33929205,213623599,42.730752599999995,-84.4904892,247.86000061035156,1.2517130374908447,0.5517130494117737
1666743733.37963700,213663944,42.7307523,-84.4904893,247.84999084472656,1.247121810913086,0.5471218228340149
1666743733.37975311,213664060,42.7307523,-84.4904893,247.84999084472656,1.247121810913086,0.5471218228340149
1666743733.41993093,213704238,42.730751999999995,-84.49048959999999,247.84999084472656,1.242573857307434,0.542573869228363
1666743733.45965099,213743958,42.7307518,-84.49048979999999,247.83999633789062,1.2373645305633545,0.5373645424842834
1666743733.47950101,213763808,42.7307516,-84.4904899,247.83999633789062,1.2342987060546875,0.5342987775802612
1666743733.49930096,213783608,42.7307515,-84.4904901,247.83999633789062,1.231738567352295,0.5317385792732239
1666743733.53936005,213823667,42.7307513,-84.49049029999999,247.8300018310547,1.2263246774673462,0.5263246893882751
1666743733.57964802,213863955,42.730751,-84.49049049999999,247.8300018310547,1.2210012674331665,0.5210013389587402
1666743733.57976508,213864072,42.730751,-84.49049049999999,247.8300018310547,1.2210012674331665,0.5210013389587402
1666743733.61989093,213904198,42.7307507,-84.49049099999999,247.8199920654297,1.2175755500793457,0.5175756216049194
1666743733.65964103,213943948,42.7307504,-84.4904913,247.8199920654297,1.2135342359542847,0.5135343074798584
1666743733.67947602,213963783,42.7307503,-84.4904914,247.8199920654297,1.2109259366989136,0.5109260082244873
1666743733.69937110,213983678,42.730750199999996,-84.4904916,247.80999755859375,1.2091405391693115,0.5091406106948853
1666743733.73929811,214023605,42.7307499,-84.4904918,247.80999755859375,1.2051222324371338,0.5051223039627075
1666743733.77949095,214063798,42.7307497,-84.490492,247.80999755859375,1.2010267972946167,0.5010268688201904
1666743733.77963805,214063945,42.7307497,-84.490492,247.80999755859375,1.2010267972946167,0.5010268688201904
1666743733.81992006,214104227,42.7307494,-84.4904924,247.79998779296875,1.1978402137756348,0.4978402853012085
1666743733.85965705,214143964,42.7307492,-84.4904928,247.79998779296875,1.1940878629684448,0.4940878748893738
1666743733.87948203,214163789,42.730748999999996,-84.49049289999999,247.79998779296875,1.1916276216506958,0.49162763357162476
1666743733.89939308,214183700,42.730748899999995,-84.4904932,247.7899932861328,1.1899447441101074,0.48994478583335876
1666743733.93930697,214223614,42.7307487,-84.4904935,247.7899932861328,1.185629963874817,0.48563000559806824
1666743733.97943497,214263742,42.7307485,-84.4904938,247.7899932861328,1.1810886859893799,0.4810887277126312
1666743733.97958398,214263891,42.7307485,-84.4904938,247.7899932861328,1.1810886859893799,0.4810887277126312
1666743734.01990604,214304213,42.7307482,-84.4904942,247.77999877929688,1.177610158920288,0.47761014103889465
1666743734.05965209,214343959,42.730748,-84.49049459999999,247.77999877929688,1.1735764741897583,0.47357651591300964
1666743734.07950711,214363814,42.7307479,-84.4904947,247.77999877929688,1.170989990234375,0.47099003195762634
1666743734.09930706,214383614,42.730747799999996,-84.4904949,247.76998901367188,1.1690917015075684,0.4690916836261749
1666743734.13931990,214423627,42.7307476,-84.4904952,247.76998901367188,1.1647100448608398,0.4647100269794464
1666743734.17954493,214463852,42.7307474,-84.4904955,247.76998901367188,1.1602530479431152,0.4602530598640442
1666743734.17968011,214463987,42.7307474,-84.4904955,247.76998901367188,1.1602530479431152,0.4602530598640442
1666743734.21996593,214504273,42.730747099999995,-84.4904959,247.75999450683594,1.1566224098205566,0.4566224217414856
1666743734.25964689,214543954,42.7307469,-84.4904962,247.75999450683594,1.1523890495300293,0.452389121055603
1666743734.27941489,214563722,42.7307468,-84.4904964,247.75,1.1496598720550537,0.4496598541736603
1666743734.29926109,214583568,42.7307467,-84.49049649999999,247.75,1.147869348526001,0.44786933064460754
1666743734.33934498,214623652,42.730746499999995,-84.4904968,247.75,1.1434630155563354,0.4434630274772644
1666743734.37958002,214663887,42.7307463,-84.4904971,247.739990234375,1.1391295194625854,0.4391295611858368
1666743734.37980103,214664108,42.7307463,-84.4904971,247.739990234375,1.1391295194625854,0.4391295611858368
1666743734.41996288,214704270,42.7307461,-84.4904974,247.739990234375,1.135851263999939,0.43585124611854553
1666743734.45966697,214743974,42.730745899999995,-84.4904976,247.739990234375,1.1323938369750977,0.4323938488960266
1666743734.47942805,214763735,42.7307458,-84.4904978,247.72999572753906,1.1299033164978027,0.4299032986164093
1666743734.49924493,214783552,42.7307457,-84.4904979,247.72999572753906,1.1283379793167114,0.428337961435318
1666743734.53931403,214823621,42.7307455,-84.4904981,247.72999572753906,1.124428153038025,0.42442819476127625
1666743734.57951403,214863821,42.730745299999995,-84.49049839999999,247.72999572753906,1.1202924251556396,0.4202924072742462
1666743734.57963490,214863942,42.730745299999995,-84.49049839999999,247.72999572753906,1.1202924251556396,0.4202924072742462
1666743734.61999297,214904300,42.7307452,-84.4904986,247.72000122070312,1.1179546117782593,0.417954683303833
1666743734.65958500,214943892,42.730745,-84.49049869999999,247.72000122070312,1.1153391599655151,0.4153392016887665
1666743734.67950988,214963817,42.7307449,-84.4904988,247.72000122070312,1.1132183074951172,0.4132183790206909
1666743734.69928789,214983595,42.7307448,-84.49049889999999,247.72000122070312,1.1122124195098877,0.4122124910354614
1666743734.73927808,215023585,42.730744699999995,-84.4904991,247.70999145507812,1.1093494892120361,0.4093495309352875
1666743734.77949190,215063799,42.7307445,-84.4904993,247.70999145507812,1.1060702800750732,0.406070351600647
1666743734.77961206,215063919,42.7307445,-84.4904993,247.70999145507812,1.1060702800750732,0.406070351600647
1666743734.81994295,215104250,42.7307444,-84.49049939999999,247.70999145507812,1.1042523384094238,0.4042523503303528
1666743734.85952401,215143831,42.7307443,-84.4904995,247.70999145507812,1.1015217304229736,0.40152180194854736
1666743734.87951303,215163820,42.7307442,-84.49049959999999,247.6999969482422,1.0994517803192139,0.3994518518447876
1666743734.89929605,215183603,42.730744099999995,-84.4904997,247.6999969482422,1.0984243154525757,0.39842432737350464
1666743734.93927407,215223581,42.730744,-84.4904998,247.6999969482422,1.0951268672943115,0.39512690901756287
1666743734.97956610,215263873,42.7307439,-84.4905,247.6999969482422,1.0916798114776611,0.3916798233985901
1666743734.97966599,215263973,42.7307439,-84.4905,247.6999969482422,1.0916798114776611,0.3916798233985901
1666743735.01994705,215304254,42.7307439,-84.4905,247.6999969482422,1.0902398824691772,0.3902398943901062
1666743735.05971909,215344026,42.7307438,-84.49050009999999,247.6899871826172,1.0875203609466553,0.38752037286758423
