timestamp,TimeUS,C,Roll,Pitch,Yaw,VN,VE,VD,dPD,PN,PE,PD,GX,GY,GZ,OH
1666743720.13860106,200422908,1,0.05,0.36,302.04,-0.25398194789886475,-0.03311993181705475,-0.01764106936752796,-0.06339390575885773,16.39874267578125,11.34344482421875,0.7162057757377625,0.05,0.0,0.03,247.32
1666743720.17859197,200462899,1,0.05,0.36,302.04,-0.2549061179161072,-0.033385466784238815,-0.018153199926018715,-0.06290753185749054,16.380462646484375,11.33684253692627,0.7129999399185181,0.05,0.0,0.03,247.32
1666743720.21865892,200502966,1,0.05,0.36,302.04,-0.2556508779525757,-0.03359289467334747,-0.018384737893939018,-0.06647052615880966,16.363183975219727,11.330965995788574,0.7100958228111267,0.05,0.0,0.03,247.32
1666743720.25856900,200542876,1,0.05,0.36,302.03000000000003,-0.2562290132045746,-0.03423244506120682,-0.01812063902616501,-0.06387829780578613,16.33873748779297,11.3198823928833,0.7077466249465942,0.05,0.0,0.03,247.32
1666743720.27860689,200562914,1,0.05,0.36,302.03000000000003,-0.2566741108894348,-0.03451776131987572,-0.01791708916425705,-0.05931345745921135,16.330081939697266,11.316688537597656,0.7071062326431274,0.05,0.0,0.03,247.32
1666743720.29857111,200582878,1,0.05,0.36,302.03000000000003,-0.2572197914123535,-0.03488818556070328,-0.01762290671467781,-0.053391896188259125,16.318077087402344,11.311295509338379,0.7062157392501831,0.05,0.0,0.03,247.32
1666743720.33856797,200622875,1,0.05,0.36,302.03000000000003,-0.2580714821815491,-0.035610128194093704,-0.01713724434375763,-0.04265710338950157,16.29886245727539,11.303679466247559,0.7047680616378784,0.05,0.0,0.03,247.32
1666743720.37859988,200662907,1,0.05,0.36,302.02,-0.25868090987205505,-0.03548891469836235,-0.01711759902536869,-0.034814972430467606,16.280906677246094,11.296931266784668,0.7034168243408203,0.05,0.0,0.03,247.32
1666743720.41859508,200702902,1,0.05,0.36,302.02,-0.2586669325828552,-0.03529293090105057,-0.016753289848566055,-0.026694336906075478,16.262922286987305,11.289813041687012,0.7026873230934143,0.05,0.0,0.03,247.32
1666743720.45860505,200742912,1,0.06,0.36,302.02,-0.25668132305145264,-0.03611921891570091,-0.01584303379058838,-0.009331286884844303,16.24188995361328,11.27932071685791,0.7031279802322388,0.05,0.0,0.03,247.32
1666743720.47860909,200762916,1,0.06,0.36,302.02,-0.2563350200653076,-0.03600974753499031,-0.015533316880464554,-0.0010818697046488523,16.234546661376953,11.276625633239746,0.7030767202377319,0.05,0.0,0.03,247.32
1666743720.49856901,200782876,1,0.06,0.36,302.02,-0.2556779682636261,-0.035875800997018814,-0.015317109413444996,0.00556686008349061,16.225025177001953,11.272202491760254,0.7032555937767029,0.05,0.0,0.03,247.32
1666743720.53857088,200822878,1,0.06,0.35000000000000003,302.02,-0.2545725405216217,-0.03536079823970795,-0.01487163919955492,0.012768920511007309,16.209253311157227,11.265926361083984,0.7029939293861389,0.05,0.0,0.03,247.32
1666743720.57856607,200862873,1,0.06,0.35000000000000003,302.02,-0.2538324296474457,-0.03537173941731453,-0.014421327039599419,0.011065552942454815,16.19442367553711,11.260374069213867,0.7025849223136902,0.05,0.0,0.03,247.32
1666743720.61860299,200902910,1,0.06,0.35000000000000003,302.01,-0.252869188785553,-0.03494533151388168,-0.013813679106533527,0.009479210712015629,16.178321838378906,11.253853797912598,0.7028353214263916,0.05,0.0,0.03,247.32
1666743720.65861011,200942917,1,0.06,0.35000000000000003,302.01,-0.25238335132598877,-0.03623582050204277,-0.01243301946669817,0.021361440420150757,16.156503677368164,11.242796897888184,0.7046024799346924,0.05,0.0,0.03,247.32
1666743720.67856908,200962876,1,0.06,0.35000000000000003,302.02,-0.2523905038833618,-0.03648030757904053,-0.012005318887531757,0.027973126620054245,16.1489315032959,11.239950180053711,0.704885721206665,0.05,0.0,0.03,247.32
1666743720.69860291,200982910,1,0.06,0.35000000000000003,302.01,-0.25195252895355225,-0.036929719150066376,-0.0114344647154212,0.032856326550245285,16.13922691345215,11.235283851623535,0.7056578993797302,0.05,0.0,0.03,247.32
1666743720.73856902,201022876,1,0.07,0.35000000000000003,302.01,-0.25195741653442383,-0.037333790212869644,-0.01100541278719902,0.0372614711523056,16.12305450439453,11.228593826293945,0.706423819065094,0.05,0.0,0.03,247.32
1666743720.77857995,201062887,1,0.07,0.35000000000000003,302.01,-0.2516564726829529,-0.037470266222953796,-0.010314298793673515,0.03517509251832962,16.107831954956055,11.222634315490723,0.7070173621177673,0.05,0.0,0.03,247.32
1666743720.81862688,201102934,1,0.07,0.35000000000000003,302.01,-0.2503053545951843,-0.03697177767753601,-0.00948664266616106,0.031870320439338684,16.09283447265625,11.21658706665039,0.7079123258590698,0.05,0.0,0.03,247.32
1666743720.85859609,201142903,1,0.07,0.34,302.01,-0.24589405953884125,-0.036175429821014404,-0.008419710211455822,0.03558216243982315,16.076021194458008,11.208268165588379,0.7098499536514282,0.05,0.0,0.03,247.32
1666743720.87857294,201162880,1,0.07,0.34,302.01,-0.24476276338100433,-0.035776667296886444,-0.00811812374740839,0.03799571469426155,16.069677352905273,11.206053733825684,0.7102108597755432,0.05,0.0,0.03,247.32
1666743720.89861393,201182921,1,0.07,0.34,302.01,-0.2427540272474289,-0.035238660871982574,-0.007526769302785397,0.03937447443604469,16.062196731567383,11.202587127685547,0.7110580205917358,0.05,0.0,0.03,247.32
1666743720.93860292,201222910,1,0.07,0.34,302.0,-0.2400425225496292,-0.034213289618492126,-0.007051875349134207,0.039162155240774155,16.049264907836914,11.197604179382324,0.7120572328567505,0.05,0.0,0.03,247.32
1666743720.97856903,201262876,1,0.07,0.34,302.0,-0.23759879171848297,-0.03323801979422569,-0.00654866686090827,0.03537604212760925,16.0369873046875,11.193217277526855,0.7129135131835938,0.05,0.0,0.03,247.32
1666743721.01856995,201302877,1,0.08,0.34,302.0,-0.23354044556617737,-0.03184807673096657,-0.005730245728045702,0.031178724020719528,16.025684356689453,11.188850402832031,0.7138116359710693,0.05,0.0,0.03,247.32
1666743721.05860400,201342911,1,0.08,0.34,301.99,-0.22417345643043518,-0.02948409877717495,-0.004759243223816156,0.028879636898636818,16.01498794555664,11.183005332946777,0.715120255947113,0.05,0.0,0.03,247.32
1666743721.07856703,201362874,1,0.08,0.34,301.99,-0.2220725566148758,-0.028823494911193848,-0.004383045714348555,0.02825523167848587,16.010190963745117,11.181422233581543,0.7153765559196472,0.05,0.0,0.03,247.32
1666743721.09861493,201382922,1,0.09,0.34,301.99,-0.2181454747915268,-0.027757659554481506,-0.004122383426874876,0.027006346732378006,16.005468368530273,11.179065704345703,0.7159575819969177,0.05,0.0,0.03,247.32
1666743721.13860488,201422912,1,0.09,0.33,301.99,-0.21200452744960785,-0.026230748742818832,-0.003325890749692917,0.024699741974473,15.996644020080566,11.175702095031738,0.7167051434516907,0.05,0.0,0.03,247.32
1666743721.17857790,201462885,1,0.09,0.33,301.99,-0.20648904144763947,-0.02451697178184986,-0.0028335293754935265,0.021598977968096733,15.988521575927734,11.172859191894531,0.71738201379776,0.05,0.0,0.03,247.32
1666743721.21857095,201502878,1,0.1,0.33,301.99,-0.20120008289813995,-0.023765454068779945,-0.00198992807418108,0.022105572745203972,15.979435920715332,11.168816566467285,0.7188223600387573,0.05,0.0,0.03,247.32
1666743721.25856900,201542876,1,0.1,0.33,301.99,-0.1940557360649109,-0.024058915674686432,-0.00043107406236231327,0.041170135140419006,15.967437744140625,11.160537719726562,0.7225623726844788,0.05,0.0,0.03,247.32
1666743721.27859688,201562904,1,0.1,0.33,301.98,-0.1919214129447937,-0.023874877020716667,-1.1110046216344927e-05,0.05217352136969566,15.962657928466797,11.158438682556152,0.7234136462211609,0.05,0.0,0.03,247.32
1666743721.29860497,201582912,1,0.1,0.33,301.98,-0.18878290057182312,-0.024041861295700073,0.0005319771007634699,0.059595007449388504,15.957470893859863,11.154988288879395,0.7250357866287231,0.05,0.0,0.03,247.32
1666743721.33858299,201622890,1,0.1,0.33,301.98,-0.18423335254192352,-0.02395777963101864,0.0015659118071198463,0.06845086812973022,15.948136329650879,11.15008544921875,0.7270678281784058,0.05,0.0,0.03,247.32
1666743721.37860203,201662909,1,0.1,0.33,301.99,-0.17975443601608276,-0.023499971255660057,0.002569185569882393,0.06652696430683136,15.939634323120117,11.145774841308594,0.7288332581520081,0.05,0.0,0.03,247.32
1666743721.41856694,201702874,1,0.1,0.33,301.98,-0.17342695593833923,-0.022654248401522636,0.0036186850629746914,0.06338979303836823,15.928756713867188,11.140048027038574,0.7309381365776062,0.05,0.0,0.03,247.32
1666743721.45857692,201742884,1,0.1,0.34,301.99,-0.16591620445251465,-0.021691251546144485,0.0048030950129032135,0.05748948082327843,15.918066024780273,11.133817672729492,0.7329198122024536,0.05,0.0,0.03,247.32
1666743721.47859788,201762905,1,0.1,0.33,301.99,-0.16372740268707275,-0.020888324826955795,0.004995828494429588,0.05392034724354744,15.913982391357422,11.132227897644043,0.733432412147522,0.05,0.0,0.03,247.32
1666743721.49855804,201782865,1,0.1,0.33,301.99,-0.16066040098667145,-0.020700326189398766,0.005690854042768478,0.05008353292942047,15.909417152404785,11.129669189453125,0.7343250513076782,0.05,0.0,0.03,247.32
1666743721.53860307,201822910,1,0.1,0.33,301.99,-0.1557272970676422,-0.019627470523118973,0.006113865412771702,0.040960270911455154,15.901372909545898,11.126049041748047,0.7352560758590698,0.05,0.0,0.03,247.32
1666743721.57863402,201862941,1,0.11,0.33,301.98,-0.15112602710723877,-0.018344664946198463,0.006316760554909706,0.02878141589462757,15.893973350524902,11.122931480407715,0.7359587550163269,0.05,0.0,0.03,247.32
1666743721.61858606,201902893,1,0.11,0.33,301.98,-0.146950826048851,-0.016729185357689857,0.0066382973454892635,0.019736675545573235,15.885771751403809,11.119294166564941,0.7367436289787292,0.05,0.0,0.03,247.32
1666743721.65856791,201942875,1,0.11,0.33,301.99,-0.1407025307416916,-0.01658431999385357,0.007336298935115337,0.01688784547150135,15.874333381652832,11.113029479980469,0.7379128336906433,0.05,0.0,0.03,247.32
1666743721.67859697,201962904,1,0.11,0.33,301.99,-0.1386696994304657,-0.01593404822051525,0.007357509341090918,0.016589844599366188,15.870338439941406,11.111482620239258,0.7382632493972778,0.05,0.0,0.03,247.32
1666743721.69857311,201982880,1,0.11,0.33,301.99,-0.13615339994430542,-0.015613631345331669,0.007603805977851152,0.016484204679727554,15.865405082702637,11.108909606933594,0.7387977838516235,0.05,0.0,0.03,247.32
1666743721.73859811,202022905,1,0.12,0.33,301.99,-0.13180111348628998,-0.015000620856881142,0.008529691025614738,0.015795523300766945,15.857281684875488,11.10534954071045,0.7393215894699097,0.05,0.0,0.03,247.32
1666743721.77857399,202062881,1,0.12,0.32,301.98,-0.12740150094032288,-0.014569873921573162,0.008788849227130413,0.010986619628965855,15.84980297088623,11.10224723815918,0.7396963238716125,0.05,0.0,0.03,247.32
1666743721.81862903,202102936,1,0.12,0.33,301.98,-0.12338757514953613,-0.0146623644977808,0.009281342849135399,0.009876798838376999,15.841547012329102,11.098119735717773,0.7407432198524475,0.05,0.0,0.03,247.32
1666743721.85857797,202142885,1,0.12,0.33,301.98,-0.11802484840154648,-0.016271086409687996,0.010402554646134377,0.0230735894292593,15.829744338989258,11.089975357055664,0.7431029081344604,0.05,0.0,0.03,247.32
1666743721.87860608,202162913,1,0.11,0.33,301.98,-0.11609989404678345,-0.016708511859178543,0.010841988027095795,0.030296826735138893,15.825945854187012,11.087986946105957,0.7437536716461182,0.05,0.0,0.03,247.32
1666743721.89857006,202182877,1,0.11,0.33,301.98,-0.1138051375746727,-0.017614107578992844,0.011332264170050621,0.03617871552705765,15.820826530456543,11.08452320098877,0.7448201179504395,0.05,0.0,0.03,247.32
1666743721.93856907,202222876,1,0.12,0.33,301.97,-0.10997185111045837,-0.01832365244626999,0.012266602367162704,0.043600670993328094,15.81275749206543,11.079651832580566,0.7463833093643188,0.05,0.0,0.03,247.32
1666743721.97859788,202262905,1,0.11,0.33,301.97,-0.106808140873909,-0.01901279017329216,0.012475434690713882,0.04483821988105774,15.805405616760254,11.075292587280273,0.7478234171867371,0.05,0.0,0.03,247.32
1666743722.01859903,202302906,1,0.11,0.33,301.97,-0.10215975344181061,-0.018863525241613388,0.013319172896444798,0.046020228415727615,15.798029899597168,11.070967674255371,0.749835193157196,0.05,0.0,0.03,247.32
1666743722.05860901,202342916,1,0.11,0.33,301.97,-0.09556683897972107,-0.018064025789499283,0.014791256748139858,0.056289322674274445,15.78899097442627,11.065191268920898,0.7529403567314148,0.05,0.0,0.03,247.32
1666743722.07858396,202362891,1,0.11,0.33,301.97,-0.09311208128929138,-0.017694605514407158,0.015182440169155598,0.060814350843429565,15.7860746383667,11.063737869262695,0.7538061141967773,0.05,0.0,0.03,247.32
1666743722.09857202,202382879,1,0.11,0.33,301.97,-0.09004846215248108,-0.01756921596825123,0.01589924469590187,0.06388194859027863,15.78226375579834,11.061338424682617,0.7552058100700378,0.05,0.0,0.03,247.32
1666743722.13857388,202422881,1,0.11,0.33,301.96,-0.08460158854722977,-0.01686030440032482,0.016978919506072998,0.0641218051314354,15.77631950378418,11.057976722717285,0.7568341493606567,0.05,0.0,0.03,247.32
1666743722.17857289,202462880,1,0.11,0.33,301.96,-0.07972577959299088,-0.016049379482865334,0.01765320636332035,0.0549238957464695,15.77106761932373,11.055063247680664,0.7581645250320435,0.05,0.0,0.03,247.32
1666743722.21860099,202502908,1,0.11,0.33,301.97,-0.0733158215880394,-0.014648254960775375,0.01823876053094864,0.04561736807227135,15.766711235046387,11.05236530303955,0.7596008777618408,0.04,0.0,0.03,247.32
1666743722.25858212,202542889,1,0.11,0.33,301.96,-0.062154337763786316,-0.012060163542628288,0.01888408698141575,0.03822420910000801,15.763614654541016,11.049163818359375,0.760936975479126,0.04,0.0,0.03,247.32
1666743722.27856803,202562875,1,0.11,0.33,301.96,-0.05834846943616867,-0.011191483587026596,0.019043797627091408,0.035000331699848175,15.762407302856445,11.04837417602539,0.7614530920982361,0.04,0.0,0.03,247.32
1666743722.29861593,202582923,1,0.11,0.33,301.96,-0.05294608697295189,-0.009911585599184036,0.019304785877466202,0.03211749345064163,15.761370658874512,11.047165870666504,0.7621046304702759,0.04,0.0,0.03,247.32
1666743722.33857107,202622878,1,0.11,0.33,301.95,-0.04461907595396042,-0.00792696699500084,0.01997373439371586,0.027582533657550812,15.759794235229492,11.045595169067383,0.7630707025527954,0.04,0.0,0.03,247.32
1666743722.37857008,202662877,1,0.11,0.33,301.95,-0.037616901099681854,-0.006025124341249466,0.020401185378432274,0.02269376441836357,15.758769035339355,11.04439926147461,0.7639599442481995,0.04,0.0,0.03,247.32
1666743722.41855693,202702864,1,0.11,0.33,301.95,-0.03093431517481804,-0.004663954023271799,0.021191664040088654,0.020996935665607452,15.756319046020508,11.042728424072266,0.765171468257904,0.05,0.0,0.03,247.32
1666743722.45862889,202742936,1,0.11,0.33,301.95,-0.02543482556939125,-0.0037252185866236687,0.021832752972841263,0.023855725303292274,15.749645233154297,11.039161682128906,0.7665499448776245,0.05,0.0,0.03,247.32
1666743722.47857404,202762881,1,0.11,0.33,301.95,-0.023106973618268967,-0.0031652285251766443,0.02220391295850277,0.02547071874141693,15.747960090637207,11.038363456726074,0.767116904258728,0.05,0.0,0.03,247.32
1666743722.49860096,202782908,1,0.11,0.33,301.94,-0.020523231476545334,-0.0026257478166371584,0.022702375426888466,0.02680625580251217,15.745354652404785,11.036980628967285,0.7677878737449646,0.05,0.0,0.03,247.32
1666743722.53859305,202822900,1,0.11,0.33,301.94,-0.01614607311785221,-0.001589404884725809,0.023484259843826294,0.027590103447437286,15.741822242736816,11.035209655761719,0.7687370181083679,0.05,0.0,0.03,247.32
1666743722.57857299,202862880,1,0.11,0.33,301.93,-0.011866092681884766,-0.0004670817870646715,0.02418685518205166,0.02471763826906681,15.738926887512207,11.03378677368164,0.7695890069007874,0.05,0.0,0.03,247.32
1666743722.61857700,202902884,1,0.11,0.33,301.93,-0.008902414701879025,0.0003899649891536683,0.02449360303580761,0.022721538320183754,15.734467506408691,11.03171157836914,0.7707085609436035,0.05,0.0,0.03,247.32
1666743722.65861297,202942920,1,0.11,0.33,301.93,-0.007562904618680477,-7.032091525616124e-05,0.025075556710362434,0.02521321550011635,15.724405288696289,11.027104377746582,0.7720502018928528,0.05,0.0,0.03,247.32
1666743722.67857504,202962882,1,0.11,0.33,301.93,-0.006482364144176245,-6.432690133806318e-05,0.025540409609675407,0.026954583823680878,15.722089767456055,11.026089668273926,0.7726446390151978,0.05,0.0,0.03,247.32
1666743722.69858408,202982891,1,0.11,0.33,301.92,-0.005849959794431925,-7.498299237340689e-05,0.02566738985478878,0.028047675266861916,15.717897415161133,11.024209976196289,0.7733044028282166,0.05,0.0,0.03,247.32
1666743722.73862004,203022927,1,0.11,0.33,301.92,-0.003818417666479945,0.00041217816760763526,0.02623916044831276,0.029641246423125267,15.712224006652832,11.021736145019531,0.774446427822113,0.05,0.0,0.03,247.32
1666743722.77858305,203062890,1,0.11,0.33,301.92,-0.0018943959148600698,0.0006871522637084126,0.027036022394895554,0.029704218730330467,15.707298278808594,11.019645690917969,0.7755763530731201,0.05,0.0,0.03,247.32
1666743722.81858397,203102891,1,0.11,0.33,301.92,0.0004198762762825936,0.001789185218513012,0.027549372985959053,0.027795778587460518,15.702153205871582,11.017473220825195,0.7763718366622925,0.05,0.0,0.03,247.32
1666743722.85858107,203142888,1,0.11,0.34,301.92,0.00417941901832819,0.0022464836947619915,0.027570977807044983,0.01571000926196575,15.694319725036621,11.01409912109375,0.7758162617683411,0.05,0.0,0.03,247.32
1666743722.87860990,203162917,1,0.11,0.34,301.92,0.0062144119292497635,0.0021742163226008415,0.02750498615205288,0.008488135412335396,15.692659378051758,11.013392448425293,0.7760106325149536,0.05,0.0,0.03,247.32
1666743722.89861202,203182919,1,0.11,0.33,301.91,0.006907724309712648,0.00342279439792037,0.027310019358992577,0.003159584477543831,15.689491271972656,11.012056350708008,0.7758528590202332,0.05,0.0,0.03,247.32
1666743722.93860102,203222908,1,0.1,0.33,301.92,0.010556263849139214,0.003551163012161851,0.027664190158247948,-0.003719164291396737,15.685434341430664,11.010422706604004,0.7758985757827759,0.05,0.0,0.03,247.32
1666743722.97861409,203262921,1,0.11,0.33,301.92,0.01252078264951706,0.006976957432925701,0.027765726670622826,-0.00690225325524807,15.682116508483887,11.009018898010254,0.7759848833084106,0.05,0.0,0.03,247.32
1666743723.01858306,203302890,1,0.11,0.33,301.92,0.018352948129177094,0.0027097046840935946,0.026681184768676758,-0.006396983750164509,15.678394317626953,11.007582664489746,0.7764768004417419,0.05,0.0,0.03,247.32
1666743723.05857491,203342882,1,0.1,0.33,301.91,0.020131010562181473,0.00935827475041151,0.027116725221276283,0.004808472469449043,15.671725273132324,11.005044937133789,0.7776386141777039,0.05,0.0,0.03,247.32
1666743723.07861090,203362918,1,0.11,0.33,301.91,0.023253340274095535,0.004549652803689241,0.027455411851406097,0.011144900694489479,15.670524597167969,11.004594802856445,0.7781930565834045,0.05,0.0,0.03,247.32
1666743723.09857702,203382884,1,0.11,0.33,301.90000000000003,0.02487284317612648,0.004640613216906786,0.0272829532623291,0.01619959995150566,15.667957305908203,11.00358772277832,0.7787540555000305,0.05,0.0,0.03,247.32
1666743723.13861108,203422918,1,0.11,0.33,301.89,0.027871280908584595,0.010451373644173145,0.027279527857899666,0.02336965687572956,15.664946556091309,11.002582550048828,0.7796509265899658,0.05,0.0,0.03,247.32
1666743723.17858100,203462888,1,0.11,0.33,301.87,0.031551238149404526,0.0105583555996418,0.02833348698914051,0.02582121081650257,15.662707328796387,11.0017671585083,0.7804843187332153,0.05,0.0,0.03,247.32
1666743723.21860909,203502916,1,0.1,0.34,301.87,0.033026501536369324,0.00840980838984251,0.027242738753557205,0.023298341780900955,15.65814208984375,11.000056266784668,0.7810562252998352,0.05,0.0,0.03,247.32
1666743723.25857401,203542881,1,0.1,0.33,301.87,0.03095819614827633,0.008481827564537525,0.02788064256310463,0.015710391104221344,15.645809173583984,10.994685173034668,0.7807260751724243,0.05,0.0,0.03,247.32
1666743723.27857995,203562887,1,0.1,0.33,301.87,0.030190743505954742,0.01155660767108202,0.02800893411040306,0.011220719665288925,15.64335823059082,10.993656158447266,0.7809671759605408,0.05,0.0,0.03,247.32
1666743723.29857707,203582884,1,0.1,0.33,301.87,0.03173641860485077,0.006653989665210247,0.027930602431297302,0.00785463023930788,15.638197898864746,10.991514205932617,0.7809295654296875,0.05,0.0,0.03,247.32
1666743723.33862090,203622928,1,0.1,0.33,301.88,0.03166203945875168,0.00366695667617023,0.027563726529479027,0.003145457012578845,15.631682395935059,10.988554000854492,0.7811623811721802,0.05,0.0,0.04,247.32
1666743723.37860298,203662910,1,0.09,0.33,301.87,0.033812303096055984,0.006938012316823006,0.0297886673361063,0.0037250628229230642,15.626042366027832,10.98604965209961,0.7814476490020752,0.05,0.0,0.04,247.32
1666743723.41860509,203702912,1,0.11,0.33,301.85,0.03460025414824486,0.0025123730301856995,0.023104844614863396,-0.0001151084725279361,15.620024681091309,10.983268737792969,0.7823499441146851,0.05,0.0,0.04,247.32
1666743723.45857406,203742881,1,0.09,0.32,301.82,0.031033238396048546,0.005454149562865496,0.03219079226255417,0.02383487857878208,15.610158920288086,10.978586196899414,0.784307062625885,0.05,0.0,0.04,247.32
1666743723.47860289,203762910,1,0.1,0.34,301.79,0.03164394572377205,0.005857906769961119,0.02162223309278488,0.020962383598089218,15.608298301696777,10.977682113647461,0.7850311398506165,0.05,0.0,0.04,247.32
1666743723.49857497,203782882,1,0.11,0.33,301.78000000000003,0.028457950800657272,0.0014926946023479104,0.02419673278927803,0.030206026509404182,15.604248046875,10.975783348083496,0.7859606742858887,0.05,0.0,0.04,247.32
1666743723.53857708,203822884,1,0.09,0.35000000000000003,301.76,0.039272841066122055,0.012039363384246826,0.03531603515148163,0.04837065190076828,15.599268913269043,10.973227500915527,0.7871273756027222,0.05,0.0,0.04,247.32
1666743723.57861805,203862925,1,0.07,0.34,301.75,0.037777114659547806,0.00730086350813508,0.024304741993546486,0.03507892042398453,15.595102310180664,10.971243858337402,0.7880505323410034,0.05,0.0,0.04,247.32
1666743723.61860490,203902912,1,0.09,0.35000000000000003,301.75,0.03818706050515175,0.006140020675957203,0.032038476318120956,0.04033361002802849,15.589868545532227,10.96851634979248,0.7895769476890564,0.05,0.0,0.04,247.32
1666743723.65860891,203942916,1,0.07,0.35000000000000003,301.73,0.04150420427322388,0.00953170470893383,0.03438344597816467,0.04797482490539551,15.57933235168457,10.963604927062988,0.7916206121444702,0.05,0.0,0.04,247.32
1666743723.67856503,203962872,1,0.09,0.34,301.73,0.03735336288809776,0.0006854546954855323,0.024318339303135872,0.0405038520693779,15.57734203338623,10.962499618530273,0.7924076914787292,0.05,0.0,0.04,247.32
1666743723.69857907,203982886,1,0.08,0.33,301.71,0.03657503053545952,0.0012841522693634033,0.02919781021773815,0.04731333628296852,15.573003768920898,10.960347175598145,0.7934258580207825,0.05,0.0,0.04,247.32
1666743723.73857403,204022881,1,0.1,0.33,301.66,0.041465867310762405,0.006103893741965294,0.030536876991391182,0.04877268895506859,15.567790985107422,10.957627296447754,0.7947200536727905,0.05,0.0,0.04,247.32
1666743723.77857399,204062881,1,0.09,0.33,301.64,0.04216274991631508,0.0005741367349401116,0.023701069876551628,0.03539596498012543,15.563383102416992,10.955198287963867,0.7958652377128601,0.05,0.0,0.04,247.32
1666743723.81862497,204102932,1,0.1,0.33,301.6,0.04007713124155998,0.002068387810140848,0.02558007836341858,0.030176496133208275,15.558137893676758,10.952346801757812,0.7968072891235352,0.05,0.0,0.04,247.32
1666743723.85859489,204142902,1,0.09,0.32,301.59000000000003,0.04463823512196541,-0.00052861706353724,0.025352418422698975,0.015758300200104713,15.547775268554688,10.94717788696289,0.7964636087417603,0.05,0.0,0.04,247.32
1666743723.87857890,204162886,1,0.09,0.34,301.58,0.04512318596243858,-0.0033776331692934036,0.0252687968313694,0.008387424983084202,15.545939445495605,10.94603157043457,0.7967068552970886,0.05,0.0,0.04,247.32
1666743723.89861393,204182921,1,0.1,0.33,301.58,0.03821912407875061,-0.0029542995616793633,0.023910868912935257,0.0011626745108515024,15.541730880737305,10.943852424621582,0.7966514229774475,0.05,0.0,0.04,247.32
1666743723.93858194,204222889,1,0.11,0.33,301.58,0.04960717633366585,0.003283944446593523,0.030821606516838074,-1.6982694432954304e-05,15.53668212890625,10.940949440002441,0.796701967716217,0.05,0.0,0.04,247.32
1666743723.97857404,204262881,1,0.09,0.34,301.56,0.040444355458021164,-0.005282669793814421,0.03280327096581459,-0.004108946770429611,15.53249454498291,10.938504219055176,0.7967159152030945,0.05,0.0,0.04,247.32
1666743724.01856709,204302874,1,0.08,0.33,301.53000000000003,0.05464613810181618,0.002453285502269864,0.03564435988664627,-0.0025513088330626488,15.527071952819824,10.935661315917969,0.7970447540283203,0.05,0.0,0.04,247.32
1666743724.05860901,204342916,1,0.08,0.33,301.49,0.041753143072128296,-0.005900937132537365,0.03471922501921654,-0.004851066507399082,15.515647888183594,10.931408882141113,0.7963358163833618,0.05,0.0,0.04,247.32
1666743724.07857490,204362882,1,0.06,0.35000000000000003,301.49,0.043719757348299026,-0.008188571780920029,0.03331127390265465,-0.0076146600767970085,15.5134916305542,10.930245399475098,0.7965375185012817,0.05,0.0,0.04,247.32
1666743724.09860706,204382914,1,0.08,0.32,301.47,0.055497441440820694,0.006236425135284662,0.03020007163286209,-0.011061200872063637,15.508903503417969,10.928363800048828,0.7963414192199707,0.05,0.0,0.04,247.32
1666743724.13861895,204422926,1,0.08,0.33,301.45,0.03889530152082443,-0.0037923376075923443,0.03445780649781227,-0.006726603489369154,15.503231048583984,10.926187515258789,0.7962499856948853,0.05,0.0,0.04,247.32
1666743724.17857790,204462885,1,0.07,0.33,301.44,0.05531088635325432,0.00397454621270299,0.03125844895839691,-0.009962739422917366,15.498440742492676,10.923748970031738,0.7961968779563904,0.05,0.0,0.04,247.32
1666743724.21857309,204502880,1,0.09,0.35000000000000003,301.43,0.03992960974574089,-0.00831523910164833,0.02717798389494419,-0.011508540250360966,15.493243217468262,10.922200202941895,0.7964177131652832,0.05,0.0,0.04,247.32
1666743724.25861096,204542918,1,0.08,0.32,301.42,0.058096278458833694,0.00622114073485136,0.03633767366409302,0.0008051010663621128,15.483990669250488,10.919904708862305,0.7961084842681885,0.05,0.0,0.04,247.32
1666743724.27858901,204562896,1,0.08,0.33,301.41,0.0484994575381279,0.012546610087156296,0.03491394594311714,0.0004712805966846645,15.482579231262207,10.919731140136719,0.7964046597480774,0.05,0.0,0.04,247.32
1666743724.29860997,204582917,1,0.08,0.33,301.41,0.04282057657837868,-0.0038708450738340616,0.030463015660643578,-0.002428418258205056,15.478791236877441,10.919052124023438,0.7963927984237671,0.05,0.0,0.04,247.32
1666743724.33860588,204622913,1,0.08,0.33,301.37,0.058418456465005875,0.014507289044559002,0.030836721882224083,0.0011806352995336056,15.474649429321289,10.918027877807617,0.7967566847801208,0.05,0.0,0.05,247.32
1666743724.37859607,204662903,1,0.07,0.33,301.35,0.04959136247634888,-0.005307410843670368,0.03288651257753372,0.006163214799016714,15.471272468566895,10.917642593383789,0.7971932291984558,0.05,0.0,0.05,247.32
1666743724.41857791,204702885,1,0.09,0.33,301.32,0.0515938363969326,0.013213559985160828,0.03012343868613243,0.010073995217680931,15.4600191116333,10.913991928100586,0.7982378602027893,0.05,0.0,0.05,247.32
1666743724.45857501,204742882,1,0.07,0.33,301.31,0.05088292807340622,-0.009116374887526035,0.03403647616505623,0.020011598244309425,15.44656753540039,10.909980773925781,0.7989661693572998,0.05,0.0,0.05,247.32
1666743724.47862697,204762934,1,0.08,0.33,301.3,0.05156518891453743,0.0026435970794409513,0.03265944495797157,0.020616840571165085,15.444231986999512,10.9089937210083,0.7995292544364929,0.05,0.0,0.05,247.32
1666743724.49860501,204782912,1,0.09,0.33,301.29,0.04205923527479172,0.011598411947488785,0.032450541853904724,0.022143254056572914,15.43868350982666,10.907447814941406,0.7999076247215271,0.05,0.0,0.05,247.32
1666743724.53860807,204822915,1,0.08,0.33,301.28000000000003,0.05645923316478729,-0.006864295806735754,0.031375300139188766,0.020024925470352173,15.431805610656738,10.90524673461914,0.8001401424407959,0.05,0.0,0.05,247.32
1666743724.57861090,204862918,1,0.07,0.33,301.26,0.03862496465444565,0.009324003010988235,0.037170760333538055,0.015825916081666946,15.426055908203125,10.903491020202637,0.8000884056091309,0.05,0.0,0.05,247.32
1666743724.61857605,204902883,1,0.06,0.33,301.24,0.053032465279102325,-0.0002848756848834455,0.03485652059316635,0.008558991365134716,15.418670654296875,10.900845527648926,0.8009482622146606,0.05,0.0,0.05,247.32
1666743724.65857911,204942886,1,0.07,0.33,301.21,0.03470749780535698,0.005380925256758928,0.03428201377391815,0.018570035696029663,15.40378475189209,10.895755767822266,0.8026384711265564,0.05,0.0,0.05,247.32
1666743724.67861605,204962923,1,0.07,0.33,301.2,0.0456349179148674,-0.0040300022810697556,0.033425260335206985,0.02384040504693985,15.400839805603027,10.894570350646973,0.8034185171127319,0.05,0.0,0.05,247.32
1666743724.69857502,204982882,1,0.07,0.33,301.19,0.04446713998913765,-0.0014759545447304845,0.03681362792849541,0.03245895728468895,15.394733428955078,10.892267227172852,0.8042247295379639,0.05,0.0,0.05,247.32
1666743724.73861790,205022925,1,0.07,0.34,301.17,0.03838349133729935,0.00033541995799168944,0.03391892835497856,0.034243956208229065,15.386799812316895,10.88939094543457,0.8050323128700256,0.05,0.0,0.05,247.32
1666743724.77859902,205062906,1,0.07,0.34,301.15000000000003,0.03818849101662636,-0.0020642310846596956,0.03720832243561745,0.03020631894469261,15.380154609680176,10.886743545532227,0.8055799007415771,0.05,0.0,0.05,247.32
1666743724.81862807,205102935,1,0.07,0.33,301.13,0.04374850541353226,0.0029235235415399075,0.039553843438625336,0.02633713372051716,15.371805191040039,10.884323120117188,0.8065577149391174,0.05,0.0,0.05,247.32
1666743724.85857797,205142885,1,0.07,0.34,301.11,0.030142005532979965,-0.008285528048872948,0.03650656342506409,0.0172529648989439,15.355749130249023,10.881175994873047,0.8065243363380432,0.05,0.0,0.05,247.32
1666743724.87861109,205162918,1,0.07,0.33,301.1,0.03310072049498558,0.0002478616952430457,0.03679263964295387,0.014056013897061348,15.352424621582031,10.880426406860352,0.8069443702697754,0.05,0.0,0.05,247.32
1666743724.89858603,205182893,1,0.08,0.33,301.09000000000003,0.03635261952877045,0.0017333133146166801,0.041853513568639755,0.01658686436712742,15.345782279968262,10.879231452941895,0.8070606589317322,0.05,0.0,0.05,247.32
1666743724.93856192,205222869,1,0.09,0.32,301.07,0.026734350249171257,-0.0034190884325653315,0.03629210963845253,0.00532517721876502,15.336947441101074,10.87752628326416,0.806948721408844,0.05,0.0,0.05,247.32
1666743724.97860098,205262908,1,0.07,0.34,301.04,0.03291482478380203,0.003091390011832118,0.03587557002902031,-0.005690719000995159,15.329500198364258,10.87629222869873,0.8066192269325256,0.05,0.0,0.05,247.32
1666743725.01858711,205302894,1,0.07,0.33,301.01,0.030185820534825325,0.004576380364596844,0.04046696051955223,-0.0067361583933234215,15.320332527160645,10.87418270111084,0.8068003058433533,0.05,0.0,0.05,247.32
1666743725.05862093,205342928,1,0.07,0.34,300.98,0.022861136123538017,-0.004431081935763359,0.03999324515461922,-0.011762700974941254,15.303338050842285,10.869625091552734,0.8056373000144958,0.05,0.0,0.05,247.32
1666743725.07860494,205362912,1,0.06,0.33,300.97,0.026062512770295143,-0.0013249508338049054,0.04323742166161537,-0.011015827767550945,15.29975414276123,10.86849594116211,0.8058050870895386,0.05,0.0,0.05,247.32
1666743725.09857607,205382883,1,0.07,0.34,300.96,0.02322360686957836,0.006162164732813835,0.03239874169230461,-0.022941015660762787,15.292603492736816,10.866621017456055,0.8054457902908325,0.05,0.0,0.05,247.32
1666743725.13857889,205422886,1,0.07,0.33,300.94,0.02381996437907219,-0.009358086623251438,0.038070082664489746,-0.02006356045603752,15.283224105834961,10.863985061645508,0.8045660257339478,0.05,0.0,0.05,247.32
1666743725.17864299,205462950,1,0.08,0.34,300.92,0.020748145878314972,0.0049698492512106895,0.0406653992831707,-0.025662977248430252,15.275138854980469,10.861761093139648,0.8035717606544495,0.05,0.0,0.05,247.32
1666743725.21860600,205502913,1,0.07,0.33,300.89,0.022960485890507698,-0.0053580147214233875,0.04329170659184456,-0.02415190264582634,15.266129493713379,10.859452247619629,0.8034976124763489,0.05,0.0,0.05,247.32
1666743725.25860691,205542914,1,0.07,0.34,300.86,0.021121647208929062,0.0021322190295904875,0.04166685417294502,-0.01827603578567505,15.250714302062988,10.856409072875977,0.8027930855751038,0.05,0.0,0.05,247.32
1666743725.27856994,205562877,1,0.07,0.34,300.84000000000003,0.01951443776488304,-0.0027426574379205704,0.0385260134935379,-0.01828131452202797,15.247488975524902,10.85573673248291,0.8030248284339905,0.05,0.0,0.05,247.32
1666743725.29859900,205582906,1,0.07,0.33,300.83,0.015427796170115471,-0.002979928394779563,0.044737521559000015,-0.008397132158279419,15.241029739379883,10.854445457458496,0.8028584122657776,0.05,0.0,0.05,247.32
1666743725.33860207,205622909,1,0.08,0.33,300.79,0.020149221643805504,0.001890587154775858,0.04082668200135231,-0.007363127078860998,15.232609748840332,10.852837562561035,0.802524983882904,0.05,0.0,0.06,247.32
1666743725.37858391,205662891,1,0.07,0.34,300.76,0.014668530784547329,-0.0015284731052815914,0.04360700398683548,-0.0054894695058465,15.225279808044434,10.8514986038208,0.8022031784057617,0.05,0.0,0.06,247.32
1666743725.41861010,205702917,1,0.07,0.33,300.74,0.01629515178501606,0.0013874536380171776,0.039963770657777786,-0.0011254900600761175,15.213622093200684,10.848566055297852,0.8031878471374512,0.05,0.0,0.06,247.32
1666743725.45861411,205742921,1,0.08,0.33,300.72,0.011218863539397717,-0.0005620918236672878,0.03950270637869835,0.006099560763686895,15.20024585723877,10.845304489135742,0.8031229376792908,0.05,0.0,0.06,247.32
1666743725.47857594,205762883,1,0.07,0.34,300.71,0.012563023716211319,-0.000842663983348757,0.04714057967066765,0.01571427658200264,15.197357177734375,10.844545364379883,0.8035520911216736,0.05,0.0,0.06,247.32
1666743725.49860406,205782911,1,0.08,0.33,300.69,0.01817452348768711,0.002814157400280237,0.04099756479263306,0.011614282615482807,15.191884994506836,10.843223571777344,0.8037288784980774,0.05,0.0,0.06,247.32
1666743725.53857589,205822883,1,0.07,0.34,300.67,0.013622751459479332,-0.002218493726104498,0.04116861894726753,0.011102896183729172,15.184755325317383,10.841448783874512,0.8033813238143921,0.05,0.0,0.06,247.32
1666743725.57858109,205862888,1,0.06,0.33,300.65000000000003,0.01832009106874466,0.0008234118577092886,0.044903237372636795,0.003688027383759618,15.178576469421387,10.839983940124512,0.8028167486190796,0.05,0.0,0.06,247.32
1666743725.61858201,205902889,1,0.06,0.34,300.61,0.013617713935673237,0.002251824364066124,0.0441800020635128,-0.00027891009813174605,15.170770645141602,10.837838172912598,0.8037863373756409,0.05,0.0,0.06,247.32
1666743725.65860391,205942911,1,0.07,0.34,300.58,0.013446833938360214,-0.0042038955725729465,0.04303273558616638,0.01564835198223591,15.155299186706543,10.833290100097656,0.8054272532463074,0.05,0.0,0.06,247.32
1666743725.67858410,205962891,1,0.07,0.34,300.54,0.014028453268110752,0.0007994954939931631,0.04340579733252525,0.025066664442420006,15.151963233947754,10.832245826721191,0.8062949776649475,0.05,0.0,0.06,247.32
1666743725.69858789,205982895,1,0.09,0.32,300.54,0.014718610793352127,0.0007227444439195096,0.05158568173646927,0.040865737944841385,15.145490646362305,10.830318450927734,0.8071783781051636,0.05,0.0,0.06,247.32
1666743725.73860312,206022910,1,0.07,0.33,300.49,0.011480513028800488,-0.000631804927252233,0.047484345734119415,0.044091276824474335,15.136946678161621,10.827763557434082,0.8079765439033508,0.05,0.0,0.06,247.32
1666743725.77857900,206062886,1,0.06,0.34,300.46,0.012289246544241905,-0.0007631683838553727,0.04703081399202347,0.03609627112746239,15.129485130310059,10.825502395629883,0.8084666132926941,0.05,0.0,0.06,247.32
1666743725.81858611,206102893,1,0.07,0.34,300.43,0.007160619366914034,-0.0005989228957332671,0.05316677689552307,0.04881679639220238,15.117679595947266,10.822271347045898,0.8112077116966248,0.05,0.0,0.06,247.32
1666743725.85855603,206142863,1,0.07,0.35000000000000003,300.38,0.001482315012253821,0.0006632280419580638,0.04153459519147873,0.042837366461753845,15.104161262512207,10.81860065460205,0.8124884963035583,0.05,0.0,0.06,247.32
1666743725.87857795,206162885,1,0.08,0.33,300.37,0.0024916271213442087,-0.0010517033515498042,0.040729377418756485,0.04214348644018173,15.101240158081055,10.817739486694336,0.8132798075675964,0.05,0.0,0.06,247.32
1666743725.89860797,206182915,1,0.06,0.34,300.34000000000003,0.007853403687477112,0.002530761994421482,0.0523240901529789,0.053210776299238205,15.095568656921387,10.816195487976074,0.813933253288269,0.05,0.0,0.06,247.32
1666743725.93860793,206222915,1,0.04,0.35000000000000003,300.3,0.009154372848570347,-0.002677661133930087,0.043453823775053024,0.038666557520627975,15.088115692138672,10.81410026550293,0.8144870400428772,0.05,0.0,0.07,247.32
1666743725.97861099,206262918,1,0.06,0.34,300.25,0.011626155115664005,-0.0005287427920848131,0.05286457762122154,0.032691650092601776,15.081758499145508,10.812325477600098,0.8146969079971313,0.05,0.0,0.07,247.32
1666743726.01857710,206302884,1,0.06,0.36,300.2,0.010720983147621155,0.0023606140166521072,0.061850789934396744,0.032802700996398926,15.073179244995117,10.810219764709473,0.8157268762588501,0.05,0.0,0.07,247.32
1666743726.05857706,206342884,1,0.06,0.34,300.14,-0.000568235176615417,-0.01035359501838684,0.040088675916194916,0.007951166480779648,15.05588150024414,10.806493759155273,0.8156663179397583,0.05,0.0,0.07,247.32
1666743726.07861209,206362919,1,0.06,0.37,300.13,-0.0038898931816220284,-0.005483587738126516,0.053194791078567505,0.019105423241853714,15.051966667175293,10.805624008178711,0.8161693215370178,0.05,0.0,0.07,247.32
1666743726.09861302,206382920,1,0.09,0.37,300.11,0.0004576601495500654,-0.004201104398816824,0.047560833394527435,0.012703773565590382,15.044685363769531,10.8040771484375,0.8162878155708313,0.05,0.0,0.07,247.32
1666743726.13861799,206422925,1,0.05,0.34,300.06,0.0031293292995542288,-0.0012027452467009425,0.04274003580212593,0.0025519230403006077,15.034859657287598,10.80197525024414,0.8156492710113525,0.05,0.0,0.07,247.32
1666743726.17861009,206462917,1,0.04,0.36,300.03000000000003,-0.00019939878256991506,-5.629134193441132e-06,0.04586193710565567,-0.012196382507681847,15.026239395141602,10.80016803741455,0.8146746754646301,0.05,0.0,0.07,247.32
1666743726.21857405,206502881,1,0.08,0.36,299.98,-0.005585808306932449,-0.0016909567639231682,0.038992322981357574,-0.009726990945637226,15.011064529418945,10.796820640563965,0.8170815706253052,0.05,0.0,0.07,247.32
1666743726.25857496,206542882,1,0.09,0.36,299.93,-0.009158405475318432,-0.004750795662403107,0.03986244648694992,0.00014436402125284076,14.993574142456055,10.793025970458984,0.8166950345039368,0.05,0.0,0.07,247.32
1666743726.27861190,206562919,1,0.05,0.36,299.91,-0.015043172053992748,-0.0011662072502076626,0.04389072582125664,0.004643126390874386,14.98946762084961,10.79210090637207,0.817125141620636,0.05,0.0,0.07,247.32
1666743726.29857898,206582886,1,0.09,0.37,299.87,-0.0208719652146101,-0.011362100951373577,0.03798355907201767,-0.0008062550332397223,14.9820556640625,10.790511131286621,0.8171449303627014,0.05,0.0,0.07,247.32
1666743726.33860493,206622912,1,0.06,0.35000000000000003,299.83,-0.014505146071314812,-0.0016170562012121081,0.04232684522867203,-0.002000087406486273,14.971877098083496,10.78831958770752,0.8161564469337463,0.05,0.0,0.07,247.32
1666743726.37859988,206662907,1,0.05,0.36,299.77,-0.014406559057533741,-0.005494759883731604,0.04434271156787872,-0.0206134095788002,14.962906837463379,10.786429405212402,0.8147371411323547,0.05,0.0,0.07,247.32
1666743726.41861105,206702918,1,0.07,0.35000000000000003,299.72,-0.01435943879187107,-0.003861320437863469,0.03976573050022125,-0.03551853075623512,14.952685356140137,10.784637451171875,0.8147100210189819,0.05,0.0,0.07,247.32
1666743726.45857692,206742884,1,0.01,0.33,299.67,-0.017713991925120354,-0.005151772405952215,0.056326575577259064,-0.017130373045802116,14.93529224395752,10.782241821289062,0.8133149147033691,0.05,0.0,0.08,247.32
1666743726.47860193,206762909,1,0.07,0.34,299.66,-0.01863234117627144,-0.005137602798640728,0.046609293669462204,-0.026311783120036125,14.9312105178833,10.78168773651123,0.8135732412338257,0.05,0.0,0.08,247.32
1666743726.49857497,206782882,1,0.08,0.35000000000000003,299.64,-0.02694067545235157,-0.012050884775817394,0.049924612045288086,-0.02090427465736866,14.923840522766113,10.780688285827637,0.8131304979324341,0.05,0.0,0.08,247.32
1666743726.53857803,206822885,1,0.11,0.33,299.6,-0.02573266625404358,-0.008587214164435863,0.046890825033187866,-0.02662801370024681,14.913764953613281,10.779352188110352,0.8110345602035522,0.05,0.0,0.08,247.32
1666743726.57861209,206862919,1,0.07,0.33,299.54,-0.015111438930034637,-0.0011925024446099997,0.04867015779018402,-0.046745557337999344,14.904853820800781,10.77821159362793,0.8085033297538757,0.05,0.0,0.08,247.32
1666743726.61857891,206902886,1,0.12,0.31,299.49,-0.018674856051802635,-0.0012222774093970656,0.04589087888598442,-0.060438089072704315,14.894227981567383,10.776611328125,0.8072942495346069,0.05,0.0,0.08,247.32
1666743726.65860796,206942915,1,0.08,0.3,299.43,-0.02116960845887661,-0.010822562500834465,0.05140862986445427,-0.05963435024023056,14.875703811645508,10.773167610168457,0.8033075332641602,0.05,0.0,0.08,247.32
1666743726.67861295,206962920,1,0.2,0.31,299.42,-0.03864021599292755,-0.0008842185488902032,0.03753658011555672,-0.07718036323785782,14.871286392211914,10.772378921508789,0.8029154539108276,0.05,0.0,0.08,247.32
1666743726.69857597,206982883,1,0.16,0.28,299.40000000000003,-0.016092216596007347,-0.012373881414532661,0.046629782766103745,-0.06842900067567825,14.863471031188965,10.770913124084473,0.8013879656791687,0.05,0.0,0.08,247.32
1666743726.73857808,207022885,1,0.24,0.25,299.36,-0.0201545562595129,-0.022866247221827507,0.03767500817775726,-0.08486370742321014,14.852750778198242,10.768829345703125,0.7969679832458496,0.05,0.0,0.08,247.32
1666743726.77855301,207062860,1,0.3,0.28,299.3,-0.015759436413645744,-0.025236772373318672,0.03844863176345825,-0.11226930469274521,14.84323501586914,10.766763687133789,0.7917404770851135,0.05,0.0,0.08,247.32
1666743726.81862092,207102928,1,0.37,0.22,299.27,-0.01856548711657524,-0.025024481117725372,-0.014437058940529823,-0.17218217253684998,14.832010269165039,10.765380859375,0.7880832552909851,0.05,0.0,0.08,247.32
1666743726.85860610,207142913,1,0.31,0.13,299.25,-0.009192736819386482,-0.013183889910578728,-0.028057357296347618,-0.2100280523300171,14.819574356079102,10.763875961303711,0.7758489847183228,0.05,0.0,0.08,247.32
1666743726.87857509,207162882,1,0.43,0.1,299.23,-0.019766030833125114,-0.02830040082335472,-0.07492481917142868,-0.2741003930568695,14.816814422607422,10.763429641723633,0.772308886051178,0.05,0.0,0.08,247.32
1666743726.89862394,207182931,1,0.4,0.0,299.23,-0.01059685368090868,-0.009637613780796528,-0.07248164713382721,-0.28206920623779297,14.81177043914795,10.762711524963379,0.7660096287727356,0.05,0.0,0.08,247.32
1666743726.93857598,207222883,1,0.48,-0.11,299.25,0.008138786070048809,0.0009064076584763825,-0.10742156207561493,-0.34162431955337524,14.80534553527832,10.761730194091797,0.7508953213691711,0.05,0.0,0.09,247.32
1666743726.97857404,207262881,1,0.64,-0.08,299.24,-0.006669400259852409,-0.013105791993439198,-0.17284977436065674,-0.45587092638015747,14.799873352050781,10.76089096069336,0.7335609197616577,0.05,0.0,0.09,247.32
1666743727.01861405,207302921,1,0.72,-0.1,299.26,0.0007805628119967878,-0.022447241470217705,-0.20861946046352386,-0.5164032578468323,14.794450759887695,10.76008415222168,0.716276228427887,0.05,0.0,0.09,247.32
1666743727.05858397,207342891,1,0.6900000000000001,-0.17,299.3,0.020056098699569702,-0.023713188245892525,-0.22796155512332916,-0.5790277123451233,14.785984992980957,10.758699417114258,0.6871500015258789,0.05,0.0,0.09,247.32
1666743727.07857609,207362883,1,0.71,-0.18,299.31,0.00808318704366684,-0.009574740193784237,-0.25459957122802734,-0.6304152011871338,14.784480094909668,10.758272171020508,0.6779444813728333,0.05,0.0,0.09,247.32
1666743727.09860706,207382914,1,0.72,-0.3,299.33,0.03156694024801254,-0.013461329974234104,-0.26723048090934753,-0.6572586297988892,14.781360626220703,10.75766658782959,0.6643348336219788,0.05,0.0,0.09,247.32
1666743727.13857794,207422885,1,0.73,-0.31,299.36,0.0495087206363678,-0.002935071475803852,-0.2783649265766144,-0.6895487308502197,14.777963638305664,10.756773948669434,0.6374781131744385,0.05,0.0,0.09,247.32
1666743727.17857504,207462882,1,0.8,-0.35000000000000003,299.40000000000003,0.04186728596687317,-0.004819538909941912,-0.31108489632606506,-0.7562236189842224,14.77552318572998,10.755877494812012,0.6093118190765381,0.05,0.0,0.09,247.32
1666743727.21857405,207502881,1,0.8200000000000001,-0.36,299.45,0.04531077668070793,-0.012974333949387074,-0.3477572798728943,-0.7915298342704773,14.772533416748047,10.754364013671875,0.5832998752593994,0.05,0.0,0.09,247.32
1666743727.25861311,207542920,1,0.75,-0.3,299.52,0.058936502784490585,-0.02039593830704689,-0.38151541352272034,-0.8242075443267822,14.765300750732422,10.75071907043457,0.5466051697731018,0.05,0.0,0.09,247.32
1666743727.27858305,207562890,1,0.78,-0.33,299.55,0.059383779764175415,-0.00910160131752491,-0.3935193717479706,-0.843058168888092,14.764595985412598,10.749775886535645,0.5338760614395142,0.05,0.0,0.09,247.32
1666743727.29859710,207582904,1,0.66,-0.33,299.58,0.0721481442451477,-0.02038213610649109,-0.41574907302856445,-0.8595879077911377,14.762147903442383,10.748188018798828,0.516724705696106,0.05,0.0,0.09,247.32
1666743727.33860898,207622916,1,0.67,-0.35000000000000003,299.67,0.09002507477998734,-0.0216705072671175,-0.419146329164505,-0.8593347072601318,14.760248184204102,10.745832443237305,0.48329925537109375,0.05,0.0,0.09,247.32
1666743727.37858009,207662887,1,0.78,-0.34,299.74,0.07698909938335419,-0.019732141867280006,-0.42963188886642456,-0.8950338959693909,14.759359359741211,10.743550300598145,0.44930514693260193,0.05,0.0,0.09,247.32
1666743727.41857409,207702881,1,0.75,-0.33,299.84000000000003,0.0863862857222557,-0.023637644946575165,-0.419443815946579,-0.8801228404045105,14.75486946105957,10.740140914916992,0.4184072017669678,0.05,0.0,0.09,247.32
1666743727.45856905,207742876,1,0.52,-0.32,299.95,0.0909801796078682,-0.02466774731874466,-0.4065345823764801,-0.8608600497245789,14.73827838897705,10.733057975769043,0.3791401982307434,0.05,0.0,0.1,247.32
1666743727.47857809,207762885,1,0.42,-0.28,299.98,0.09085036814212799,-0.021540235728025436,-0.39245328307151794,-0.8497772216796875,14.73563289642334,10.731217384338379,0.3660217225551605,0.05,0.0,0.1,247.32
1666743727.49860597,207782913,1,0.44,-0.25,300.04,0.09284372627735138,-0.020890017971396446,-0.37541985511779785,-0.8234374523162842,14.729150772094727,10.728147506713867,0.3484799265861511,0.05,0.0,0.1,247.32
1666743727.53861094,207822918,1,0.17,-0.13,300.16,0.0993494912981987,-0.015959523618221283,-0.38666102290153503,-0.8215475082397461,14.721786499023438,10.723663330078125,0.31597012281417847,0.05,0.0,0.1,247.32
1666743727.57860708,207862914,1,0.1,0.0,300.28000000000003,0.10111363232135773,-0.030975308269262314,-0.364684522151947,-0.8058286905288696,14.715946197509766,10.719633102416992,0.28417500853538513,0.05,0.0,0.1,247.32
1666743727.61857700,207902884,1,0.08,0.07,300.41,0.1085813045501709,-0.034687403589487076,-0.39814358949661255,-0.8100748658180237,14.70621395111084,10.713529586791992,0.25768986344337463,0.05,0.0,0.1,247.32
1666743727.65857291,207942880,1,0.09,0.02,300.53000000000003,0.10118027776479721,-0.033976998180150986,-0.4067492187023163,-0.8394153714179993,14.681466102600098,10.700607299804688,0.21199223399162292,0.05,0.0,0.1,247.32
1666743727.67862391,207962931,1,0.03,0.07,300.6,0.09226429462432861,-0.03841271623969078,-0.38408082723617554,-0.8524314761161804,14.676986694335938,10.697312355041504,0.1973869651556015,0.05,0.0,0.1,247.32
1666743727.69861197,207982919,1,0.09,0.09,300.66,0.10567284375429153,-0.032906971871852875,-0.4004211723804474,-0.889604389667511,14.666949272155762,10.691685676574707,0.17713133990764618,0.05,0.0,0.1,247.32
1666743727.73861694,208022924,1,0.19,-0.47000000000000003,194.11,0.07016073167324066,-0.03755767643451691,-0.398880273103714,-0.9521690607070923,14.654358863830566,10.683491706848145,0.13399255275726318,0.05,0.0,0.1,247.32
1666743727.77860498,208062912,1,0.16,-0.41000000000000003,194.25,0.07253213226795197,-0.043463628739118576,-0.39303502440452576,-1.0767805576324463,14.643289566040039,10.675946235656738,0.08928781747817993,0.05,0.0,0.1,247.32
1666743727.81860209,208102909,1,0.11,-0.31,194.39000000000001,0.07020306587219238,-0.048760753124952316,-0.3784979581832886,-1.1171613931655884,14.629523277282715,10.66840934753418,0.05203680321574211,0.05,0.0,0.1,247.32
1666743727.85857391,208142881,1,0.09,-0.22,194.54,0.059987280517816544,-0.06812619417905807,-0.3524608016014099,-1.1194120645523071,14.603053092956543,10.658936500549316,-0.0015609626425430179,0.05,0.0,0.1,247.32
1666743727.87858701,208162894,1,0.12,-0.17,194.62,0.03766920790076256,-0.06078265979886055,-0.34258994460105896,-1.1308523416519165,14.597530364990234,10.656064987182617,-0.017143316566944122,0.05,0.0,0.1,247.32
1666743727.89857507,208182882,1,0.23,-0.07,194.70000000000002,0.04520118609070778,-0.07598604261875153,-0.3202677369117737,-1.1071217060089111,14.586291313171387,10.651617050170898,-0.04010344669222832,0.05,0.0,0.1,247.32
1666743727.93860793,208222915,1,0.3,0.09,194.88,0.039253052324056625,-0.08288656175136566,-0.29474642872810364,-1.0740901231765747,14.57144546508789,10.644367218017578,-0.0809488520026207,0.05,0.0,0.1,247.32
1666743727.97860789,208262915,1,0.35000000000000003,0.21,195.08,0.036934785544872284,-0.08392023295164108,-0.2917058765888214,-1.084007978439331,14.558443069458008,10.63729476928711,-0.12034665793180466,0.05,0.0,0.1,247.32
1666743728.01860809,208302915,1,0.33,0.27,195.28,0.038534361869096756,-0.08784876763820648,-0.2798261046409607,-1.038027048110962,14.542696952819824,10.628118515014648,-0.15424515306949615,0.05,0.0,0.1,247.32
1666743728.05857897,208342886,1,0.31,0.27,195.46,0.03057442419230938,-0.09617328643798828,-0.2850845158100128,-0.9804512858390808,14.513690948486328,10.612298011779785,-0.19572409987449646,0.05,0.0,0.1,247.32
1666743728.07863402,208362941,1,0.2,0.28,195.56,0.014683366753160954,-0.08516144007444382,-0.2713203430175781,-0.9398603439331055,14.507494926452637,10.607754707336426,-0.2079179286956787,0.05,0.0,0.1,247.32
1666743728.09857607,208382883,1,0.24,0.28,195.64000000000001,0.029184957966208458,-0.10672494024038315,-0.27662739157676697,-0.9054325222969055,14.495579719543457,10.600592613220215,-0.22617079317569733,0.05,0.0,0.1,247.32
1666743728.13858294,208422890,1,0.21,0.31,195.77,0.027122363448143005,-0.10313618928194046,-0.2790914475917816,-0.8412260413169861,14.480047225952148,10.589658737182617,-0.25687175989151,0.05,0.0,0.1,247.32
1666743728.17860889,208462916,1,0.15,0.36,195.87,0.02469356544315815,-0.10193216800689697,-0.25273919105529785,-0.7692837715148926,14.466774940490723,10.579386711120605,-0.2860802114009857,0.05,0.0,0.1,247.32
1666743728.21859193,208502899,1,0.19,0.4,195.95000000000002,0.020408662036061287,-0.09607462584972382,-0.24595677852630615,-0.7006253004074097,14.451251029968262,10.567583084106445,-0.30960407853126526,0.05,0.0,0.1,247.32
1666743728.25860310,208542910,1,0.17,0.42,195.94,0.017553500831127167,-0.10080552101135254,-0.24411340057849884,-0.5612112283706665,14.423270225524902,10.549504280090332,-0.32712480425834656,0.05,0.0,0.1,247.32
1666743728.27860904,208562916,1,0.12,0.39,195.9,0.021922366693615913,-0.12249105423688889,-0.22458304464817047,-0.47188103199005127,14.417311668395996,10.544240951538086,-0.3334655165672302,0.05,0.0,0.1,247.32
1666743728.29858088,208582888,1,0.15,0.4,195.89000000000001,0.020336339250206947,-0.1076660305261612,-0.2312973439693451,-0.4148685932159424,14.405945777893066,10.536226272583008,-0.341103196144104,0.05,0.0,0.1,247.32
1666743728.33857703,208622884,1,0.04,0.38,195.85,0.020994722843170166,-0.11128495633602142,-0.2195795476436615,-0.2855231463909149,14.391132354736328,10.523941993713379,-0.3494514524936676,0.05,0.0,0.1,247.32
1666743728.37856293,208662870,1,-0.04,0.42,195.81,0.027939893305301666,-0.11835966259241104,-0.20807118713855743,-0.14779068529605865,14.378593444824219,10.512575149536133,-0.3550727665424347,0.05,0.0,0.1,247.32
1666743728.41859293,208702900,1,-0.09,0.52,195.79,0.020522404462099075,-0.12270035594701767,-0.18627671897411346,-0.033865757286548615,14.363762855529785,10.500250816345215,-0.35896024107933044,0.05,0.0,0.1,247.32
1666743728.45861006,208742917,1,-0.06,0.66,195.75,0.024674588814377785,-0.12736618518829346,-0.19410502910614014,0.07996399700641632,14.336700439453125,10.482507705688477,-0.3510860502719879,0.05,0.0,0.1,247.32
1666743728.47857690,208762884,1,-0.08,0.78,195.73000000000002,0.03431139886379242,-0.11755248159170151,-0.19986166059970856,0.13219662010669708,14.331032752990723,10.477291107177734,-0.35140272974967957,0.05,0.0,0.1,247.32
1666743728.49860311,208782910,1,-0.11,0.87,195.73000000000002,0.023786136880517006,-0.11997637897729874,-0.19729657471179962,0.17486563324928284,14.32007122039795,10.469654083251953,-0.34854432940483093,0.05,0.0,0.1,247.32
1666743728.53857708,208822884,1,-0.18,1.04,195.68,0.032177090644836426,-0.12254126369953156,-0.21025417745113373,0.20710721611976624,14.306039810180664,10.457826614379883,-0.34599557518959045,0.05,0.0,0.1,247.32
1666743728.57857609,208862883,1,-0.28,1.1400000000000001,195.62,0.03203829750418663,-0.1227969378232956,-0.21592400968074799,0.21382611989974976,14.294261932373047,10.447110176086426,-0.3441278040409088,0.05,0.0,0.1,247.32
1666743728.61863089,208902938,1,-0.31,1.1400000000000001,195.57,0.04556013271212578,-0.11821459978818893,-0.23037809133529663,0.1833665370941162,14.280367851257324,10.435623168945312,-0.34306201338768005,0.05,0.0,0.1,247.32
1666743728.65861511,208942922,1,-0.42,1.1300000000000001,195.47,0.04841165989637375,-0.1151011735200882,-0.2434263378381729,0.17076709866523743,14.254692077636719,10.419544219970703,-0.3355870842933655,0.05,0.0,0.1,247.32
1666743728.67857289,208962880,1,-0.41000000000000003,1.05,195.43,0.04259759187698364,-0.11419025808572769,-0.2551104724407196,0.16358214616775513,14.249448776245117,10.414731979370117,-0.3367481231689453,0.05,0.0,0.1,247.32
1666743728.69861293,208982920,1,-0.45,1.1300000000000001,195.37,0.049797262996435165,-0.10717038810253143,-0.2660673260688782,0.14681263267993927,14.239174842834473,10.407843589782715,-0.33457329869270325,0.05,0.0,0.1,247.32
1666743728.73857999,209022887,1,-0.43,1.16,195.25,0.04949038103222847,-0.11722640693187714,-0.28706422448158264,0.10859156399965286,14.226227760314941,10.39712905883789,-0.33394357562065125,0.05,0.0,0.1,247.32
1666743728.77857590,209062883,1,-0.43,1.1300000000000001,195.15,0.059824928641319275,-0.11288277804851532,-0.30853840708732605,0.06934459507465363,14.215506553649902,10.38753890991211,-0.33458882570266724,0.05,0.0,0.1,247.32
1666743728.81858993,209102897,1,-0.37,1.05,195.04,0.06078384816646576,-0.10683003067970276,-0.33819082379341125,0.01152496226131916,14.202346801757812,10.377277374267578,-0.33676570653915405,0.05,0.0,0.1,247.32
1666743728.85860991,209142917,1,-0.32,0.9400000000000001,194.91,0.0641171783208847,-0.10907091945409775,-0.36541324853897095,-0.03294500336050987,14.176872253417969,10.362785339355469,-0.3352835178375244,0.05,0.0,0.1,247.32
1666743728.87857294,209162880,1,-0.35000000000000003,0.84,194.87,0.04971236735582352,-0.0998142659664154,-0.3748684525489807,-0.04600633308291435,14.17185115814209,10.358437538146973,-0.33936479687690735,0.05,0.0,0.1,247.32
1666743728.89860702,209182914,1,-0.27,0.79,194.8,0.062204472720623016,-0.09722306579351425,-0.39863383769989014,-0.08054584264755249,14.16159725189209,10.352219581604004,-0.34022918343544006,0.05,0.0,0.1,247.32
1666743728.93860888,209222916,1,-0.26,0.61,194.69,0.06104195490479469,-0.1040344163775444,-0.4075164496898651,-0.11174547672271729,14.148873329162598,10.342564582824707,-0.347235769033432,0.05,0.0,0.1,247.32
1666743728.97857404,209262881,1,-0.19,0.34,194.58,0.05806831270456314,-0.10857994109392166,-0.44257852435112,-0.1742757111787796,14.138075828552246,10.333812713623047,-0.35556644201278687,0.05,0.0,0.1,247.32
1666743729.01857591,209302883,1,-0.02,0.11,194.48000000000002,0.04986989125609398,-0.11147354543209076,-0.4532850384712219,-0.21617275476455688,14.124513626098633,10.323902130126953,-0.36547473073005676,0.05,0.0,0.1,247.32
1666743729.05857491,209342882,1,0.1,-0.06,194.38,0.04889415577054024,-0.11505597084760666,-0.49096229672431946,-0.2674379050731659,14.09765338897705,10.309280395507812,-0.37177279591560364,0.05,0.0,0.1,247.32
1666743729.07857609,209362883,1,0.11,-0.14,194.34,0.04893345385789871,-0.10195475071668625,-0.48571163415908813,-0.2622445225715637,14.092229843139648,10.304765701293945,-0.37889784574508667,0.05,0.0,0.1,247.32
1666743729.09862304,209382930,1,0.1,-0.14,194.31,0.04118974879384041,-0.11042774468660355,-0.4900857210159302,-0.27259156107902527,14.081229209899902,10.298348426818848,-0.3833976686000824,0.05,0.0,0.1,247.32
1666743729.13858795,209422895,1,0.07,-0.2,194.24,0.03356228023767471,-0.12124665826559067,-0.5311071872711182,-0.32058075070381165,14.067058563232422,10.28812313079834,-0.3957744538784027,0.05,0.0,0.1,247.32
1666743729.17861199,209462919,1,0.02,-0.23,194.17000000000002,0.03132125362753868,-0.11521052569150925,-0.5451770424842834,-0.3336954116821289,14.05478286743164,10.278722763061523,-0.4086390733718872,0.05,0.0,0.1,247.32
1666743729.21857309,209502880,1,-0.09,-0.21,194.14000000000001,0.03065134957432747,-0.11893794685602188,-0.5533108711242676,-0.348192036151886,14.041006088256836,10.268799781799316,-0.42275264859199524,0.05,0.0,0.1,247.32
1666743729.25857806,209542885,1,-0.23,-0.22,194.07,0.016901249065995216,-0.10877206921577454,-0.5549294948577881,-0.3454863131046295,14.017547607421875,10.255501747131348,-0.43270766735076904,0.05,0.0,0.1,247.32
1666743729.27862000,209562927,1,-0.33,-0.21,194.04,0.02157720737159252,-0.1146153137087822,-0.5571698546409607,-0.34208303689956665,14.012557983398438,10.25126838684082,-0.4411417841911316,0.05,0.0,0.1,247.32
1666743729.29855609,209582863,1,-0.44,-0.22,194.02,0.01802128367125988,-0.1132873147726059,-0.5592869520187378,-0.34520673751831055,14.00284194946289,10.245442390441895,-0.44727566838264465,0.05,0.0,0.1,247.32
1666743729.33859611,209622903,1,-0.65,-0.17,193.99,0.011579716578125954,-0.10691913217306137,-0.5681211948394775,-0.3554392158985138,13.990069389343262,10.236321449279785,-0.46160244941711426,0.05,0.0,0.1,247.32
1666743729.37860894,209662916,1,-0.84,-0.12,193.98000000000002,0.0034120185300707817,-0.10761368274688721,-0.5793747901916504,-0.3636910617351532,13.978963851928711,10.227949142456055,-0.47683703899383545,0.05,0.0,0.1,247.32
1666743729.41860509,209702912,1,-1.03,-0.1,193.98000000000002,-0.0003982631315011531,-0.1090865358710289,-0.5765206813812256,-0.3651127517223358,13.967021942138672,10.219393730163574,-0.4920567274093628,0.05,0.0,0.1,247.32
1666743729.45857811,209742885,1,-1.1500000000000001,-0.09,194.0,-0.005216879770159721,-0.10069479793310165,-0.5776640772819519,-0.34717488288879395,13.948163986206055,10.208294868469238,-0.5014181137084961,0.05,0.0,0.1,247.32
