timestamp,TimeUS,C,Q1,Q2,Q3,Q4
1666743720.13860106,200422908,1,0.874813437461853,0.001942391856573522,0.0025549845304340124,-0.4844493567943573
1666743720.17859197,200462899,1,0.874789297580719,0.001957009779289365,0.002573218662291765,-0.4844927489757538
1666743720.21865892,200502966,1,0.874785304069519,0.0019687535241246223,0.0025591065641492605,-0.4845000207424164
1666743720.25856900,200542876,1,0.8747701048851013,0.001983149442821741,0.0025579179637134075,-0.4845273494720459
1666743720.27860689,200562914,1,0.8747667074203491,0.00198672735132277,0.0025601459201425314,-0.48453354835510254
1666743720.29857111,200582878,1,0.8747588396072388,0.0019864083733409643,0.0025623987894505262,-0.4845477342605591
1666743720.33856797,200622875,1,0.8747498989105225,0.0019867010414600372,0.0025450773537158966,-0.484563946723938
1666743720.37859988,200662907,1,0.8747380375862122,0.001998534658923745,0.0025368272326886654,-0.48458534479141235
1666743720.41859508,200702902,1,0.8747285008430481,0.0019895737059414387,0.0025125136598944664,-0.4846026599407196
1666743720.45860505,200742912,1,0.8747161626815796,0.0019968440756201744,0.002500916598364711,-0.484624981880188
1666743720.47860909,200762916,1,0.8747161626815796,0.0020008161664009094,0.0024849926121532917,-0.48462504148483276
1666743720.49856901,200782876,1,0.8747128844261169,0.0020206815097481012,0.002473429311066866,-0.48463091254234314
1666743720.53857088,200822878,1,0.8747047185897827,0.00203180150128901,0.002461190801113844,-0.48464566469192505
1666743720.57856607,200862873,1,0.8747022747993469,0.0020379151683300734,0.002454126253724098,-0.4846501052379608
1666743720.61860299,200902910,1,0.8746954202651978,0.002045787638053298,0.002439686795696616,-0.48466256260871887
1666743720.65861011,200942917,1,0.8746913075447083,0.0020302780903875828,0.0024305765982717276,-0.48467007279396057
1666743720.67856908,200962876,1,0.8747003078460693,0.0020313276909291744,0.0024266415275633335,-0.48465386033058167
1666743720.69860291,200982910,1,0.8746935725212097,0.0020244463812559843,0.002429475076496601,-0.48466604948043823
1666743720.73856902,201022876,1,0.8746780753135681,0.0020402732770889997,0.002416604897007346,-0.4846940338611603
1666743720.77857995,201062887,1,0.8746724724769592,0.002040416467934847,0.0023995928931981325,-0.4847041964530945
1666743720.81862688,201102934,1,0.8746672868728638,0.002024652436375618,0.00237404927611351,-0.48471373319625854
1666743720.85859609,201142903,1,0.8746641278266907,0.002018461236730218,0.002352991374209523,-0.48471957445144653
1666743720.87857294,201162880,1,0.8746680021286011,0.002023537876084447,0.002339055761694908,-0.4847126007080078
1666743720.89861393,201182921,1,0.8746628165245056,0.002011437201872468,0.0023337379097938538,-0.4847220182418823
1666743720.93860292,201222910,1,0.8746490478515625,0.0020400199573487043,0.0023149028420448303,-0.48474690318107605
1666743720.97856903,201262876,1,0.8746364116668701,0.0020574636291712523,0.0022931830026209354,-0.48476964235305786
1666743721.01856995,201302877,1,0.8746338486671448,0.0020872498862445354,0.0022771686781197786,-0.48477429151535034
1666743721.05860400,201342911,1,0.8746131062507629,0.0021069252397865057,0.0022585487458854914,-0.4848117232322693
1666743721.07856703,201362874,1,0.8746039867401123,0.002117510885000229,0.0022396256681531668,-0.4848281443119049
1666743721.09861493,201382922,1,0.8746016025543213,0.0021391971968114376,0.0022208148147910833,-0.48483243584632874
1666743721.13860488,201422912,1,0.8745834827423096,0.0021585782524198294,0.0021898727864027023,-0.4848652482032776
1666743721.17857790,201462885,1,0.8745758533477783,0.0021616192534565926,0.002159667434170842,-0.4848790764808655
1666743721.21857095,201502878,1,0.8745782375335693,0.00219795573502779,0.0021296485792845488,-0.48487481474876404
1666743721.25856900,201542876,1,0.8745737671852112,0.002222551265731454,0.002120688557624817,-0.48488280177116394
1666743721.27859688,201562904,1,0.874566912651062,0.002221254166215658,0.0021292944438755512,-0.48489513993263245
1666743721.29860497,201582912,1,0.8745638728141785,0.0022164173424243927,0.0021275742910802364,-0.484900563955307
1666743721.33858299,201622890,1,0.8745684027671814,0.0022253855131566525,0.002135360613465309,-0.4848923981189728
1666743721.37860203,201662909,1,0.874574601650238,0.00222507631406188,0.0021351007744669914,-0.4848811626434326
1666743721.41856694,201702874,1,0.8745711445808411,0.0022369874641299248,0.0021482615265995264,-0.4848872721195221
1666743721.45857692,201742884,1,0.874579131603241,0.0022494690492749214,0.0021492524538189173,-0.48487284779548645
1666743721.47859788,201762905,1,0.8745836615562439,0.002238093875348568,0.0021288739517331123,-0.48486483097076416
1666743721.49855804,201782865,1,0.8745792508125305,0.002241152571514249,0.0021104251500219107,-0.48487284779548645
1666743721.53860307,201822910,1,0.8745758533477783,0.002250375458970666,0.002098239026963711,-0.4848790168762207
1666743721.57863402,201862941,1,0.874570906162262,0.002269176999107003,0.002070547780022025,-0.48488786816596985
1666743721.61858606,201902893,1,0.8745710253715515,0.002271500416100025,0.002052140887826681,-0.4848878085613251
1666743721.65856791,201942875,1,0.8745765686035156,0.0022826343774795532,0.0020534840878099203,-0.48487773537635803
1666743721.67859697,201962904,1,0.8745766282081604,0.0022841549944132566,0.002038972917944193,-0.48487764596939087
1666743721.69857311,201982880,1,0.8745796084403992,0.0022894551511853933,0.0020243963226675987,-0.4848722815513611
1666743721.73859811,202022905,1,0.8745771050453186,0.002318029524758458,0.0020163438748568296,-0.48487675189971924
1666743721.77857399,202062881,1,0.8745669722557068,0.002312705386430025,0.002006365917623043,-0.4848950505256653
1666743721.81862903,202102936,1,0.8745607733726501,0.002333182143047452,0.0020279129967093468,-0.4849061071872711
1666743721.85857797,202142885,1,0.8745499849319458,0.0023305851500481367,0.0020386369433254004,-0.4849255084991455
1666743721.87860608,202162913,1,0.8745437264442444,0.0023255832493305206,0.0020488982554525137,-0.48493674397468567
1666743721.89857006,202182877,1,0.8745428323745728,0.002327429596334696,0.0020550715271383524,-0.4849383234977722
1666743721.93856907,202222876,1,0.8745253086090088,0.0023438497446477413,0.0020562789868563414,-0.4849698543548584
1666743721.97859788,202262905,1,0.8745127320289612,0.002326953923329711,0.00205794395878911,-0.4849925637245178
1666743722.01859903,202302906,1,0.8744988441467285,0.0023185787722468376,0.0020515674259513617,-0.4850177764892578
1666743722.05860901,202342916,1,0.8744952082633972,0.0022996377665549517,0.002037895144894719,-0.48502445220947266
1666743722.07858396,202362891,1,0.8744918704032898,0.00230713770724833,0.002019333653151989,-0.48503047227859497
1666743722.09857202,202382879,1,0.8744876384735107,0.002297591418027878,0.002027711598202586,-0.4850381016731262
1666743722.13857388,202422881,1,0.8744795918464661,0.002278274856507778,0.0020467943977564573,-0.4850526750087738
1666743722.17857289,202462880,1,0.8744847774505615,0.002293951343744993,0.0020556412637233734,-0.4850431978702545
1666743722.21860099,202502908,1,0.8744887709617615,0.002279324922710657,0.0020357912871986628,-0.48503613471984863
1666743722.25858212,202542889,1,0.8744669556617737,0.0023195415269583464,0.002032209886237979,-0.4850752651691437
1666743722.27856803,202562875,1,0.8744547963142395,0.0023211061488837004,0.002048943657428026,-0.48509708046913147
1666743722.29861593,202582923,1,0.8744476437568665,0.0023298757150769234,0.0020588242914527655,-0.4851098954677582
1666743722.33857107,202622878,1,0.8744358420372009,0.002325705485418439,0.002054453594610095,-0.4851312041282654
1666743722.37857008,202662877,1,0.8744273781776428,0.0023318775929510593,0.0020497702062129974,-0.4851464629173279
1666743722.41855693,202702864,1,0.8744181990623474,0.0023178972769528627,0.0020485378336161375,-0.485163152217865
1666743722.45862889,202742936,1,0.8744106292724609,0.002323053078725934,0.0020559055265039206,-0.4851767122745514
1666743722.47857404,202762881,1,0.874403715133667,0.0023256014101207256,0.0020544687286019325,-0.48518916964530945
1666743722.49860096,202782908,1,0.8743974566459656,0.0023218491114676,0.0020597216207534075,-0.485200434923172
1666743722.53859305,202822900,1,0.8743828535079956,0.0023081880062818527,0.002071055583655834,-0.48522675037384033
1666743722.57857299,202862880,1,0.8743566870689392,0.0023158688563853502,0.0020558361429721117,-0.48527395725250244
1666743722.61857700,202902884,1,0.8743492960929871,0.002298796782270074,0.002062458312138915,-0.4852873384952545
1666743722.65861297,202942920,1,0.8743399977684021,0.0022830115631222725,0.0020744192879647017,-0.4853041172027588
1666743722.67857504,202962882,1,0.8743306398391724,0.002290104515850544,0.0020812582224607468,-0.4853208661079407
1666743722.69858408,202982891,1,0.8743166327476501,0.002289330353960395,0.0020649211946874857,-0.48534613847732544
1666743722.73862004,203022927,1,0.8743003010749817,0.0022924989461898804,0.0020752535201609135,-0.4853755235671997
1666743722.77858305,203062890,1,0.8743014931678772,0.002295933198183775,0.002104084240272641,-0.48537328839302063
1666743722.81858397,203102891,1,0.8742935657501221,0.002303952816873789,0.0021066947374492884,-0.48538750410079956
1666743722.85858107,203142888,1,0.8742863535881042,0.0023119777906686068,0.0021141464821994305,-0.48540040850639343
1666743722.87860990,203162917,1,0.874281108379364,0.0023173082154244184,0.002110177418217063,-0.48540985584259033
1666743722.89861202,203182919,1,0.874265193939209,0.0022968468256294727,0.0020902231335639954,-0.485438734292984
1666743722.93860102,203222908,1,0.874276876449585,0.0022580381482839584,0.0021294306498020887,-0.4854176342487335
1666743722.97861409,203262921,1,0.8742790818214417,0.0022808050271123648,0.0021191302221268415,-0.48541367053985596
1666743723.01858306,203302890,1,0.8742768168449402,0.0022969788406044245,0.0021018479019403458,-0.4854177236557007
1666743723.05857491,203342882,1,0.8742738366127014,0.0022458641324192286,0.00211921869777143,-0.4854232370853424
1666743723.07861090,203362918,1,0.8742533922195435,0.002283308422192931,0.0021245970856398344,-0.4854598641395569
1666743723.09857702,203382884,1,0.8742303848266602,0.0022764229215681553,0.002101740799844265,-0.48550140857696533
1666743723.13861108,203422918,1,0.8741901516914368,0.002265200251713395,0.0020997831597924232,-0.4855739176273346
1666743723.17858100,203462888,1,0.8741026520729065,0.002251991303637624,0.002075311029329896,-0.4857316315174103
1666743723.21860909,203502916,1,0.8740825057029724,0.002246698597446084,0.002163584576919675,-0.4857674837112427
1666743723.25857401,203542881,1,0.8740975260734558,0.0022401739843189716,0.002119530225172639,-0.4857407212257385
1666743723.27857995,203562887,1,0.8741008639335632,0.0022350477520376444,0.002130029257386923,-0.4857346713542938
1666743723.29857707,203582884,1,0.8740993142127991,0.0022153567988425493,0.0021145602222532034,-0.4857376217842102
1666743723.33862090,203622928,1,0.8741427063941956,0.0021871421486139297,0.0020997116807848215,-0.48565971851348877
1666743723.37860298,203662910,1,0.8740816116333008,0.0021612176205962896,0.0021380579564720392,-0.4857695698738098
1666743723.41860509,203702912,1,0.874016284942627,0.0022549054119735956,0.0020764635410159826,-0.48588699102401733
1666743723.45857406,203742881,1,0.8738541007041931,0.002133486792445183,0.002082314807921648,-0.48617908358573914
1666743723.47860289,203762910,1,0.8737596869468689,0.0022385353222489357,0.0022039415780454874,-0.4863477349281311
1666743723.49857497,203782882,1,0.8737093806266785,0.002294892678037286,0.002053014002740383,-0.4864385426044464
1666743723.53857708,203822884,1,0.8736278414726257,0.002267340663820505,0.002283697249367833,-0.4865840971469879
1666743723.57861805,203862925,1,0.8735856413841248,0.0020380057394504547,0.002329624490812421,-0.4866606295108795
1666743723.61860490,203902912,1,0.8735727667808533,0.002213144674897194,0.0023047300055623055,-0.48668307065963745
1666743723.65860891,203942916,1,0.8734999299049377,0.0020910410676151514,0.0023627900518476963,-0.48681405186653137
1666743723.67856503,203962872,1,0.8734806180000305,0.0021592690609395504,0.0022052612621337175,-0.4868490993976593
1666743723.69857907,203982886,1,0.8733905553817749,0.002044931286945939,0.002229996956884861,-0.4870111048221588
1666743723.73857403,204022881,1,0.8732029795646667,0.0022370130755007267,0.0020502344705164433,-0.48734721541404724
1666743723.77857399,204062881,1,0.8731032013893127,0.002180722774937749,0.002121192868798971,-0.48752593994140625
1666743723.81862497,204102932,1,0.8729435801506042,0.002222425304353237,0.0020788945257663727,-0.4878116548061371
1666743723.85859489,204142902,1,0.8729071021080017,0.0021204364020377398,0.0021034067030996084,-0.4878773093223572
1666743723.87857890,204162886,1,0.8728706240653992,0.002170031890273094,0.00219055637717247,-0.4879419505596161
1666743723.89861393,204182921,1,0.8728571534156799,0.0021960586309432983,0.002101827645674348,-0.4879663288593292
1666743723.93858194,204222889,1,0.8728347420692444,0.002338309772312641,0.0020755291916429996,-0.4880058467388153
1666743723.97857404,204262881,1,0.8727664947509766,0.00219290005043149,0.002262379741296172,-0.48812779784202576
1666743724.01856709,204302874,1,0.8726367354393005,0.002062741434201598,0.002241143025457859,-0.48836034536361694
1666743724.05860901,204342916,1,0.8724619150161743,0.002090026158839464,0.0021955538541078568,-0.48867276310920715
1666743724.07857490,204362882,1,0.8724685907363892,0.0019964869134128094,0.002384320367127657,-0.4886602759361267
1666743724.09860706,204382914,1,0.8723739385604858,0.00206355401314795,0.002118149073794484,-0.48883017897605896
1666743724.13861895,204422926,1,0.8722895979881287,0.002125035971403122,0.002199403941631317,-0.4889800250530243
1666743724.17857790,204462885,1,0.8722516298294067,0.0020247783977538347,0.0022233875934034586,-0.4890480935573578
1666743724.21857309,204502880,1,0.87220698595047,0.002217687899246812,0.0022587114945054054,-0.48912668228149414
1666743724.25861096,204542918,1,0.8721778392791748,0.0020567327737808228,0.002092201029881835,-0.4891801178455353
1666743724.27858901,204562896,1,0.8721433281898499,0.0020694115664809942,0.002187109785154462,-0.48924124240875244
1666743724.29860997,204582917,1,0.8721120357513428,0.00206541339866817,0.0021979976445436478,-0.4892970025539398
1666743724.33860588,204622913,1,0.8719779849052429,0.0020554515067487955,0.002224565716460347,-0.48953568935394287
1666743724.37859607,204662903,1,0.8718591928482056,0.001997955609112978,0.0022213307674974203,-0.4897475242614746
1666743724.41857791,204702885,1,0.8717483282089233,0.002126359613612294,0.00212003942579031,-0.489944726228714
1666743724.45857501,204742882,1,0.8716797232627869,0.0020610089413821697,0.0022450219839811325,-0.4900664985179901
1666743724.47862697,204762934,1,0.8716470003128052,0.002096721203997731,0.002132285851985216,-0.49012506008148193
1666743724.49860501,204782912,1,0.8716320991516113,0.002132546156644821,0.002134881680831313,-0.49015140533447266
1666743724.53860807,204822915,1,0.8715565800666809,0.0020532526541501284,0.0021855300292372704,-0.4902857840061188
1666743724.57861090,204862918,1,0.8715025186538696,0.0020282233599573374,0.002193383639678359,-0.4903819262981415
1666743724.61857605,204902883,1,0.8714012503623962,0.0019543454982340336,0.0022342039737850428,-0.49056199193000793
1666743724.65857911,204942886,1,0.8712860345840454,0.002008337527513504,0.0022271950729191303,-0.4907664358615875
1666743724.67861605,204962923,1,0.8712261319160461,0.002008670475333929,0.002271375386044383,-0.49087250232696533
1666743724.69857502,204982882,1,0.8711770176887512,0.0020214400719851255,0.0022647182922810316,-0.49095964431762695
1666743724.73861790,205022925,1,0.8710930943489075,0.0020867986604571342,0.0022839317098259926,-0.4911081790924072
1666743724.77859902,205062906,1,0.8709954023361206,0.00203464413061738,0.002258962020277977,-0.4912817180156708
1666743724.81862807,205102935,1,0.8709169626235962,0.002033879514783621,0.002252263016998768,-0.4914208650588989
1666743724.85857797,205142885,1,0.870864987373352,0.0020439205691218376,0.0022647096775472164,-0.49151283502578735
1666743724.87861109,205162918,1,0.8707981705665588,0.0020316247828304768,0.0022473095450550318,-0.49163132905960083
1666743724.89858603,205182893,1,0.8707682490348816,0.002056446159258485,0.002209713449701667,-0.4916843771934509
1666743724.93856192,205222869,1,0.8706702589988708,0.0020992702338844538,0.0021028893534094095,-0.4918581545352936
1666743724.97860098,205262908,1,0.8705472350120544,0.0020348350517451763,0.002342532156035304,-0.492075115442276
1666743725.01858711,205302894,1,0.870419442653656,0.0019989924039691687,0.0021929715294390917,-0.49230194091796875
1666743725.05862093,205342928,1,0.8703006505966187,0.002101986203342676,0.0023118117824196815,-0.49251091480255127
1666743725.07860494,205362912,1,0.8702305555343628,0.0019204779528081417,0.0022753223311156034,-0.49263569712638855
1666743725.09857607,205382883,1,0.8702009916305542,0.0020748586393892765,0.0023028540890663862,-0.4926871061325073
1666743725.13857889,205422886,1,0.8701081871986389,0.0020593395456671715,0.002230297541245818,-0.4928514361381531
1666743725.17864299,205462950,1,0.8700193166732788,0.0020963368006050587,0.0022600521333515644,-0.49300795793533325
1666743725.21860600,205502913,1,0.8699039816856384,0.00202099047601223,0.002236614702269435,-0.49321186542510986
1666743725.25860691,205542914,1,0.8697717785835266,0.002037517260760069,0.002280616434291005,-0.49344468116760254
1666743725.27856994,205562877,1,0.8696927428245544,0.0020829886198043823,0.0023221727460622787,-0.49358367919921875
1666743725.29859900,205582906,1,0.8696495890617371,0.001993694342672825,0.0022400745656341314,-0.49366042017936707
1666743725.33860207,205622909,1,0.869488000869751,0.002072503324598074,0.0022229612804949284,-0.4939446747303009
1666743725.37858391,205662891,1,0.8693527579307556,0.0020580245181918144,0.002258994383737445,-0.4941825866699219
1666743725.41861010,205702917,1,0.8692400455474854,0.0019938545301556587,0.0022514520678669214,-0.4943811297416687
1666743725.45861411,205742921,1,0.8691513538360596,0.00207821698859334,0.002204291056841612,-0.49453696608543396
1666743725.47857594,205762883,1,0.8691111207008362,0.0020285132341086864,0.0023073425982147455,-0.4946073591709137
1666743725.49860406,205782911,1,0.8690517544746399,0.0021078167483210564,0.0021822680719196796,-0.49471190571784973
1666743725.53857589,205822883,1,0.8689680695533752,0.002029828727245331,0.002285621827468276,-0.4948587715625763
1666743725.57858109,205862888,1,0.8688470721244812,0.001954820705577731,0.0023001155350357294,-0.49507132172584534
1666743725.61858201,205902889,1,0.8686973452568054,0.001984122907742858,0.002376063261181116,-0.49533355236053467
1666743725.65860391,205942911,1,0.8685582280158997,0.002011019503697753,0.002272525802254677,-0.4955778419971466
1666743725.67858410,205962891,1,0.8683966994285583,0.002033609664067626,0.002289306139573455,-0.4958606958389282
1666743725.69858789,205982895,1,0.8683764338493347,0.0020939530804753304,0.002032993361353874,-0.49589696526527405
1666743725.73860312,206022910,1,0.8681855201721191,0.0020062688272446394,0.002268245443701744,-0.4962305426597595
1666743725.77857900,206062886,1,0.8680551648139954,0.0020291688852012157,0.002330960240215063,-0.49645814299583435
1666743725.81858611,206102893,1,0.8679234385490417,0.0021150684915483,0.002291761338710785,-0.4966881573200226
1666743725.85855603,206142863,1,0.8677142262458801,0.0020833418238908052,0.002375466749072075,-0.4970533847808838
1666743725.87857795,206162885,1,0.8676728010177612,0.002128713298588991,0.0021841402631253004,-0.49712640047073364
1666743725.89860797,206182915,1,0.867538571357727,0.0019920943304896355,0.002369803609326482,-0.4973602890968323
1666743725.93860793,206222915,1,0.86733478307724,0.001849923748522997,0.0024634648580104113,-0.49771571159362793
1666743725.97861099,206262918,1,0.8671221137046814,0.0019542204681783915,0.0023150574415922165,-0.49808642268180847
1666743726.01857710,206302884,1,0.8669155240058899,0.0020431738812476397,0.0024739261716604233,-0.4984447956085205
1666743726.05857706,206342884,1,0.8666681051254272,0.0020383577793836594,0.0023216342087835073,-0.49887555837631226
1666743726.07861209,206362919,1,0.8665905594825745,0.002083804691210389,0.00252668559551239,-0.49900907278060913
1666743726.09861302,206382920,1,0.8665002584457397,0.0023578270338475704,0.0024599453900009394,-0.49916502833366394
1666743726.13861799,206422925,1,0.866304874420166,0.0019012733828276396,0.0023579245898872614,-0.499506413936615
1666743726.17861009,206462917,1,0.8661585450172424,0.0019178764196112752,0.0026020703371614218,-0.49975892901420593
1666743726.21857405,206502881,1,0.865971565246582,0.002223965944722295,0.002375103300437331,-0.5000826716423035
1666743726.25857496,206542882,1,0.8657403588294983,0.002263331087306142,0.0023222812451422215,-0.5004828572273254
1666743726.27861190,206562919,1,0.8656459450721741,0.002030913718044758,0.002513027749955654,-0.5006462335586548
1666743726.29857898,206582886,1,0.8654804229736328,0.0023807513061910868,0.0023782318457961082,-0.500931441783905
1666743726.33860493,206622912,1,0.8652816414833069,0.002027579816058278,0.0024204053916037083,-0.5012760758399963
1666743726.37859988,206662907,1,0.8650369644165039,0.0020291442051529884,0.002554601291194558,-0.5016974806785583
1666743726.41861105,206702918,1,0.8648316860198975,0.002159901661798358,0.002349620219320059,-0.5020517706871033
1666743726.45857692,206742884,1,0.8646109104156494,0.001565566286444664,0.0024540885351598263,-0.5024335384368896
1666743726.47860193,206762909,1,0.8645674586296082,0.002081905957311392,0.002237522043287754,-0.5025074481964111
1666743726.49857497,206782882,1,0.864460825920105,0.002216980094090104,0.0022871207911521196,-0.5026900768280029
1666743726.53857803,206822885,1,0.8642739057540894,0.0023377849720418453,0.0020103694405406713,-0.5030120015144348
1666743726.57861209,206862919,1,0.8640154004096985,0.002022081520408392,0.0021742561366409063,-0.5034565925598145
1666743726.61857891,206902886,1,0.8637881875038147,0.0022878909949213266,0.0018377878004685044,-0.5038465857505798
1666743726.65860796,206942915,1,0.8635533452033997,0.001984822563827038,0.0019058410543948412,-0.5042499303817749
1666743726.67861295,206962920,1,0.8635040521621704,0.0028920890763401985,0.001461334410123527,-0.5043315291404724
1666743726.69857597,206982883,1,0.8634220361709595,0.002535849576815963,0.001419705804437399,-0.5044739246368408
1666743726.73857808,207022885,1,0.8632440567016602,0.002982485108077526,0.0007853354909457266,-0.5047774314880371
1666743726.77855301,207062860,1,0.862948477268219,0.0035368092358112335,0.0008539431146346033,-0.5052787661552429
1666743726.81862092,207102928,1,0.8628301024436951,0.0037977970205247402,6.621555803576484e-05,-0.5054796934127808
1666743726.85860610,207142913,1,0.8627389073371887,0.002933172043412924,-0.00035569770261645317,-0.505640983581543
1666743726.87857509,207162882,1,0.8626562356948853,0.003736830083653331,-0.0011697448790073395,-0.5057755708694458
1666743726.89862394,207182931,1,0.8626593351364136,0.0030852474737912416,-0.0017534333746880293,-0.5057729482650757
1666743726.93857598,207222883,1,0.8627287745475769,0.0031234431080520153,-0.0030381502583622932,-0.505648136138916
1666743726.97857404,207262881,1,0.862710177898407,0.004461245611310005,-0.003510385751724243,-0.5056668519973755
1666743727.01861405,207302921,1,0.862799346446991,0.00502574909478426,-0.0040081096813082695,-0.5055056810379028
1666743727.05858397,207342891,1,0.8629556894302368,0.004425432067364454,-0.004369968082755804,-0.505241334438324
1666743727.07857609,207362883,1,0.8630273938179016,0.00456834165379405,-0.004494702443480492,-0.5051165223121643
1666743727.09860706,207382914,1,0.8630920052528381,0.004076290875673294,-0.005490110721439123,-0.5050004720687866
1666743727.13857794,207422885,1,0.8632210493087769,0.004138013813644648,-0.00561539176851511,-0.5047779083251953
1666743727.17857504,207462882,1,0.8634247779846191,0.0045059905387461185,-0.00625556381419301,-0.504418671131134
1666743727.21857405,207502881,1,0.8636075854301453,0.004597650840878487,-0.006382681895047426,-0.5041032433509827
1666743727.25861311,207542920,1,0.8639136552810669,0.004325492307543755,-0.005618424620479345,-0.5035899877548218
1666743727.27858305,207562890,1,0.864055335521698,0.0044256714172661304,-0.005929993931204081,-0.5033424496650696
1666743727.29859710,207582904,1,0.864216685295105,0.003503150073811412,-0.005437396001070738,-0.5030781626701355
1666743727.33860898,207622916,1,0.8645955324172974,0.0035892343148589134,-0.005626446567475796,-0.5024241805076599
1666743727.37858009,207662887,1,0.8649071455001831,0.004377984441816807,-0.00603414885699749,-0.5018765330314636
1666743727.41857409,207702881,1,0.8653534054756165,0.004251255188137293,-0.0057942611165344715,-0.5011105537414551
1666743727.45856905,207742876,1,0.8658267259597778,0.002520681358873844,-0.004729443229734898,-0.500315248966217
1666743727.47857809,207762885,1,0.8659529089927673,0.0019579920917749405,-0.003990480210632086,-0.5001057982444763
1666743727.49860597,207782913,1,0.8662373423576355,0.0022724007721990347,-0.0038892445154488087,-0.499612420797348
1666743727.53861094,207822918,1,0.8667631149291992,0.0006932805990800261,-0.0017706206999719143,-0.4987163841724396
1666743727.57860708,207862914,1,0.8672447204589844,0.0008151013171300292,-0.00045773974852636456,-0.4978812038898468
1666743727.61857700,207902884,1,0.8678293824195862,0.0009255619952455163,0.00018281681695953012,-0.49686145782470703
1666743727.65857291,207942880,1,0.8683382868766785,0.0008317317115142941,-0.00018362182890996337,-0.4959716796875
1666743727.67862391,207962931,1,0.8686487078666687,0.0005930312909185886,0.0004346134955994785,-0.4954279363155365
1666743727.69861197,207982919,1,0.8689101934432983,0.0010973106836900115,0.0003125806979369372,-0.4949684739112854
1666743727.73861694,208022924,1,-0.12284913659095764,0.0039445990696549416,0.002215056214481592,0.9924150705337524
1666743727.77860498,208062912,1,-0.1240881085395813,0.003424254711717367,0.0018423889996483922,0.9922635555267334
1666743727.81860209,208102909,1,-0.12526653707027435,0.0026277301367372274,0.0013647099258378148,0.9921187162399292
1666743727.85857391,208142881,1,-0.1265634149312973,0.0018575420835986733,0.0010522736702114344,0.9919562339782715
1666743727.87858701,208162894,1,-0.12724077701568604,0.0013826439389958978,0.0012384242145344615,0.991870105266571
1666743727.89857507,208182882,1,-0.1279701143503189,0.00040083497879095376,0.0020892638713121414,0.9917757511138916
1666743727.93860793,208222915,1,-0.12954246997833252,-0.0011589828645810485,0.0025542776565998793,0.9915699362754822
1666743727.97860789,208262915,1,-0.13124863803386688,-0.002252623438835144,0.0028452458791434765,0.9913428425788879
1666743728.01860809,208302915,1,-0.1330079436302185,-0.0027843250427395105,0.0026098506059497595,0.9911076426506042
1666743728.05857897,208342886,1,-0.13456593453884125,-0.002715401817113161,0.002426775638014078,0.9908979535102844
1666743728.07863402,208362941,1,-0.13540638983249664,-0.002710704691708088,0.0013941216748207808,0.9907854795455933
1666743728.09857607,208382883,1,-0.1361287236213684,-0.0027136856224387884,0.0017630786169320345,0.9906858801841736
1666743728.13858294,208422890,1,-0.13725802302360535,-0.0029997893143445253,0.0014456073986366391,0.9905297160148621
1666743728.17860889,208462916,1,-0.13810446858406067,-0.0032954842317849398,0.0008834481704980135,0.9904118180274963
1666743728.21859193,208502899,1,-0.1387454718351364,-0.0037432436365634203,0.001182719599455595,0.9903202652931213
1666743728.25860310,208542910,1,-0.13865730166435242,-0.0039094602689146996,0.0010259613627567887,0.9903321862220764
1666743728.27860904,208562916,1,-0.13833993673324585,-0.0035665614996105433,0.0006020673899911344,0.990378201007843
1666743728.29858088,208582888,1,-0.1382606029510498,-0.003707500174641609,0.0008050684700720012,0.9903886318206787
1666743728.33857703,208622884,1,-0.13789419829845428,-0.003354540327563882,-4.2875733925029635e-05,0.9904412627220154
1666743728.37856293,208662870,1,-0.13754163682460785,-0.0035973363555967808,-0.0008721173508092761,0.9904890656471252
1666743728.41859293,208702900,1,-0.13742655515670776,-0.004390472546219826,-0.0014196442207321525,0.9905012249946594
1666743728.45861006,208742917,1,-0.137086883187294,-0.005665246397256851,-0.0013609046582132578,0.9905418753623962
1666743728.47857690,208762884,1,-0.13688001036643982,-0.006641728337854147,-0.001662562950514257,0.9905639886856079
1666743728.49860311,208782910,1,-0.13689501583576202,-0.007451395038515329,-0.0020297118462622166,0.990555465221405
1666743728.53857708,208822884,1,-0.1364355832338333,-0.008833266794681549,-0.002853338373824954,0.9906054735183716
1666743728.57857609,208862883,1,-0.13596567511558533,-0.009558139368891716,-0.003856334835290909,0.9906599521636963
1666743728.61863089,208902938,1,-0.13549163937568665,-0.00956049282103777,-0.0040456391870975494,0.9907240867614746
1666743728.65861511,208942922,1,-0.13463784754276276,-0.009352383203804493,-0.004972664639353752,0.9908382296562195
1666743728.67857289,208962880,1,-0.13430152833461761,-0.00859346054494381,-0.004841322544962168,0.9908913969993591
1666743728.69861293,208982920,1,-0.13384059071540833,-0.009316354990005493,-0.0052538043819367886,0.9909451603889465
1666743728.73857999,209022887,1,-0.1327952742576599,-0.009560291655361652,-0.005105499643832445,0.9910842180252075
1666743728.77857590,209062883,1,-0.13189592957496643,-0.00934643018990755,-0.005046730395406485,0.9912066459655762
1666743728.81858993,209102897,1,-0.13096104562282562,-0.008655206300318241,-0.004487564787268639,0.9913395643234253
1666743728.85860991,209142917,1,-0.12984991073608398,-0.007797642145305872,-0.003908713813871145,0.9914953112602234
1666743728.87857294,209162880,1,-0.1294437199831009,-0.006943233776837587,-0.00400236900895834,0.9915543794631958
1666743728.89860702,209182914,1,-0.1288195699453354,-0.0065846070647239685,-0.003243004437536001,0.9916408658027649
1666743728.93860888,209222916,1,-0.12793253362178802,-0.005056664347648621,-0.0030096631962805986,0.9917654395103455
1666743728.97857404,209262881,1,-0.1269616037607193,-0.0028079000767320395,-0.002063754480332136,0.9919015169143677
1666743729.01857591,209302883,1,-0.12604346871376038,-0.0009289670269936323,-0.0003208215057384223,0.9920242428779602
1666743729.05857491,209342882,1,-0.1252201646566391,0.0004929974675178528,0.0009558197925798595,0.9921283721923828
1666743729.07857609,209362883,1,-0.12488143146038055,0.0010896794265136123,0.0011277090525254607,0.9921704530715942
1666743729.09862304,209382930,1,-0.12455794960260391,0.0011291526025161147,0.0011000490048900247,0.992211103439331
1666743729.13858795,209422895,1,-0.1239929050207138,0.0016659903340041637,0.0008309027762152255,0.9922813773155212
1666743729.17861199,209462919,1,-0.1233571395277977,0.001962619600817561,0.0004903398803435266,0.9923602938652039
1666743729.21857309,209502880,1,-0.12316493690013885,0.0019952349830418825,-0.000581931381020695,0.9923840165138245
1666743729.25857806,209542885,1,-0.12251712381839752,0.002233146922662854,-0.0017787632532417774,0.9924622774124146
1666743729.27862000,209562927,1,-0.12225822359323502,0.0022353376261889935,-0.002658127574250102,0.9924922585487366
1666743729.29855609,209582863,1,-0.12207894027233124,0.002416362287476659,-0.0035750768147408962,0.9925110340118408
1666743729.33859611,209622903,1,-0.12182503193616867,0.0021877570543438196,-0.005503585562109947,0.9925339221954346
1666743729.37860894,209662916,1,-0.1217271015048027,0.0019525360548868775,-0.007160598412156105,0.9925358295440674
1666743729.41860509,209702912,1,-0.12176100164651871,0.0020449303556233644,-0.00888014305382967,0.9925175905227661
1666743729.45857811,209742885,1,-0.12186934053897858,0.0020450495649129152,-0.009876064956188202,0.9924948811531067
1666743729.47860003,209762907,1,-0.12197411805391312,0.00186467997264117,-0.01041867583990097,0.9924768209457397
1666743729.49857306,209782880,1,-0.12212848663330078,0.0019348228815943003,-0.010816001333296299,0.9924534559249878
1666743729.53860998,209822917,1,-0.12247318774461746,0.0015614964067935944,-0.011739164590835571,0.9924011826515198
1666743729.57861090,209862918,1,-0.12290626019239426,0.0009554697899147868,-0.01315797958523035,0.9923306107521057
1666743729.61861801,209902925,1,-0.12346535921096802,0.0004250287020113319,-0.013520806096494198,0.9922567009925842
1666743729.65857410,209942881,1,-0.12380728125572205,0.00025748691405169666,-0.013808471150696278,0.9922101497650146
1666743729.67860794,209962915,1,-0.12418481707572937,0.0002724495134316385,-0.013391989283263683,0.992168664932251
1666743729.69858408,209982891,1,-0.12444717437028885,0.00017618130368646234,-0.01372918114066124,0.992131233215332
1666743729.73857498,210022882,1,-0.12495109438896179,0.0003823743318207562,-0.01276233047246933,0.9920807480812073
1666743729.77860498,210062912,1,-0.12556494772434235,0.00029184718732722104,-0.011341072618961334,0.9920205473899841
1666743729.81861210,210102919,1,-0.1261375993490219,-0.0001750356168486178,-0.009012771770358086,0.9919717907905579
1666743729.85861611,210142923,1,-0.12671881914138794,-0.000583390356041491,-0.0063872854225337505,0.9919179677963257
1666743729.87861896,210162926,1,-0.12693873047828674,-0.0008949225884862244,-0.004416042007505894,0.9919003248214722
1666743729.89857411,210182881,1,-0.1272401362657547,-0.0009834168013185263,-0.003925406374037266,0.9918636679649353
1666743729.93858600,210222893,1,-0.12782426178455353,-0.0014898240333423018,-0.0024796973448246717,0.991792619228363
1666743729.97857594,210262883,1,-0.12821203470230103,-0.0021218331530690193,-0.0015061914455145597,0.9917433857917786
1666743730.01860690,210302914,1,-0.12872444093227386,-0.002608872251585126,-0.0006229651044122875,0.9916767477989197
1666743730.05860209,210342909,1,-0.12906208634376526,-0.0028412186075001955,0.00010029545956058428,0.9916324615478516
1666743730.07858896,210362896,1,-0.12932412326335907,-0.003163252491503954,0.0009993412531912327,0.9915968179702759
1666743730.09862399,210382931,1,-0.12954656779766083,-0.003426283597946167,0.0004665194428525865,0.9915673136711121
1666743730.13858008,210422887,1,-0.12997280061244965,-0.004500646144151688,0.0011561758583411574,0.9915066957473755
1666743730.17857790,210462885,1,-0.13039349019527435,-0.005928498227149248,0.0021528874058276415,0.9914422631263733
1666743730.21855307,210502860,1,-0.13071821630001068,-0.007810666691511869,0.003046802245080471,0.9913840889930725
1666743730.25857592,210542883,1,-0.13114289939403534,-0.009455478750169277,0.0031066301744431257,0.9913135170936584
1666743730.27857304,210562880,1,-0.13131025433540344,-0.00973033532500267,0.003327000420540571,0.9912880063056946
1666743730.29861188,210582919,1,-0.13153930008411407,-0.011155729182064533,0.0028714281506836414,0.9912440180778503
1666743730.33860302,210622910,1,-0.1319834291934967,-0.012918472290039062,0.002216040389612317,0.991165280342102
1666743730.37858105,210662888,1,-0.13238656520843506,-0.014825515449047089,0.0014433003962039948,0.9910862445831299
1666743730.41857600,210702883,1,-0.13280826807022095,-0.017403939738869667,0.0007426689844578505,0.9909886717796326
1666743730.45861411,210742921,1,-0.13322813808918,-0.019667575135827065,0.0008319374173879623,0.9908899068832397
1666743730.47861004,210762917,1,-0.1334916055202484,-0.02028637006878853,7.751691009616479e-05,0.9908422827720642
1666743730.49860096,210782908,1,-0.1337166577577591,-0.021792704239487648,0.0003965991782024503,0.9907798767089844
1666743730.53861499,210822922,1,-0.13410109281539917,-0.023562388494610786,0.0004453485307749361,0.990687370300293
1666743730.57857299,210862880,1,-0.1344810426235199,-0.025001060217618942,6.53722818242386e-05,0.9906007051467896
1666743730.61857605,210902883,1,-0.13495023548603058,-0.025731034576892853,-0.00042570746154524386,0.9905181527137756
1666743730.65857911,210942886,1,-0.13536374270915985,-0.025898799300193787,-0.0006782233249396086,0.9904571771621704
1666743730.67861295,210962920,1,-0.1355201005935669,-0.02630593068897724,-0.0010152565082535148,0.9904248118400574
1666743730.69861102,210982918,1,-0.13571330904960632,-0.02615182101726532,-0.0010552244493737817,0.9904024004936218
1666743730.73859596,211022903,1,-0.13610264658927917,-0.026238922029733658,-0.001377614913508296,0.9903462529182434
1666743730.77862000,211062927,1,-0.1364172399044037,-0.02611037716269493,-0.00159546232316643,0.99030601978302
1666743730.81858897,211102896,1,-0.13673043251037598,-0.02551272325217724,-0.0008522607968188822,0.9902793169021606
1666743730.85857511,211142882,1,-0.1368638128042221,-0.024247627705335617,-0.0014078649692237377,0.9902920722961426
1666743730.87860298,211162910,1,-0.13707517087459564,-0.02328777126967907,-0.0014944892609491944,0.9902857542037964
1666743730.89858007,211182887,1,-0.13716758787631989,-0.022580290213227272,-0.0018380222609266639,0.9902887344360352
1666743730.93861198,211222919,1,-0.13738740980625153,-0.020470457151532173,-0.002774849534034729,0.9903019666671753
1666743730.97858500,211262892,1,-0.1375003308057785,-0.018133781850337982,-0.003751760581508279,0.9903286099433899
1666743731.01860499,211302912,1,-0.13764244318008423,-0.015770215541124344,-0.005383414216339588,0.9903417825698853
1666743731.05858397,211342891,1,-0.1376594752073288,-0.013109080493450165,-0.006355189718306065,0.9903724789619446
1666743731.07860303,211362910,1,-0.13762453198432922,-0.011685932986438274,-0.006561631336808205,0.9903938174247742
1666743731.09857607,211382883,1,-0.1376785784959793,-0.01021858025342226,-0.0068374499678611755,0.9904006719589233
1666743731.13861609,211422923,1,-0.1375589668750763,-0.007152020465582609,-0.007489730603992939,0.9904394149780273
1666743731.17861199,211462919,1,-0.1374710649251938,-0.004379317630082369,-0.007725664880126715,0.9904659986495972
1666743731.21861410,211502921,1,-0.13735610246658325,-0.0022875694558024406,-0.007456551305949688,0.9904910326004028
1666743731.25857997,211542887,1,-0.13730883598327637,-0.0010675675002858043,-0.006291987374424934,0.9905077219009399
1666743731.27860594,211562913,1,-0.13715147972106934,-0.0004345152119640261,-0.00590331107378006,0.990532398223877
1666743731.29857397,211582881,1,-0.13710741698741913,0.00034562242217361927,-0.006169373169541359,0.9905369281768799
1666743731.33858299,211622890,1,-0.13698208332061768,0.0015772519400343299,-0.006713354494422674,0.9905495047569275
1666743731.37860799,211662915,1,-0.1367402970790863,0.0021946171764284372,-0.006739153992384672,0.9905815720558167
1666743731.41860294,211702910,1,-0.13661836087703705,0.002275835955515504,-0.006321941968053579,0.9906009435653687
1666743731.45862103,211742928,1,-0.13628189265727997,0.00245434301905334,-0.0062253945507109165,0.9906474947929382
1666743731.47857499,211762882,1,-0.1361788511276245,0.002807747106999159,-0.005036042537540197,0.990667462348938
1666743731.49857306,211782880,1,-0.1360727846622467,0.0026830006390810013,-0.006411636248230934,0.9906744360923767
1666743731.53857589,211822883,1,-0.13576194643974304,0.0028341354336589575,-0.006709865760058165,0.9907147288322449
1666743731.57857990,211862887,1,-0.1354982852935791,0.002957290271297097,-0.006665260996669531,0.9907507300376892
1666743731.61860490,211902912,1,-0.13527044653892517,0.003148985095322132,-0.006992872338742018,0.9907790422439575
1666743731.65859199,211942899,1,-0.13496503233909607,0.0034578877966850996,-0.007877591997385025,0.9908130168914795
1666743731.67857695,211962884,1,-0.13470089435577393,0.0028931801207363605,-0.008642005734145641,0.9908443689346313
1666743731.69861698,211982924,1,-0.13465020060539246,0.0033605655189603567,-0.00895008910447359,0.9908470511436462
1666743731.73857498,212022882,1,-0.13432705402374268,0.0030501203145831823,-0.0105985002592206,0.9908756613731384
1666743731.77857709,212062884,1,-0.1339901238679886,0.0029890111181885004,-0.01306054275482893,0.9908921122550964
1666743731.81857705,212102884,1,-0.1337106078863144,0.003147387644276023,-0.015677930787205696,0.9908913969993591
1666743731.85860705,212142914,1,-0.13344986736774445,0.003355002263560891,-0.01852002739906311,0.9908768534660339
1666743731.87857795,212162885,1,-0.13330525159835815,0.004013162571936846,-0.019786715507507324,0.9908693432807922
1666743731.89861393,212182921,1,-0.1332368701696396,0.0035905218683183193,-0.0213305726647377,0.9908481240272522
1666743731.93860793,212222915,1,-0.13298490643501282,0.004098179284483194,-0.024012086912989616,0.9908186793327332
1666743731.97858310,212262890,1,-0.1327829211950302,0.004793051164597273,-0.02686959132552147,0.9907692670822144
1666743732.01858711,212302894,1,-0.13256941735744476,0.005580222699791193,-0.029321780428290367,0.9907242059707642
1666743732.05858207,212342889,1,-0.13220806419849396,0.005623736884444952,-0.03199685364961624,0.9906894564628601
1666743732.07857609,212362883,1,-0.13210099935531616,0.005716543644666672,-0.032947879284620285,0.9906720519065857
1666743732.09859610,212382903,1,-0.13191454112529755,0.005709610413759947,-0.03440120443701744,0.9906474947929382
1666743732.13861799,212422925,1,-0.1315561980009079,0.005709758494049311,-0.036969106644392014,0.9906026721000671
1666743732.17857695,212462884,1,-0.13116054236888885,0.0057693058624863625,-0.03881722688674927,0.9905840754508972
1666743732.21857500,212502882,1,-0.13091440498828888,0.005838397890329361,-0.04036140814423561,0.9905545115470886
1666743732.25857306,212542880,1,-0.1304396092891693,0.005611890461295843,-0.04107606038451195,0.9905890822410583
1666743732.27860403,212562911,1,-0.13036862015724182,0.005882446654140949,-0.04157395660877228,0.9905760884284973
1666743732.29862094,212582928,1,-0.13015814125537872,0.005664861295372248,-0.041763532906770706,0.9905970692634583
1666743732.33859491,212622902,1,-0.12977653741836548,0.005471218377351761,-0.041537705808877945,0.9906577467918396
1666743732.37860894,212662916,1,-0.12931236624717712,0.005626663099974394,-0.04165845364332199,0.9907124638557434
1666743732.41857696,212702884,1,-0.12898249924182892,0.005372042767703533,-0.04119250550866127,0.9907763600349426
1666743732.45857501,212742882,1,-0.1284891664981842,0.005235306918621063,-0.04077712446451187,0.9908583760261536
1666743732.47862101,212762928,1,-0.1283303052186966,0.0050840554758906364,-0.04010521620512009,0.9909071922302246
1666743732.49857402,212782881,1,-0.12815727293491364,0.005294648464769125,-0.039891280233860016,0.9909371137619019
1666743732.53861403,212822921,1,-0.12773460149765015,0.005196006037294865,-0.038550276309251785,0.9910452961921692
1666743732.57858992,212862897,1,-0.12739895284175873,0.004743260331451893,-0.03646194934844971,0.991169810295105
1666743732.61861300,212902920,1,-0.12700864672660828,0.004334382247179747,-0.03414901718497276,0.9913040995597839
1666743732.65857792,212942885,1,-0.12664571404457092,0.004003760404884815,-0.031716685742139816,0.9914327263832092
1666743732.67860007,212962907,1,-0.12640438973903656,0.0037616032641381025,-0.030039198696613312,0.9915167093276978
1666743732.69858289,212982890,1,-0.12632876634597778,0.003784065367653966,-0.029186705127358437,0.9915517568588257
1666743732.73855901,213022866,1,-0.12602238357067108,0.003405868774279952,-0.026416970416903496,0.991669774055481
1666743732.77860999,213062917,1,-0.12556339800357819,0.002987263025715947,-0.023084580898284912,0.9918124675750732
1666743732.81862998,213102937,1,-0.12541408836841583,0.0027544323820620775,-0.0192622821778059,0.9919136762619019
1666743732.85862207,213142929,1,-0.12513798475265503,0.0024945533368736506,-0.015347695909440517,0.9920175075531006
1666743732.87860608,213162913,1,-0.12508490681648254,0.0013002405175939202,-0.014408155344426632,0.9920405745506287
1666743732.89857602,213182883,1,-0.12501494586467743,0.0019894931465387344,-0.011748630553483963,0.9920833110809326
1666743732.93859005,213222897,1,-0.12489857524633408,0.001323058968409896,-0.00780452461913228,0.9921379089355469
1666743732.97862792,213262935,1,-0.12479343265295029,0.000948617234826088,-0.003955665044486523,0.9921743869781494
1666743733.01859999,213302907,1,-0.12492353469133377,2.147695994381138e-07,-0.0001561880053486675,0.9921663403511047
1666743733.05861402,213342921,1,-0.12495138496160507,-0.000994398957118392,0.0036045953165739775,0.9921557903289795
1666743733.07857108,213362878,1,-0.12491561472415924,-0.0009648464038036764,0.006634577177464962,0.9921447038650513
1666743733.09857798,213382885,1,-0.12514248490333557,-0.0014658536529168487,0.00807562842965126,0.9921048283576965
1666743733.13857698,213422884,1,-0.12536007165908813,-0.001895830500870943,0.013273621909320354,0.9920207262039185
1666743733.17857504,213462882,1,-0.12561307847499847,-0.0025432114489376545,0.01796683855354786,0.9919133186340332
1666743733.21860790,213502915,1,-0.12601938843727112,-0.0027906764298677444,0.02228468470275402,0.9917735457420349
1666743733.25860500,213542912,1,-0.12660232186317444,-0.0033182494807988405,0.02591179870069027,0.991609513759613
1666743733.27857304,213562880,1,-0.1268518716096878,-0.004331258125603199,0.02827000990509987,0.9915092587471008
1666743733.29861808,213582925,1,-0.12720254063606262,-0.00392878707498312,0.02900668792426586,0.9914447665214539
1666743733.33857393,213622881,1,-0.1278100609779358,-0.004601624328643084,0.030982714146375656,0.9913039207458496
1666743733.37858295,213662890,1,-0.1283920854330063,-0.004798312671482563,0.03317698463797569,0.9911567568778992
1666743733.41857696,213702884,1,-0.12910990417003632,-0.00495357858017087,0.03524640202522278,0.9909912943840027
1666743733.45860791,213742915,1,-0.12984918057918549,-0.004629569593816996,0.03717934340238571,0.9908256530761719
1666743733.47857594,213762883,1,-0.13021692633628845,-0.005696076434105635,0.03792203217744827,0.9907436966896057
1666743733.49858403,213782891,1,-0.1306779682636261,-0.004549543838948011,0.03832273930311203,0.9906734824180603
1666743733.53862095,213822928,1,-0.13145962357521057,-0.004857345949858427,0.03911704197525978,0.9905375242233276
1666743733.57867503,213862982,1,-0.13232147693634033,-0.005273436661809683,0.03924555331468582,0.9904155731201172
1666743733.61859202,213902899,1,-0.1331254094839096,-0.005259605590254068,0.039362579584121704,0.9903032779693604
1666743733.65855598,213942863,1,-0.13397881388664246,-0.005308779887855053,0.0387888140976429,0.9902105331420898
1666743733.67857409,213962881,1,-0.13446317613124847,-0.005426567513495684,0.038961831480264664,0.9901374578475952
1666743733.69861889,213982926,1,-0.1347615271806717,-0.00559645239263773,0.038432929664850235,0.9901165962219238
1666743733.73861194,214022919,1,-0.13561421632766724,-0.005647466983646154,0.03756006807088852,0.9900333881378174
1666743733.77857804,214062885,1,-0.1363525241613388,-0.005419953726232052,0.03678203746676445,0.9899624586105347
1666743733.81858611,214102893,1,-0.13714338839054108,-0.005078434012830257,0.035238560289144516,0.9899111986160278
1666743733.85857797,214142885,1,-0.13783423602581024,-0.004752594046294689,0.033249348402023315,0.989885687828064
1666743733.87861204,214162919,1,-0.13824328780174255,-0.004958545323461294,0.03229415416717529,0.9898592233657837
1666743733.89860606,214182913,1,-0.13853877782821655,-0.0046910387463867664,0.030614038929343224,0.9898726344108582
1666743733.93860292,214222910,1,-0.13911552727222443,-0.004517987836152315,0.028147775679826736,0.9898657202720642
1666743733.97861195,214262919,1,-0.13974454998970032,-0.0043390835635364056,0.025179095566272736,0.9898579120635986
1666743734.01857495,214302882,1,-0.1402345597743988,-0.0038212761282920837,0.022452281787991524,0.9898563027381897
1666743734.05857897,214342886,1,-0.1408003568649292,-0.0033762971870601177,0.01928683929145336,0.9898443818092346
1666743734.07857800,214362885,1,-0.14108552038669586,-0.0033822457771748304,0.018488431349396706,0.9898189902305603
1666743734.09857702,214382884,1,-0.1411352902650833,-0.0028774391394108534,0.01661917008459568,0.9898466467857361
1666743734.13861203,214422919,1,-0.14157406985759735,-0.002650236478075385,0.013178007677197456,0.9898363947868347
1666743734.17860603,214462913,1,-0.14173351228237152,-0.0022001254837960005,0.009503902867436409,0.9898567795753479
1666743734.21865296,214502960,1,-0.1420120745897293,-0.001961976755410433,0.006114515941590071,0.9898440837860107
1666743734.25857592,214542883,1,-0.1420728862285614,-0.0015038863057270646,0.0033974573016166687,0.9898492097854614
1666743734.27858496,214562892,1,-0.1420575976371765,-0.0015284286346286535,0.002132763620465994,0.9898549318313599
1666743734.29858708,214582894,1,-0.14217887818813324,-0.0013740999856963754,0.0011763772927224636,0.9898393154144287
1666743734.33857203,214622879,1,-0.14201882481575012,-0.0014580335700884461,-0.0006959482561796904,0.9898626208305359
1666743734.37860703,214662914,1,-0.1420692801475525,-0.0013259726110845804,-0.0022822755854576826,0.9898532032966614
1666743734.41859102,214702898,1,-0.1418524831533432,-0.0006464234902523458,-0.0028705380391329527,0.9898834228515625
1666743734.45861292,214742920,1,-0.14179635047912598,-0.00020727564697153866,-0.003353665815666318,0.9898901581764221
1666743734.47861195,214762919,1,-0.14163580536842346,-2.159908035537228e-05,-0.0028996607288718224,0.98991459608078
1666743734.49857593,214782883,1,-0.14141741394996643,0.0002936162054538727,-0.00319080101326108,0.9899448752403259
1666743734.53857994,214822887,1,-0.14116059243679047,0.0002886801667045802,-0.0035794179420918226,0.9899802207946777
1666743734.57861304,214862920,1,-0.1407494693994522,-0.0001692666410235688,-0.0032247365452349186,0.9900400042533875
1666743734.61859298,214902900,1,-0.14046254754066467,-0.00020842230878770351,-0.003067602403461933,0.9900811910629272
1666743734.65862393,214942931,1,-0.1399689018726349,-0.000330891169141978,-0.001799305435270071,0.9901542067527771
1666743734.67857409,214962881,1,-0.13970166444778442,-0.00039833789924159646,-0.0006905423360876739,0.9901933073997498
1666743734.69860911,214982916,1,-0.13945305347442627,-0.0003097551525570452,-0.0004287564952392131,0.990228533744812
1666743734.73858094,215022888,1,-0.138868510723114,-0.0005451801116578281,0.0010171927278861403,0.9903101325035095
1666743734.77858210,215062889,1,-0.13817116618156433,-0.0007763980538584292,0.0017406109254807234,0.9904065132141113
1666743734.81862903,215102936,1,-0.13758619129657745,-0.001088665914721787,0.002821743953973055,0.9904851913452148
1666743734.85859895,215142906,1,-0.136935293674469,-0.001277755480259657,0.003378635738044977,0.9905734062194824
1666743734.87857199,215162879,1,-0.13667534291744232,-0.0013070302084088326,0.0032606280874460936,0.9906096458435059
1666743734.89861894,215182926,1,-0.13637344539165497,-0.0013360710581764579,0.0038392578717321157,0.9906491637229919
1666743734.93857408,215222881,1,-0.13578012585639954,-0.0011951429769396782,0.0034554493613541126,0.9907322525978088
1666743734.97858191,215262889,1,-0.13519048690795898,-0.0012847981415688992,0.0031201739329844713,0.9908138513565063
1666743735.01857400,215302881,1,-0.13464702665805817,-0.0014571836218237877,0.0021949901711195707,0.9908901453018188
1666743735.05863309,215342940,1,-0.13404488563537598,-0.0016440285835415125,0.0017698142910376191,0.9909723401069641
1666743735.07857704,215362884,1,-0.13370704650878906,-0.001519937184639275,0.0012759094825014472,0.9910188913345337
1666743735.09860706,215382914,1,-0.13344500958919525,-0.0014707932714372873,0.0009296747739426792,0.9910547137260437
1666743735.13861299,215422920,1,-0.1329578310251236,-0.0014551113126799464,0.0006043745670467615,0.991120457649231
1666743735.17858410,215462891,1,-0.13241176307201385,-0.001405969844199717,0.00026934247580356896,0.9911937713623047
1666743735.21857405,215502881,1,-0.13202691078186035,-0.001438112580217421,-0.0001352479011984542,0.9912450909614563
1666743735.25858212,215542889,1,-0.13153383135795593,-0.0013331588124856353,-0.0004832283593714237,0.9913106560707092
1666743735.27857399,215562881,1,-0.13131581246852875,-0.002128958236426115,-0.001425161026418209,0.9913372993469238
1666743735.29860497,215582912,1,-0.13123594224452972,-0.0011142202420160174,-0.0006844587624073029,0.9913502931594849
1666743735.33861208,215622919,1,-0.13083074986934662,-0.001073378138244152,-0.0010516734328120947,0.9914035797119141
1666743735.37859893,215662906,1,-0.13055193424224854,-0.0012299088994041085,-0.0010333243990316987,0.9914401769638062
1666743735.41857505,215702882,1,-0.13025030493736267,-0.0013625832507386804,-0.0009375155786983669,0.991479754447937
1666743735.45857811,215742885,1,-0.1299818903207779,-0.0012658092891797423,-0.0007942174561321735,0.9915152192115784
1666743735.47861290,215762920,1,-0.1298888921737671,-0.0008232759428210557,-0.00032937838113866746,0.9915281534194946
1666743735.49860692,215782914,1,-0.12971524894237518,-0.001022176118567586,-0.00024429793120361865,0.9915507435798645
1666743735.53860807,215822915,1,-0.12956248223781586,-0.0008677333826199174,0.0001497005723649636,0.9915708899497986
1666743735.57860899,215862916,1,-0.12941397726535797,-0.0007708630291745067,0.0005075650406070054,0.9915902018547058
1666743735.61859894,215902906,1,-0.12928837537765503,-0.0008010841556824744,0.0004403687780722976,0.991606593132019
1666743735.65857911,215942886,1,-0.12910275161266327,-0.0010117460042238235,0.0007579230004921556,0.9916304349899292
1666743735.67858410,215962891,1,-0.1290093958377838,-0.0013796651037409902,0.0003415594983380288,0.9916423559188843
1666743735.69857788,215982885,1,-0.12896446883678436,-0.0014916930813342333,4.1352435800945386e-05,0.9916480779647827
1666743735.73860598,216022913,1,-0.12883111834526062,-0.0018595934379845858,-0.00048193964175879955,0.991664707660675
1666743735.77861309,216062920,1,-0.1286739557981491,-0.0019476031884551048,-0.0007237842655740678,0.9916847944259644
1666743735.81862307,216102930,1,-0.12867599725723267,-0.0018143192864954472,-0.0007156343781389296,0.9916847944259644
1666743735.85857511,216142882,1,-0.12866221368312836,-0.001661638030782342,-0.0006018413114361465,0.9916868805885315
1666743735.87861490,216162922,1,-0.12864099442958832,-0.0016295837704092264,-0.0008333736914210021,0.9916895627975464
1666743735.89857602,216182883,1,-0.1286468654870987,-0.001509163179434836,-0.0007377477013505995,0.9916890263557434
1666743735.93858099,216222888,1,-0.12864792346954346,-0.0014999895356595516,-0.00099966733250767,0.9916886687278748
1666743735.97860694,216262914,1,-0.1286815106868744,-0.0015437524998560548,-0.0012100422754883766,0.9916840195655823
1666743736.01859403,216302901,1,-0.12874488532543182,-0.0014693386619910598,-0.0013748323544859886,0.9916757345199585
1666743736.05861592,216342923,1,-0.12881003320217133,-0.0014106497401371598,-0.0016955212922766805,0.991666853427887
1666743736.07861495,216362922,1,-0.12900252640247345,-0.000457510759588331,-0.0006434701499529183,0.9916439652442932
1666743736.09857607,216382883,1,-0.12880274653434753,-0.001332121784798801,-0.0011263515334576368,0.991668701171875
1666743736.13857603,216422883,1,-0.12896603345870972,-0.0016268441686406732,-0.00047610016190446913,0.9916475415229797
1666743736.17856693,216462874,1,-0.12907132506370544,-0.001810596790164709,0.00044996681390330195,0.9916335344314575
1666743736.21860409,216502911,1,-0.1292123943567276,-0.002799731446430087,0.0011020617093890905,0.9916123747825623
1666743736.25860810,216542915,1,-0.12933380901813507,-0.0041643367148935795,0.0019464200595393777,0.9915904402732849
1666743736.27857399,216562881,1,-0.12931062281131744,-0.005028502084314823,0.002350232796743512,0.9915885925292969
1666743736.29862094,216582928,1,-0.12940144538879395,-0.005308557767421007,0.0028757748659700155,0.9915739297866821
1666743736.33857608,216622883,1,-0.1295856088399887,-0.005798076745122671,0.004135298077017069,0.991542637348175
1666743736.37857389,216662881,1,-0.12955935299396515,-0.0058937668800354,0.005725538358092308,0.9915376305580139
1666743736.41865611,216702963,1,-0.12967580556869507,-0.00595912616699934,0.008062147535383701,0.9915057420730591
1666743736.45860004,216742907,1,-0.12967166304588318,-0.005536343902349472,0.01017011795192957,0.9914893507957458
1666743736.47857809,216762885,1,-0.12977959215641022,-0.005802837200462818,0.011849715374410152,0.991455078125
1666743736.49860311,216782910,1,-0.1299058198928833,-0.00505785783752799,0.012457206845283508,0.991435170173645
1666743736.53867006,216822977,1,-0.13000905513763428,-0.004736767616122961,0.014812622219324112,0.9913908243179321
1666743736.57857609,216862883,1,-0.130191832780838,-0.005056465044617653,0.016503265127539635,0.9913385510444641
1666743736.61857510,216902882,1,-0.13035017251968384,-0.00583097618073225,0.017731456086039543,0.9912922978401184
1666743736.65861392,216942921,1,-0.13055363297462463,-0.006588483229279518,0.01831168681383133,0.991250216960907
1666743736.67857409,216962881,1,-0.130670428276062,-0.007554648444056511,0.018173784017562866,0.9912304878234863
1666743736.69859004,216982897,1,-0.1306532323360443,-0.007809280417859554,0.018701927736401558,0.9912209510803223
1666743736.73861408,217022921,1,-0.13090798258781433,-0.00930100493133068,0.01814422197639942,0.9911848306655884
1666743736.77859211,217062899,1,-0.13099747896194458,-0.010686887428164482,0.017654642462730408,0.9911679029464722
1666743736.81858206,217102889,1,-0.1311860829591751,-0.011964497156441212,0.017003972083330154,0.9911397099494934
1666743736.85857701,217142884,1,-0.13137979805469513,-0.013720665127038956,0.016511499881744385,0.9910995960235596
1666743736.87860394,217162911,1,-0.13148659467697144,-0.015067310072481632,0.015264077112078667,0.9910858869552612
1666743736.89860392,217182911,1,-0.1315232515335083,-0.015424972400069237,0.015543131157755852,0.9910712242126465
1666743736.93858194,217222889,1,-0.13182181119918823,-0.01733074150979519,0.014042465947568417,0.9910224080085754
1666743736.97861910,217262926,1,-0.13200294971466064,-0.01871361769735813,0.012103687971830368,0.9909987449645996
1666743737.01857495,217302882,1,-0.13231819868087769,-0.02013985998928547,0.009709607809782028,0.990955114364624
1666743737.05858111,217342888,1,-0.1325691193342209,-0.02129107154905796,0.007405648939311504,0.9909173846244812
1666743737.07862806,217362935,1,-0.1327080875635147,-0.0219743475317955,0.0058800894767045975,0.990894079208374
1666743737.09855700,217382864,1,-0.13281746208667755,-0.022341376170516014,0.00476981932297349,0.9908772110939026
1666743737.13861704,217422924,1,-0.13307492434978485,-0.022902408614754677,0.002358838450163603,0.9908385276794434
1666743737.17861295,217462920,1,-0.13330739736557007,-0.023008568212389946,-0.00026690273080021143,0.9908075928688049
1666743737.21862006,217502927,1,-0.13345687091350555,-0.02285676822066307,-0.0018949357327073812,0.9907891750335693
1666743737.25857401,217542881,1,-0.13368047773838043,-0.02246110886335373,-0.0036025703884661198,0.9907633662223816
1666743737.27859402,217562901,1,-0.13380591571331024,-0.021993320435285568,-0.0052117640152573586,0.9907497763633728
1666743737.29857492,217582882,1,-0.13379627466201782,-0.02174065075814724,-0.004317027982324362,0.9907609224319458
1666743737.33860803,217622915,1,-0.1339012235403061,-0.020662613213062286,-0.005153388250619173,0.9907658696174622
1666743737.37860799,217662915,1,-0.13399022817611694,-0.019215751439332962,-0.005955870263278484,0.9907784461975098
1666743737.41860199,217702909,1,-0.13407030701637268,-0.01752447336912155,-0.006116392090916634,0.9907979965209961
1666743737.45858097,217742888,1,-0.13405796885490417,-0.015719274058938026,-0.005985995288938284,0.9908307194709778
1666743737.47861099,217762918,1,-0.13404396176338196,-0.014430457726120949,-0.00593193992972374,0.9908525347709656
