timestamp,TimeUS,I,Status,GMS,GWk,NSats,HDop,Lat,Lng,Alt,Spd,GCrs,VZ,Yaw,U
1667337306.59999990,219358464,0,3,249324600,2234,13,0.81,42.6891986,-84.4915814,267.87,0.009219544939696789,49.398704528808594,0.03100000135600567,0.0,1
1667337306.80036998,219558834,0,3,249324800,2234,13,0.81,42.6891986,-84.4915814,267.88,0.007615773472934961,156.8013916015625,0.06200000271201134,0.0,1
1667337307.00036597,219758830,0,3,249325000,2234,13,0.81,42.6891987,-84.4915814,267.88,0.020518286153674126,43.025062561035156,0.0,0.0,1
1667337307.20041680,219958881,0,3,249325200,2234,13,0.81,42.6891987,-84.4915814,267.88,0.013341664336621761,12.994616508483887,0.007000000216066837,0.0,1
1667337307.40041089,220158875,0,3,249325400,2234,13,0.81,42.6891987,-84.4915815,267.9,0.013601470738649368,252.89727783203125,0.07100000232458115,0.0,1
1667337307.60042000,220358884,0,3,249325600,2234,13,0.81,42.6891988,-84.4915815,267.9,0.005656854715198278,45.0,0.05900000408291817,0.0,1
1667337307.80051899,220558983,0,3,249325800,2234,13,0.81,42.6891988,-84.49158159999999,267.91,0.012041594833135605,311.633544921875,0.06200000271201134,0.0,1
1667337308.02005291,220778517,0,3,249326000,2234,13,0.81,42.6891989,-84.49158159999999,267.92,0.023194829002022743,7.4314069747924805,0.01900000125169754,0.0,1
1667337308.22007990,220978544,0,3,249326200,2234,13,0.81,42.6891989,-84.49158159999999,267.93,0.02280350960791111,74.74488067626953,0.032999999821186066,0.0,1
1667337308.40049887,221158963,0,3,249326400,2234,13,0.81,42.6891989,-84.49158159999999,267.93,0.017888544127345085,153.43495178222656,0.08800000697374344,0.0,1
1667337308.60041785,221358882,0,3,249326600,2234,13,0.81,42.6891989,-84.4915817,267.93,0.012041594833135605,184.76365661621094,0.06800000369548798,0.0,1
1667337308.80037379,221558838,0,3,249326800,2234,13,0.81,42.6891989,-84.4915817,267.94,0.009055385366082191,96.34017944335938,0.01100000087171793,0.0,1
1667337309.00040388,221758868,0,3,249327000,2234,13,0.81,42.689198999999995,-84.4915817,267.95,0.013601471669971943,143.97262573242188,0.006000000052154064,0.0,1
1667337309.20035791,221958822,0,3,249327200,2234,13,0.81,42.689198999999995,-84.4915817,267.97,0.010198039934039116,78.6900634765625,0.014000000432133675,0.0,1
1667337309.40044689,222158911,0,3,249327400,2234,13,0.81,42.689198999999995,-84.4915817,267.98,0.00632455525919795,161.56504821777344,-0.03400000184774399,0.0,1
1667337309.60038996,222358854,0,3,249327600,2234,13,0.81,42.689198999999995,-84.4915817,267.99,0.014317821711301804,12.094756126403809,0.03100000135600567,0.0,1
1667337309.80039787,222558862,0,3,249327800,2234,13,0.81,42.689198999999995,-84.49158179999999,268.01,0.017117243260145187,173.2901611328125,0.021000001579523087,0.0,1
1667337310.02008390,222778548,0,3,249328000,2234,13,0.81,42.689198999999995,-84.49158179999999,268.01,0.028231188654899597,22.932100296020508,0.01600000075995922,0.0,1
1667337310.22008491,222978549,0,3,249328200,2234,13,0.81,42.689198999999995,-84.4915819,268.02,0.006708203814923763,333.4349365234375,0.06100000441074371,0.0,1
1667337310.42006588,223178530,0,3,249328400,2234,13,0.81,42.689198999999995,-84.4915819,268.02,0.025317978113889694,80.90972137451172,0.07000000029802322,0.0,1
1667337310.60041690,223358881,0,3,249328600,2234,13,0.81,42.689198999999995,-84.491582,268.03000000000003,0.02475883811712265,46.63657760620117,0.05400000140070915,0.0,1
1667337310.80036998,223558834,0,3,249328800,2234,13,0.81,42.689198999999995,-84.491582,268.01,0.037202153354883194,36.25383758544922,-0.06400000303983688,0.0,1
1667337311.00034690,223758811,0,3,249329000,2234,13,0.81,42.689198999999995,-84.491582,268.02,0.010049876756966114,174.28939819335938,-0.09300000220537186,0.0,1
1667337311.20038486,223958849,0,3,249329200,2234,13,0.81,42.689198999999995,-84.4915821,268.03000000000003,0.006082762498408556,350.5376892089844,-0.06599999964237213,0.0,1
1667337311.40039802,224158862,0,3,249329400,2234,13,0.81,42.689198999999995,-84.4915822,268.04,0.006082762498408556,9.462321281433105,0.02200000174343586,0.0,1
1667337311.60039186,224358856,0,3,249329600,2234,13,0.81,42.689198999999995,-84.49158229999999,268.05,0.0255538672208786,239.4207763671875,0.00800000037997961,0.0,1
1667337311.80047297,224558937,0,3,249329800,2234,13,0.81,42.6891989,-84.4915824,268.06,0.032649654895067215,49.9697380065918,0.14000000059604645,0.0,1
1667337312.00054884,224759013,0,3,249330000,2234,13,0.81,42.6891989,-84.49158249999999,268.06,0.006403124425560236,231.34019470214844,0.0990000069141388,0.0,1
1667337312.20042992,224958894,0,3,249330200,2234,13,0.81,42.6891989,-84.4915826,268.06,0.02402082458138466,267.61407470703125,0.005000000353902578,0.0,1
1667337312.40038586,225158850,0,3,249330400,2234,13,0.81,42.6891988,-84.4915827,268.07,0.020396079868078232,168.6900634765625,0.11700000613927841,0.0,1
1667337312.62002683,225378491,0,3,249330600,2234,13,0.81,42.6891987,-84.49158279999999,268.07,0.00824621133506298,104.0362319946289,0.11900000274181366,0.0,1
1667337312.80035996,225558824,0,3,249330800,2234,13,0.81,42.6891986,-84.4915829,268.08,0.01414213702082634,135.0,0.01900000125169754,0.0,1
1667337313.02017283,225778637,0,3,249331000,2234,13,0.81,42.6891986,-84.4915829,268.1,0.05092150717973709,109.50244140625,0.01600000075995922,0.0,1
1667337313.20040393,225958868,0,3,249331200,2234,13,0.81,42.689198499999996,-84.49158279999999,268.13,0.133405402302742,75.23457336425781,-0.08700000494718552,0.0,1
1667337313.40049481,226158959,0,3,249331400,2234,13,0.81,42.689198499999996,-84.4915826,268.18,0.133304163813591,86.12873840332031,-0.2980000078678131,0.0,1
1667337313.62009788,226378562,0,3,249331600,2234,13,0.81,42.689198399999995,-84.4915824,268.28000000000003,0.08537564426660538,95.37669372558594,-0.4280000329017639,0.0,1
1667337313.80050087,226558965,0,3,249331800,2234,13,0.81,42.689198499999996,-84.4915824,268.39,0.09415413439273834,337.52056884765625,-0.6380000114440918,0.0,1
1667337314.00036597,226758830,0,3,249332000,2234,13,0.81,42.689198499999996,-84.4915826,268.53000000000003,0.09885849058628082,262.44366455078125,-0.5920000076293945,0.0,1
1667337314.20034790,226958812,0,3,249332200,2234,13,0.81,42.6891983,-84.49158279999999,268.68,0.1086646243929863,186.34019470214844,-0.6530000567436218,0.0,1
1667337314.40037394,227158838,0,3,249332400,2234,13,0.81,42.6891981,-84.4915829,268.84000000000003,0.08902247250080109,194.97288513183594,-0.6330000162124634,0.0,1
1667337314.60039186,227358856,0,3,249332600,2234,13,0.81,42.689198,-84.4915832,268.93,0.21077477931976318,256.55712890625,-0.36900001764297485,0.0,1
1667337314.80041790,227558882,0,3,249332800,2234,13,0.81,42.689197899999996,-84.491584,269.0,0.3821060359477997,268.6503601074219,-0.30800002813339233,0.0,1
1667337315.00047684,227758941,0,3,249333000,2234,13,0.81,42.689197899999996,-84.49158489999999,269.07,0.3400000035762787,270.0,-0.1850000023841858,0.0,1
1667337315.20043898,227958903,0,3,249333200,2234,13,0.81,42.689197899999996,-84.49158589999999,269.12,0.4355008602142334,279.11627197265625,-0.17100000381469727,0.0,1
1667337315.40047383,228158938,0,3,249333400,2234,13,0.81,42.689198,-84.491587,269.16,0.47461143136024475,280.9311218261719,-0.13300000131130219,0.0,1
1667337315.60044980,228358914,0,3,249333600,2234,13,0.81,42.6891981,-84.4915881,269.2,0.3270244896411896,269.2991943359375,-0.09600000083446503,0.0,1
1667337315.80031085,228558775,0,3,249333800,2234,13,0.81,42.6891981,-84.4915889,269.23,0.254503458738327,266.3955993652344,0.021000001579523087,0.0,1
1667337316.00032187,228758786,0,3,249334000,2234,13,0.81,42.689198,-84.4915894,269.23,0.1548709273338318,261.0850830078125,-0.055000003427267075,0.0,1
1667337316.20044899,228958913,0,3,249334200,2234,13,0.81,42.6891981,-84.49158969999999,269.24,0.1261942982673645,326.3099365234375,-0.03800000250339508,0.0,1
1667337316.40038490,229158849,0,3,249334400,2234,13,0.81,42.6891983,-84.4915899,269.24,0.1676723062992096,354.867431640625,0.1420000046491623,0.0,1
1667337316.60047293,229358937,0,3,249334600,2234,13,0.81,42.6891987,-84.4915898,269.23,0.24927295744419098,11.805790901184082,0.0990000069141388,0.0,1
1667337316.80048299,229558947,0,3,249334800,2234,13,0.81,42.689199099999996,-84.49158969999999,269.21,0.2886468470096588,13.21778678894043,0.02800000086426735,0.0,1
1667337317.02013898,229778603,0,3,249335000,2234,13,0.81,42.689199599999995,-84.4915896,269.23,0.2744758725166321,21.142419815063477,-0.07100000232458115,0.0,1
1667337317.20043492,229958899,0,3,249335200,2234,13,0.81,42.6892001,-84.4915894,269.27,0.2911717891693115,21.984111785888672,-0.19500000774860382,0.0,1
1667337317.40045500,230158919,0,3,249335400,2234,13,0.81,42.6892005,-84.49158919999999,269.32,0.19500000774860382,22.619861602783203,-0.36000001430511475,0.0,1
1667337317.60037994,230358844,0,3,249335600,2234,13,0.81,42.689200899999996,-84.49158899999999,269.4,0.30143824219703674,17.17259979248047,-0.45100003480911255,0.0,1
1667337317.80037093,230558835,0,3,249335800,2234,13,0.81,42.6892013,-84.4915888,269.48,0.20619408786296844,8.365884780883789,-0.550000011920929,0.0,1
1667337318.02009201,230778556,0,3,249336000,2234,13,0.81,42.6892018,-84.4915889,269.61,0.3245997726917267,352.7436218261719,-0.4710000157356262,0.0,1
1667337318.20039392,230958858,0,3,249336200,2234,13,0.81,42.6892022,-84.4915891,269.74,0.2172233909368515,351.7952880859375,-0.5660000443458557,0.0,1
1667337318.40045786,231158922,0,3,249336400,2234,13,0.81,42.6892026,-84.4915891,269.84000000000003,0.21717506647109985,350.1907043457031,-0.5820000171661377,0.0,1
1667337318.60039091,231358855,0,3,249336600,2234,13,0.81,42.6892031,-84.49158919999999,269.95,0.26515281200408936,1.9451466798782349,-0.6330000162124634,0.0,1
1667337318.80041099,231558875,0,3,249336800,2234,13,0.81,42.6892037,-84.49158919999999,270.07,0.40725913643836975,4.506606578826904,-0.5250000357627869,0.0,1
1667337319.00035191,231758816,0,3,249337000,2234,13,0.81,42.6892043,-84.4915894,270.19,0.37062379717826843,341.271728515625,-0.3620000183582306,0.0,1
1667337319.20043182,231958896,0,3,249337200,2234,13,0.81,42.6892049,-84.4915896,270.24,0.33143630623817444,340.7996826171875,-0.39000001549720764,0.0,1
1667337319.40038085,232158845,0,3,249337400,2234,13,0.81,42.6892054,-84.4915898,270.35,0.2780647575855255,1.2364073991775513,-0.37300002574920654,0.0,1
1667337319.60038686,232358851,0,3,249337600,2234,13,0.81,42.689206,-84.4915899,270.41,0.37222710251808167,357.99853515625,-0.30100002884864807,0.0,1
1667337319.82005787,232578522,0,3,249337800,2234,13,0.81,42.6892066,-84.4915898,270.46,0.30263012647628784,18.49481773376465,-0.17100000381469727,0.0,1
1667337320.02014589,232778610,0,3,249338000,2234,13,0.81,42.6892072,-84.4915896,270.49,0.40798285603523254,19.323183059692383,-0.11800000816583633,0.0,1
1667337320.20046782,232958932,0,3,249338200,2234,13,0.81,42.6892079,-84.4915894,270.5,0.39641520380973816,8.55935287475586,-0.08700000494718552,0.0,1
1667337320.42008495,233178549,0,3,249338400,2234,13,0.81,42.689208699999995,-84.49158919999999,270.5,0.5221819877624512,13.849958419799805,-0.01100000087171793,0.0,1
1667337320.62010598,233378570,0,3,249338600,2234,13,0.81,42.6892097,-84.49158899999999,270.51,0.581230640411377,6.9171576499938965,-0.055000003427267075,0.0,1
1667337320.82010794,233578572,0,3,249338800,2234,13,0.81,42.6892108,-84.4915889,270.5,0.6413439512252808,358.12359619140625,-0.029000001028180122,0.0,1
1667337321.02004695,233778511,0,3,249339000,2234,13,0.81,42.6892121,-84.4915891,270.5,0.7619934678077698,352.2314453125,-0.052000001072883606,0.0,1
1667337321.22008181,233978546,0,3,249339200,2234,13,0.81,42.6892135,-84.4915894,270.5,0.8696856498718262,347.17822265625,0.07200000435113907,0.0,1
1667337321.40037394,234158838,0,3,249339400,2234,13,0.81,42.6892152,-84.4915901,270.48,1.029322624206543,341.47705078125,0.03700000047683716,0.0,1
1667337321.62000179,234378466,0,3,249339600,2234,13,0.81,42.6892171,-84.49159089999999,270.46,1.2184876203536987,340.1374206542969,0.04200000315904617,0.0,1
1667337321.80037379,234558838,0,3,249339800,2234,13,0.81,42.6892192,-84.49159209999999,270.46,1.3019189834594727,337.9861145019531,0.21800000965595245,0.0,1
1667337322.02010989,234778574,0,3,249340000,2234,13,0.81,42.689221499999995,-84.49159329999999,270.43,1.4373879432678223,337.5027770996094,0.0990000069141388,0.0,1
1667337322.22008181,234978546,0,3,249340200,2234,13,0.81,42.689223999999996,-84.4915948,270.44,1.536548137664795,336.77203369140625,0.14100000262260437,0.0,1
1667337322.40042591,235158890,0,3,249340400,2234,13,0.81,42.6892267,-84.49159619999999,270.39,1.6324148178100586,337.0318603515625,0.14000000059604645,0.0,1
1667337322.60047698,235358941,0,3,249340600,2234,13,0.81,42.689229399999995,-84.4915977,270.38,1.6371256113052368,338.5755310058594,0.14100000262260437,0.0,1
1667337322.80045700,235558921,0,3,249340800,2234,13,0.81,42.6892322,-84.4915991,270.37,1.5988459587097168,339.9556579589844,0.15000000596046448,0.0,1
1667337323.00039792,235758862,0,3,249341000,2234,13,0.81,42.689234899999995,-84.4916004,270.37,1.607746958732605,341.9932861328125,0.11900000274181366,0.0,1
1667337323.20034385,235958808,0,3,249341200,2234,13,0.81,42.6892376,-84.4916015,270.34000000000003,1.4981516599655151,343.0406799316406,0.12200000882148743,0.0,1
1667337323.40038085,236158845,0,3,249341400,2234,13,0.81,42.6892402,-84.4916025,270.33,1.5129653215408325,346.3127746582031,0.04700000211596489,0.0,1
1667337323.60031199,236358776,0,3,249341600,2234,13,0.81,42.689242799999995,-84.4916034,270.31,1.4564151763916016,346.9847412109375,0.04100000113248825,0.0,1
1667337323.80039096,236558855,0,3,249341800,2234,13,0.81,42.6892454,-84.491604,270.31,1.4589558839797974,352.358642578125,0.11400000751018524,0.0,1
1667337324.02008080,236778545,0,3,249342000,2234,13,0.81,42.6892479,-84.4916045,270.31,1.403731107711792,353.2496337890625,0.04800000041723251,0.0,1
1667337324.20043683,236958901,0,3,249342200,2234,13,0.81,42.6892503,-84.4916049,270.31,1.3141511678695679,354.4542541503906,0.0820000022649765,0.0,1
1667337324.40047097,237158935,0,3,249342400,2234,13,0.81,42.689252499999995,-84.49160529999999,270.31,1.1748826503753662,354.774658203125,0.0430000014603138,0.0,1
1667337324.60049701,237358961,0,3,249342600,2234,13,0.81,42.6892545,-84.4916054,270.3,1.0110079050064087,359.7733154296875,0.005000000353902578,0.0,1
1667337324.80038190,237558846,0,3,249342800,2234,13,0.81,42.689256,-84.4916056,270.33,0.7165486812591553,352.86505126953125,0.0560000017285347,0.0,1
1667337325.00035691,237758821,0,3,249343000,2234,13,0.81,42.6892571,-84.49160599999999,270.32,0.5261197686195374,338.94683837890625,0.015000000596046448,0.0,1
1667337325.20031500,237958779,0,3,249343200,2234,13,0.81,42.6892577,-84.4916066,270.31,0.3567422330379486,310.56646728515625,-0.03700000047683716,0.0,1
1667337325.40036488,238158829,0,3,249343400,2234,13,0.81,42.689257999999995,-84.49160719999999,270.31,0.2545584440231323,278.1300964355469,0.01600000075995922,0.0,1
1667337325.60038996,238358854,0,3,249343600,2234,13,0.81,42.6892579,-84.4916078,270.3,0.23767414689064026,241.06246948242188,0.1080000028014183,0.0,1
1667337325.80042601,238558890,0,3,249343800,2234,13,0.81,42.6892576,-84.4916081,270.29,0.20746085047721863,199.13365173339844,0.1340000033378601,0.0,1
1667337326.02010489,238778569,0,3,249344000,2234,13,0.81,42.6892572,-84.49160839999999,270.27,0.2527330815792084,201.59092712402344,0.1600000113248825,0.0,1
1667337326.20036697,238958831,0,3,249344200,2234,13,0.81,42.6892567,-84.4916087,270.25,0.32500001788139343,202.619873046875,0.21000000834465027,0.0,1
1667337326.40041995,239158884,0,3,249344400,2234,13,0.81,42.6892563,-84.491609,270.22,0.25312647223472595,206.26136779785156,0.14800000190734863,0.0,1
1667337326.60035181,239358816,0,3,249344600,2234,13,0.81,42.6892558,-84.4916093,270.2,0.28079354763031006,201.0814666748047,0.1850000023841858,0.0,1
1667337326.80029798,239558762,0,3,249344800,2234,13,0.81,42.6892553,-84.4916094,270.15,0.24906425178050995,187.38182067871094,0.18400001525878906,0.0,1
1667337327.00036097,239758825,0,3,249345000,2234,13,0.81,42.689254899999995,-84.4916095,270.13,0.2440020740032196,180.23483276367188,0.26500001549720764,0.0,1
1667337327.20031786,239958782,0,3,249345200,2234,13,0.81,42.689254399999996,-84.4916094,270.1,0.32400310039520264,168.0657958984375,0.20500001311302185,0.0,1
1667337327.40045786,240158922,0,3,249345400,2234,13,0.81,42.6892539,-84.4916092,270.06,0.3194526731967926,162.699462890625,0.18000000715255737,0.0,1
1667337327.60041881,240358883,0,3,249345600,2234,13,0.81,42.6892533,-84.4916089,270.05,0.39268437027931213,152.71714782714844,0.12200000882148743,0.0,1
1667337327.80045795,240558922,0,3,249345800,2234,13,0.81,42.689252599999996,-84.49160839999999,270.03000000000003,0.4505341649055481,148.70907592773438,0.10100000351667404,0.0,1
1667337328.02016401,240778628,0,3,249346000,2234,13,0.81,42.6892518,-84.4916078,270.01,0.5906420350074768,149.13604736328125,0.13900001347064972,0.0,1
1667337328.22010279,240978567,0,3,249346200,2234,13,0.81,42.6892509,-84.4916071,270.03000000000003,0.5872052907943726,147.09475708007812,0.006000000052154064,0.0,1
1667337328.40031886,241158783,0,3,249346400,2234,13,0.81,42.6892499,-84.4916063,270.01,0.6988133192062378,150.13307189941406,0.0860000029206276,0.0,1
1667337328.60033178,241358796,0,3,249346600,2234,13,0.81,42.6892487,-84.4916054,269.99,0.764288604259491,153.50198364257812,0.004000000189989805,0.0,1
1667337328.80044389,241558908,0,3,249346800,2234,13,0.81,42.6892474,-84.4916045,270.0,0.8577861189842224,151.52281188964844,-0.00800000037997961,0.0,1
1667337329.00037479,241758839,0,3,249347000,2234,13,0.81,42.689246,-84.4916035,270.0,0.9765429496765137,151.23033142089844,0.03100000135600567,0.0,1
1667337329.20046091,241958925,0,3,249347200,2234,13,0.81,42.6892445,-84.4916022,269.98,0.9857069253921509,147.6803741455078,-0.018000001087784767,0.0,1
1667337329.40046191,242158926,0,3,249347400,2234,13,0.81,42.689242899999996,-84.4916009,269.99,1.055981993675232,147.1376190185547,0.04400000348687172,0.0,1
1667337329.60041785,242358882,0,3,249347600,2234,13,0.81,42.6892413,-84.4915994,270.01,1.1004022359848022,143.0155487060547,0.058000002056360245,0.0,1
1667337329.80042982,242558894,0,3,249347800,2234,13,0.81,42.689239799999996,-84.4915978,269.99,1.0176305770874023,141.46328735351562,-0.04200000315904617,0.0,1
1667337330.00043392,242758898,0,3,249348000,2234,13,0.81,42.689238499999995,-84.4915963,270.0,0.939027726650238,138.8427734375,-0.07200000435113907,0.0,1
1667337330.20037985,242958844,0,3,249348200,2234,13,0.81,42.689237299999995,-84.4915948,270.0,0.8556921482086182,139.1227264404297,0.01900000125169754,0.0,1
1667337330.40038180,243158846,0,3,249348400,2234,13,0.81,42.689236099999995,-84.4915935,270.02,0.8180587291717529,139.064453125,-0.08300000429153442,0.0,1
1667337330.60038495,243358849,0,3,249348600,2234,13,0.81,42.689235,-84.4915922,270.01,0.7745205163955688,140.6585235595703,-0.0560000017285347,0.0,1
1667337330.82012081,243578585,0,3,249348800,2234,13,0.81,42.689234,-84.4915911,270.02,0.7013280391693115,144.22488403320312,-0.01600000075995922,0.0,1
1667337331.00039387,243758858,0,3,249349000,2234,13,0.81,42.689233099999996,-84.49159019999999,270.03000000000003,0.5514000654220581,143.10931396484375,-0.06000000238418579,0.0,1
1667337331.22009301,243978557,0,3,249349200,2234,13,0.81,42.689232399999995,-84.4915896,270.02,0.3812151849269867,159.9013214111328,-0.11300000548362732,0.0,1
1667337331.40032101,244158785,0,3,249349400,2234,13,0.81,42.689231899999996,-84.4915894,270.04,0.2320021688938141,179.75303649902344,-0.05900000408291817,0.0,1
1667337331.60041595,244358880,0,3,249349600,2234,13,0.81,42.6892315,-84.4915896,270.02,0.23551857471466064,223.79576110839844,-0.11900000274181366,0.0,1
1667337331.80046201,244558926,0,3,249349800,2234,13,0.81,42.689231299999996,-84.4915901,270.03000000000003,0.23711812496185303,258.0740051269531,-0.06200000271201134,0.0,1
1667337332.00036097,244758825,0,3,249350000,2234,13,0.81,42.689231299999996,-84.4915907,270.04,0.2820567190647125,276.9234619140625,0.03400000184774399,0.0,1
1667337332.20035195,244958816,0,3,249350200,2234,13,0.81,42.6892314,-84.49159139999999,270.04,0.2751472294330597,271.8744812011719,0.04000000283122063,0.0,1
1667337332.40040183,245158866,0,3,249350400,2234,13,0.81,42.6892314,-84.491592,270.06,0.1874166578054428,262.9508361816406,0.13600000739097595,0.0,1
1667337332.60039997,245358864,0,3,249350600,2234,13,0.81,42.689231299999996,-84.4915923,270.03000000000003,0.0660681501030922,219.47247314453125,0.1290000081062317,0.0,1
1667337332.80039787,245558862,0,3,249350800,2234,13,0.81,42.689231199999995,-84.4915923,270.02,0.13535140454769135,145.84030151367188,0.164000004529953,0.0,1
1667337333.00044894,245758913,0,3,249351000,2234,13,0.81,42.6892309,-84.491592,270.0,0.18402445316314697,125.9358139038086,0.24900001287460327,0.0,1
1667337333.20040584,245958870,0,3,249351200,2234,13,0.81,42.689230699999996,-84.4915917,269.98,0.10241582244634628,144.13714599609375,0.22600001096725464,0.0,1
1667337333.40041089,246158875,0,3,249351400,2234,13,0.81,42.689230599999995,-84.4915917,269.94,0.10705605894327164,229.16650390625,0.11600000411272049,0.0,1
1667337333.62009192,246378556,0,3,249351600,2234,13,0.81,42.6892304,-84.49159209999999,269.92,0.2879236340522766,253.4532470703125,0.11600000411272049,0.0,1
1667337333.80038285,246558847,0,3,249351800,2234,13,0.81,42.6892303,-84.491593,269.89,0.4941457509994507,264.6585998535156,0.16600000858306885,0.0,1
1667337334.02002597,246778490,0,3,249352000,2234,13,0.81,42.6892302,-84.4915944,269.88,0.6430630087852478,269.1980895996094,0.125,0.0,1
1667337334.22014284,246978607,0,3,249352200,2234,13,0.81,42.6892302,-84.4915963,269.85,0.9351546168327332,271.0416259765625,0.17000000178813934,0.0,1
1667337334.42009592,247178560,0,3,249352400,2234,13,0.81,42.6892302,-84.4915987,269.83,1.0804688930511475,273.8740539550781,0.12800000607967377,0.0,1
1667337334.62014294,247378607,0,3,249352600,2234,13,0.81,42.6892304,-84.4916014,269.82,1.110288381576538,276.1008605957031,0.07000000029802322,0.0,1
1667337334.82009196,247578556,0,3,249352800,2234,13,0.81,42.689230599999995,-84.491604,269.82,1.0478039979934692,277.843994140625,0.09400000423192978,0.0,1
1667337335.02013087,247778595,0,3,249353000,2234,13,0.81,42.6892308,-84.4916064,269.81,0.9685995578765869,276.163818359375,0.06200000271201134,0.0,1
1667337335.22010994,247978574,0,3,249353200,2234,13,0.81,42.6892311,-84.4916085,269.8,0.7811997532844543,285.4416809082031,0.08800000697374344,0.0,1
1667337335.40045691,248158921,0,3,249353400,2234,13,0.81,42.6892315,-84.4916101,269.79,0.7070254683494568,294.5713806152344,0.09100000560283661,0.0,1
1667337335.60039902,248358863,0,3,249353600,2234,13,0.81,42.6892321,-84.4916116,269.8,0.622759222984314,301.6737976074219,0.049000002443790436,0.0,1
1667337335.80036783,248558832,0,3,249353800,2234,13,0.81,42.6892328,-84.49161269999999,269.78000000000003,0.6192713975906372,317.4213562011719,0.05700000375509262,0.0,1
1667337336.00028586,248758750,0,3,249354000,2234,13,0.81,42.689233699999996,-84.4916136,269.78000000000003,0.6934530138969421,328.14349365234375,0.04700000211596489,0.0,1
1667337336.20031595,248958780,0,3,249354200,2234,13,0.81,42.6892348,-84.4916144,269.77,0.7339217066764832,334.0633850097656,0.0990000069141388,0.0,1
1667337336.40039301,249158857,0,3,249354400,2234,13,0.81,42.689236,-84.49161509999999,269.74,0.777607262134552,341.4019470214844,0.11100000888109207,0.0,1
1667337336.60039902,249358863,0,3,249354600,2234,13,0.81,42.689237399999996,-84.4916157,269.72,0.8481945991516113,346.5699462890625,0.12700000405311584,0.0,1
1667337336.80043197,249558896,0,3,249354800,2234,13,0.81,42.689239,-84.4916161,269.71,0.8909618854522705,348.4756774902344,0.05700000375509262,0.0,1
1667337337.02010584,249778570,0,3,249355000,2234,13,0.81,42.6892405,-84.4916166,269.71,0.9134665131568909,346.7091979980469,0.05700000375509262,0.0,1
1667337337.20045996,249958924,0,3,249355200,2234,13,0.81,42.689242199999995,-84.4916171,269.72,0.9824444055557251,349.5021667480469,0.15700000524520874,0.0,1
1667337337.40037894,250158843,0,3,249355400,2234,13,0.81,42.689243999999995,-84.4916174,269.7,1.0483591556549072,353.2071533203125,0.10000000149011612,0.0,1
1667337337.60037494,250358839,0,3,249355600,2234,13,0.81,42.689245899999996,-84.4916176,269.71,1.051209807395935,358.8553161621094,0.027000000700354576,0.0,1
1667337337.80037189,250558836,0,3,249355800,2234,13,0.81,42.689247699999996,-84.4916176,269.72,1.030082106590271,0.7231121063232422,0.006000000052154064,0.0,1
1667337338.00039196,250758856,0,3,249356000,2234,13,0.81,42.6892496,-84.4916176,269.69,1.0671199560165405,0.8591037392616272,0.09300000220537186,0.0,1
1667337338.20038891,250958853,0,3,249356200,2234,13,0.81,42.6892515,-84.4916176,269.68,1.044197916984558,357.25543212890625,0.0860000029206276,0.0,1
1667337338.40050983,251158974,0,3,249356400,2234,13,0.81,42.6892533,-84.49161769999999,269.67,1.020357370376587,358.48370361328125,0.07900000363588333,0.0,1
1667337338.60044885,251358913,0,3,249356600,2234,13,0.81,42.6892551,-84.4916179,269.67,1.03375244140625,355.11669921875,0.03500000014901161,0.0,1
1667337338.80045795,251558922,0,3,249356800,2234,13,0.81,42.6892569,-84.49161819999999,269.66,1.0198167562484741,348.4035949707031,0.03700000047683716,0.0,1
1667337339.00043297,251758897,0,3,249357000,2234,13,0.81,42.689258599999995,-84.49161889999999,269.67,1.0103490352630615,341.47540283203125,0.03500000014901161,0.0,1
1667337339.20030189,251958766,0,3,249357200,2234,13,0.81,42.6892603,-84.4916197,269.67,1.0416544675827026,341.5302734375,-0.0430000014603138,0.0,1
1667337339.40031195,252158776,0,3,249357400,2234,13,0.81,42.689262,-84.49162059999999,269.69,1.0655946731567383,338.8775634765625,-0.014000000432133675,0.0,1
1667337339.60041690,252358881,0,3,249357600,2234,13,0.81,42.6892637,-84.4916217,269.69,1.072513461112976,335.896484375,0.017000000923871994,0.0,1
1667337339.80035496,252558819,0,3,249357800,2234,13,0.81,42.6892655,-84.4916228,269.69,1.1019660234451294,335.78411865234375,-0.03100000135600567,0.0,1
1667337340.02008080,252778545,0,3,249358000,2234,13,0.81,42.689267199999996,-84.4916239,269.7,1.0828375816345215,334.3341979980469,0.05900000408291817,0.0,1
1667337340.20043683,252958901,0,3,249358200,2234,13,0.81,42.689268999999996,-84.4916251,269.69,1.102829098701477,333.38848876953125,-0.015000000596046448,0.0,1
1667337340.40043497,253158899,0,3,249358400,2234,13,0.81,42.6892706,-84.4916264,269.71,1.0636776685714722,329.5535888671875,0.0560000017285347,0.0,1
1667337340.60039091,253358855,0,3,249358600,2234,13,0.81,42.6892722,-84.49162779999999,269.68,1.0426280498504639,324.32818603515625,0.02200000174343586,0.0,1
1667337340.80044985,253558914,0,3,249358800,2234,13,0.81,42.6892737,-84.4916293,269.67,1.0132758617401123,323.8312683105469,-0.00800000037997961,0.0,1
1667337341.02008581,253778550,0,3,249359000,2234,13,0.81,42.689275099999996,-84.49163089999999,269.66,1.0070631504058838,314.034423828125,0.04100000113248825,0.0,1
1667337341.20045280,253958917,0,3,249359200,2234,13,0.81,42.689276299999996,-84.4916327,269.64,1.0264990329742432,312.23614501953125,0.0020000000949949026,0.0,1
1667337341.40043998,254158904,0,3,249359400,2234,13,0.81,42.6892776,-84.4916346,269.65,1.0170098543167114,310.0941162109375,0.09600000083446503,0.0,1
1667337341.60038686,254358851,0,3,249359600,2234,13,0.81,42.6892788,-84.4916365,269.63,1.056518793106079,311.9307861328125,-0.04200000315904617,0.0,1
1667337341.80045199,254558916,0,3,249359800,2234,13,0.81,42.6892801,-84.4916385,269.65,1.0807002782821655,311.21087646484375,0.07000000029802322,0.0,1
1667337342.00039291,254758857,0,3,249360000,2234,13,0.81,42.6892813,-84.4916406,269.64,1.140688419342041,306.1566162109375,0.10600000619888306,0.0,1
1667337342.20035100,254958815,0,3,249360200,2234,13,0.81,42.6892825,-84.4916429,269.63,1.1465362310409546,302.4980163574219,0.14300000667572021,0.0,1
1667337342.40031695,255158781,0,3,249360400,2234,13,0.81,42.6892834,-84.4916453,269.63,1.13962984085083,294.13604736328125,0.19500000774860382,0.0,1
1667337342.62007880,255378543,0,3,249360600,2234,13,0.81,42.689284099999995,-84.4916478,269.61,1.048481822013855,284.0760192871094,0.1900000125169754,0.0,1
1667337342.80036283,255558827,0,3,249360800,2234,13,0.81,42.6892844,-84.49165029999999,269.62,1.014484167098999,276.9638977050781,0.0820000022649765,0.0,1
1667337343.00039101,255758855,0,3,249361000,2234,13,0.81,42.6892845,-84.49165289999999,269.62,1.0601528882980347,269.02716064453125,0.19200000166893005,0.0,1
1667337343.20040298,255958867,0,3,249361200,2234,13,0.81,42.6892843,-84.4916555,269.61,1.111863374710083,263.1817932128906,0.10200000554323196,0.0,1
1667337343.40044999,256158914,0,3,249361400,2234,13,0.81,42.6892839,-84.4916583,269.61,1.2194691896438599,255.95236206054688,0.15600000321865082,0.0,1
1667337343.60046101,256358925,0,3,249361600,2234,13,0.81,42.6892832,-84.49166129999999,269.6,1.2830106019973755,249.27670288085938,0.08000000566244125,0.0,1
1667337343.82010698,256578571,0,3,249361800,2234,13,0.81,42.689282299999995,-84.4916643,269.6,1.392744779586792,245.07260131835938,0.13900001347064972,0.0,1
1667337344.02009892,256778563,0,3,249362000,2234,13,0.81,42.689281099999995,-84.49166749999999,269.57,1.506788969039917,241.32583618164062,0.09400000423192978,0.0,1
1667337344.22014189,256978606,0,3,249362200,2234,13,0.81,42.6892797,-84.4916708,269.58,1.6133209466934204,238.12261962890625,0.08700000494718552,0.0,1
1667337344.40046382,257158928,0,3,249362400,2234,13,0.81,42.689278099999996,-84.4916741,269.58,1.6283397674560547,236.57342529296875,0.07800000160932541,0.0,1
1667337344.60040092,257358865,0,3,249362600,2234,13,0.81,42.6892764,-84.4916775,269.56,1.672910451889038,235.39801025390625,0.1510000079870224,0.0,1
1667337344.80040002,257558864,0,3,249362800,2234,13,0.81,42.6892746,-84.4916808,269.54,1.6575623750686646,232.32814025878906,0.11900000274181366,0.0,1
1667337345.00042892,257758893,0,3,249363000,2234,13,0.81,42.6892728,-84.49168399999999,269.52,1.6132179498672485,232.86019897460938,0.15200001001358032,0.0,1
1667337345.20036602,257958830,0,3,249363200,2234,13,0.81,42.689271,-84.4916871,269.49,1.5624804496765137,230.63577270507812,0.15700000524520874,0.0,1
1667337345.40037394,258158838,0,3,249363400,2234,13,0.81,42.6892692,-84.49168999999999,269.48,1.5525838136672974,230.38343811035156,0.20000000298023224,0.0,1
1667337345.60045600,258358920,0,3,249363600,2234,13,0.81,42.6892675,-84.49169289999999,269.47,1.4926637411117554,228.5035400390625,0.164000004529953,0.0,1
1667337345.80043483,258558899,0,3,249363800,2234,13,0.81,42.6892657,-84.4916956,269.44,1.4866288900375366,227.09890747070312,0.09300000220537186,0.0,1
1667337346.00043678,258758901,0,3,249364000,2234,13,0.81,42.6892639,-84.4916983,269.45,1.413394570350647,226.66278076171875,0.0,0.0,1
1667337346.20051384,258958978,0,3,249364200,2234,13,0.81,42.689262299999996,-84.4917005,269.46,1.1689248085021973,225.65855407714844,0.03800000250339508,0.0,1
1667337346.40038395,259158848,0,3,249364400,2234,13,0.81,42.6892609,-84.4917024,269.46,0.9972934126853943,221.6669464111328,0.06300000101327896,0.0,1
1667337346.60041189,259358876,0,3,249364600,2234,13,0.81,42.6892596,-84.49170389999999,269.45,0.8549363017082214,220.921142578125,0.018000001087784767,0.0,1
1667337346.80038285,259558847,0,3,249364800,2234,13,0.81,42.689258599999995,-84.49170509999999,269.45,0.6797094941139221,215.84146118164062,-0.055000003427267075,0.0,1
1667337347.00036788,259758832,0,3,249365000,2234,13,0.81,42.6892576,-84.491706,269.47,0.5827632546424866,207.26856994628906,0.0010000000474974513,0.0,1
1667337347.20038581,259958850,0,3,249365200,2234,13,0.81,42.689256799999995,-84.4917064,269.48,0.4014635682106018,191.7857666015625,0.032999999821186066,0.0,1
1667337347.40041399,260158878,0,3,249365400,2234,13,0.81,42.6892561,-84.49170649999999,269.49,0.38533103466033936,175.23634338378906,0.007000000216066837,0.0,1
1667337347.60044885,260358913,0,3,249365600,2234,13,0.81,42.6892555,-84.4917062,269.5,0.3553730547428131,149.7551727294922,0.03100000135600567,0.0,1
1667337347.80048680,260558951,0,3,249365800,2234,13,0.81,42.689254899999995,-84.4917057,269.5,0.4313560426235199,134.4364471435547,0.11100000888109207,0.0,1
1667337348.00048280,260758947,0,3,249366000,2234,13,0.81,42.689254299999995,-84.4917048,269.48,0.5630009174346924,133.70457458496094,0.04100000113248825,0.0,1
1667337348.20035481,260958819,0,3,249366200,2234,13,0.81,42.6892535,-84.4917037,269.48,0.6986250877380371,130.53012084960938,0.05700000375509262,0.0,1
1667337348.42004490,261178509,0,3,249366400,2234,13,0.81,42.6892527,-84.49170219999999,269.49,0.8425889015197754,117.11244201660156,0.1469999998807907,0.0,1
1667337348.60031796,261358782,0,3,249366600,2234,13,0.81,42.689251899999995,-84.4917004,269.48,0.9233791828155518,122.93282318115234,0.12300000339746475,0.0,1
1667337348.80037284,261558837,0,3,249366800,2234,13,0.81,42.689251,-84.4916985,269.47,1.0126253366470337,121.75948333740234,0.12400000542402267,0.0,1
1667337349.00045395,261758918,0,3,249367000,2234,13,0.81,42.68925,-84.4916963,269.47,1.1762832403182983,121.86597442626953,0.08700000494718552,0.0,1
1667337349.20047998,261958944,0,3,249367200,2234,13,0.81,42.6892487,-84.4916938,269.47,1.2699763774871826,124.86634063720703,0.15600000321865082,0.0,1
1667337349.40040278,262158867,0,3,249367400,2234,13,0.81,42.6892474,-84.4916911,269.48,1.436530590057373,122.31822967529297,0.17100000381469727,0.0,1
1667337349.60044289,262358907,0,3,249367600,2234,13,0.81,42.689245899999996,-84.49168809999999,269.47,1.5687205791473389,124.03447723388672,0.08100000023841858,0.0,1
1667337349.80052686,262558991,0,3,249367800,2234,13,0.81,42.6892442,-84.4916849,269.47,1.7226192951202393,124.71408081054688,0.07500000298023224,0.0,1
1667337350.00037479,262758839,0,3,249368000,2234,13,0.81,42.6892424,-84.49168139999999,269.49,1.769493818283081,123.70802307128906,0.1980000138282776,0.0,1
1667337350.22007990,262978544,0,3,249368200,2234,13,0.81,42.6892406,-84.4916777,269.48,1.853944182395935,121.83830261230469,0.07300000637769699,0.0,1
1667337350.42008400,263178548,0,3,249368400,2234,13,0.81,42.6892387,-84.491674,269.5,1.8411738872528076,124.35465240478516,0.05300000309944153,0.0,1
1667337350.62011385,263378578,0,3,249368600,2234,13,0.81,42.6892369,-84.49167039999999,269.51,1.7503567934036255,123.65375518798828,0.0,0.0,1
1667337350.80044389,263558908,0,3,249368800,2234,13,0.81,42.6892351,-84.49166699999999,269.52,1.6895281076431274,126.16450500488281,0.07200000435113907,0.0,1
1667337351.00044084,263758905,0,3,249369000,2234,13,0.81,42.6892334,-84.491664,269.54,1.389406442642212,127.04309844970703,-0.14100000262260437,0.0,1
1667337351.22014499,263978609,0,3,249369200,2234,13,0.81,42.689232,-84.4916614,269.57,1.2668228149414062,126.52616119384766,-0.1680000126361847,0.0,1
1667337351.40040898,264158873,0,3,249369400,2234,13,0.81,42.689230599999995,-84.49165909999999,269.61,1.2023980617523193,128.9574737548828,-0.27000001072883606,0.0,1
1667337351.62002182,264378486,0,3,249369600,2234,13,0.81,42.6892293,-84.49165699999999,269.67,1.0674006938934326,132.41810607910156,-0.281000018119812,0.0,1
1667337351.82007480,264578539,0,3,249369800,2234,13,0.81,42.6892281,-84.4916552,269.74,0.8867835402488708,129.83038330078125,-0.2930000126361847,0.0,1
1667337352.02007198,264778536,0,3,249370000,2234,13,0.81,42.689226999999995,-84.4916538,269.83,0.8018903136253357,135.50523376464844,-0.2240000069141388,0.0,1
1667337352.22004485,264978509,0,3,249370200,2234,13,0.81,42.6892261,-84.4916526,269.9,0.6586812734603882,136.90708923339844,-0.23400001227855682,0.0,1
1667337352.40039182,265158856,0,3,249370400,2234,13,0.81,42.689225199999996,-84.49165169999999,269.95,0.513256311416626,150.33819580078125,-0.22100001573562622,0.0,1
1667337352.62010384,265378568,0,3,249370600,2234,13,0.81,42.689224499999995,-84.49165119999999,269.99,0.4281179904937744,151.99835205078125,-0.0860000029206276,0.0,1
1667337352.80048490,265558949,0,3,249370800,2234,13,0.81,42.6892238,-84.4916508,270.08,0.4222843050956726,154.76998901367188,-0.27300000190734863,0.0,1
1667337353.02017283,265778637,0,3,249371000,2234,13,0.81,42.6892232,-84.49165049999999,270.16,0.30097511410713196,153.3498077392578,-0.30800002813339233,0.0,1
1667337353.22007585,265978540,0,3,249371200,2234,13,0.81,42.6892226,-84.49165029999999,270.26,0.35842016339302063,163.13232421875,-0.3160000145435333,0.0,1
1667337353.42007399,266178538,0,3,249371400,2234,13,0.81,42.689222,-84.4916501,270.33,0.25484898686408997,171.4247589111328,-0.32100000977516174,0.0,1
1667337353.62008286,266378547,0,3,249371600,2234,13,0.81,42.689221599999996,-84.4916501,270.4,0.19702285528182983,179.12753295898438,-0.23200000822544098,0.0,1
1667337353.82007384,266578538,0,3,249371800,2234,13,0.81,42.6892213,-84.4916501,270.47,0.11395175009965897,169.38034057617188,-0.16500000655651093,0.0,1
1667337354.02009082,266778555,0,3,249372000,2234,13,0.81,42.6892211,-84.4916502,270.52,0.036124784499406815,228.36647033691406,-0.18200001120567322,0.0,1
1667337354.20039892,266958863,0,3,249372200,2234,13,0.81,42.6892211,-84.49165029999999,270.56,0.011313709430396557,315.0,-0.052000001072883606,0.0,1
1667337354.42012000,267178584,0,3,249372400,2234,13,0.81,42.6892211,-84.4916504,270.59000000000003,0.06103277951478958,341.8619079589844,0.00800000037997961,0.0,1
1667337354.62016201,267378626,0,3,249372600,2234,13,0.81,42.6892213,-84.49165049999999,270.59000000000003,0.10259142518043518,349.89495849609375,-0.0010000000474974513,0.0,1
1667337354.82011390,267578578,0,3,249372800,2234,13,0.81,42.689221499999995,-84.49165049999999,270.6,0.142874076962471,15.008913040161133,0.030000001192092896,0.0,1
1667337355.02008295,267778547,0,3,249373000,2234,13,0.81,42.6892218,-84.49165029999999,270.59000000000003,0.2323983758687973,39.23736572265625,0.07500000298023224,0.0,1
1667337355.20044279,267958907,0,3,249373200,2234,13,0.81,42.689222199999996,-84.49164999999999,270.57,0.2505035102367401,19.592281341552734,0.01100000087171793,0.0,1
1667337355.40035486,268158819,0,3,249373400,2234,13,0.81,42.689222699999995,-84.4916497,270.55,0.36688554286956787,28.311330795288086,0.11100000888109207,0.0,1
1667337355.60049081,268358955,0,3,249373600,2234,13,0.81,42.689223399999996,-84.4916494,270.53000000000003,0.3782724142074585,17.38113021850586,0.04800000041723251,0.0,1
1667337355.80043602,268558900,0,3,249373800,2234,13,0.81,42.6892241,-84.491649,270.53000000000003,0.506415843963623,17.111045837402344,0.12600000202655792,0.0,1
1667337356.00035191,268758816,0,3,249374000,2234,13,0.81,42.689225,-84.4916487,270.52,0.48392149806022644,17.3116455078125,0.06100000441074371,0.0,1
1667337356.20040298,268958867,0,3,249374200,2234,13,0.81,42.689225799999996,-84.4916483,270.51,0.4573412537574768,23.31374168395996,0.05700000375509262,0.0,1
1667337356.40039086,269158855,0,3,249374400,2234,13,0.81,42.689226399999995,-84.49164789999999,270.5,0.37677180767059326,20.022083282470703,0.11500000208616257,0.0,1
1667337356.60038781,269358852,0,3,249374600,2234,13,0.81,42.6892272,-84.4916475,270.49,0.5277092456817627,31.280303955078125,0.0860000029206276,0.0,1
1667337356.80036592,269558830,0,3,249374800,2234,13,0.81,42.689228,-84.49164689999999,270.47,0.5261834263801575,28.36712646484375,0.07900000363588333,0.0,1
1667337357.00050592,269758970,0,3,249375000,2234,13,0.81,42.689228799999995,-84.4916463,270.47,0.5214154124259949,31.830663681030273,0.08300000429153442,0.0,1
1667337357.20037293,269958837,0,3,249375200,2234,13,0.81,42.6892296,-84.4916456,270.47,0.5621903538703918,33.831398010253906,0.09800000488758087,0.0,1
1667337357.40040779,270158872,0,3,249375400,2234,13,0.81,42.6892304,-84.4916448,270.46,0.6219236254692078,38.01234436035156,0.1420000046491623,0.0,1
1667337357.60036588,270358830,0,3,249375600,2234,13,0.81,42.689231299999996,-84.4916439,270.46,0.6057433485984802,39.708683013916016,-0.005000000353902578,0.0,1
1667337357.80038691,270558851,0,3,249375800,2234,13,0.81,42.689232,-84.4916428,270.48,0.6236193180084229,57.50766372680664,-0.005000000353902578,0.0,1
1667337358.00033188,270758796,0,3,249376000,2234,13,0.81,42.6892326,-84.4916415,270.5,0.6687077283859253,56.71391677856445,0.03200000151991844,0.0,1
1667337358.20045185,270958916,0,3,249376200,2234,13,0.81,42.6892332,-84.49164019999999,270.5,0.6611512899398804,58.54578399658203,0.01100000087171793,0.0,1
1667337358.42010689,271178571,0,3,249376400,2234,13,0.81,42.6892338,-84.49163879999999,270.52,0.6659083962440491,63.70429611206055,-0.021000001579523087,0.0,1
1667337358.60042381,271358888,0,3,249376600,2234,13,0.81,42.6892342,-84.4916373,270.53000000000003,0.6168054938316345,76.59458923339844,-0.04500000178813934,0.0,1
1667337358.82009602,271578560,0,3,249376800,2234,13,0.81,42.6892345,-84.4916358,270.56,0.6781740188598633,75.30803680419922,0.06000000238418579,0.0,1
1667337359.01997495,271778439,0,3,249377000,2234,13,0.81,42.6892346,-84.4916342,270.58,0.6959317922592163,87.03480529785156,0.08500000089406967,0.0,1
1667337359.20037389,271958838,0,3,249377200,2234,13,0.81,42.6892345,-84.4916326,270.58,0.6456082463264465,96.84981536865234,0.21400001645088196,0.0,1
1667337359.40038800,272158852,0,3,249377400,2234,13,0.81,42.689234299999995,-84.49163109999999,270.55,0.6479761004447937,102.7493896484375,0.22100001573562622,0.0,1
1667337359.60030580,272358770,0,3,249377600,2234,13,0.81,42.689234,-84.4916296,270.52,0.6855844259262085,108.27637481689453,0.31800001859664917,0.0,1
1667337359.82012391,272578588,0,3,249377800,2234,13,0.81,42.6892335,-84.49162799999999,270.48,0.7021823525428772,115.83518981933594,0.3830000162124634,0.0,1
1667337360.02009082,272778555,0,3,249378000,2234,13,0.81,42.6892329,-84.49162659999999,270.42,0.7108621597290039,120.89464569091797,0.4270000159740448,0.0,1
1667337360.22011685,272978581,0,3,249378200,2234,13,0.81,42.6892321,-84.4916253,270.35,0.698017954826355,135.98675537109375,0.3620000183582306,0.0,1
1667337360.40043497,273158899,0,3,249378400,2234,13,0.81,42.689231199999995,-84.4916241,270.26,0.6899927854537964,140.0561981201172,0.44700002670288086,0.0,1
1667337360.62007785,273378542,0,3,249378600,2234,13,0.81,42.689230099999996,-84.49162319999999,270.19,0.7743126153945923,151.11788940429688,0.3630000054836273,0.0,1
1667337360.82014084,273578605,0,3,249378800,2234,13,0.81,42.689229,-84.4916223,270.14,0.6796565651893616,151.62501525878906,0.4000000059604645,0.0,1
1667337361.00041890,273758883,0,3,249379000,2234,13,0.81,42.6892278,-84.4916215,270.06,0.7674405574798584,151.43124389648438,0.3760000169277191,0.0,1
1667337361.22008491,273978549,0,3,249379200,2234,13,0.81,42.6892267,-84.49162059999999,270.01,0.6518067121505737,146.89505004882812,0.3970000147819519,0.0,1
1667337361.42012000,274178584,0,3,249379400,2234,13,0.81,42.6892257,-84.4916197,269.94,0.6745814085006714,145.50897216796875,0.2990000247955322,0.0,1
1667337361.62009788,274378562,0,3,249379600,2234,13,0.81,42.6892248,-84.49161869999999,269.88,0.649917721748352,135.9351043701172,0.3630000054836273,0.0,1
1667337361.80048490,274558949,0,3,249379800,2234,13,0.81,42.689223999999996,-84.4916176,269.84000000000003,0.6302071809768677,133.64984130859375,0.42100003361701965,0.0,1
1667337362.02010584,274778570,0,3,249380000,2234,13,0.81,42.689223299999995,-84.49161649999999,269.74,0.5847606658935547,129.3790283203125,0.44600000977516174,0.0,1
1667337362.22004199,274978506,0,3,249380200,2234,13,0.81,42.689222699999995,-84.4916154,269.65,0.5786622762680054,120.42035675048828,0.4570000171661377,0.0,1
1667337362.42013097,275178595,0,3,249380400,2234,13,0.81,42.689222199999996,-84.4916142,269.56,0.5675324201583862,121.67363739013672,0.5080000162124634,0.0,1
1667337362.62003398,275378498,0,3,249380600,2234,13,0.81,42.6892218,-84.4916128,269.48,0.6577788591384888,99.89192199707031,0.3710000216960907,0.0,1
1667337362.82010293,275578567,0,3,249380800,2234,13,0.81,42.689221599999996,-84.4916113,269.44,0.609370231628418,102.89595031738281,0.2939999997615814,0.0,1
1667337363.02008891,275778553,0,3,249381000,2234,13,0.81,42.6892213,-84.4916099,269.41,0.6502015590667725,99.65064239501953,0.13300000131130219,0.0,1
1667337363.22010589,275978570,0,3,249381200,2234,13,0.81,42.6892212,-84.4916083,269.39,0.6758520603179932,94.2426528930664,0.27800002694129944,0.0,1
1667337363.42010283,276178567,0,3,249381400,2234,13,0.81,42.6892211,-84.4916066,269.36,0.718044638633728,90.63835906982422,0.22300000488758087,0.0,1
1667337363.60043287,276358897,0,3,249381600,2234,13,0.81,42.6892213,-84.49160479999999,269.31,0.7799205780029297,80.8516845703125,0.3500000238418579,0.0,1
1667337363.82014799,276578612,0,3,249381800,2234,13,0.81,42.689221499999995,-84.491603,269.25,0.801526665687561,78.7040786743164,0.34800001978874207,0.0,1
1667337364.02009583,276778560,0,3,249382000,2234,13,0.81,42.6892219,-84.4916011,269.21,0.8722774982452393,72.52058410644531,0.3930000066757202,0.0,1
1667337364.22006297,276978527,0,3,249382200,2234,13,0.81,42.6892223,-84.491599,269.13,0.8665385246276855,77.19866180419922,0.48000001907348633,0.0,1
1667337364.42006397,277178528,0,3,249382400,2234,13,0.81,42.689222699999995,-84.491597,269.03000000000003,0.8546870946884155,72.92191314697266,0.5120000243186951,0.0,1
1667337364.62007284,277378537,0,3,249382600,2234,13,0.81,42.6892231,-84.49159519999999,268.97,0.7457144260406494,77.84620666503906,0.2930000126361847,0.0,1
1667337364.82009697,277578561,0,3,249382800,2234,13,0.81,42.689223399999996,-84.4915935,268.9,0.6678338050842285,77.10826873779297,0.3720000088214874,0.0,1
1667337365.00041389,277758878,0,3,249383000,2234,13,0.81,42.6892236,-84.491592,268.84000000000003,0.5142081379890442,81.83837890625,0.27800002694129944,0.0,1
1667337365.22008395,277978548,0,3,249383200,2234,13,0.81,42.6892237,-84.49159089999999,268.78000000000003,0.40200498700141907,90.28504180908203,0.29500001668930054,0.0,1
1667337365.40038085,278158845,0,3,249383400,2234,13,0.81,42.6892237,-84.4915899,268.74,0.41209831833839417,91.25140380859375,0.24500000476837158,0.0,1
1667337365.60038996,278358854,0,3,249383600,2234,13,0.81,42.6892238,-84.4915889,268.67,0.40244877338409424,80.56108093261719,0.39900001883506775,0.0,1
1667337365.80032396,278558788,0,3,249383800,2234,13,0.81,42.689223999999996,-84.49158779999999,268.61,0.578474760055542,72.59870147705078,0.4000000059604645,0.0,1
1667337366.00044179,278758906,0,3,249384000,2234,13,0.81,42.6892242,-84.49158659999999,268.53000000000003,0.4278048872947693,79.76702117919922,0.5560000538825989,0.0,1
1667337366.20044780,278958912,0,3,249384200,2234,13,0.81,42.6892244,-84.4915855,268.44,0.5370084047317505,70.75526428222656,0.5860000252723694,0.0,1
1667337366.40042996,279158894,0,3,249384400,2234,13,0.81,42.6892248,-84.4915844,268.32,0.47362539172172546,67.0079116821289,0.4570000171661377,0.0,1
1667337366.60046387,279358928,0,3,249384600,2234,13,0.81,42.6892251,-84.4915834,268.24,0.431893527507782,59.991844177246094,0.4520000219345093,0.0,1
1667337366.80040288,279558867,0,3,249384800,2234,13,0.81,42.6892255,-84.4915826,268.15,0.3671512305736542,60.642242431640625,0.43700000643730164,0.0,1
1667337367.00040984,279758874,0,3,249385000,2234,13,0.81,42.689225799999996,-84.49158179999999,268.09000000000003,0.35426121950149536,57.56602096557617,0.40800002217292786,0.0,1
1667337367.20037293,279958837,0,3,249385200,2234,13,0.81,42.6892261,-84.49158129999999,268.0,0.19426271319389343,40.825225830078125,0.3720000088214874,0.0,1
1667337367.40036798,280158832,0,3,249385400,2234,13,0.81,42.689226399999995,-84.4915812,267.93,0.11643023788928986,4.927109718322754,0.39500001072883606,0.0,1
1667337367.62008786,280378552,0,3,249385600,2234,13,0.81,42.6892266,-84.49158129999999,267.87,0.1613071709871292,342.6883544921875,0.5240000486373901,0.0,1
1667337367.80042791,280558892,0,3,249385800,2234,13,0.81,42.6892269,-84.4915814,267.77,0.20806249976158142,335.2825622558594,0.359000027179718,0.0,1
1667337368.00040793,280758872,0,3,249386000,2234,13,0.81,42.6892272,-84.4915815,267.7,0.20566478371620178,9.233322143554688,0.41200003027915955,0.0,1
1667337368.20040298,280958867,0,3,249386200,2234,13,0.81,42.6892275,-84.4915815,267.6,0.07810889929533005,341.3330993652344,0.44600000977516174,0.0,1
1667337368.40034890,281158813,0,3,249386400,2234,13,0.81,42.689227699999996,-84.4915814,267.5,0.25162872672080994,37.73518753051758,0.42600002884864807,0.0,1
1667337368.60035896,281358823,0,3,249386600,2234,13,0.81,42.6892281,-84.49158109999999,267.44,0.21284031867980957,19.201114654541016,0.4690000116825104,0.0,1
1667337368.80036402,281558828,0,3,249386800,2234,13,0.81,42.6892284,-84.4915809,267.36,0.2396351397037506,29.774534225463867,0.453000009059906,0.0,1
1667337369.00031996,281758784,0,3,249387000,2234,13,0.81,42.689228799999995,-84.4915809,267.28000000000003,0.2591061592102051,351.1193542480469,0.35500001907348633,0.0,1
1667337369.20040894,281958873,0,3,249387200,2234,13,0.81,42.6892292,-84.491581,267.23,0.09585406631231308,336.6444396972656,0.12300000339746475,0.0,1
1667337369.40041685,282158881,0,3,249387400,2234,13,0.81,42.689229,-84.491581,267.21,0.2969781458377838,167.5548858642578,0.1120000034570694,0.0,1
1667337369.60050988,282358974,0,3,249387600,2234,13,0.81,42.6892287,-84.4915809,267.19,0.04560701921582222,74.74488067626953,-0.04400000348687172,0.0,1
1667337369.80040383,282558868,0,3,249387800,2234,13,0.81,42.689228899999996,-84.491581,267.19,0.26027870178222656,342.330810546875,0.12700000405311584,0.0,1
1667337370.00036693,282758831,0,3,249388000,2234,13,0.81,42.689229,-84.49158109999999,267.19,0.10500476509332657,160.52969360351562,0.1340000033378601,0.0,1
1667337370.20038891,282958853,0,3,249388200,2234,13,0.81,42.689228799999995,-84.491581,267.17,0.06191122904419899,148.8775177001953,-0.06000000238418579,0.0,1
1667337370.40035796,283158822,0,3,249388400,2234,13,0.81,42.689228799999995,-84.491581,267.18,0.08802273124456406,1.301952600479126,0.10100000351667404,0.0,1
1667337370.60029101,283358755,0,3,249388600,2234,13,0.81,42.689228899999996,-84.491581,267.17,0.06389053910970688,162.699462890625,0.018000001087784767,0.0,1
1667337370.82009292,283578557,0,3,249388800,2234,13,0.81,42.689228899999996,-84.4915809,267.18,0.08338465541601181,22.567007064819336,0.09800000488758087,0.0,1
1667337371.02007079,283778535,0,3,249389000,2234,13,0.81,42.689228899999996,-84.4915809,267.17,0.019026298075914383,93.01277923583984,0.08900000154972076,0.0,1
1667337371.22008300,283978547,0,3,249389200,2234,13,0.81,42.689228899999996,-84.4915809,267.16,0.005656854715198278,135.0,-0.027000000700354576,0.0,1
1667337371.40046883,284158933,0,3,249389400,2234,13,0.81,42.689228899999996,-84.4915808,267.16,0.024413112550973892,145.00796508789062,0.02500000037252903,0.0,1
1667337371.60024786,284358712,0,3,249389600,2234,13,0.81,42.689228799999995,-84.4915809,267.17,0.028792360797524452,339.6768798828125,-0.01900000125169754,0.0,1
1667337371.80036998,284558834,0,3,249389800,2234,13,0.81,42.689228899999996,-84.4915809,267.19,0.035227831453084946,34.59228515625,-0.030000001192092896,0.0,1
1667337372.00030279,284758767,0,3,249390000,2234,13,0.81,42.689228899999996,-84.4915809,267.19,0.007615773472934961,336.8014221191406,-0.017000000923871994,0.0,1
1667337372.20032501,284958789,0,3,249390200,2234,13,0.81,42.689228899999996,-84.4915809,267.2,0.028425343334674835,140.71058654785156,0.009000000543892384,0.0,1
1667337372.40037584,285158840,0,3,249390400,2234,13,0.81,42.689228799999995,-84.4915808,267.21,0.06140033155679703,83.45370483398438,0.09200000762939453,0.0,1
1667337372.60041499,285358879,0,3,249390600,2234,13,0.81,42.689228799999995,-84.4915808,267.22,0.018439089879393578,49.398704528808594,0.08300000429153442,0.0,1
1667337372.80045581,285558920,0,3,249390800,2234,13,0.81,42.6892287,-84.4915808,267.22,0.01077033020555973,201.80142211914062,0.06300000101327896,0.0,1
1667337373.02000189,285778466,0,3,249391000,2234,13,0.81,42.6892287,-84.4915809,267.22,0.013416407629847527,333.4349365234375,0.09000000357627869,0.0,1
1667337373.20040488,285958869,0,3,249391200,2234,13,0.81,42.6892286,-84.4915809,267.22,0.019798990339040756,45.0,0.1340000033378601,0.0,1
1667337373.40032482,286158789,0,3,249391400,2234,13,0.81,42.6892286,-84.4915809,267.24,0.026419691741466522,60.524105072021484,0.07600000500679016,0.0,1
1667337373.60028982,286358754,0,3,249391600,2234,13,0.81,42.6892286,-84.4915809,267.23,0.00412310566753149,255.96377563476562,0.03500000014901161,0.0,1
1667337373.80035782,286558822,0,3,249391800,2234,13,0.81,42.6892285,-84.491581,267.25,0.004000000189989805,180.0,0.0950000062584877,0.0,1
1667337374.00035787,286758822,0,3,249392000,2234,13,0.81,42.6892284,-84.491581,267.25,0.032649654895067215,62.65011978149414,0.11300000548362732,0.0,1
1667337374.20037985,286958844,0,3,249392200,2234,13,0.81,42.6892284,-84.491581,267.24,0.047010637819767,293.8387451171875,0.017000000923871994,0.0,1
1667337374.40040398,287158868,0,3,249392400,2234,13,0.81,42.6892284,-84.49158109999999,267.26,0.03101612627506256,91.84760284423828,0.10200000554323196,0.0,1
1667337374.60042500,287358889,0,3,249392600,2234,13,0.81,42.689228299999996,-84.49158109999999,267.26,0.027802878990769386,37.694236755371094,0.1080000028014183,0.0,1
1667337374.80037189,287558836,0,3,249392800,2234,13,0.81,42.6892284,-84.49158109999999,267.26,0.05685947835445404,23.86017608642578,0.03400000184774399,0.0,1
1667337375.00045681,287758921,0,3,249393000,2234,13,0.81,42.689228299999996,-84.49158109999999,267.26,0.017000000923871994,208.072509765625,-0.04800000041723251,0.0,1
1667337375.20029283,287958757,0,3,249393200,2234,13,0.81,42.689228299999996,-84.49158109999999,267.27,0.06964194774627686,21.03750991821289,0.11900000274181366,0.0,1
1667337375.40036798,288158832,0,3,249393400,2234,13,0.81,42.689228299999996,-84.49158109999999,267.27,0.036769554018974304,202.38014221191406,0.11300000548362732,0.0,1
1667337375.60035586,288358820,0,3,249393600,2234,13,0.81,42.689228199999995,-84.49158109999999,267.28000000000003,0.042201895266771317,13.706960678100586,0.1340000033378601,0.0,1
1667337375.80040097,288558865,0,3,249393800,2234,13,0.81,42.689228199999995,-84.49158109999999,267.28000000000003,0.024351593106985092,199.17901611328125,0.11600000411272049,0.0,1
1667337376.00047684,288758941,0,3,249394000,2234,13,0.81,42.6892281,-84.49158109999999,267.29,0.0573846697807312,67.4569320678711,0.1340000033378601,0.0,1
1667337376.20039201,288958856,0,3,249394200,2234,13,0.81,42.6892281,-84.491581,267.29,0.02088061347603798,106.69923400878906,0.003000000026077032,0.0,1
1667337376.40037990,289158844,0,3,249394400,2234,13,0.81,42.6892281,-84.4915809,267.32,0.06191122904419899,31.122468948364258,0.11400000751018524,0.0,1
1667337376.60034990,289358814,0,3,249394600,2234,13,0.81,42.6892281,-84.4915808,267.31,0.07382411509752274,24.829345703125,0.11600000411272049,0.0,1
1667337376.80035782,289558822,0,3,249394800,2234,13,0.81,42.6892281,-84.4915808,267.3,0.017000000923871994,180.0,0.023000001907348633,0.0,1
1667337377.00036287,289758827,0,3,249395000,2234,13,0.81,42.689228,-84.4915807,267.32,0.03736308589577675,74.47588348388672,0.07000000029802322,0.0,1
1667337377.20035195,289958816,0,3,249395200,2234,13,0.81,42.6892279,-84.4915807,267.31,0.04123105853796005,219.09385681152344,0.09200000762939453,0.0,1
1667337377.40038490,290158849,0,3,249395400,2234,13,0.81,42.689227699999996,-84.4915808,267.33,0.03981206193566322,154.72227478027344,0.04500000178813934,0.0,1
1667337377.60040283,290358867,0,3,249395600,2234,13,0.81,42.689227699999996,-84.4915808,267.34000000000003,0.06224146857857704,313.69805908203125,0.027000000700354576,0.0,1
1667337377.80042887,290558893,0,3,249395800,2234,13,0.81,42.689227599999995,-84.4915808,267.34000000000003,0.020396079868078232,191.3099365234375,-0.03800000250339508,0.0,1
1667337378.00033784,290758802,0,3,249396000,2234,13,0.81,42.6892275,-84.4915808,267.34000000000003,0.012165524996817112,189.4623260498047,0.0650000050663948,0.0,1
1667337378.20030499,290958769,0,3,249396200,2234,13,0.81,42.6892275,-84.4915808,267.33,0.03736308589577675,344.47589111328125,0.07300000637769699,0.0,1
1667337378.40035582,291158820,0,3,249396400,2234,13,0.81,42.6892274,-84.4915808,267.34000000000003,0.050089918076992035,93.43362426757812,0.11400000751018524,0.0,1
1667337378.60043883,291358903,0,3,249396600,2234,13,0.81,42.6892273,-84.49158059999999,267.33,0.027730850502848625,115.64099884033203,0.021000001579523087,0.0,1
1667337378.80036092,291558825,0,3,249396800,2234,13,0.81,42.6892273,-84.49158059999999,267.32,0.012083047069609165,204.4439697265625,0.020000001415610313,0.0,1
1667337379.00046992,291758934,0,3,249397000,2234,13,0.81,42.6892272,-84.4915805,267.32,0.012369317002594471,165.9637451171875,0.14500001072883606,0.0,1
1667337379.20048690,291958951,0,3,249397200,2234,13,0.81,42.6892271,-84.4915805,267.3,0.025455845519900322,315.0,0.06700000166893005,0.0,1
1667337379.40033793,292158802,0,3,249397400,2234,13,0.81,42.6892271,-84.4915805,267.31,0.0070710680447518826,278.1300964355469,0.003000000026077032,0.0,1
1667337379.60040593,292358870,0,3,249397600,2234,13,0.81,42.689226999999995,-84.4915805,267.33,0.011661904864013195,59.0362434387207,0.07200000435113907,0.0,1
1667337379.80032897,292558793,0,3,249397800,2234,13,0.81,42.6892269,-84.49158039999999,267.31,0.00806225836277008,187.12503051757812,0.00800000037997961,0.0,1
1667337380.00036979,292758834,0,3,249398000,2234,13,0.81,42.6892269,-84.49158039999999,267.32,0.02280350960791111,217.87498474121094,0.024000000208616257,0.0,1
1667337380.20036983,292958834,0,3,249398200,2234,13,0.81,42.6892268,-84.49158039999999,267.33,0.0058309524320065975,210.96376037597656,0.09800000488758087,0.0,1
1667337380.40040898,293158873,0,3,249398400,2234,13,0.81,42.6892268,-84.4915803,267.31,0.039115216583013535,355.6012878417969,-0.0010000000474974513,0.0,1
1667337380.62004280,293378507,0,3,249398600,2234,13,0.81,42.6892268,-84.4915803,267.32,0.021095024421811104,354.5596618652344,0.06000000238418579,0.0,1
1667337380.81998897,293578453,0,3,249398800,2234,13,0.81,42.6892267,-84.4915802,267.32,0.03328663483262062,57.264766693115234,0.023000001907348633,0.0,1
1667337381.00038981,293758854,0,3,249399000,2234,13,0.81,42.6892267,-84.4915802,267.33,0.040459856390953064,129.98687744140625,0.02200000174343586,0.0,1
1667337381.20030189,293958766,0,3,249399200,2234,13,0.81,42.6892266,-84.4915801,267.35,0.04101219400763512,45.0,0.04100000113248825,0.0,1
1667337381.40029788,294158762,0,3,249399400,2234,13,0.81,42.6892266,-84.49158,267.35,0.048795491456985474,45.8303108215332,-0.024000000208616257,0.0,1
1667337381.62003994,294378504,0,3,249399600,2234,13,0.81,42.6892266,-84.49157989999999,267.34000000000003,0.02282542549073696,61.18920135498047,-0.05100000277161598,0.0,1
1667337381.80037594,294558840,0,3,249399800,2234,13,0.81,42.6892265,-84.49157989999999,267.33,0.03313608467578888,275.1944274902344,0.023000001907348633,0.0,1
1667337382.02004480,294778509,0,3,249400000,2234,13,0.81,42.6892265,-84.49157989999999,267.33,0.01649242267012596,255.96377563476562,-0.0650000050663948,0.0,1
1667337382.20038700,294958851,0,3,249400200,2234,13,0.81,42.689226399999995,-84.49157989999999,267.32,0.005385165102779865,291.8014221191406,0.015000000596046448,0.0,1
1667337382.40032697,295158791,0,3,249400400,2234,13,0.81,42.689226399999995,-84.49157989999999,267.32,0.015000000596046448,233.13009643554688,0.05000000074505806,0.0,1
1667337382.62007093,295378535,0,3,249400600,2234,13,0.81,42.6892263,-84.49158,267.32,0.02865309827029705,150.7511749267578,0.00800000037997961,0.0,1
1667337382.80028391,295558748,0,3,249400800,2234,13,0.81,42.6892262,-84.49158,267.33,0.005000000353902578,270.0,0.08800000697374344,0.0,1
1667337383.02008200,295778546,0,3,249401000,2234,13,0.81,42.6892262,-84.49158,267.32,0.0382099486887455,47.121097564697266,0.14300000667572021,0.0,1
1667337383.20032787,295958792,0,3,249401200,2234,13,0.81,42.6892262,-84.49157989999999,267.3,0.010049876756966114,264.2894287109375,0.09200000762939453,0.0,1
