timestamp,TimeUS,Lat,Lng,Alt,RelHomeAlt,RelOriginAlt
1667337306.50066686,219259131,42.6891992,-84.49158179999999,265.82000732421875,0.005616798996925354,-1.6743831634521484
1667337306.50080299,219259267,42.6891992,-84.49158179999999,265.82000732421875,0.005616798996925354,-1.6743831634521484
1667337306.54040694,219298871,42.6891993,-84.49158179999999,265.82000732421875,0.005182400345802307,-1.6748175621032715
1667337306.58034086,219338805,42.6891993,-84.4915817,265.82000732421875,0.004823580384254456,-1.6751763820648193
1667337306.60057688,219359041,42.6891993,-84.4915817,265.82000732421875,0.004447951912879944,-1.6755520105361938
1667337306.62035179,219378816,42.6891993,-84.4915817,265.82000732421875,0.004577413201332092,-1.6754225492477417
1667337306.66080594,219419270,42.6891993,-84.4915817,265.82000732421875,0.0040639787912368774,-1.675935983657837
1667337306.70127296,219459737,42.6891993,-84.4915817,265.82000732421875,0.00413765013217926,-1.6758623123168945
1667337306.70137382,219459838,42.6891993,-84.4915817,265.82000732421875,0.00413765013217926,-1.6758623123168945
1667337306.74039984,219498864,42.6891993,-84.4915817,265.82000732421875,0.004281297326087952,-1.6757186651229858
1667337306.78042102,219538885,42.6891993,-84.4915817,265.82000732421875,0.0044524818658828735,-1.675547480583191
1667337306.80092502,219559389,42.6891993,-84.4915817,265.82000732421875,0.00442899763584137,-1.6755709648132324
1667337306.82039595,219578860,42.6891993,-84.4915817,265.82000732421875,0.0042312294244766235,-1.6757687330245972
1667337306.86074686,219619211,42.6891993,-84.4915817,265.82000732421875,0.002527490258216858,-1.677472472190857
1667337306.90085483,219659319,42.6891994,-84.4915817,265.82000732421875,0.0016975551843643188,-1.6783024072647095
1667337306.90096378,219659428,42.6891994,-84.4915817,265.82000732421875,0.0016975551843643188,-1.6783024072647095
1667337306.94037795,219698842,42.6891994,-84.4915817,265.82000732421875,0.0010286718606948853,-1.678971290588379
1667337306.98029089,219738755,42.6891994,-84.4915817,265.82000732421875,0.0004897266626358032,-1.679510235786438
1667337307.00090981,219759374,42.6891994,-84.4915817,265.82000732421875,4.972517490386963e-05,-1.67995023727417
1667337307.02034593,219778810,42.6891994,-84.4915817,265.80999755859375,-3.765523433685303e-05,-1.6800376176834106
1667337307.06075287,219819217,42.6891994,-84.4915817,265.80999755859375,-0.0015404075384140015,-1.6815403699874878
1667337307.10093284,219859397,42.6891994,-84.4915817,265.80999755859375,-0.00235806405544281,-1.6823580265045166
1667337307.10103297,219859497,42.6891994,-84.4915817,265.80999755859375,-0.00235806405544281,-1.6823580265045166
1667337307.14041996,219898884,42.6891994,-84.4915817,265.80999755859375,-0.003085121512413025,-1.6830850839614868
1667337307.18026686,219938731,42.6891994,-84.4915817,265.80999755859375,-0.003768429160118103,-1.683768391609192
1667337307.20098281,219959447,42.6891994,-84.4915817,265.80999755859375,-0.004284724593162537,-1.6842846870422363
1667337307.22068882,219979153,42.6891994,-84.4915817,265.80999755859375,-0.004471287131309509,-1.6844712495803833
1667337307.26072598,220019190,42.6891994,-84.4915817,265.80999755859375,-0.005862817168235779,-1.6858627796173096
1667337307.30094290,220059407,42.6891995,-84.4915817,265.80999755859375,-0.006544336676597595,-1.6865442991256714
1667337307.30101681,220059481,42.6891995,-84.4915817,265.80999755859375,-0.006544336676597595,-1.6865442991256714
1667337307.34033990,220098804,42.6891995,-84.4915817,265.80999755859375,-0.007180437445640564,-1.6871803998947144
1667337307.38042283,220138887,42.6891995,-84.4915817,265.80999755859375,-0.007859691977500916,-1.6878596544265747
1667337307.40089679,220159361,42.6891995,-84.4915817,265.80999755859375,-0.008344873785972595,-1.6883448362350464
1667337307.42031479,220178779,42.6891995,-84.4915817,265.80999755859375,-0.008915171027183533,-1.6889151334762573
1667337307.46068883,220219153,42.6891995,-84.4915817,265.79998779296875,-0.011548623442649841,-1.6915485858917236
1667337307.50102401,220259488,42.6891995,-84.4915817,265.79998779296875,-0.013099774718284607,-1.6930997371673584
1667337307.50109601,220259560,42.6891995,-84.4915817,265.79998779296875,-0.013099774718284607,-1.6930997371673584
1667337307.54036689,220298831,42.6891995,-84.4915817,265.79998779296875,-0.014378651976585388,-1.6943786144256592
1667337307.58035493,220338819,42.6891995,-84.4915817,265.79998779296875,-0.01534329354763031,-1.695343255996704
1667337307.60091090,220359375,42.6891995,-84.4915817,265.79998779296875,-0.015995129942893982,-1.6959950923919678
1667337307.62035298,220378817,42.6891995,-84.4915817,265.79998779296875,-0.016610249876976013,-1.6966102123260498
1667337307.66070700,220419171,42.6891995,-84.4915817,265.79998779296875,-0.01908765733242035,-1.6990876197814941
1667337307.70105481,220459519,42.6891995,-84.4915817,265.7900085449219,-0.02057240903377533,-1.7005723714828491
1667337307.70112586,220459590,42.6891995,-84.4915817,265.7900085449219,-0.02057240903377533,-1.7005723714828491
1667337307.74040389,220498868,42.6891995,-84.4915817,265.7900085449219,-0.02187560498714447,-1.7018755674362183
1667337307.78048897,220538953,42.6891995,-84.4915817,265.7900085449219,-0.02299688756465912,-1.702996850013733
1667337307.80112696,220559591,42.6891995,-84.4915817,265.7900085449219,-0.023719295859336853,-1.7037192583084106
1667337307.82038498,220578849,42.6891995,-84.4915817,265.7900085449219,-0.02442513406276703,-1.7044250965118408
1667337307.86078596,220619250,42.689199599999995,-84.4915817,265.7900085449219,-0.026955589652061462,-1.7069555521011353
1667337307.90083480,220659299,42.689199599999995,-84.4915817,265.7900085449219,-0.028514131903648376,-1.7085140943527222
1667337307.90098596,220659450,42.689199599999995,-84.4915817,265.7900085449219,-0.028514131903648376,-1.7085140943527222
1667337307.94036388,220698828,42.689199599999995,-84.4915817,265.7900085449219,-0.029752954840660095,-1.7097529172897339
1667337307.98039079,220738855,42.689199599999995,-84.4915817,265.7799987792969,-0.03057168424129486,-1.7105716466903687
1667337308.00087500,220759339,42.689199599999995,-84.4915817,265.7799987792969,-0.031092271208763123,-1.711092233657837
1667337308.02041197,220778876,42.689199599999995,-84.4915817,265.7799987792969,-0.031319841742515564,-1.7113198041915894
1667337308.06071997,220819184,42.689199599999995,-84.4915817,265.7799987792969,-0.032965049147605896,-1.7129650115966797
1667337308.10084701,220859311,42.689199599999995,-84.4915817,265.7799987792969,-0.03410111367702484,-1.7141010761260986
1667337308.10095787,220859422,42.689199599999995,-84.4915817,265.7799987792969,-0.03410111367702484,-1.7141010761260986
1667337308.14033699,220898801,42.689199599999995,-84.4915817,265.7799987792969,-0.03506527841091156,-1.7150652408599854
1667337308.18041182,220938876,42.689199599999995,-84.49158179999999,265.7799987792969,-0.03582488000392914,-1.715824842453003
1667337308.20094800,220959412,42.689199599999995,-84.49158179999999,265.7799987792969,-0.03628788888454437,-1.7162878513336182
1667337308.22074986,220979214,42.689199599999995,-84.49158179999999,265.7799987792969,-0.03652237355709076,-1.7165223360061646
1667337308.26072383,221019188,42.689199599999995,-84.49158179999999,265.7799987792969,-0.03769610822200775,-1.7176960706710815
1667337308.30087900,221059343,42.689199599999995,-84.49158179999999,265.7799987792969,-0.03840266168117523,-1.718402624130249
1667337308.30099297,221059457,42.689199599999995,-84.49158179999999,265.7799987792969,-0.03840266168117523,-1.718402624130249
1667337308.34031391,221098778,42.689199699999996,-84.49158179999999,265.7799987792969,-0.03897474706172943,-1.7189747095108032
1667337308.38035583,221138820,42.689199699999996,-84.49158179999999,265.7799987792969,-0.039353713393211365,-1.7193536758422852
1667337308.40103793,221159502,42.689199699999996,-84.49158179999999,265.7799987792969,-0.03956995904445648,-1.7195699214935303
1667337308.42032981,221178794,42.689199699999996,-84.49158179999999,265.7699890136719,-0.04028843343257904,-1.7202883958816528
1667337308.46074891,221219213,42.689199699999996,-84.49158179999999,265.7699890136719,-0.04241131246089935,-1.7224112749099731
1667337308.50092983,221259394,42.689199699999996,-84.49158179999999,265.7699890136719,-0.04381178319454193,-1.7238117456436157
1667337308.50104880,221259513,42.689199699999996,-84.49158179999999,265.7699890136719,-0.04381178319454193,-1.7238117456436157
1667337308.54038095,221298845,42.689199699999996,-84.49158179999999,265.7699890136719,-0.045057401061058044,-1.7250573635101318
1667337308.58032799,221338792,42.689199699999996,-84.49158179999999,265.7699890136719,-0.04613099992275238,-1.7261309623718262
1667337308.60093689,221359401,42.689199699999996,-84.49158179999999,265.7699890136719,-0.04675231873989105,-1.7267522811889648
1667337308.62037897,221378843,42.689199699999996,-84.49158179999999,265.7699890136719,-0.047549352049827576,-1.7275493144989014
1667337308.66071796,221419182,42.689199699999996,-84.49158179999999,265.7699890136719,-0.04984138906002045,-1.7298413515090942
1667337308.70111895,221459583,42.689199699999996,-84.49158179999999,265.7599792480469,-0.051417216658592224,-1.731417179107666
1667337308.70119095,221459655,42.689199699999996,-84.49158179999999,265.7599792480469,-0.051417216658592224,-1.731417179107666
1667337308.74039984,221498864,42.689199699999996,-84.49158179999999,265.7599792480469,-0.052825674414634705,-1.7328256368637085
1667337308.78028893,221538753,42.689199699999996,-84.49158179999999,265.7599792480469,-0.05404685437679291,-1.7340468168258667
1667337308.80091190,221559376,42.689199699999996,-84.49158179999999,265.7599792480469,-0.05473373830318451,-1.7347337007522583
1667337308.82032895,221578793,42.689199699999996,-84.49158179999999,265.7599792480469,-0.055200085043907166,-1.735200047492981
1667337308.86070895,221619173,42.689199699999996,-84.49158179999999,265.7599792480469,-0.056011781096458435,-1.7360117435455322
1667337308.90094090,221659405,42.689199699999996,-84.49158179999999,265.7599792480469,-0.056632861495018005,-1.7366328239440918
1667337308.90106082,221659525,42.689199699999996,-84.49158179999999,265.7599792480469,-0.056632861495018005,-1.7366328239440918
1667337308.94042087,221698885,42.689199699999996,-84.49158179999999,265.7599792480469,-0.05732010304927826,-1.737320065498352
1667337308.98038888,221738853,42.689199699999996,-84.49158179999999,265.7599792480469,-0.0580887645483017,-1.7380887269973755
1667337309.00094295,221759407,42.689199699999996,-84.49158179999999,265.7599792480469,-0.0585017055273056,-1.7385016679763794
1667337309.02027082,221778735,42.689199699999996,-84.49158179999999,265.7599792480469,-0.058825597167015076,-1.7388255596160889
1667337309.06085801,221819322,42.689199699999996,-84.49158179999999,265.7599792480469,-0.05941043794155121,-1.739410400390625
1667337309.10097480,221859439,42.689199699999996,-84.49158179999999,265.75,-0.060018762946128845,-1.7400187253952026
1667337309.10107493,221859539,42.689199699999996,-84.49158179999999,265.75,-0.060018762946128845,-1.7400187253952026
1667337309.14037395,221898838,42.689199699999996,-84.49158179999999,265.75,-0.06051860749721527,-1.740518569946289
1667337309.18032980,221938794,42.689199699999996,-84.49158179999999,265.75,-0.0608200877904892,-1.740820050239563
1667337309.20082879,221959293,42.689199699999996,-84.49158179999999,265.75,-0.06093381345272064,-1.7409337759017944
1667337309.22075582,221979220,42.689199699999996,-84.49158179999999,265.75,-0.0611642450094223,-1.741164207458496
1667337309.26072693,222019191,42.689199699999996,-84.49158179999999,265.75,-0.0614771693944931,-1.741477131843567
1667337309.30108380,222059548,42.689199699999996,-84.49158179999999,265.75,-0.06194649636745453,-1.7419464588165283
1667337309.30115700,222059621,42.689199699999996,-84.49158179999999,265.75,-0.06194649636745453,-1.7419464588165283
1667337309.34034300,222098807,42.689199699999996,-84.49158179999999,265.75,-0.06216047704219818,-1.742160439491272
1667337309.38040781,222138872,42.689199699999996,-84.49158179999999,265.75,-0.06190262734889984,-1.7419025897979736
1667337309.40097880,222159443,42.689199699999996,-84.49158179999999,265.75,-0.06168113648891449,-1.7416810989379883
1667337309.42038584,222178850,42.689199699999996,-84.49158179999999,265.75,-0.06142972409725189,-1.7414296865463257
1667337309.46075892,222219223,42.689199699999996,-84.49158179999999,265.7599792480469,-0.05960606038570404,-1.7396060228347778
1667337309.50082684,222259291,42.689199699999996,-84.49158179999999,265.7599792480469,-0.05859850347042084,-1.7385984659194946
1667337309.50098681,222259451,42.689199699999996,-84.49158179999999,265.7599792480469,-0.05859850347042084,-1.7385984659194946
1667337309.54036784,222298832,42.689199699999996,-84.49158179999999,265.7599792480469,-0.05778871476650238,-1.7377886772155762
1667337309.58046699,222338931,42.689199699999996,-84.49158179999999,265.7599792480469,-0.05719803273677826,-1.737197995185852
1667337309.60092402,222359388,42.689199699999996,-84.49158179999999,265.7599792480469,-0.056758031249046326,-1.7367579936981201
1667337309.62041402,222378878,42.689199699999996,-84.49158179999999,265.7599792480469,-0.05687497556209564,-1.7368749380111694
1667337309.66080499,222419269,42.689199699999996,-84.49158179999999,265.7599792480469,-0.0565095990896225,-1.7365095615386963
1667337309.70099878,222459463,42.689199699999996,-84.49158179999999,265.7599792480469,-0.05650196969509125,-1.736501932144165
1667337309.70112991,222459594,42.689199699999996,-84.49158179999999,265.7599792480469,-0.05650196969509125,-1.736501932144165
1667337309.74033189,222498796,42.6891998,-84.49158179999999,265.7599792480469,-0.05639587342739105,-1.7363958358764648
1667337309.78037786,222538842,42.6891998,-84.49158179999999,265.7599792480469,-0.056101903319358826,-1.7361018657684326
1667337309.80089188,222559356,42.6891998,-84.49158179999999,265.7599792480469,-0.05591295659542084,-1.7359129190444946
1667337309.82042980,222578894,42.6891998,-84.49158179999999,265.7599792480469,-0.05607186257839203,-1.7360718250274658
1667337309.86073995,222619204,42.6891998,-84.49158179999999,265.7599792480469,-0.05596409738063812,-1.735964059829712
1667337309.90101099,222659475,42.6891998,-84.4915819,265.7599792480469,-0.05606769025325775,-1.7360676527023315
1667337309.90117192,222659636,42.6891998,-84.4915819,265.7599792480469,-0.05606769025325775,-1.7360676527023315
1667337309.94032288,222698787,42.6891998,-84.4915819,265.7599792480469,-0.05629836022853851,-1.7362983226776123
1667337309.98040199,222738866,42.6891998,-84.4915819,265.7599792480469,-0.05638037621974945,-1.7363803386688232
1667337310.00088596,222759350,42.6891998,-84.4915819,265.7599792480469,-0.0563424676656723,-1.736342430114746
1667337310.02049494,222778959,42.6891998,-84.4915819,265.7599792480469,-0.05652211606502533,-1.7365220785140991
1667337310.06067896,222819143,42.6891998,-84.4915819,265.7599792480469,-0.0567619651556015,-1.7367619276046753
1667337310.10090184,222859366,42.6891998,-84.4915819,265.7599792480469,-0.057114943861961365,-1.7371149063110352
1667337310.10097384,222859438,42.6891998,-84.4915819,265.7599792480469,-0.057114943861961365,-1.7371149063110352
1667337310.14038491,222898849,42.6891998,-84.4915819,265.7599792480469,-0.05740724503993988,-1.7374072074890137
1667337310.18033481,222938799,42.6891998,-84.4915819,265.7599792480469,-0.05714331567287445,-1.7371432781219482
1667337310.20098901,222959453,42.6891998,-84.4915819,265.7599792480469,-0.05694960057735443,-1.7369495630264282
1667337310.22067499,222979139,42.6891998,-84.4915819,265.7599792480469,-0.056934699416160583,-1.7369346618652344
1667337310.26068401,223019148,42.6891998,-84.4915819,265.7599792480469,-0.0576159805059433,-1.737615942955017
1667337310.30100179,223059466,42.6891998,-84.4915819,265.7599792480469,-0.058114275336265564,-1.7381142377853394
1667337310.30107284,223059537,42.6891998,-84.4915819,265.7599792480469,-0.058114275336265564,-1.7381142377853394
1667337310.34039092,223098855,42.6891998,-84.4915819,265.7599792480469,-0.05856691300868988,-1.7385668754577637
1667337310.38043284,223138897,42.6891998,-84.4915819,265.7599792480469,-0.05915318429470062,-1.7391531467437744
1667337310.40093684,223159401,42.6891998,-84.4915819,265.7599792480469,-0.05930708348751068,-1.7393070459365845
1667337310.42029786,223178762,42.6891998,-84.4915819,265.7599792480469,-0.05967889726161957,-1.7396788597106934
1667337310.46070099,223219165,42.6891998,-84.4915819,265.75,-0.06158052384853363,-1.7415804862976074
1667337310.50097179,223259436,42.6891998,-84.4915819,265.75,-0.06322573125362396,-1.7432256937026978
1667337310.50104284,223259507,42.6891998,-84.4915819,265.75,-0.06322573125362396,-1.7432256937026978
1667337310.54038596,223298850,42.6891998,-84.4915819,265.75,-0.06476448476314545,-1.7447644472122192
1667337310.58033895,223338803,42.6891998,-84.4915819,265.75,-0.06621108949184418,-1.746211051940918
1667337310.60088301,223359347,42.6891998,-84.4915819,265.75,-0.06695292890071869,-1.7469528913497925
1667337310.62030292,223378767,42.6891998,-84.4915819,265.75,-0.06775175034999847,-1.7477517127990723
1667337310.66074181,223419206,42.6891998,-84.4915819,265.75,-0.06982730329036713,-1.749827265739441
1667337310.70103788,223459502,42.6891998,-84.4915819,265.739990234375,-0.07141517102718353,-1.7514151334762573
1667337310.70115089,223459615,42.6891998,-84.4915819,265.739990234375,-0.07141517102718353,-1.7514151334762573
1667337310.74045587,223498920,42.6891999,-84.4915819,265.739990234375,-0.07284246385097504,-1.7528424263000488
1667337310.78036880,223538833,42.6891999,-84.4915819,265.739990234375,-0.07402370870113373,-1.7540236711502075
1667337310.80084586,223559310,42.6891999,-84.4915819,265.739990234375,-0.07460318505764008,-1.7546031475067139
1667337310.82040882,223578873,42.6891999,-84.4915819,265.739990234375,-0.0745299905538559,-1.7545299530029297
1667337310.86071587,223619180,42.6891999,-84.4915819,265.739990234375,-0.07309518754482269,-1.7530951499938965
1667337310.90092587,223659390,42.6891999,-84.4915819,265.739990234375,-0.07235823571681976,-1.7523581981658936
1667337310.90105987,223659524,42.6891999,-84.4915819,265.739990234375,-0.07235823571681976,-1.7523581981658936
1667337310.94035101,223698815,42.6891999,-84.4915819,265.739990234375,-0.07180522382259369,-1.7518051862716675
1667337310.98042679,223738891,42.6891999,-84.4915819,265.739990234375,-0.07155333459377289,-1.7515532970428467
1667337311.00094700,223759411,42.6891999,-84.4915819,265.739990234375,-0.07114802300930023,-1.751147985458374
1667337311.02042294,223778887,42.6891999,-84.4915819,265.739990234375,-0.0704868882894516,-1.7504868507385254
1667337311.06072998,223819194,42.6891999,-84.4915819,265.75,-0.06585262715816498,-1.7458525896072388
1667337311.10093784,223859402,42.6891999,-84.4915819,265.75,-0.06315349042415619,-1.74315345287323
1667337311.10107088,223859535,42.6891999,-84.4915819,265.75,-0.06315349042415619,-1.74315345287323
1667337311.14035797,223898822,42.6891999,-84.4915819,265.75,-0.06084643304347992,-1.7408463954925537
1667337311.18038988,223938854,42.6891999,-84.4915819,265.7599792480469,-0.058790430426597595,-1.7387903928756714
1667337311.20090985,223959374,42.6891999,-84.4915819,265.7599792480469,-0.05758582055568695,-1.7375857830047607
1667337311.22070384,223979168,42.6891999,-84.4915819,265.7599792480469,-0.05655227601528168,-1.7365522384643555
1667337311.26067781,224019142,42.6891999,-84.4915819,265.7599792480469,-0.05183659493923187,-1.7318365573883057
1667337311.30087090,224059335,42.6891999,-84.4915819,265.7699890136719,-0.048950180411338806,-1.7289501428604126
1667337311.30099392,224059458,42.6891999,-84.4915819,265.7699890136719,-0.048950180411338806,-1.7289501428604126
1667337311.34034085,224098805,42.6891999,-84.4915819,265.7699890136719,-0.0463547557592392,-1.726354718208313
1667337311.38037992,224138844,42.6891999,-84.4915819,265.7699890136719,-0.04421339929103851,-1.7242133617401123
1667337311.40091395,224159378,42.6891999,-84.4915819,265.7699890136719,-0.042660459876060486,-1.7226604223251343
1667337311.42040896,224178873,42.6891999,-84.4915819,265.7699890136719,-0.042484626173973083,-1.7224845886230469
1667337311.46076584,224219230,42.6891999,-84.4915819,265.7699890136719,-0.040713176131248474,-1.7207131385803223
1667337311.50092888,224259393,42.6891999,-84.4915819,265.7699890136719,-0.04010842740535736,-1.7201083898544312
1667337311.50101590,224259480,42.6891999,-84.4915819,265.7699890136719,-0.04010842740535736,-1.7201083898544312
1667337311.54035497,224298819,42.6891999,-84.4915819,265.7799987792969,-0.039487823843955994,-1.7194877862930298
1667337311.58044100,224338905,42.6891999,-84.4915819,265.7799987792969,-0.03868876397609711,-1.718688726425171
1667337311.60092878,224359393,42.6891999,-84.4915819,265.7799987792969,-0.03821967542171478,-1.7182196378707886
1667337311.62044692,224378911,42.6891999,-84.491582,265.7799987792969,-0.03801928460597992,-1.7180192470550537
1667337311.66069889,224419163,42.6891999,-84.491582,265.7799987792969,-0.03610621392726898,-1.7161061763763428
1667337311.70094299,224459407,42.6891999,-84.491582,265.7799987792969,-0.03499220311641693,-1.7149921655654907
1667337311.70106387,224459528,42.6891999,-84.491582,265.7799987792969,-0.03499220311641693,-1.7149921655654907
1667337311.74042892,224498893,42.6891999,-84.4915821,265.7799987792969,-0.03399108350276947,-1.7139910459518433
1667337311.78031182,224538776,42.6891999,-84.4915821,265.7799987792969,-0.03291843831539154,-1.7129184007644653
1667337311.80101180,224559476,42.6891999,-84.4915821,265.7799987792969,-0.03218434751033783,-1.7121843099594116
1667337311.82044196,224578906,42.6891999,-84.4915821,265.7799987792969,-0.032909855246543884,-1.7129098176956177
1667337311.86075282,224619217,42.6891999,-84.4915821,265.7799987792969,-0.035045966506004333,-1.7150459289550781
1667337311.90093088,224659395,42.6891999,-84.4915821,265.7799987792969,-0.03685079514980316,-1.716850757598877
1667337311.90104580,224659510,42.6891999,-84.4915821,265.7799987792969,-0.03685079514980316,-1.716850757598877
1667337311.94040179,224698866,42.6892,-84.4915821,265.7799987792969,-0.03854702413082123,-1.718546986579895
1667337311.98038197,224738846,42.6892,-84.4915821,265.7699890136719,-0.0400305837392807,-1.7200305461883545
1667337312.00116682,224759631,42.6892,-84.4915821,265.7699890136719,-0.04083023965358734,-1.7208302021026611
1667337312.02030396,224778768,42.6892,-84.4915821,265.7699890136719,-0.04200302064418793,-1.7220029830932617
1667337312.06069994,224819164,42.6892,-84.4915821,265.7699890136719,-0.04479406774044037,-1.7247940301895142
1667337312.10096884,224859433,42.6892,-84.4915821,265.7699890136719,-0.04678212106227875,-1.7267820835113525
1667337312.10107899,224859543,42.6892,-84.4915821,265.7699890136719,-0.04678212106227875,-1.7267820835113525
1667337312.14047289,224898937,42.6892,-84.4915822,265.7699890136719,-0.048588141798973083,-1.7285881042480469
1667337312.18043184,224938896,42.6892,-84.4915822,265.7599792480469,-0.05028997361660004,-1.7302899360656738
1667337312.20097899,224959443,42.6892,-84.4915822,265.7599792480469,-0.05129788815975189,-1.7312978506088257
1667337312.22072697,224979191,42.6891999,-84.4915822,265.7599792480469,-0.05181978642940521,-1.731819748878479
1667337312.26072001,225019184,42.6891999,-84.4915822,265.7599792480469,-0.05265985429286957,-1.7326598167419434
1667337312.30094695,225059411,42.6891999,-84.4915822,265.7599792480469,-0.053816184401512146,-1.733816146850586
1667337312.30108595,225059550,42.6891999,-84.4915822,265.7599792480469,-0.053816184401512146,-1.733816146850586
1667337312.34043789,225098902,42.6891999,-84.4915822,265.7599792480469,-0.05500410497188568,-1.7350040674209595
1667337312.38046598,225138930,42.6891999,-84.49158229999999,265.7599792480469,-0.0563424676656723,-1.736342430114746
1667337312.40093184,225159396,42.6891999,-84.49158229999999,265.7599792480469,-0.05707941949367523,-1.737079381942749
1667337312.42045188,225178916,42.6891999,-84.49158229999999,265.7599792480469,-0.05845700204372406,-1.7384569644927979
1667337312.46070194,225219166,42.6891999,-84.49158229999999,265.75,-0.06227611005306244,-1.7422760725021362
1667337312.50093699,225259401,42.6891999,-84.49158229999999,265.75,-0.0651078075170517,-1.7451077699661255
1667337312.50109982,225259564,42.6891999,-84.49158229999999,265.75,-0.0651078075170517,-1.7451077699661255
1667337312.54045987,225298924,42.6891999,-84.49158229999999,265.75,-0.06779156625270844,-1.7477915287017822
1667337312.58039498,225338859,42.6891999,-84.49158229999999,265.739990234375,-0.0702572911977768,-1.7502572536468506
1667337312.60085583,225359320,42.6891999,-84.49158229999999,265.739990234375,-0.0716538280248642,-1.751653790473938
1667337312.62039995,225378864,42.6891999,-84.49158229999999,265.739990234375,-0.0726841539144516,-1.7526841163635254
1667337312.66075587,225419220,42.6891999,-84.4915824,265.739990234375,-0.07782386243343353,-1.7578238248825073
1667337312.70092583,225459390,42.6891999,-84.4915824,265.72998046875,-0.08153973519802094,-1.7615396976470947
1667337312.70105886,225459523,42.6891999,-84.4915824,265.72998046875,-0.08153973519802094,-1.7615396976470947
1667337312.74039984,225498864,42.6891999,-84.4915824,265.72998046875,-0.08472739160060883,-1.7647273540496826
1667337312.78042889,225538893,42.6891999,-84.4915824,265.72998046875,-0.08754001557826996,-1.7675399780273438
1667337312.80091691,225559381,42.6891999,-84.4915824,265.72998046875,-0.08907435834407806,-1.7690743207931519
1667337312.82042098,225578885,42.6891999,-84.4915824,265.7200012207031,-0.09012757241725922,-1.770127534866333
1667337312.86078286,225619247,42.6891999,-84.4915824,265.7200012207031,-0.09318481385707855,-1.7731847763061523
1667337312.90094090,225659405,42.6891999,-84.4915824,265.7200012207031,-0.09517191350460052,-1.7751718759536743
1667337312.90104198,225659506,42.6891999,-84.4915824,265.7200012207031,-0.09517191350460052,-1.7751718759536743
1667337312.94030285,225698767,42.6891999,-84.4915824,265.7200012207031,-0.09647844731807709,-1.7764784097671509
1667337312.98035979,225738824,42.6891999,-84.4915824,265.7200012207031,-0.09716056287288666,-1.7771605253219604
1667337313.00099087,225759455,42.6891999,-84.4915824,265.7200012207031,-0.09733282029628754,-1.7773327827453613
1667337313.02051997,225778984,42.6891999,-84.4915824,265.7200012207031,-0.096816286444664,-1.7768162488937378
1667337313.06073785,225819202,42.6891999,-84.4915824,265.7200012207031,-0.09576426446437836,-1.7757642269134521
1667337313.10093784,225859402,42.6891999,-84.4915824,265.7200012207031,-0.09325455129146576,-1.7732545137405396
1667337313.10101700,225859481,42.6891999,-84.4915824,265.7200012207031,-0.09325455129146576,-1.7732545137405396
1667337313.14030790,225898772,42.6891999,-84.4915824,265.72998046875,-0.08941279351711273,-1.7694127559661865
1667337313.18032694,225938791,42.6891999,-84.4915824,265.72998046875,-0.08386717736721039,-1.7638671398162842
1667337313.20095801,225959422,42.6891999,-84.49158229999999,265.72998046875,-0.08064459264278412,-1.760644555091858
1667337313.22066283,225979127,42.6891999,-84.49158229999999,265.739990234375,-0.07623027265071869,-1.7562302350997925
1667337313.26083279,226019297,42.6891999,-84.49158229999999,265.75,-0.06675039231777191,-1.7467503547668457
1667337313.30091786,226059382,42.6891999,-84.4915822,265.7599792480469,-0.05583594739437103,-1.7358359098434448
1667337313.30104589,226059510,42.6891999,-84.4915822,265.7599792480469,-0.05583594739437103,-1.7358359098434448
1667337313.34036994,226098834,42.6891999,-84.4915821,265.7699890136719,-0.0439600795507431,-1.723960041999817
1667337313.38035989,226138824,42.6891999,-84.491582,265.7799987792969,-0.030421242117881775,-1.7104212045669556
1667337313.40100694,226159471,42.6891999,-84.491582,265.7900085449219,-0.023182019591331482,-1.7031819820404053
1667337313.42040682,226178871,42.6891999,-84.491582,265.79998779296875,-0.015034899115562439,-1.6950348615646362
1667337313.46068597,226219150,42.6891999,-84.4915819,265.82000732421875,0.0016231685876846313,-1.6783767938613892
1667337313.50095797,226259422,42.6891999,-84.4915819,265.8299865722656,0.019702211022377014,-1.6602977514266968
1667337313.50107098,226259535,42.6891999,-84.4915819,265.8299865722656,0.019702211022377014,-1.6602977514266968
1667337313.54041290,226298877,42.6891999,-84.49158179999999,265.8500061035156,0.03908671438694,-1.6409132480621338
1667337313.58038688,226338851,42.6891999,-84.49158179999999,265.8699951171875,0.05914057791233063,-1.6208593845367432
1667337313.60095382,226359418,42.6891999,-84.49158179999999,265.8800048828125,0.06992758810520172,-1.610072374343872
1667337313.62036490,226378829,42.6891999,-84.4915817,265.8999938964844,0.08106161653995514,-1.5989383459091187
1667337313.66071296,226419177,42.6891999,-84.49158179999999,265.91998291015625,0.10439039766788483,-1.575609564781189
1667337313.70103097,226459495,42.6891999,-84.49158179999999,265.94000244140625,0.12852145731449127,-1.5514785051345825
1667337313.70110297,226459567,42.6891999,-84.49158179999999,265.94000244140625,0.12852145731449127,-1.5514785051345825
1667337313.74043679,226498901,42.6891999,-84.49158179999999,265.9700012207031,0.15301038324832916,-1.5269895792007446
1667337313.78039980,226538864,42.6891999,-84.49158179999999,265.989990234375,0.17747189104557037,-1.5025280714035034
1667337313.80104589,226559510,42.6891999,-84.49158179999999,266.0,0.18991400301456451,-1.4900859594345093
1667337313.82038379,226578848,42.6891999,-84.49158179999999,266.0199890136719,0.20288659632205963,-1.4771133661270142
1667337313.86071491,226619179,42.6891999,-84.49158179999999,266.0400085449219,0.22986949980258942,-1.4501304626464844
1667337313.90104580,226659510,42.6891999,-84.4915819,266.07000732421875,0.2561049461364746,-1.423895001411438
1667337313.90111685,226659581,42.6891999,-84.4915819,266.07000732421875,0.2561049461364746,-1.423895001411438
1667337313.94048691,226698951,42.6891999,-84.4915819,266.1000061035156,0.2821834087371826,-1.39781653881073
1667337313.98045492,226738919,42.6891999,-84.4915819,266.1199951171875,0.3089940547943115,-1.371005892753601
1667337314.00093794,226759402,42.6891999,-84.491582,266.1399841308594,0.32259035110473633,-1.3574095964431763
1667337314.02038097,226778845,42.6891999,-84.491582,266.1499938964844,0.33504462242126465,-1.344955325126648
1667337314.06070781,226819172,42.6891999,-84.491582,266.17999267578125,0.36076390743255615,-1.3192360401153564
1667337314.10113883,226859603,42.6891999,-84.491582,266.1999816894531,0.38585543632507324,-1.2941445112228394
1667337314.10121489,226859679,42.6891999,-84.491582,266.1999816894531,0.38585543632507324,-1.2941445112228394
1667337314.14043593,226898900,42.6891999,-84.4915821,266.22998046875,0.4107402563095093,-1.2692596912384033
1667337314.18039989,226938864,42.6891999,-84.4915821,266.25,0.4351402521133423,-1.2448596954345703
1667337314.20092702,226959391,42.6891999,-84.4915822,266.2599792480469,0.4468550682067871,-1.2331448793411255
1667337314.22069979,226979164,42.6891999,-84.4915822,266.2699890136719,0.45919692516326904,-1.2208030223846436
1667337314.26082087,227019285,42.6891998,-84.49158229999999,266.29998779296875,0.4847900867462158,-1.1952098608016968
1667337314.30088782,227059352,42.6891998,-84.49158229999999,266.3299865722656,0.51029372215271,-1.1697062253952026
1667337314.30099893,227059463,42.6891998,-84.49158229999999,266.3299865722656,0.51029372215271,-1.1697062253952026
1667337314.34044790,227098912,42.6891998,-84.4915824,266.3500061035156,0.5349756479263306,-1.145024299621582
1667337314.38036799,227138832,42.689199699999996,-84.49158249999999,266.3699951171875,0.5590848922729492,-1.1209150552749634
1667337314.40087891,227159343,42.689199699999996,-84.49158249999999,266.3899841308594,0.5711628198623657,-1.1088371276855469
1667337314.42039680,227178861,42.689199699999996,-84.49158249999999,266.3999938964844,0.5823146104812622,-1.0976853370666504
1667337314.46083498,227219299,42.689199599999995,-84.4915826,266.41998291015625,0.6071501970291138,-1.0728497505187988
1667337314.50090384,227259368,42.689199599999995,-84.4915827,266.44000244140625,0.6297154426574707,-1.050284504890442
1667337314.50101781,227259482,42.689199599999995,-84.4915827,266.44000244140625,0.6297154426574707,-1.050284504890442
1667337314.54030085,227298765,42.689199599999995,-84.49158279999999,266.4700012207031,0.6510908603668213,-1.0289090871810913
1667337314.58037496,227338839,42.6891995,-84.4915829,266.489990234375,0.6706405878067017,-1.009359359741211
1667337314.60094380,227359408,42.6891995,-84.49158299999999,266.5,0.6802330017089844,-0.9997669458389282
1667337314.62048888,227378953,42.6891995,-84.49158299999999,266.5,0.6881838440895081,-0.9918161034584045
1667337314.66077495,227419239,42.6891994,-84.4915831,266.5199890136719,0.7046726942062378,-0.9753272533416748
1667337314.70097184,227459436,42.6891994,-84.4915831,266.5400085449219,0.7204418182373047,-0.9595581293106079
1667337314.70109892,227459563,42.6891994,-84.4915831,266.5400085449219,0.7204418182373047,-0.9595581293106079
1667337314.74031496,227498779,42.6891993,-84.4915832,266.54998779296875,0.735525369644165,-0.9444745779037476
1667337314.78035378,227538818,42.6891993,-84.4915832,266.57000732421875,0.750823974609375,-0.9291759729385376
1667337314.80095601,227559420,42.6891993,-84.4915831,266.57000732421875,0.7582952976226807,-0.9217046499252319
1667337314.82038999,227578854,42.6891993,-84.4915831,266.5799865722656,0.7638810276985168,-0.9161189198493958
1667337314.86071801,227619182,42.6891993,-84.4915832,266.5899963378906,0.7763864398002625,-0.9036135077476501
1667337314.90094495,227659409,42.6891993,-84.4915831,266.6000061035156,0.7879658341407776,-0.892034113407135
1667337314.90105796,227659522,42.6891993,-84.4915831,266.6000061035156,0.7879658341407776,-0.892034113407135
1667337314.94043589,227698900,42.6891993,-84.4915831,266.6099853515625,0.7983160614967346,-0.881683886051178
1667337314.98034286,227738807,42.6891993,-84.49158299999999,266.6199951171875,0.8077752590179443,-0.8722246885299683
1667337315.00101900,227759483,42.6891993,-84.49158299999999,266.6300048828125,0.8124502301216125,-0.8675497174263
1667337315.02039480,227778859,42.6891993,-84.49158299999999,266.6300048828125,0.8162775039672852,-0.8637224435806274
1667337315.06077981,227819244,42.6891993,-84.49158299999999,266.6399841308594,0.8258715271949768,-0.8541284203529358
1667337315.10092282,227859387,42.6891993,-84.4915829,266.6499938964844,0.8350078463554382,-0.8449921011924744
1667337315.10103202,227859496,42.6891993,-84.4915829,266.6499938964844,0.8350078463554382,-0.8449921011924744
1667337315.14037585,227898840,42.6891993,-84.4915829,266.6600036621094,0.8443771004676819,-0.8356228470802307
1667337315.18040800,227938872,42.6891993,-84.4915829,266.66998291015625,0.8548120260238647,-0.8251879215240479
1667337315.20098281,227959447,42.6891993,-84.49158279999999,266.67999267578125,0.8602783679962158,-0.8197215795516968
1667337315.22073793,227979202,42.6891993,-84.49158279999999,266.67999267578125,0.864303708076477,-0.8156962394714355
1667337315.26069784,228019162,42.6891993,-84.49158299999999,266.69000244140625,0.8755607604980469,-0.8044391870498657
1667337315.30096579,228059430,42.6891993,-84.4915831,266.6999816894531,0.8846103549003601,-0.7953895926475525
1667337315.30105901,228059523,42.6891993,-84.4915831,266.6999816894531,0.8846103549003601,-0.7953895926475525
1667337315.34046578,228098930,42.6891993,-84.4915832,266.7099914550781,0.8932523727416992,-0.7867475748062134
1667337315.38039494,228138859,42.6891993,-84.4915833,266.7200012207031,0.9022662043571472,-0.7777337431907654
1667337315.40095091,228159415,42.6891993,-84.4915833,266.7200012207031,0.9071254134178162,-0.7728745341300964
1667337315.42045879,228178923,42.6891992,-84.4915834,266.72998046875,0.9103360772132874,-0.7696638703346252
1667337315.46070194,228219166,42.6891992,-84.49158369999999,266.739990234375,0.921545684337616,-0.7584542632102966
1667337315.50085282,228259317,42.6891992,-84.491584,266.75,0.9304012060165405,-0.7495987415313721
1667337315.50099301,228259457,42.6891992,-84.491584,266.75,0.9304012060165405,-0.7495987415313721
1667337315.54042792,228298892,42.6891992,-84.49158419999999,266.75,0.9393227696418762,-0.7406771779060364
1667337315.58040190,228338866,42.6891992,-84.4915845,266.7599792480469,0.9496362209320068,-0.7303637266159058
1667337315.60097885,228359443,42.6891992,-84.49158469999999,266.7699890136719,0.9554770588874817,-0.7245228886604309
1667337315.62039089,228378855,42.6891992,-84.4915848,266.7699890136719,0.9588711261749268,-0.7211288213729858
1667337315.66071701,228419181,42.689199099999996,-84.4915852,266.7900085449219,0.971294641494751,-0.7087053060531616
1667337315.70098186,228459446,42.689199099999996,-84.4915855,266.79998779296875,0.9805542230606079,-0.6994457244873047
1667337315.70115185,228459616,42.689199099999996,-84.4915855,266.79998779296875,0.9805542230606079,-0.6994457244873047
1667337315.74042392,228498888,42.689198999999995,-84.49158589999999,266.80999755859375,0.9904637932777405,-0.6895361542701721
1667337315.78050995,228538974,42.689198999999995,-84.4915862,266.82000732421875,1.0022038221359253,-0.6777961254119873
1667337315.80087686,228559341,42.689198999999995,-84.4915864,266.82000732421875,1.0088980197906494,-0.6711019277572632
1667337315.82046294,228578927,42.689198999999995,-84.4915865,266.8299865722656,1.0121008157730103,-0.6678991317749023
1667337315.86074686,228619211,42.6891989,-84.4915869,266.8399963378906,1.0243500471115112,-0.6556499600410461
1667337315.90087891,228659343,42.6891988,-84.4915872,266.8500061035156,1.0334076881408691,-0.6465923190116882
1667337315.90098381,228659448,42.6891988,-84.4915872,266.8500061035156,1.0334076881408691,-0.6465923190116882
1667337315.94040990,228698874,42.6891988,-84.4915876,266.8599853515625,1.0424071550369263,-0.6375927925109863
1667337315.98050499,228738969,42.6891988,-84.4915879,266.8699951171875,1.0522613525390625,-0.6277385950088501
1667337316.00086880,228759333,42.6891988,-84.4915881,266.8699951171875,1.0579907894134521,-0.6220092177391052
1667337316.02041578,228778880,42.6891988,-84.49158829999999,266.8800048828125,1.0610893964767456,-0.6189106106758118
1667337316.06079578,228819260,42.6891987,-84.4915886,266.8899841308594,1.0728858709335327,-0.6071141362190247
1667337316.10089183,228859356,42.6891986,-84.4915889,266.8999938964844,1.0809825658798218,-0.5990173816680908
1667337316.10100579,228859470,42.6891986,-84.4915889,266.8999938964844,1.0809825658798218,-0.5990173816680908
1667337316.14035988,228898824,42.689198499999996,-84.49158919999999,266.8999938964844,1.0883934497833252,-0.5916065573692322
1667337316.18036795,228938832,42.689198399999995,-84.49158949999999,266.9100036621094,1.095582365989685,-0.5844176411628723
1667337316.20103097,228959495,42.689198399999995,-84.4915896,266.9100036621094,1.0994967222213745,-0.5805032849311829
1667337316.22062397,228979088,42.6891983,-84.4915898,266.91998291015625,1.1008058786392212,-0.5791941285133362
1667337316.26080084,229019265,42.6891982,-84.49159,266.91998291015625,1.106191635131836,-0.5738083124160767
1667337316.30091596,229059380,42.6891981,-84.49159019999999,266.91998291015625,1.108867883682251,-0.5711321234703064
1667337316.30099487,229059459,42.6891981,-84.49159019999999,266.91998291015625,1.108867883682251,-0.5711321234703064
1667337316.34033179,229098796,42.689198,-84.49159039999999,266.92999267578125,1.1109592914581299,-0.5690406560897827
1667337316.38033986,229138804,42.689197899999996,-84.4915906,266.92999267578125,1.1128389835357666,-0.567160964012146
1667337316.40095282,229159417,42.689197899999996,-84.4915907,266.92999267578125,1.1140869855880737,-0.5659129619598389
1667337316.42038894,229178853,42.689197799999995,-84.4915908,266.92999267578125,1.1131856441497803,-0.5668143630027771
1667337316.46074390,229219208,42.6891977,-84.4915908,266.92999267578125,1.113080382347107,-0.5669195652008057
1667337316.50103498,229259499,42.6891977,-84.491591,266.92999267578125,1.1120253801345825,-0.5679746270179749
1667337316.50110579,229259570,42.6891977,-84.491591,266.92999267578125,1.1120253801345825,-0.5679746270179749
1667337316.54037380,229298838,42.6891976,-84.4915911,266.92999267578125,1.1111727952957153,-0.568827211856842
1667337316.58034897,229338813,42.6891975,-84.4915912,266.92999267578125,1.1112596988677979,-0.5687402486801147
1667337316.60099101,229359455,42.6891975,-84.4915913,266.92999267578125,1.111522912979126,-0.5684770941734314
1667337316.62051988,229378984,42.6891975,-84.4915913,266.92999267578125,1.111043095588684,-0.5689568519592285
1667337316.66072488,229419189,42.6891975,-84.4915913,266.92999267578125,1.113292932510376,-0.5667070746421814
1667337316.70097780,229459442,42.6891975,-84.49159139999999,266.92999267578125,1.1145234107971191,-0.5654765367507935
1667337316.70110583,229459570,42.6891975,-84.49159139999999,266.92999267578125,1.1145234107971191,-0.5654765367507935
1667337316.74046183,229498926,42.6891975,-84.49159139999999,266.92999267578125,1.116661787033081,-0.5633381605148315
1667337316.78035784,229538822,42.6891975,-84.4915915,266.94000244140625,1.120663046836853,-0.5593369603157043
1667337316.80103397,229559498,42.6891975,-84.4915915,266.94000244140625,1.1233232021331787,-0.5566767454147339
1667337316.82039380,229578858,42.6891975,-84.4915915,266.94000244140625,1.1249269247055054,-0.555073082447052
1667337316.86079001,229619254,42.6891976,-84.4915915,266.9499816894531,1.132944941520691,-0.5470550060272217
1667337316.90089679,229659361,42.6891977,-84.4915915,266.9599914550781,1.1402065753936768,-0.5397933721542358
1667337316.90108395,229659548,42.6891977,-84.4915915,266.9599914550781,1.1402065753936768,-0.5397933721542358
1667337316.94038296,229698847,42.689197799999995,-84.4915915,266.9599914550781,1.1488088369369507,-0.5311911702156067
1667337316.98040891,229738873,42.689197799999995,-84.4915915,266.9700012207031,1.1592388153076172,-0.5207611322402954
1667337317.00106692,229759531,42.689197899999996,-84.4915915,266.97998046875,1.1654845476150513,-0.5145154595375061
1667337317.02041388,229778878,42.689197899999996,-84.49159159999999,266.989990234375,1.1701264381408691,-0.5098735690116882
1667337317.06070089,229819165,42.6891981,-84.4915915,267.0,1.185207724571228,-0.49479225277900696
1667337317.10084891,229859313,42.6891982,-84.49159139999999,267.0099792480469,1.1988431215286255,-0.4811568558216095
1667337317.10100579,229859470,42.6891982,-84.49159139999999,267.0099792480469,1.1988431215286255,-0.4811568558216095
1667337317.14047980,229898944,42.6891983,-84.49159139999999,267.0299987792969,1.213379979133606,-0.4666200280189514
1667337317.18040586,229938870,42.689198399999995,-84.49159139999999,267.0400085449219,1.2297784090042114,-0.4502215087413788
1667337317.20096302,229959427,42.689198499999996,-84.49159139999999,267.04998779296875,1.2387783527374268,-0.4412216544151306
1667337317.22078490,229979249,42.689198499999996,-84.49159139999999,267.05999755859375,1.246410608291626,-0.4335893988609314
1667337317.26073098,230019195,42.6891986,-84.4915912,267.0799865722656,1.2660417556762695,-0.41395819187164307
1667337317.30084801,230059312,42.6891988,-84.4915912,267.1000061035156,1.2842622995376587,-0.3957377076148987
1667337317.30105996,230059524,42.6891988,-84.4915912,267.1000061035156,1.2842622995376587,-0.3957377076148987
1667337317.34041286,230098877,42.6891989,-84.4915911,267.1199951171875,1.3025513887405396,-0.37744858860969543
1667337317.38046288,230138927,42.689199099999996,-84.4915911,267.1399841308594,1.3208997249603271,-0.35910025238990784
1667337317.40096378,230159428,42.689199099999996,-84.491591,267.1499938964844,1.330482840538025,-0.3495171368122101
1667337317.42037797,230178842,42.6891992,-84.491591,267.1499938964844,1.3395386934280396,-0.34046125411987305
1667337317.46087289,230219337,42.6891994,-84.4915908,267.17999267578125,1.3616819381713867,-0.31831803917884827
1667337317.50086379,230259328,42.689199599999995,-84.4915907,267.1999816894531,1.3828015327453613,-0.29719841480255127
1667337317.50098586,230259450,42.689199599999995,-84.4915907,267.1999816894531,1.3828015327453613,-0.29719841480255127
1667337317.54035282,230298817,42.689199699999996,-84.4915906,267.2200012207031,1.4042991399765015,-0.27570080757141113
1667337317.58042288,230338887,42.6891999,-84.4915905,267.239990234375,1.426016926765442,-0.2539830505847931
1667337317.60087299,230359337,42.6892,-84.49159039999999,267.25,1.4372988939285278,-0.24270102381706238
1667337317.62042785,230378892,42.6892,-84.49159039999999,267.2599792480469,1.448429822921753,-0.23157012462615967
1667337317.66072989,230419194,42.689200199999995,-84.4915901,267.2900085449219,1.4731816053390503,-0.20681840181350708
1667337317.70102286,230459487,42.6892004,-84.49159,267.30999755859375,1.4966142177581787,-0.18338575959205627
1667337317.70114899,230459613,42.6892004,-84.49159,267.30999755859375,1.4966142177581787,-0.18338575959205627
1667337317.74033880,230498803,42.6892006,-84.4915899,267.3399963378906,1.5209863185882568,-0.15901370346546173
1667337317.78037286,230538837,42.6892007,-84.49158969999999,267.3599853515625,1.5453062057495117,-0.1346936970949173
1667337317.80093980,230559404,42.689200799999995,-84.4915896,267.3699951171875,1.558138132095337,-0.12186188250780106
1667337317.82039785,230578862,42.689200899999996,-84.4915896,267.3899841308594,1.5703977346420288,-0.10960227996110916
1667337317.86077595,230619240,42.689201,-84.4915894,267.4100036621094,1.597745418548584,-0.08225459605455399
1667337317.90092182,230659386,42.6892012,-84.49158919999999,267.44000244140625,1.6236615180969238,-0.05633849650621414
1667337317.90099692,230659461,42.6892012,-84.49158919999999,267.44000244140625,1.6236615180969238,-0.05633849650621414
1667337317.94043493,230698899,42.6892013,-84.4915891,267.4599914550781,1.6493663787841797,-0.03063354641199112
1667337317.98032594,230738790,42.689201499999996,-84.49158899999999,267.489990234375,1.6754485368728638,-0.004551416262984276
1667337318.00096893,230759433,42.6892016,-84.4915889,267.5,1.6887292861938477,0.00872929859906435
1667337318.02041984,230778884,42.6892016,-84.4915889,267.5199890136719,1.7012773752212524,0.02127743326127529
1667337318.06075692,230819221,42.6892018,-84.4915889,267.5400085449219,1.7262359857559204,0.04623597860336304
1667337318.10097098,230859435,42.689201999999995,-84.4915888,267.57000732421875,1.7511941194534302,0.07119414955377579
1667337318.10108280,230859547,42.689201999999995,-84.4915888,267.57000732421875,1.7511941194534302,0.07119414955377579
1667337318.14037490,230898839,42.689202099999996,-84.4915887,267.5899963378906,1.7769242525100708,0.09692425280809402
1667337318.18032789,230938792,42.6892023,-84.4915886,267.6199951171875,1.8034837245941162,0.12348373234272003
1667337318.20092893,230959393,42.6892023,-84.4915886,267.6300048828125,1.8171544075012207,0.1371545046567917
1667337318.22070885,230979173,42.6892024,-84.4915886,267.6399841308594,1.8299200534820557,0.1499200314283371
1667337318.26072001,231019184,42.6892025,-84.49158849999999,267.66998291015625,1.8581641912460327,0.17816418409347534
1667337318.30115080,231059615,42.6892026,-84.4915884,267.6999816894531,1.8855600357055664,0.20556005835533142
1667337318.30125380,231059718,42.6892026,-84.4915884,267.6999816894531,1.8855600357055664,0.20556005835533142
1667337318.34045386,231098918,42.6892028,-84.4915884,267.72998046875,1.9123167991638184,0.23231688141822815
1667337318.38040090,231138865,42.6892029,-84.49158829999999,267.75,1.938969373703003,0.25896942615509033
1667337318.40098786,231159452,42.689203,-84.49158829999999,267.7699890136719,1.9529566764831543,0.2729566693305969
1667337318.42035985,231178824,42.689203,-84.49158829999999,267.7799987792969,1.965424656867981,0.2854246497154236
1667337318.46076298,231219227,42.6892031,-84.49158829999999,267.80999755859375,1.9937899112701416,0.313789963722229
1667337318.50091791,231259382,42.6892032,-84.4915882,267.8399963378906,2.0206689834594727,0.3406691253185272
1667337318.50105691,231259521,42.6892032,-84.4915882,267.8399963378906,2.0206689834594727,0.3406691253185272
1667337318.54043984,231298904,42.689203299999996,-84.4915882,267.8599853515625,2.047682762145996,0.36768287420272827
1667337318.58045983,231338924,42.6892035,-84.4915881,267.8899841308594,2.07484769821167,0.3948478102684021
1667337318.60092878,231359393,42.6892035,-84.4915881,267.8999938964844,2.088528633117676,0.408528596162796
1667337318.62043595,231378900,42.6892036,-84.4915881,267.91998291015625,2.1010942459106445,0.42109426856040955
1667337318.66073489,231419199,42.6892037,-84.4915881,267.94000244140625,2.128990888595581,0.4489908218383789
1667337318.70095301,231459417,42.6892038,-84.491588,267.9700012207031,2.1548335552215576,0.4748336970806122
1667337318.70109391,231459558,42.6892038,-84.491588,267.9700012207031,2.1548335552215576,0.4748336970806122
1667337318.74037600,231498840,42.689203899999995,-84.491588,268.0,2.1810038089752197,0.5010038018226624
1667337318.78042483,231538889,42.689204,-84.4915879,268.0199890136719,2.2070279121398926,0.52702796459198
1667337318.80096197,231559426,42.6892041,-84.4915879,268.0400085449219,2.220383644104004,0.5403837561607361
1667337318.82043099,231578895,42.6892041,-84.4915879,268.04998779296875,2.2321434020996094,0.5521433353424072
1667337318.86071801,231619182,42.6892043,-84.4915879,268.07000732421875,2.2582194805145264,0.5782195329666138
1667337318.90089798,231659362,42.6892044,-84.49158779999999,268.1000061035156,2.2831077575683594,0.6031078100204468
1667337318.90102291,231659487,42.6892044,-84.49158779999999,268.1000061035156,2.2831077575683594,0.6031078100204468
1667337318.94039297,231698857,42.689204499999995,-84.49158779999999,268.1199951171875,2.308150053024292,0.6281499862670898
1667337318.98043585,231738900,42.6892047,-84.4915877,268.1499938964844,2.333143711090088,0.6531437635421753
1667337319.00091600,231759380,42.6892047,-84.4915877,268.1600036621094,2.345911741256714,0.665911853313446
1667337319.02087092,231779335,42.6892048,-84.4915877,268.16998291015625,2.356163263320923,0.6761633157730103
1667337319.06080699,231819271,42.6892049,-84.4915877,268.19000244140625,2.3768646717071533,0.6968647837638855
1667337319.10081291,231859277,42.689205099999995,-84.4915877,268.2099914550781,2.3969368934631348,0.7169370055198669
1667337319.10093284,231859397,42.689205099999995,-84.4915877,268.2099914550781,2.3969368934631348,0.7169370055198669
1667337319.14047885,231898943,42.689205199999996,-84.4915877,268.22998046875,2.416455030441284,0.7364551424980164
1667337319.18040395,231938868,42.6892053,-84.4915877,268.25,2.4362826347351074,0.75628262758255
1667337319.20093179,231959396,42.6892054,-84.4915877,268.2599792480469,2.4460670948028564,0.7660671472549438
1667337319.22064281,231979107,42.6892055,-84.4915877,268.2699890136719,2.4552090167999268,0.7752089500427246
1667337319.26079082,232019255,42.6892056,-84.49158779999999,268.2900085449219,2.473649263381958,0.7936493158340454
1667337319.30092692,232059391,42.689205699999995,-84.4915879,268.30999755859375,2.490962266921997,0.8109622597694397
1667337319.30104280,232059507,42.689205699999995,-84.4915879,268.30999755859375,2.490962266921997,0.8109622597694397
1667337319.34032583,232098790,42.689205799999996,-84.4915879,268.32000732421875,2.5078959465026855,0.827895998954773
1667337319.38045502,232138919,42.6892059,-84.491588,268.3399963378906,2.5243141651153564,0.8443142771720886
1667337319.40091085,232159375,42.689206,-84.491588,268.3500061035156,2.5321664810180664,0.8521665334701538
1667337319.42034888,232178813,42.689206,-84.491588,268.3500061035156,2.53913950920105,0.8591395020484924
1667337319.46069598,232219160,42.6892061,-84.4915881,268.3699951171875,2.5544867515563965,0.8744866847991943
1667337319.50091791,232259382,42.6892062,-84.4915882,268.3800048828125,2.568645715713501,0.8886457681655884
1667337319.50103188,232259496,42.6892062,-84.4915882,268.3800048828125,2.568645715713501,0.8886457681655884
1667337319.54047084,232298935,42.689206299999995,-84.4915882,268.3999938964844,2.582476854324341,0.9024768471717834
1667337319.58031797,232338782,42.689206399999996,-84.49158829999999,268.4100036621094,2.5967772006988525,0.9167771339416504
1667337319.60092592,232359390,42.6892065,-84.49158829999999,268.41998291015625,2.6038835048675537,0.9238834977149963
1667337319.62040281,232378867,42.6892065,-84.4915884,268.41998291015625,2.6097331047058105,0.9297330975532532
1667337319.66073895,232419203,42.6892066,-84.4915884,268.44000244140625,2.623311996459961,0.9433121085166931
1667337319.70108700,232459551,42.6892067,-84.49158849999999,268.4499816894531,2.635141611099243,0.9551417231559753
1667337319.70119500,232459659,42.6892067,-84.49158849999999,268.4499816894531,2.635141611099243,0.9551417231559753
1667337319.74044299,232498907,42.689206899999995,-84.4915886,268.4599914550781,2.646981954574585,0.9669819474220276
1667337319.78036690,232538831,42.689206999999996,-84.4915886,268.4700012207031,2.659142255783081,0.9791422486305237
1667337319.80097985,232559444,42.689206999999996,-84.4915887,268.47998046875,2.6655030250549316,0.9855029582977295
1667337319.82033992,232578804,42.6892071,-84.4915887,268.489990234375,2.6706223487854004,0.9906224012374878
1667337319.86072493,232619189,42.6892072,-84.4915887,268.5,2.6824839115142822,1.00248384475708
1667337319.90091181,232659376,42.6892073,-84.4915888,268.5099792480469,2.692948818206787,1.0129488706588745
1667337319.90107393,232659538,42.6892073,-84.4915888,268.5099792480469,2.692948818206787,1.0129488706588745
1667337319.94035888,232698823,42.6892074,-84.4915888,268.5199890136719,2.7031781673431396,1.0231781005859375
1667337319.98043680,232738901,42.689207499999995,-84.4915888,268.5299987792969,2.7134673595428467,1.033467411994934
1667337320.00091600,232759380,42.689207599999996,-84.4915888,268.5299987792969,2.7189090251922607,1.0389090776443481
1667337320.02073097,232779195,42.689207599999996,-84.4915888,268.5400085449219,2.723020315170288,1.043020248413086
1667337320.06077194,232819236,42.6892077,-84.4915888,268.54998779296875,2.731534242630005,1.0515341758728027
1667337320.10093999,232859404,42.6892078,-84.4915888,268.54998779296875,2.7388498783111572,1.058849811553955
1667337320.10107589,232859540,42.6892078,-84.4915888,268.54998779296875,2.7388498783111572,1.058849811553955
1667337320.14039493,232898859,42.6892079,-84.4915888,268.55999755859375,2.746272325515747,1.066272258758545
1667337320.18039799,232938862,42.689208,-84.4915887,268.57000732421875,2.7541983127593994,1.0741983652114868
1667337320.20094681,232959411,42.689208099999995,-84.4915887,268.57000732421875,2.758147716522217,1.0781476497650146
1667337320.22080088,232979265,42.689208099999995,-84.4915887,268.5799865722656,2.7607972621917725,1.0807971954345703
1667337320.26073194,233019196,42.689208199999996,-84.4915886,268.5799865722656,2.7676639556884766,1.0876638889312744
1667337320.30091000,233059374,42.6892083,-84.4915886,268.5899963378906,2.7733895778656006,1.0933895111083984
1667337320.30110383,233059568,42.6892083,-84.4915886,268.5899963378906,2.7733895778656006,1.0933895111083984
1667337320.34036088,233098825,42.6892084,-84.49158849999999,268.5899963378906,2.77915096282959,1.0991508960723877
1667337320.38041997,233138884,42.6892085,-84.49158849999999,268.6000061035156,2.785522222518921,1.1055221557617188
1667337320.40115690,233159621,42.6892085,-84.4915884,268.6000061035156,2.7888691425323486,1.108869194984436
1667337320.42040992,233178874,42.6892085,-84.4915884,268.6099853515625,2.791227102279663,1.1112271547317505
1667337320.46076393,233219228,42.6892086,-84.49158829999999,268.6099853515625,2.7972147464752197,1.1172147989273071
1667337320.50085998,233259324,42.689208799999996,-84.4915882,268.6199951171875,2.802265167236328,1.1222652196884155
1667337320.50093484,233259399,42.689208799999996,-84.4915882,268.6199951171875,2.802265167236328,1.1222652196884155
1667337320.54039097,233298855,42.6892089,-84.4915881,268.6199951171875,2.806624412536621,1.1266244649887085
1667337320.58042693,233338891,42.689209,-84.491588,268.6300048828125,2.8104591369628906,1.130459189414978
1667337320.60089993,233359364,42.689209,-84.4915879,268.6300048828125,2.812317371368408,1.132317304611206
1667337320.62045193,233378916,42.6892091,-84.49158779999999,268.6300048828125,2.813591718673706,1.133591651916504
1667337320.66067791,233419142,42.6892092,-84.4915877,268.6300048828125,2.816920757293701,1.136920690536499
1667337320.70097089,233459435,42.689209399999996,-84.4915876,268.6300048828125,2.8193910121917725,1.1393910646438599
1667337320.70109987,233459564,42.689209399999996,-84.4915876,268.6300048828125,2.8193910121917725,1.1393910646438599
1667337320.74046087,233498925,42.6892096,-84.4915875,268.6399841308594,2.8211214542388916,1.141121506690979
1667337320.78039598,233538860,42.6892097,-84.49158729999999,268.6399841308594,2.8218417167663574,1.1418416500091553
1667337320.80094886,233559413,42.6892098,-84.4915872,268.6399841308594,2.8220064640045166,1.1420063972473145
1667337320.82054591,233579010,42.6892099,-84.49158709999999,268.6399841308594,2.8221616744995117,1.1421616077423096
1667337320.86071801,233619182,42.6892101,-84.491587,268.6399841308594,2.821725368499756,1.1417254209518433
1667337320.90095401,233659418,42.6892103,-84.4915869,268.6399841308594,2.821244716644287,1.141244649887085
1667337320.90105581,233659520,42.6892103,-84.4915869,268.6399841308594,2.821244716644287,1.141244649887085
1667337320.94033599,233698800,42.6892105,-84.4915867,268.6399841308594,2.8208961486816406,1.140896201133728
1667337320.98039198,233738856,42.6892107,-84.4915865,268.6399841308594,2.820854902267456,1.1408549547195435
1667337321.00104380,233759508,42.6892108,-84.4915864,268.6399841308594,2.820829391479492,1.14082932472229
1667337321.02039480,233778859,42.6892109,-84.4915863,268.6399841308594,2.8207647800445557,1.1407647132873535
1667337321.06071591,233819180,42.689211199999995,-84.4915862,268.6399841308594,2.821998357772827,1.141998291015625
1667337321.10092497,233859389,42.6892115,-84.49158609999999,268.6399841308594,2.8230226039886475,1.1430225372314453
1667337321.10101390,233859478,42.6892115,-84.49158609999999,268.6399841308594,2.8230226039886475,1.1430225372314453
1667337321.14041281,233898877,42.6892117,-84.491586,268.6399841308594,2.824415922164917,1.1444158554077148
1667337321.18035793,233938822,42.689212,-84.4915858,268.6399841308594,2.826385498046875,1.1463854312896729
1667337321.20092487,233959389,42.6892121,-84.4915857,268.6399841308594,2.8275701999664307,1.1475701332092285
1667337321.22065997,233979124,42.6892123,-84.4915856,268.6399841308594,2.828225612640381,1.1482255458831787
1667337321.26073098,234019195,42.6892126,-84.4915856,268.6399841308594,2.8290278911590576,1.1490278244018555
1667337321.30095983,234059424,42.6892129,-84.4915855,268.6399841308594,2.8293607234954834,1.1493606567382812
1667337321.30107594,234059540,42.6892129,-84.4915855,268.6399841308594,2.8293607234954834,1.1493606567382812
1667337321.34039593,234098860,42.6892132,-84.49158539999999,268.6399841308594,2.829869270324707,1.1498693227767944
1667337321.38037992,234138844,42.689213599999995,-84.4915853,268.6499938964844,2.830954074859619,1.150954008102417
1667337321.40092301,234159387,42.689213699999996,-84.4915853,268.6499938964844,2.8314807415008545,1.1514806747436523
1667337321.42028999,234178754,42.6892139,-84.4915852,268.6499938964844,2.8316009044647217,1.1516008377075195
1667337321.46072388,234219188,42.6892144,-84.4915853,268.6499938964844,2.8329405784606934,1.1529406309127808
1667337321.50099897,234259463,42.689214799999995,-84.4915853,268.6499938964844,2.8337225914001465,1.1537226438522339
1667337321.50107098,234259535,42.689214799999995,-84.4915853,268.6499938964844,2.8337225914001465,1.1537226438522339
