timestamp,TimeUS,C,Q1,Q2,Q3,Q4
1667337306.49965286,219258117,1,0.99198317527771,-0.018800534307956696,0.007185541559010744,-0.1247570663690567
1667337306.53966284,219298127,1,0.9919818043708801,-0.018803345039486885,0.0072039710357785225,-0.12476612627506256
1667337306.57965779,219338122,1,0.9919857382774353,-0.0188177227973938,0.007190884556621313,-0.12473341077566147
1667337306.59966993,219358134,1,0.9919857978820801,-0.018811773508787155,0.0072009689174592495,-0.12473370134830475
1667337306.61966991,219378134,1,0.9919862747192383,-0.01881399378180504,0.007202065549790859,-0.124729223549366
1667337306.65970683,219418171,1,0.9919860363006592,-0.01878717541694641,0.007186434231698513,-0.12473613768815994
1667337306.69967389,219458138,1,0.9919881820678711,-0.018765348941087723,0.007175830192863941,-0.12472307682037354
1667337306.73968983,219498154,1,0.991997480392456,-0.018775699660182,0.007163764908909798,-0.12464819848537445
1667337306.77966881,219538133,1,0.9920088052749634,-0.018779415637254715,0.0071440511383116245,-0.12455853074789047
1667337306.79971194,219558176,1,0.9920132160186768,-0.018776066601276398,0.0071434383280575275,-0.12452394515275955
1667337306.81967998,219578144,1,0.992020308971405,-0.018787043169140816,0.007145899347960949,-0.12446581572294235
1667337306.85970592,219618170,1,0.9920305609703064,-0.01879204995930195,0.007133571431040764,-0.12438374012708664
1667337306.89969802,219658162,1,0.9920445680618286,-0.01878407597541809,0.007136241067200899,-0.12427296489477158
1667337306.93967700,219698141,1,0.9920579791069031,-0.018780341371893883,0.007127147167921066,-0.12416686117649078
1667337306.97966599,219738130,1,0.9920681118965149,-0.018775716423988342,0.0071215699426829815,-0.12408705800771713
1667337306.99970484,219758169,1,0.9920742511749268,-0.018788158893585205,0.007126908283680677,-0.12403601408004761
1667337307.01966381,219778128,1,0.9920802712440491,-0.018779350444674492,0.007123345509171486,-0.12398935854434967
1667337307.05969596,219818160,1,0.992089033126831,-0.01877257041633129,0.007115585263818502,-0.123920738697052
1667337307.09967184,219858136,1,0.992102324962616,-0.018791809678077698,0.007093062624335289,-0.12381234765052795
1667337307.13970900,219898173,1,0.992117166519165,-0.018793702125549316,0.007058373186737299,-0.12369539588689804
1667337307.17963600,219938100,1,0.9921307563781738,-0.018793899565935135,0.007063733879476786,-0.12358561903238297
1667337307.19969487,219958159,1,0.9921364188194275,-0.01880544237792492,0.00706816278398037,-0.12353858351707458
1667337307.21966887,219978133,1,0.9921423196792603,-0.018812568858265877,0.007063581142574549,-0.12348992377519608
1667337307.25966287,220018127,1,0.9921520948410034,-0.018812786787748337,0.007059785537421703,-0.12341183423995972
1667337307.29970288,220058167,1,0.9921615123748779,-0.018809452652931213,0.007064526900649071,-0.12333633750677109
1667337307.33972192,220098186,1,0.992169201374054,-0.018800800666213036,0.007068869657814503,-0.12327537685632706
1667337307.37969780,220138162,1,0.9921770095825195,-0.0187987070530653,0.007055182475596666,-0.12321346998214722
1667337307.39969993,220158164,1,0.9921783804893494,-0.018805447965860367,0.0070565263740718365,-0.12320169061422348
1667337307.41963601,220178100,1,0.9921815991401672,-0.018802328035235405,0.007054104004055262,-0.12317615002393723
1667337307.45966697,220218131,1,0.9921875,-0.018834084272384644,0.007035303395241499,-0.12312506884336472
1667337307.49969792,220258162,1,0.9921897053718567,-0.018834194168448448,0.007057740353047848,-0.12310594320297241
1667337307.53969288,220298157,1,0.992192804813385,-0.018823975697159767,0.007055534515529871,-0.12308259308338165
1667337307.57971001,220338174,1,0.9921915531158447,-0.018828772008419037,0.007047762628644705,-0.1230924054980278
1667337307.59965682,220358121,1,0.9921931028366089,-0.018831660971045494,0.007069427520036697,-0.12307810038328171
1667337307.61967492,220378139,1,0.992193341255188,-0.018825799226760864,0.007076812908053398,-0.1230769082903862
1667337307.65967488,220418139,1,0.9921954274177551,-0.018831491470336914,0.007081039249897003,-0.12305895984172821
1667337307.69967079,220458135,1,0.9921958446502686,-0.018838686868548393,0.007073443382978439,-0.12305478006601334
1667337307.73969579,220498160,1,0.9921995997428894,-0.018827728927135468,0.007069536950439215,-0.12302622944116592
1667337307.77968884,220538153,1,0.9922037124633789,-0.01881767250597477,0.007057536859065294,-0.12299551069736481
1667337307.79967189,220558136,1,0.9922057390213013,-0.018818125128746033,0.007063357159495354,-0.12297869473695755
1667337307.81971598,220578180,1,0.9922075271606445,-0.01880735717713833,0.007053299341350794,-0.12296643108129501
1667337307.85967588,220618140,1,0.992209792137146,-0.01881582848727703,0.007020922377705574,-0.12294884771108627
1667337307.89966393,220658128,1,0.9922134876251221,-0.018833214417099953,0.007017451338469982,-0.12291635572910309
1667337307.93966579,220698130,1,0.9922179579734802,-0.01882876455783844,0.007021220400929451,-0.12288061529397964
1667337307.97969699,220738161,1,0.9922225475311279,-0.01884116418659687,0.007016696967184544,-0.12284233421087265
1667337307.99964190,220758106,1,0.9922231435775757,-0.018841762095689774,0.007021366152912378,-0.12283715605735779
1667337308.01965380,220778118,1,0.9922250509262085,-0.01883886009454727,0.007020830642431974,-0.12282184511423111
1667337308.05970502,220818169,1,0.9922288656234741,-0.018828963860869408,0.007043854333460331,-0.12279120832681656
1667337308.09963489,220858099,1,0.9922307133674622,-0.018825026229023933,0.00705659668892622,-0.12277638167142868
1667337308.13966298,220898127,1,0.992232084274292,-0.01882988214492798,0.007056530565023422,-0.12276451289653778
1667337308.17966890,220938133,1,0.9922329187393188,-0.018837545067071915,0.0070600202307105064,-0.1227564811706543
1667337308.19967198,220958136,1,0.9922343492507935,-0.018827229738235474,0.007065446116030216,-0.12274615466594696
1667337308.21969795,220978162,1,0.9922348260879517,-0.01880788430571556,0.007072273641824722,-0.12274491041898727
1667337308.25971794,221018182,1,0.9922365546226501,-0.018799463286995888,0.00707651674747467,-0.12273185700178146
1667337308.29969096,221058155,1,0.9922390580177307,-0.018812356516718864,0.007107960060238838,-0.12270764261484146
1667337308.33963490,221098099,1,0.9922422766685486,-0.0188191756606102,0.007119137793779373,-0.1226799339056015
1667337308.37964702,221138111,1,0.9922444820404053,-0.01883159577846527,0.007113154046237469,-0.12266059964895248
1667337308.39974689,221158211,1,0.9922449588775635,-0.018840773031115532,0.007116060703992844,-0.12265537679195404
1667337308.41964102,221178105,1,0.9922451376914978,-0.018843205645680428,0.007115512154996395,-0.12265373021364212
1667337308.45969296,221218157,1,0.9922466278076172,-0.018836118280887604,0.007153681013733149,-0.12264011055231094
1667337308.49971890,221258183,1,0.9922483563423157,-0.018827077001333237,0.0071634650230407715,-0.12262696772813797
1667337308.53967690,221298141,1,0.9922489523887634,-0.018828077241778374,0.0071565513499081135,-0.12262281775474548
1667337308.57965899,221338123,1,0.9922488331794739,-0.018827591091394424,0.00714757340028882,-0.12262421101331711
1667337308.59971881,221358183,1,0.9922502040863037,-0.018836066126823425,0.007152697537094355,-0.12261131405830383
1667337308.61966991,221378134,1,0.9922499060630798,-0.01882653497159481,0.0071393451653420925,-0.12261620908975601
1667337308.65968585,221418150,1,0.9922529458999634,-0.01883561536669731,0.007148231845349073,-0.12258964031934738
1667337308.69969296,221458157,1,0.9922626614570618,-0.018809370696544647,0.007156234700232744,-0.12251470237970352
1667337308.73971486,221498179,1,0.9922688603401184,-0.018803060054779053,0.00715926568955183,-0.12246515601873398
1667337308.77964401,221538108,1,0.992277204990387,-0.018786393105983734,0.0071579390205442905,-0.12240003794431686
1667337308.79968596,221558150,1,0.9922828674316406,-0.018780166283249855,0.007156807463616133,-0.12235526740550995
1667337308.81966496,221578129,1,0.9922881126403809,-0.01876434125006199,0.007162509951740503,-0.12231474369764328
1667337308.85965800,221618122,1,0.9922958016395569,-0.018753038719296455,0.007174239493906498,-0.12225319445133209
1667337308.89969993,221658164,1,0.9923059940338135,-0.01874607615172863,0.007167004980146885,-0.122172050178051
1667337308.93969297,221698157,1,0.9923141002655029,-0.018769973888993263,0.007148829288780689,-0.12210361659526825
1667337308.97971988,221738184,1,0.9923220872879028,-0.01877308078110218,0.007144320290535688,-0.12203830480575562
1667337308.99969387,221758158,1,0.9923269152641296,-0.018739979714155197,0.007144717965275049,-0.12200431525707245
1667337309.01964879,221778113,1,0.9923321008682251,-0.01874331757426262,0.007147442549467087,-0.1219615712761879
1667337309.05967093,221818135,1,0.992343544960022,-0.01872958429157734,0.007165915332734585,-0.1218695119023323
1667337309.09966183,221858126,1,0.9923539161682129,-0.01874453015625477,0.007203198969364166,-0.12178060412406921
1667337309.13969183,221898156,1,0.9923627972602844,-0.01874559372663498,0.007201674859970808,-0.12170813977718353
1667337309.17971802,221938182,1,0.9923684597015381,-0.018750140443444252,0.00718695018440485,-0.12166180461645126
1667337309.19966793,221958132,1,0.9923709630966187,-0.01874614506959915,0.007183946203440428,-0.12164214998483658
1667337309.21968579,221978150,1,0.9923749566078186,-0.018751394003629684,0.007193390745669603,-0.12160809338092804
1667337309.25964379,222018108,1,0.9923808574676514,-0.018744302913546562,0.007202847860753536,-0.12156051397323608
1667337309.29967690,222058141,1,0.992387056350708,-0.018730632960796356,0.007210690062493086,-0.12151186913251877
1667337309.33966398,222098128,1,0.9923984408378601,-0.018741421401500702,0.007181270979344845,-0.12141869217157364
1667337309.37971902,222138183,1,0.9924155473709106,-0.018728317692875862,0.0071571930311620235,-0.12128251791000366
1667337309.39967585,222158140,1,0.992425262928009,-0.018702315166592598,0.007160464767366648,-0.12120670825242996
1667337309.41971588,222178180,1,0.992437481880188,-0.01871812902390957,0.007146351970732212,-0.12110475450754166
1667337309.45969296,222218157,1,0.9924405217170715,-0.01870056614279747,0.007137707434594631,-0.1210833191871643
1667337309.49966979,222258134,1,0.9924287796020508,-0.018683580681681633,0.007130428683012724,-0.12118272483348846
1667337309.53967881,222298143,1,0.9924137592315674,-0.01871551387012005,0.007112862076610327,-0.12130143493413925
1667337309.57970500,222338169,1,0.9924129843711853,-0.018692029640078545,0.007089752238243818,-0.12131281942129135
1667337309.59968281,222358147,1,0.992413341999054,-0.01872308738529682,0.007061541546136141,-0.12130660563707352
1667337309.61968589,222378150,1,0.9924104809761047,-0.01872303895652294,0.007025980856269598,-0.12133228033781052
1667337309.65971589,222418180,1,0.9923983812332153,-0.018699077889323235,0.00707809766754508,-0.12143167853355408
1667337309.69964480,222458109,1,0.9924259781837463,-0.018683776259422302,0.007200127467513084,-0.1212012767791748
1667337309.73967099,222498135,1,0.9924731850624084,-0.018554216250777245,0.007119729183614254,-0.12083891779184341
1667337309.77966189,222538126,1,0.9924716353416443,-0.018457898870110512,0.006996089592576027,-0.12087371200323105
1667337309.79967999,222558144,1,0.992480993270874,-0.018474215641617775,0.007071757689118385,-0.12078993767499924
1667337309.81970882,222578173,1,0.9924898147583008,-0.018377026543021202,0.006930881645530462,-0.12074034661054611
1667337309.85968590,222618150,1,0.9924637675285339,-0.01809574104845524,0.007021493744105101,-0.12099134922027588
1667337309.89970994,222658174,1,0.9924619197845459,-0.017355557531118393,0.006609565578401089,-0.12113799899816513
1667337309.93964481,222698109,1,0.9924817085266113,-0.016761058941483498,0.0066510760225355625,-0.12105734646320343
1667337309.97966886,222738133,1,0.992440938949585,-0.017157679423689842,0.006700869649648666,-0.12133323401212692
1667337309.99969292,222758157,1,0.9924877882003784,-0.0174619909375906,0.006829958874732256,-0.12089823186397552
1667337310.01965594,222778120,1,0.9924773573875427,-0.017608553171157837,0.006726801861077547,-0.12096839398145676
1667337310.05970979,222818174,1,0.9925028085708618,-0.017931219190359116,0.006680386606603861,-0.12071462720632553
1667337310.09971285,222858177,1,0.9925187230110168,-0.017248978838324547,0.006551219616085291,-0.12069032341241837
1667337310.13968492,222898149,1,0.9925211668014526,-0.01733444631099701,0.0066442592069506645,-0.12065274268388748
1667337310.17964983,222938114,1,0.9925045371055603,-0.01742505468428135,0.006756939925253391,-0.12077008932828903
1667337310.19967699,222958141,1,0.992500364780426,-0.017516175284981728,0.006509477272629738,-0.1208050549030304
1667337310.21966982,222978134,1,0.9924823045730591,-0.017197411507368088,0.006618461571633816,-0.12099318951368332
1667337310.25970101,223018165,1,0.9924983978271484,-0.01747502200305462,0.006517600268125534,-0.12082664668560028
1667337310.29970384,223058168,1,0.9925031661987305,-0.017505846917629242,0.006846285425126553,-0.1207645833492279
1667337310.33971381,223098178,1,0.9925141930580139,-0.017614057287573814,0.006441641598939896,-0.12068070471286774
1667337310.37969184,223138156,1,0.9925785660743713,-0.017151275649666786,0.006241742987185717,-0.12022768706083298
1667337310.39970779,223158172,1,0.9925658702850342,-0.017244022339582443,0.006648166570812464,-0.12029743939638138
1667337310.41967082,223178135,1,0.9925718307495117,-0.01713019795715809,0.006742368917912245,-0.12025893479585648
1667337310.45966792,223218132,1,0.9925692081451416,-0.01715695858001709,0.0066092489287257195,-0.12028422951698303
1667337310.49970198,223258166,1,0.9925875067710876,-0.01727413944900036,0.006595946382731199,-0.12011707574129105
1667337310.53967595,223298140,1,0.9925890564918518,-0.017320679500699043,0.006894782185554504,-0.12008093297481537
1667337310.57971001,223338174,1,0.992577314376831,-0.017369993031024933,0.006679293233901262,-0.1201830580830574
1667337310.59964895,223358113,1,0.9926103949546814,-0.017154399305582047,0.006697724107652903,-0.11993956565856934
1667337310.61964297,223378107,1,0.9926118850708008,-0.01688195765018463,0.006535108666867018,-0.11997473984956741
1667337310.65966892,223418133,1,0.9926449656486511,-0.01739264652132988,0.006541391368955374,-0.11962714791297913
1667337310.69967890,223458143,1,0.9926402568817139,-0.01748046837747097,0.006582438480108976,-0.11965151131153107
1667337310.73969793,223498162,1,0.9926708936691284,-0.017409928143024445,0.006615180056542158,-0.11940515041351318
1667337310.77971792,223538182,1,0.9926806092262268,-0.017215635627508163,0.006581309251487255,-0.11935481429100037
1667337310.79967380,223558138,1,0.9926493167877197,-0.017358999699354172,0.006612422410398722,-0.11959227174520493
1667337310.81969881,223578163,1,0.9926528334617615,-0.017143940553069115,0.006642183754593134,-0.11959220468997955
1667337310.85964298,223618107,1,0.9926610589027405,-0.01684674248099327,0.0067244223318994045,-0.1195615604519844
1667337310.89967895,223658143,1,0.9926700592041016,-0.017096316441893578,0.006576515734195709,-0.11945955455303192
1667337310.93966198,223698126,1,0.9926774501800537,-0.017342863604426384,0.006753866095095873,-0.11935272812843323
1667337310.97969699,223738161,1,0.9927054643630981,-0.017385954037308693,0.006600920110940933,-0.1191219687461853
1667337310.99966097,223758125,1,0.9927051663398743,-0.017207829281687737,0.006632592994719744,-0.11914831399917603
1667337311.01974893,223778213,1,0.9927237033843994,-0.017200425267219543,0.006609784904867411,-0.11899612098932266
1667337311.05968285,223818147,1,0.992718517780304,-0.016881711781024933,0.00648922473192215,-0.11909186840057373
1667337311.09968901,223858153,1,0.9927089810371399,-0.017162125557661057,0.006505519151687622,-0.11913039535284042
1667337311.13966894,223898133,1,0.9927127361297607,-0.017286529764533043,0.006661036517471075,-0.11907213181257248
1667337311.17969799,223938162,1,0.9927263855934143,-0.01712658256292343,0.006673344876617193,-0.11898092180490494
1667337311.19967985,223958144,1,0.992746114730835,-0.017013583332300186,0.006491973530501127,-0.11884228140115738
1667337311.21971679,223978181,1,0.9927452802658081,-0.01714029349386692,0.0065710763446986675,-0.11882681399583817
1667337311.25967884,224018143,1,0.9927601218223572,-0.017493857070803642,0.006742106284946203,-0.11864149570465088
1667337311.29968190,224058146,1,0.9927780628204346,-0.01702868938446045,0.006648208014667034,-0.1185644343495369
1667337311.33967400,224098138,1,0.9927852153778076,-0.016819920390844345,0.006507784593850374,-0.11854229122400284
1667337311.37967396,224138138,1,0.9927892088890076,-0.01716025173664093,0.006659789010882378,-0.11845151335000992
1667337311.39969587,224158160,1,0.9927771687507629,-0.01747545786201954,0.006497737020254135,-0.1185155063867569
1667337311.41970396,224178168,1,0.9927722215652466,-0.017370935529470444,0.006511120591312647,-0.118571437895298
1667337311.45967698,224218141,1,0.9927765130996704,-0.016928158700466156,0.006533114239573479,-0.11859825998544693
1667337311.49970889,224258173,1,0.9928176403045654,-0.016883166506886482,0.006404143292456865,-0.11826673150062561
1667337311.53967595,224298140,1,0.992827296257019,-0.01689325086772442,0.006373157259076834,-0.11818622797727585
1667337311.57967281,224338137,1,0.9928138852119446,-0.016716938465833664,0.006328450981527567,-0.11832597106695175
1667337311.59971786,224358182,1,0.9928515553474426,-0.01692209765315056,0.006439177319407463,-0.1179744079709053
1667337311.61967182,224378136,1,0.9928449392318726,-0.017243321985006332,0.006456966046243906,-0.11798254400491714
1667337311.65967488,224418139,1,0.9928401708602905,-0.01708318665623665,0.006387393921613693,-0.1180499792098999
1667337311.69971800,224458182,1,0.9928465485572815,-0.017231596633791924,0.006341008469462395,-0.11797728389501572
1667337311.73968482,224498149,1,0.9928428530693054,-0.016939545050263405,0.006329572759568691,-0.11805083602666855
1667337311.77964282,224538107,1,0.9928675293922424,-0.01655731350183487,0.006299854721873999,-0.1178993210196495
1667337311.79970479,224558169,1,0.9928883910179138,-0.016421357169747353,0.006259038578718901,-0.11774475127458572
1667337311.81967092,224578135,1,0.992896318435669,-0.016758952289819717,0.006132603622972965,-0.11763682961463928
1667337311.85964990,224618114,1,0.9929046630859375,-0.01681623049080372,0.006394847761839628,-0.11754432320594788
1667337311.89970779,224658172,1,0.9929077625274658,-0.01693866215646267,0.006265471689403057,-0.11750767379999161
1667337311.93972301,224698187,1,0.9929145574569702,-0.01649116910994053,0.006206107325851917,-0.11751680821180344
1667337311.97965693,224738121,1,0.9929425716400146,-0.01663270965218544,0.006166309583932161,-0.11726213246583939
1667337311.99970794,224758172,1,0.9929240942001343,-0.01668396033346653,0.00634715985506773,-0.11740133911371231
1667337312.01967502,224778139,1,0.9929433465003967,-0.0167999304831028,0.006224897224456072,-0.11722835898399353
1667337312.05967188,224818136,1,0.9929386973381042,-0.016184452921152115,0.006322024390101433,-0.11734921485185623
1667337312.09969592,224858160,1,0.9929504990577698,-0.016677316278219223,0.006414487026631832,-0.11717526614665985
1667337312.13969994,224898164,1,0.9929872751235962,-0.016312796622514725,0.0059225368313491344,-0.11694037914276123
1667337312.17972279,224938187,1,0.9929811954498291,-0.016073666512966156,0.006177906412631273,-0.11701209098100662
1667337312.19970083,224958165,1,0.9930088520050049,-0.016215084120631218,0.005846512038260698,-0.11677438765764236
1667337312.21964693,224978111,1,0.9929884076118469,-0.016277829185128212,0.005932847503572702,-0.11693509668111801
1667337312.25967002,225018134,1,0.9930005669593811,-0.016440533101558685,0.00609030993655324,-0.11680112034082413
1667337312.29966998,225058134,1,0.9930264353752136,-0.016019104048609734,0.006065949331969023,-0.11664097756147385
1667337312.33968592,225098150,1,0.9930011034011841,-0.016111357137560844,0.006289348006248474,-0.1168319433927536
1667337312.37970185,225138166,1,0.9930468201637268,-0.01517215371131897,0.00570275541394949,-0.11659865081310272
1667337312.39967084,225158135,1,0.9930689334869385,-0.014846890233457088,0.00585497310385108,-0.11644470691680908
1667337312.41970992,225178174,1,0.9930534958839417,-0.016069184988737106,0.006450201850384474,-0.11638269573450089
1667337312.45964694,225218111,1,0.993114173412323,-0.01571675017476082,0.005442289635539055,-0.11596381664276123
1667337312.49966884,225258133,1,0.993133544921875,-0.01594673842191696,0.005651212763041258,-0.11575610190629959
1667337312.53966689,225298131,1,0.9931802153587341,-0.014995293691754341,0.0054088374599814415,-0.11549435555934906
1667337312.57970190,225338166,1,0.9931920766830444,-0.014749538153409958,0.005484605208039284,-0.11542065441608429
1667337312.59967494,225358139,1,0.9932212829589844,-0.014347273856401443,0.005861958023160696,-0.11520102620124817
1667337312.61971378,225378178,1,0.9932016730308533,-0.015418125316500664,0.005590553395450115,-0.11524547636508942
1667337312.65968394,225418148,1,0.9932641983032227,-0.014976702630519867,0.004963153973221779,-0.11479257792234421
1667337312.69964290,225458107,1,0.9933125376701355,-0.014391474425792694,0.004998899530619383,-0.11444670706987381
1667337312.73968291,225498147,1,0.99333256483078,-0.014621800743043423,0.004892499651759863,-0.11424828320741653
1667337312.77969098,225538155,1,0.9933714866638184,-0.013819851912558079,0.004575042519718409,-0.11402268707752228
1667337312.79967380,225558138,1,0.9933882355690002,-0.015277693048119545,0.004779605660587549,-0.11368181556463242
1667337312.81970596,225578170,1,0.993434488773346,-0.014260669238865376,0.004272822290658951,-0.11342964321374893
1667337312.85972285,225618187,1,0.9934578537940979,-0.01380506157875061,0.004209916107356548,-0.11328386515378952
1667337312.89967799,225658142,1,0.9935172200202942,-0.013915201649069786,0.004444819409400225,-0.11273930221796036
1667337312.93966985,225698134,1,0.9936173558235168,-0.011392224580049515,0.003433879464864731,-0.11217391490936279
1667337312.97967196,225738136,1,0.9936749339103699,-0.009174147620797157,0.002717862371355295,-0.1118861734867096
1667337312.99971700,225758181,1,0.9937657117843628,-0.007754052057862282,0.0024393596686422825,-0.11119214445352554
1667337313.01971197,225778176,1,0.993798017501831,-0.006359477527439594,0.0016592605970799923,-0.11100596934556961
1667337313.05967188,225818136,1,0.9938574433326721,-0.0047073084861040115,0.0006572644342668355,-0.11056583374738693
1667337313.09972501,225858189,1,0.9939209818840027,-0.0011126298923045397,-0.00030380545649677515,-0.11008986830711365
1667337313.13967299,225898137,1,0.993956983089447,0.0024066215846687555,-0.002362560946494341,-0.10971850156784058
1667337313.17964602,225938110,1,0.9939141273498535,0.005449575372040272,-0.0038035493344068527,-0.10995683073997498
1667337313.19972301,225958187,1,0.9939871430397034,0.003090950194746256,-0.003948455210775137,-0.10938204824924469
1667337313.21965289,225978117,1,0.9939663410186768,0.0018160403706133366,-0.004574790131300688,-0.10957524925470352
1667337313.25968194,226018146,1,0.9939730167388916,7.513909804401919e-05,-0.0045121461153030396,-0.10953222960233688
1667337313.29968882,226058153,1,0.9940090775489807,0.0005171780358068645,-0.004650542046874762,-0.10919751226902008
1667337313.33971095,226098175,1,0.9939970970153809,-0.0036557777784764767,-0.003981080371886492,-0.10927305370569229
1667337313.37964201,226138106,1,0.9939441084861755,-0.009404951706528664,-0.002801080234348774,-0.10944792628288269
1667337313.39971089,226158175,1,0.9939072132110596,-0.012908728793263435,-0.002404838800430298,-0.10943497717380524
1667337313.41965580,226178120,1,0.9938245415687561,-0.017525294795632362,-0.0010377924190834165,-0.10956527292728424
1667337313.45965385,226218118,1,0.9936143159866333,-0.026192618533968925,0.0011792827863246202,-0.10974138230085373
1667337313.49970579,226258170,1,0.9933985471725464,-0.03233666345477104,0.0030475822277367115,-0.11001978069543839
1667337313.53970480,226298169,1,0.9932835698127747,-0.03482614457607269,0.004580955486744642,-0.1102450042963028
1667337313.57968593,226338150,1,0.9932405352592468,-0.035328976809978485,0.005271019414067268,-0.11044148355722427
1667337313.59969997,226358164,1,0.9932406544685364,-0.035075511783361435,0.0048741791397333145,-0.11053956300020218
1667337313.61964202,226378106,1,0.9933162331581116,-0.03221467509865761,0.003970596473664045,-0.1107671782374382
1667337313.65966797,226418132,1,0.9933804273605347,-0.02910041995346546,0.002881270833313465,-0.11108659207820892
1667337313.69970298,226458167,1,0.9935019016265869,-0.023121461272239685,0.002296981168910861,-0.11141848564147949
1667337313.73971486,226498179,1,0.9935898184776306,-0.018188929185271263,0.0009853014489635825,-0.11156810820102692
1667337313.77973080,226538195,1,0.9935884475708008,-0.01518147625029087,0.0005088594043627381,-0.11203216016292572
1667337313.79967380,226558138,1,0.9935768842697144,-0.014427936635911465,0.0006676670745946467,-0.11223334074020386
1667337313.81966281,226578127,1,0.9935888051986694,-0.01224592700600624,0.0007255001692101359,-0.11238671094179153
1667337313.85967088,226618135,1,0.9935768842697144,-0.009547348134219646,0.0012870560167357326,-0.11274828016757965
1667337313.89966679,226658131,1,0.9935428500175476,-0.009057996794581413,0.0007962044910527766,-0.11309242248535156
1667337313.93969989,226698164,1,0.9935239553451538,-0.010655900463461876,0.0007105508702807128,-0.11311992257833481
1667337313.97968292,226738147,1,0.9934754967689514,-0.011844044551253319,0.0009198039188049734,-0.11342525482177734
1667337313.99966598,226758130,1,0.9934300184249878,-0.012867308221757412,0.0017726345686241984,-0.1137019619345665
1667337314.01971102,226778175,1,0.9933768510818481,-0.014677697792649269,0.0026125956792384386,-0.11393032222986221
1667337314.05964494,226818109,1,0.9933257699012756,-0.017087753862142563,0.003997601103037596,-0.11399954557418823
1667337314.09968090,226858145,1,0.9933229088783264,-0.017748920246958733,0.006081381347030401,-0.1138315200805664
1667337314.13966894,226898133,1,0.9932584762573242,-0.01898038201034069,0.00681590149179101,-0.11415287107229233
1667337314.17970395,226938168,1,0.9932094812393188,-0.020531611517071724,0.006935592275112867,-0.11430345475673676
1667337314.19967198,226958136,1,0.9931448698043823,-0.021570906043052673,0.0073939417488873005,-0.11464397609233856
1667337314.21971083,226978175,1,0.9931341409683228,-0.022676624357700348,0.007780577056109905,-0.11449797451496124
1667337314.25973082,227018195,1,0.9930723309516907,-0.02301456406712532,0.007506076712161303,-0.11498406529426575
1667337314.29964185,227058106,1,0.9930354952812195,-0.023894181475043297,0.00688690273091197,-0.11516130715608597
1667337314.33966899,227098133,1,0.9929020404815674,-0.027900200337171555,0.005819885991513729,-0.11546968668699265
1667337314.37965298,227138117,1,0.992738664150238,-0.030503472313284874,0.0049012391828000546,-0.11625591665506363
1667337314.39968395,227158148,1,0.9927452206611633,-0.03080466203391552,0.004505120683461428,-0.1161365732550621
1667337314.41970491,227178169,1,0.99262535572052,-0.03306166082620621,0.003991593606770039,-0.11655841022729874
1667337314.45968485,227218149,1,0.2357635647058487,-0.017476597800850868,-0.012626031413674355,0.9715712666511536
1667337314.49967980,227258144,1,0.23658443987369537,-0.01668444462120533,-0.012511120177805424,0.9713870882987976
1667337314.53965688,227298121,1,0.23683105409145355,-0.014847258105874062,-0.01694980449974537,0.9712895154953003
1667337314.57966781,227338132,1,0.23693573474884033,-0.014076096005737782,-0.02267010323703289,0.9711588025093079
1667337314.59970784,227358172,1,0.23673605918884277,-0.013189328834414482,-0.02381514571607113,0.9711925387382507
1667337314.61970186,227378166,1,0.23631224036216736,-0.010637093335390091,-0.02409456856548786,0.9713201522827148
1667337314.65970588,227418170,1,0.23652872443199158,-0.008679413236677647,-0.03296373784542084,0.9710263609886169
1667337314.69968700,227458151,1,0.23979823291301727,-0.006685052532702684,-0.039078835397958755,0.9700128436088562
1667337314.73965287,227498117,1,0.2428380697965622,-0.0047648390755057335,-0.04342662915587425,0.9690825939178467
1667337314.77967095,227538135,1,0.2471504956483841,-0.0036150910891592503,-0.04703301191329956,0.9678282141685486
1667337314.79969597,227558160,1,0.2490169107913971,-0.0034087852109223604,-0.0499035008251667,0.967206597328186
1667337314.81966400,227578128,1,0.2514527440071106,-0.0032769714016467333,-0.05130801349878311,0.9665030837059021
1667337314.85969901,227618163,1,0.2558365762233734,-0.003306314582005143,-0.0501539371907711,0.9654124975204468
1667337314.89970279,227658167,1,0.2611129581928253,-0.004132121801376343,-0.050790637731552124,0.9639622569084167
1667337314.93970895,227698173,1,0.2658160328865051,-0.0044831642881035805,-0.0486726276576519,0.9627838134765625
1667337314.97966886,227738133,1,0.2711462676525116,-0.0038598147220909595,-0.0422171987593174,0.961604118347168
1667337314.99970889,227758173,1,0.273663729429245,-0.004279535263776779,-0.03849199786782265,0.9610453844070435
1667337315.01967382,227778138,1,0.27610960602760315,-0.003363255877047777,-0.03420385345816612,0.9605114459991455
1667337315.05969882,227818163,1,0.27997249364852905,-0.0018561019096523523,-0.023416999727487564,0.9597206115722656
1667337315.09972000,227858184,1,0.28404560685157776,-0.00035959191154688597,-0.011754455976188183,0.9587386250495911
1667337315.13972282,227898187,1,0.2873939871788025,0.00028995468164794147,-0.002026813570410013,0.9578102827072144
1667337315.17971587,227938180,1,0.2893458604812622,0.00018493518291506916,0.008296642452478409,0.9571886658668518
1667337315.19967198,227958136,1,0.2902919054031372,2.4947748897830024e-05,0.011148839257657528,0.9568731784820557
1667337315.21968579,227978150,1,0.2905724346637726,3.9300208300119266e-05,0.013654270209372044,0.9567555785179138
1667337315.25966883,228018133,1,0.2908381521701813,8.777318726060912e-05,0.018663763999938965,0.9565902352333069
1667337315.29965997,228058124,1,0.2908564805984497,-0.0005575930117629468,0.02181451953947544,0.9565178155899048
1667337315.33970785,228098172,1,0.2902325391769409,-0.0014298418536782265,0.02371293678879738,0.9566612243652344
1667337315.37971497,228138179,1,0.2894977033138275,-0.001938978093676269,0.022199232131242752,0.9569193124771118
1667337315.39966798,228158132,1,0.28948551416397095,-0.001919179456308484,0.02219846285879612,0.9569230079650879
1667337315.41968083,228178145,1,0.2885298728942871,-0.0028438635636121035,0.02243187464773655,0.9572038650512695
1667337315.45966482,228218129,1,0.28633034229278564,-0.003490252187475562,0.02110741287469864,0.9578920602798462
1667337315.49966788,228258132,1,0.2826608717441559,-0.0036418631207197905,0.02146041765809059,0.9589728713035583
1667337315.53969693,228298161,1,0.27866998314857483,-0.003718077205121517,0.017261072993278503,0.9602245688438416
1667337315.57967782,228338142,1,0.27371716499328613,-0.004009346943348646,0.015044785104691982,0.9616841673851013
1667337315.59965801,228358122,1,0.27078381180763245,-0.005559094715863466,0.01403761561959982,0.9625217914581299
1667337315.61972880,228378193,1,0.2678685486316681,-0.004115475807338953,0.015998223796486855,0.9633138179779053
1667337315.65966988,228418134,1,0.26169684529304504,-0.004722351673990488,0.01335187442600727,0.965046226978302
1667337315.69967389,228458138,1,0.254815012216568,-0.004604251589626074,0.014846905134618282,0.9668648838996887
1667337315.73966694,228498131,1,0.24818997085094452,-0.003977095242589712,0.01412741094827652,0.9686002135276794
1667337315.77969980,228538164,1,0.24141640961170197,-0.0026477016508579254,0.016364028677344322,0.9702800512313843
1667337315.79964399,228558108,1,0.23807591199874878,-0.00282346666790545,0.01572970673441887,0.9711150527000427
1667337315.81967783,228578142,1,0.23523949086666107,-0.0024652997963130474,0.016168322414159775,0.9717997908592224
1667337315.85970879,228618173,1,0.2295629382133484,-0.0018442828441038728,0.014141224324703217,0.9731893539428711
1667337315.89964700,228658111,1,0.22379174828529358,0.0004149380256421864,0.013899153098464012,0.9745377898216248
1667337315.93968797,228698152,1,0.2191953808069229,0.0037442678585648537,0.012766709551215172,0.9755902886390686
1667337315.97977591,228738240,1,0.21478168666362762,0.009442668408155441,0.011411692015826702,0.9765497446060181
1667337315.99966002,228758124,1,0.21304073929786682,0.012139365077018738,0.01048578042536974,0.9769116044044495
1667337316.01967597,228778140,1,0.2114354521036148,0.014449188485741615,0.008267105557024479,0.9772501587867737
1667337316.05971980,228818184,1,0.20911942422389984,0.02002771385014057,0.006644843611866236,0.9776624441146851
1667337316.09968591,228858150,1,0.20704945921897888,0.024212999269366264,0.004961866419762373,0.9780182242393494
1667337316.13964200,228898106,1,0.20582915842533112,0.027768265455961227,0.0042030783370137215,0.9781848788261414
1667337316.17967081,228938135,1,0.20465222001075745,0.029867833480238914,0.0031140781939029694,0.9783740043640137
1667337316.19971585,228958180,1,0.20470918715000153,0.02960681915283203,0.0012275241315364838,0.978374183177948
1667337316.21970081,228978165,1,0.20465999841690063,0.03029651753604412,0.0008068456663750112,0.9783638119697571
1667337316.25970387,229018168,1,0.20547346770763397,0.02934063784778118,-0.00020608637714758515,0.9782227277755737
1667337316.29971695,229058181,1,0.206848606467247,0.02669079788029194,-0.001712571014650166,0.9780073165893555
1667337316.33967781,229098142,1,0.2087661772966385,0.023859985172748566,-0.0032299370504915714,0.9776691198348999
1667337316.37967396,229138138,1,0.21096612513065338,0.02104983478784561,-0.0024505581241101027,0.9772636294364929
1667337316.39971495,229158179,1,0.21200524270534515,0.018994176760315895,-0.0028991687577217817,0.9770796298980713
1667337316.41966987,229178134,1,0.2135789692401886,0.016684088855981827,-0.002164090983569622,0.9767809510231018
1667337316.45971489,229218179,1,0.21646711230278015,0.012248480692505836,-0.002437582239508629,0.9762100577354431
1667337316.49970794,229258172,1,0.21948805451393127,0.007752200588583946,-0.0022754890378564596,0.975581705570221
1667337316.53971696,229298181,1,0.22271211445331573,0.0039029878098517656,-0.001979038119316101,0.9748744368553162
1667337316.57965088,229338115,1,0.22554835677146912,0.0003787855966947973,-0.0015415319940075278,0.9742307066917419
1667337316.59970379,229358168,1,0.227216899394989,-0.0006063585169613361,-0.0015979192685335875,0.9738426804542542
1667337316.61964583,229378110,1,0.22875232994556427,-0.0016059625195339322,-0.0012942091561853886,0.9734824895858765
1667337316.65966702,229418131,1,0.23145385086536407,-0.0038478539790958166,-0.0003602918004617095,0.9728382229804993
1667337316.69970489,229458169,1,0.23404856026172638,-0.004655730444937944,-0.0006614994490519166,0.9722135066986084
1667337316.73969793,229498162,1,0.23648589849472046,-0.005679718218743801,-0.002136699855327606,0.9716159701347351
1667337316.77967787,229538142,1,0.2385624796152115,-0.0064168572425842285,-0.0011020665988326073,0.9711053371429443
1667337316.79969883,229558163,1,0.23955987393856049,-0.0071448711678385735,-0.0010671066120266914,0.9708546996116638
1667337316.81967688,229578141,1,0.24033686518669128,-0.0063039339147508144,-0.0005436154315248132,0.9706689119338989
1667337316.85967493,229618139,1,0.24209746718406677,-0.006686396896839142,-0.0017818012274801731,0.9702272415161133
1667337316.89966488,229658129,1,0.24371083080768585,-0.006949130911380053,-0.0032959780655801296,0.9698174595832825
1667337316.93969798,229698162,1,0.2454114407300949,-0.0064320070669054985,-0.0023123424034565687,0.9693949222564697
1667337316.97973180,229738196,1,0.24711228907108307,-0.006888431962579489,-0.0028585130348801613,0.9689581394195557
1667337316.99968791,229758152,1,0.24753890931606293,-0.006902794819325209,-0.003092029830440879,0.9688484072685242
1667337317.01968288,229778147,1,0.2483045607805252,-0.006519554182887077,-0.003282574936747551,0.9686545133590698
1667337317.05964279,229818107,1,0.2495054453611374,-0.006065835244953632,-0.0028022925835102797,0.968350350856781
1667337317.09967589,229858140,1,0.25069335103034973,-0.006133731454610825,-0.003910775296390057,0.9680392146110535
1667337317.13969898,229898163,1,0.2520373463630676,-0.007246915716677904,-0.0047453055158257484,0.9676787257194519
1667337317.17969584,229938160,1,0.25285688042640686,-0.007307983003556728,-0.006378588732331991,0.9674550890922546
1667337317.19968486,229958149,1,0.2532769441604614,-0.007676920387893915,-0.007952624931931496,0.9673306941986084
1667337317.21971893,229978183,1,0.2536797523498535,-0.007736269384622574,-0.00978036131709814,0.9672078490257263
1667337317.25968194,230018146,1,0.2545008063316345,-0.008592629805207253,-0.012330366298556328,0.9669557809829712
1667337317.29967189,230058136,1,0.2556079030036926,-0.01070389337837696,-0.016501201316714287,0.9665804505348206
1667337317.33967400,230098138,1,0.25630658864974976,-0.01166690606623888,-0.02064673975110054,0.9663046002388
1667337317.37970090,230138165,1,0.25687333941459656,-0.01190427877008915,-0.02434385195374489,0.9660651087760925
1667337317.39968085,230158145,1,0.2569015324115753,-0.012372470460832119,-0.02643292024731636,0.9659968018531799
1667337317.41970301,230178167,1,0.257602721452713,-0.013190512545406818,-0.027758445590734482,0.9657620191574097
1667337317.45971179,230218176,1,0.2582241892814636,-0.013948218896985054,-0.030868032947182655,0.965490996837616
1667337317.49964595,230258110,1,0.25869008898735046,-0.013890545815229416,-0.034376110881567,0.9652485251426697
1667337317.53966784,230298132,1,0.25917062163352966,-0.013499857857823372,-0.036397866904735565,0.9650510549545288
1667337317.57966185,230338126,1,0.2596873641014099,-0.013521087355911732,-0.03665408864617348,0.9649021625518799
1667337317.59969401,230358158,1,0.26016345620155334,-0.01299973949790001,-0.03623434156179428,0.9647969007492065
1667337317.61971378,230378178,1,0.2601214349269867,-0.012954828329384327,-0.03555237874388695,0.9648342132568359
1667337317.65971279,230418177,1,0.26046130061149597,-0.010460257530212402,-0.03107757493853569,0.9649273157119751
1667337317.69972491,230458189,1,0.2609216868877411,-0.00917182769626379,-0.026511309668421745,0.964952290058136
1667337317.73964500,230498109,1,0.26150041818618774,-0.008561314083635807,-0.022197166457772255,0.964910089969635
1667337317.77966785,230538132,1,0.2617901563644409,-0.007556193508207798,-0.018843447789549828,0.9649112820625305
1667337317.79968190,230558146,1,0.26170772314071655,-0.007626989856362343,-0.018275318667292595,0.9649440050125122
1667337317.81965494,230578119,1,0.26204219460487366,-0.007273732218891382,-0.017147785052657127,0.964876651763916
1667337317.85970879,230618173,1,0.2619472146034241,-0.006338777486234903,-0.01569111831486225,0.9649338126182556
1667337317.89971399,230658178,1,0.2620815634727478,-0.00575539655983448,-0.01410257164388895,0.9649255275726318
1667337317.93969083,230698155,1,0.26253998279571533,-0.005770001094788313,-0.014226461760699749,0.9647989869117737
1667337317.97964191,230738106,1,0.26269134879112244,-0.006133740767836571,-0.014670045115053654,0.9647489190101624
1667337317.99967790,230758142,1,0.2623562812805176,-0.005266410298645496,-0.014457948505878448,0.9648483991622925
1667337318.01967597,230778140,1,0.26248204708099365,-0.00504697160795331,-0.014782492071390152,0.9648104310035706
1667337318.05970192,230818166,1,0.2621547281742096,-0.004795025568455458,-0.01437686663120985,0.9649068117141724
1667337318.09970188,230858166,1,0.2621827721595764,-0.005324847064912319,-0.01648552529513836,0.9648627042770386
1667337318.13972282,230898187,1,0.26229825615882874,-0.0056451535783708096,-0.017329612746834755,0.9648147225379944
1667337318.17968082,230938145,1,0.2618672251701355,-0.0046532172709703445,-0.01781611517071724,0.9649282097816467
1667337318.19969296,230958157,1,0.26173135638237,-0.004731836728751659,-0.018113985657691956,0.9649591445922852
1667337318.21967602,230978140,1,0.26164770126342773,-0.0045713381841778755,-0.01879183016717434,0.9649696946144104
1667337318.25966287,231018127,1,0.26159247756004333,-0.005759699270129204,-0.021049845963716507,0.9649316668510437
1667337318.29969096,231058155,1,0.26088401675224304,-0.00604609539732337,-0.021431485190987587,0.9651132822036743
1667337318.33968282,231098147,1,0.260746568441391,-0.005467930343002081,-0.021605748683214188,0.965149998664856
1667337318.37972784,231138192,1,0.2603830099105835,-0.006535407155752182,-0.021919475868344307,0.9652344584465027
1667337318.39970279,231158167,1,0.2599962651729584,-0.006809216924011707,-0.02388940192759037,0.9652900695800781
1667337318.41968584,231178150,1,0.2596343159675598,-0.006503206677734852,-0.023125192150473595,0.965408205986023
1667337318.45967484,231218139,1,0.25928282737731934,-0.006356723140925169,-0.0238176342099905,0.9654867649078369
1667337318.49966192,231258126,1,0.2587154805660248,-0.007249976042658091,-0.025972183793783188,0.9655771255493164
1667337318.53970289,231298167,1,0.257976233959198,-0.006516153458505869,-0.025734055787324905,0.9657865166664124
1667337318.57971287,231338177,1,0.25777849555015564,-0.006127536296844482,-0.026012904942035675,0.965834379196167
1667337318.59967589,231358140,1,0.2571410834789276,-0.006604026537388563,-0.028302757069468498,0.9659367203712463
1667337318.61969900,231378163,1,0.257041335105896,-0.0059786587953567505,-0.027366619557142258,0.9659943580627441
1667337318.65964079,231418105,1,0.25616371631622314,-0.005572064779698849,-0.027466261759400368,0.9662270545959473
1667337318.69967389,231458138,1,0.25582969188690186,-0.005683863069862127,-0.028651565313339233,0.966280460357666
1667337318.73971081,231498175,1,0.25545912981033325,-0.0050566308200359344,-0.0264622513204813,0.9664444327354431
1667337318.77970600,231538170,1,0.255016028881073,-0.005248736590147018,-0.026250090450048447,0.9665662050247192
1667337318.79967284,231558137,1,0.2547130882740021,-0.005272294860333204,-0.026203133165836334,0.966647207736969
1667337318.81973100,231578195,1,0.25456857681274414,-0.004597941413521767,-0.025846261531114578,0.9666983485221863
1667337318.85968900,231618153,1,0.2541075050830841,-0.0036490261554718018,-0.02428014762699604,0.966864287853241
1667337318.89967299,231658137,1,0.25421276688575745,-0.004207366146147251,-0.022164519876241684,0.9668851494789124
1667337318.93966794,231698132,1,0.25432053208351135,-0.0026318482123315334,-0.01949707604944706,0.9669198393821716
1667337318.97970486,231738169,1,0.25468024611473083,-0.002390175126492977,-0.018364371731877327,0.9668479561805725
1667337318.99964595,231758110,1,0.25484374165534973,-0.0016452590934932232,-0.01681865192949772,0.9668346047401428
1667337319.01969886,231778163,1,0.25522300601005554,-0.0019515925087034702,-0.015598127618432045,0.9667544364929199
1667337319.05971789,231818182,1,0.2560405135154724,-0.0007067135302349925,-0.011882388964295387,0.9665927886962891
1667337319.09965897,231858123,1,0.25705960392951965,-0.00046677410136908293,-0.008875691331923008,0.9663546681404114
1667337319.13966894,231898133,1,0.2583807110786438,0.0006836445536464453,-0.004297081846743822,0.966033399105072
1667337319.17966795,231938132,1,0.2596895396709442,0.0013250564225018024,-0.0012355793733149767,0.9656904339790344
1667337319.19969988,231958164,1,0.2605535686016083,0.0010166876018047333,0.00031092128483578563,0.9654588103294373
1667337319.21970296,231978167,1,0.26121750473976135,0.001789759611710906,0.0011314317816868424,0.9652776122093201
1667337319.25967598,232018140,1,0.26290518045425415,0.0019482284551486373,0.0021913275122642517,0.964817225933075
1667337319.29967690,232058141,1,0.26464343070983887,0.0019942845683544874,0.005103044677525759,0.964330792427063
1667337319.33965778,232098122,1,0.2664773166179657,0.0022677676752209663,0.004921877756714821,0.9638259410858154
1667337319.37966990,232138134,1,0.2689460515975952,0.0014327371027320623,0.0054203420877456665,0.9631389379501343
1667337319.39972401,232158188,1,0.2699359357357025,0.001132884994149208,0.004836244974285364,0.9628654718399048
1667337319.41965985,232178124,1,0.271250456571579,0.0006706783315166831,0.0036569335497915745,0.9625016450881958
1667337319.45967889,232218143,1,0.2739276885986328,-0.0007193755591288209,0.0010449276305735111,0.9617494344711304
1667337319.49971700,232258181,1,0.2767074406147003,-0.0006576946470886469,-0.0015030897920951247,0.9609528183937073
1667337319.53968191,232298146,1,0.27948862314224243,-0.001097711967304349,-0.0029444510582834482,0.9601438641548157
1667337319.57964492,232338109,1,0.19519564509391785,-0.0030730541329830885,-0.004636208992451429,0.9807485342025757
1667337319.59968781,232358152,1,0.196746364235878,-0.003606511279940605,-0.0061722248792648315,0.9804283380508423
1667337319.61968899,232378153,1,0.1980915665626526,-0.0032876599580049515,-0.006389182526618242,0.980157196521759
1667337319.65967083,232418135,1,0.2024216502904892,-0.003556461539119482,-0.008152858354151249,0.9792580604553223
1667337319.69974184,232458206,1,0.2103089690208435,-0.00280245253816247,-0.010068723000586033,0.9775791168212891
1667337319.73972702,232498191,1,0.21821783483028412,-0.0027772507164627314,-0.010609520599246025,0.9758384823799133
1667337319.77967000,232538134,1,0.2242787480354309,-0.0017002180684357882,-0.011430200189352036,0.9744564890861511
1667337319.79967499,232558139,1,0.22696614265441895,-0.0007365969941020012,-0.01250430941581726,0.9738221168518066
1667337319.81965590,232578120,1,0.22976602613925934,0.0009248262504115701,-0.012553307227790356,0.9731644988059998
1667337319.85966897,232618133,1,0.23490016162395477,0.002440092619508505,-0.013055091723799706,0.9719287753105164
1667337319.89967799,232658142,1,0.23822496831417084,0.004873004276305437,-0.012980492785573006,0.971110999584198
1667337319.93967986,232698144,1,0.2412775456905365,0.008685523644089699,-0.01361282542347908,0.970321774482727
1667337319.97971582,232738180,1,0.2432202696800232,0.011216145008802414,-0.014586761593818665,0.9697965383529663
1667337319.99969983,232758164,1,0.24388709664344788,0.012967338785529137,-0.014790131710469723,0.9696041345596313
1667337320.01967978,232778144,1,0.2441684454679489,0.014409725554287434,-0.01566009223461151,0.9694992899894714
1667337320.05967379,232818138,1,0.24488675594329834,0.017382599413394928,-0.015238402411341667,0.9692760705947876
1667337320.09966993,232858134,1,0.24477632343769073,0.019321216270327568,-0.016964035108685493,0.9692385792732239
1667337320.13969278,232898157,1,0.24409224092960358,0.023198554292321205,-0.01801821030676365,0.9693070650100708
1667337320.17969990,232938164,1,0.2436094433069229,0.02463061548769474,-0.01889459602534771,0.9693765044212341
1667337320.19967198,232958136,1,0.24377749860286713,0.025708962231874466,-0.01977684535086155,0.9692886471748352
1667337320.21971202,232978176,1,0.24351195991039276,0.026448890566825867,-0.019019220024347305,0.9693506360054016
1667337320.25968099,233018145,1,0.24305154383182526,0.027794983237981796,-0.01981434039771557,0.9694125652313232
1667337320.29968286,233058147,1,0.24239280819892883,0.02641068957746029,-0.022065753117203712,0.969567596912384
1667337320.33966184,233098126,1,0.24268114566802979,0.02396208979189396,-0.02437637932598591,0.9695037007331848
1667337320.37969494,233138159,1,0.24295441806316376,0.021907053887844086,-0.024713825434446335,0.9694753289222717
1667337320.39967585,233158140,1,0.2432251274585724,0.01976243406534195,-0.02648056298494339,0.9694069027900696
1667337320.41971087,233178175,1,0.2437746822834015,0.017959892749786377,-0.027348877862095833,0.9692798256874084
1667337320.45968294,233218147,1,0.2454482764005661,0.013758615590631962,-0.03097211942076683,0.9688171148300171
1667337320.49964285,233258107,1,0.24756626784801483,0.010064873844385147,-0.033123668283224106,0.9682523012161255
1667337320.53967190,233298136,1,0.2497841864824295,0.008253874257206917,-0.03701477497816086,0.9675586223602295
1667337320.57970285,233338167,1,0.25238823890686035,0.005965558346360922,-0.04008455574512482,0.9667770266532898
1667337320.59966588,233358130,1,0.2538645565509796,0.0057996422983706,-0.04008929058909416,0.9663912057876587
1667337320.61969900,233378163,1,0.255257248878479,0.0041700187139213085,-0.04265184327960014,0.9659229516983032
1667337320.65972185,233418186,1,0.2593885362148285,0.003523092484101653,-0.04303361475467682,0.964807391166687
1667337320.69966578,233458130,1,0.263765811920166,0.00409825099632144,-0.043687716126441956,0.9635881781578064
1667337320.73968601,233498150,1,0.2682122588157654,0.006392037030309439,-0.04455805942416191,0.9623075723648071
1667337320.77967000,233538134,1,0.2726675570011139,0.008946666494011879,-0.045926693826913834,0.960969865322113
1667337320.79970288,233558167,1,0.27508482336997986,0.01099876407533884,-0.04652351886034012,0.9602306485176086
1667337320.81971383,233578178,1,0.2775387167930603,0.012192522175610065,-0.04655641317367554,0.9595082402229309
1667337320.85968685,233618151,1,0.2835296392440796,0.01545792631804943,-0.046787507832050323,0.9576966762542725
1667337320.89969802,233658162,1,0.2896018624305725,0.018920741975307465,-0.046376049518585205,0.95583575963974
1667337320.93964195,233698106,1,0.2956317961215973,0.020510653033852577,-0.047080133110284805,0.9539206624031067
1667337320.97967100,233738135,1,0.30088645219802856,0.023109575733542442,-0.04649651423096657,0.9522454142570496
1667337320.99971986,233758184,1,0.3038010895252228,0.023678459227085114,-0.04642217606306076,0.9513092041015625
1667337321.01964998,233778114,1,0.306535542011261,0.023659490048885345,-0.04548586159944534,0.9504773616790771
1667337321.05970883,233818173,1,0.3136751353740692,0.02329142577946186,-0.044412124902009964,0.9482051134109497
1667337321.09969592,233858160,1,0.3211163878440857,0.023429187014698982,-0.043806374073028564,0.9457358717918396
1667337321.13972497,233898189,1,0.3281712532043457,0.022923270240426064,-0.042525723576545715,0.9433820843696594
1667337321.17965078,233938115,1,0.33533775806427,0.022005602717399597,-0.04381018877029419,0.9408214688301086
1667337321.19969702,233958161,1,0.3391607105731964,0.020390868186950684,-0.04415041580796242,0.9394705891609192
1667337321.21967101,233978135,1,0.34227287769317627,0.020756404846906662,-0.04312366992235184,0.9383809566497803
1667337321.25966787,234018132,1,0.3515501022338867,0.02089901641011238,-0.04261493310332298,0.9349650740623474
1667337321.29969883,234058163,1,0.36144202947616577,0.020466333255171776,-0.04357437044382095,0.9311509132385254
1667337321.33971095,234098175,1,0.37046802043914795,0.019904717803001404,-0.04509851709008217,0.9275361895561218
1667337321.37968302,234138147,1,0.3794625997543335,0.022173287346959114,-0.045049313455820084,0.9238436222076416
1667337321.39968681,234158151,1,0.38407108187675476,0.022309930995106697,-0.04615336284041405,0.9218793511390686
1667337321.41963983,234178104,1,0.38853001594543457,0.022515473887324333,-0.04619970545172691,0.9200016856193542
1667337321.45967484,234218139,1,0.3986179828643799,0.02222798578441143,-0.04693939536809921,0.9156453013420105
1667337321.49970579,234258170,1,0.4064115881919861,0.022076530382037163,-0.04826582223176956,0.9121472835540771
1667337321.53970599,234298170,1,0.41327551007270813,0.02356666326522827,-0.04587307199835777,0.9091444611549377
1667337321.57972193,234338186,1,0.419129341840744,0.025403201580047607,-0.04465719312429428,0.9064717292785645
1667337321.59965992,234358124,1,0.4218451678752899,0.026578379794955254,-0.042756032198667526,0.9052690863609314
1667337321.61966491,234378129,1,0.4240628182888031,0.02670104429125786,-0.04282643273472786,0.9042254686355591
1667337321.65966892,234418133,1,0.43076884746551514,0.02736452780663967,-0.042336512356996536,0.901053249835968
1667337321.69967389,234458138,1,0.4379453659057617,0.027193976566195488,-0.039746612310409546,0.8977107405662537
1667337321.73970389,234498168,1,0.44402846693992615,0.027098553255200386,-0.039665911346673965,0.8947240114212036
1667337321.77970886,234538173,1,0.45055636763572693,0.025879396125674248,-0.039382826536893845,0.8915033340454102
1667337321.79966998,234558134,1,0.4534049332141876,0.025940125808119774,-0.03679661080241203,0.8901668787002563
1667337321.81971288,234578177,1,0.456557959318161,0.024636978283524513,-0.03652379661798477,0.8886021971702576
1667337321.85964179,234618106,1,0.46379292011260986,0.021418185904622078,-0.036445122212171555,0.8849345445632935
1667337321.89966893,234658133,1,0.47006553411483765,0.017356805503368378,-0.03570026531815529,0.8817384243011475
1667337321.93966579,234698130,1,0.47592514753341675,0.013245313428342342,-0.03510136157274246,0.8786852359771729
1667337321.97969484,234738159,1,0.48077112436294556,0.009914208203554153,-0.035163041204214096,0.8760846853256226
1667337321.99967289,234758137,1,0.48295143246650696,0.007156054954975843,-0.03556426614522934,0.8748953938484192
1667337322.01968789,234778152,1,0.485257625579834,0.005514834076166153,-0.034628722816705704,0.87366783618927
1667337322.05972385,234818188,1,0.4901983141899109,0.0015777433291077614,-0.03557520732283592,0.8708831667900085
1667337322.09964180,234858106,1,0.4951103627681732,-0.00190736202057451,-0.032512955367565155,0.8682194352149963
1667337322.13967800,234898142,1,0.49916884303092957,-0.006145787891000509,-0.03145517408847809,0.8659118413925171
1667337322.17966080,234938125,1,0.5029131770133972,-0.010291229002177715,-0.031337346881628036,0.8637073636054993
1667337322.19964194,234958106,1,0.5050403475761414,-0.012619872577488422,-0.02876889333128929,0.8625237941741943
1667337322.21968293,234978147,1,0.5066332221031189,-0.014237877912819386,-0.029994437471032143,0.8615221381187439
1667337322.25973082,235018195,1,0.5099876523017883,-0.01693871058523655,-0.027685128152370453,0.8595691919326782
1667337322.29968286,235058147,1,0.512842059135437,-0.018060574308037758,-0.026275595650076866,0.8578906655311584
1667337322.33968496,235098149,1,0.5148362517356873,-0.01886570081114769,-0.025628289207816124,0.856697678565979
1667337322.37967086,235138135,1,0.5159114599227905,-0.018241126090288162,-0.023623181506991386,0.856121838092804
1667337322.39970994,235158174,1,0.5160460472106934,-0.017473990097641945,-0.02178131230175495,0.8561055660247803
1667337322.41969585,235178160,1,0.516464114189148,-0.015872247517108917,-0.019917456433176994,0.8559300303459167
1667337322.45967889,235218143,1,0.5180912613868713,-0.014239207841455936,-0.015327341854572296,0.8550694584846497
1667337322.49968195,235258146,1,0.5186190009117126,-0.013563696295022964,-0.014562757685780525,0.8547738194465637
1667337322.53967786,235298142,1,0.5184479355812073,-0.009185419417917728,-0.00901831965893507,0.8550122976303101
1667337322.57966900,235338133,1,0.5178539752960205,-0.006514884065836668,-0.001861868891865015,0.855442225933075
1667337322.59973979,235358204,1,0.5177491307258606,-0.005653648637235165,0.0016542102675884962,0.8555122017860413
1667337322.61968398,235378148,1,0.5173454284667969,-0.004756098613142967,0.002740285126492381,0.8557590842247009
1667337322.65970182,235418166,1,0.5163705945014954,-0.0033529815264046192,0.007799780461937189,0.8563231825828552
1667337322.69966888,235458133,1,0.5146778225898743,-0.0003971491241827607,0.011491325683891773,0.8573065400123596
1667337322.73971391,235498178,1,0.5125426054000854,0.0024589381646364927,0.015753936022520065,0.8585137724876404
1667337322.77964187,235538106,1,0.510495662689209,0.0021803255658596754,0.015490024350583553,0.8597380518913269
1667337322.79969692,235558161,1,0.5095891356468201,0.0013324670726433396,0.01395549438893795,0.8603036999702454
1667337322.81966996,235578134,1,0.5085533261299133,0.0018478654092177749,0.01377742737531662,0.8609182834625244
1667337322.85965991,235618124,1,0.5063751339912415,0.003491513431072235,0.016606418415904045,0.8621463179588318
1667337322.89969683,235658161,1,0.5048050284385681,0.0012012964580208063,0.014223963022232056,0.8631153702735901
1667337322.93971086,235698175,1,0.5024386048316956,-0.0017798999324440956,0.011546292342245579,0.8645339608192444
1667337322.97970486,235738169,1,0.49963122606277466,-0.004834236577153206,0.01050340011715889,0.866161048412323
1667337322.99970484,235758169,1,0.4978608191013336,-0.006835335399955511,0.011046193540096283,0.8671596646308899
1667337323.01964188,235778106,1,0.4961339235305786,-0.010076284408569336,0.011350388638675213,0.8681133389472961
1667337323.05969000,235818154,1,0.4931807816028595,-0.017082728445529938,0.012374412268400192,0.8696710467338562
1667337323.09965491,235858119,1,0.48952603340148926,-0.024930061772465706,0.014366809278726578,0.871513843536377
1667337323.13970494,235898169,1,0.4859892725944519,-0.030077889561653137,0.015962008386850357,0.8733012080192566
1667337323.17970586,235938170,1,0.4831591844558716,-0.033827558159828186,0.016688259318470955,0.8747196197509766
1667337323.19968700,235958151,1,0.4818885028362274,-0.033028099685907364,0.01771869882941246,0.8754305839538574
1667337323.21968079,235978145,1,0.48093101382255554,-0.03290969878435135,0.015429873019456863,0.876004695892334
1667337323.25967598,236018140,1,0.47833025455474854,-0.03027544729411602,0.01339692808687687,0.8775557279586792
1667337323.29968190,236058146,1,0.4765858054161072,-0.026350755244493484,0.01176384836435318,0.8786541819572449
1667337323.33969879,236098163,1,0.47547391057014465,-0.021260656416416168,0.010281449183821678,0.8794127702713013
1667337323.37970686,236138171,1,0.4752650260925293,-0.016317827627062798,0.008694177493453026,0.8796483874320984
1667337323.39967394,236158138,1,0.4752267003059387,-0.013970277272164822,0.009138109162449837,0.879705011844635
1667337323.41972280,236178187,1,0.4749642014503479,-0.012035713531076908,0.008749895729124546,0.8798792958259583
1667337323.45966601,236218130,1,0.4746590256690979,-0.009308656677603722,0.0060117896646261215,0.8801000118255615
1667337323.49968791,236258152,1,0.47452205419540405,-0.006835707928985357,0.006605089176446199,0.8801922798156738
1667337323.53966784,236298132,1,0.4743879437446594,-0.0052252705208957195,0.005352741107344627,0.8802841305732727
1667337323.57971287,236338177,1,0.4745860993862152,-0.005241562612354755,0.005953534971922636,0.8801733255386353
1667337323.59964490,236358109,1,0.4750850796699524,-0.0053781382739543915,0.007115309126675129,0.8798946738243103
1667337323.61966681,236378131,1,0.47527462244033813,-0.005954456981271505,0.0071182562969625,0.8797885775566101
1667337323.65970778,236418172,1,0.47554582357406616,-0.008145689032971859,0.008149032481014729,0.8796154856681824
1667337323.69968200,236458146,1,0.47669532895088196,-0.010024523362517357,0.008516001515090466,0.8789701461791992
1667337323.73966980,236498134,1,0.47764265537261963,-0.012744956649839878,0.00929253175854683,0.8784126043319702
1667337323.77964997,236538114,1,0.4799233078956604,-0.015791887417435646,0.012272228486835957,0.8770824670791626
1667337323.79968381,236558148,1,0.4808890223503113,-0.018215341493487358,0.01154110673815012,0.8765162229537964
1667337323.81970286,236578167,1,0.48189690709114075,-0.01890682615339756,0.010740833356976509,0.8759580850601196
1667337323.85971498,236618179,1,0.48355379700660706,-0.020088108256459236,0.01172450091689825,0.8750055432319641
1667337323.89970493,236658169,1,0.485665887594223,-0.023009585216641426,0.010806428268551826,0.8737748265266418
1667337323.93964481,236698109,1,0.4877026379108429,-0.023312769830226898,0.012201870791614056,0.8726131916046143
1667337323.97966981,236738134,1,0.4901232421398163,-0.024757646024227142,0.0108221136033535,0.8712342381477356
1667337323.99972892,236758193,1,0.492054283618927,-0.025604229420423508,0.010038536973297596,0.8701300024986267
