timestamp,TimeUS,DesRoll,Roll,DesPitch,Pitch,DesYaw,Yaw,ErrRP,ErrYaw,AEKF
1650744119.49938107,172970169,0.0,0.55,0.0,2.79,284.06,284.07,0.0,0.03,3
1650744119.59940791,173070196,0.0,0.53,0.0,2.79,284.06,284.09000000000003,0.0,0.04,3
1650744119.69932604,173170114,0.0,0.55,0.0,2.79,284.06,284.09000000000003,0.0,0.03,3
1650744119.79929805,173270086,0.0,0.54,0.0,2.79,284.06,284.08,0.0,0.03,3
1650744119.89933991,173370128,0.0,0.54,0.0,2.79,284.06,284.08,0.0,0.03,3
1650744119.99922204,173470010,0.0,0.54,0.0,2.7800000000000002,284.06,284.09000000000003,0.0,0.02,3
1650744120.09926605,173570054,0.0,0.54,0.0,2.79,284.06,284.07,0.0,0.03,3
1650744120.19929910,173670087,0.0,0.54,0.0,2.79,284.06,284.07,0.0,0.02,3
1650744120.29926205,173770050,0.0,0.54,0.0,2.8000000000000003,284.06,284.07,0.0,0.02,3
1650744120.39925098,173870039,0.0,0.54,0.0,2.79,284.06,284.06,0.0,0.02,3
1650744120.49928904,173970077,0.0,0.53,0.0,2.79,284.06,284.05,0.0,0.02,3
1650744120.59929204,174070080,0.0,0.54,0.0,2.8000000000000003,284.06,284.05,0.0,0.02,3
1650744120.69928193,174170070,0.0,0.54,0.0,2.8000000000000003,284.06,284.04,0.0,0.02,3
1650744120.79936004,174270148,0.0,0.54,0.0,2.79,284.06,284.03000000000003,0.0,0.01,3
1650744120.89936805,174370156,0.0,0.54,0.0,2.79,284.06,284.03000000000003,0.0,0.03,3
1650744120.99937606,174470164,0.0,0.54,0.0,2.8000000000000003,284.06,284.03000000000003,0.0,0.03,3
1650744121.09931898,174570107,0.0,0.54,0.0,2.8000000000000003,284.06,284.02,0.0,0.02,3
1650744121.19933891,174670127,0.0,0.53,0.0,2.79,284.06,284.01,0.0,0.02,3
1650744121.29927993,174770068,0.0,0.54,0.0,2.8000000000000003,284.06,284.01,0.0,0.01,3
1650744121.39932704,174870115,0.0,0.53,0.0,2.8000000000000003,284.06,283.99,0.0,0.02,3
1650744121.49931598,174970104,0.0,0.54,0.0,2.8000000000000003,283.98,283.99,0.0,0.02,3
1650744121.59924197,175070030,0.0,0.53,0.0,2.8000000000000003,283.98,283.99,0.0,0.03,3
1650744121.69927192,175170060,0.0,0.53,0.0,2.8000000000000003,283.97,283.98,0.01,0.03,3
1650744121.79922199,175270010,0.0,0.54,0.0,2.8000000000000003,283.97,283.98,0.01,0.03,3
1650744121.89931202,175370100,0.0,0.53,0.0,2.8000000000000003,283.98,283.99,0.01,0.03,3
1650744121.99924111,175470029,0.0,0.54,0.0,2.8000000000000003,283.98,283.99,0.01,0.04,3
1650744122.09929395,175570082,0.0,0.54,0.0,2.8000000000000003,283.98,283.99,0.01,0.03,3
1650744122.19923997,175670028,0.0,0.54,0.0,2.8000000000000003,283.97,283.98,0.01,0.03,3
1650744122.29939008,175770178,0.0,0.54,0.0,2.79,283.99,284.0,0.0,0.03,3
1650744122.39935207,175870140,-0.1,0.52,0.0,2.8000000000000003,284.0,284.01,0.0,0.04,3
1650744122.49930096,175970089,-0.22,0.55,0.0,2.79,284.0,284.01,0.0,0.04,3
1650744122.59943199,176070220,-0.26,0.56,0.0,2.8000000000000003,283.98,283.99,0.0,0.07,3
1650744122.69935894,176170147,-0.28,0.54,0.0,2.81,283.96,283.97,0.0,0.07,3
1650744122.79932404,176270112,-0.28,0.5700000000000001,0.0,2.79,283.95,283.96,0.0,0.07,3
1650744122.89936590,176370154,-0.27,0.52,0.0,2.79,283.92,283.93,0.0,0.06,3
1650744122.99940705,176470195,-0.24,0.56,0.0,2.81,283.89,283.90000000000003,0.0,0.07,3
1650744123.09921598,176570004,-0.19,0.55,0.0,2.81,283.87,283.88,0.01,0.07,3
1650744123.19935489,176670143,-0.17,0.56,0.0,2.8000000000000003,283.85,283.86,0.01,0.08,3
1650744123.29930592,176770094,-0.15,0.5700000000000001,0.0,2.8000000000000003,283.83,283.84000000000003,0.0,0.09,3
1650744123.39927793,176870066,-0.1,0.55,0.0,2.8000000000000003,283.8,283.81,0.0,0.09,3
1650744123.49928498,176970073,-0.05,0.58,0.0,2.8000000000000003,283.77,283.78000000000003,0.01,0.09,3
1650744123.59923911,177070027,-0.02,0.55,0.0,2.8000000000000003,283.75,283.76,0.01,0.09,3
1650744123.69930410,177170092,-0.01,0.54,0.0,2.8000000000000003,283.72,283.73,0.01,0.11,3
1650744123.79930997,177270098,0.0,0.56,0.0,2.8000000000000003,283.67,283.68,0.01,0.1,3
1650744123.89938402,177370172,0.0,0.54,0.0,2.81,283.65000000000003,283.66,0.01,0.09,3
1650744123.99931002,177470098,0.0,0.56,0.0,2.79,283.64,283.65000000000003,0.01,0.09,3
1650744124.09936094,177570149,0.0,0.55,0.0,2.8000000000000003,283.61,283.62,0.01,0.09,3
1650744124.19943595,177670224,0.0,0.55,0.0,2.8000000000000003,283.57,283.58,0.01,0.09,3
1650744124.29933405,177770122,0.0,0.55,0.0,2.81,283.54,283.55,0.01,0.07,3
1650744124.39938402,177870172,0.0,0.55,0.0,2.81,283.53000000000003,283.54,0.01,0.06,3
1650744124.49928808,177970076,0.0,0.55,0.0,2.8000000000000003,283.51,283.52,0.01,0.05,3
1650744124.59930992,178070098,0.0,0.55,0.0,2.82,283.49,283.5,0.01,0.07,3
1650744124.69928098,178170069,0.0,0.54,0.0,2.81,283.47,283.48,0.01,0.08,3
1650744124.79927802,178270066,0.0,0.54,0.0,2.8000000000000003,283.45,283.46,0.01,0.08,3
1650744124.89929605,178370084,0.0,0.55,0.0,2.8000000000000003,283.44,283.45,0.01,0.08,3
1650744124.99934697,178470135,0.0,0.54,0.0,2.8000000000000003,283.42,283.43,0.01,0.09,3
1650744125.09928298,178570071,0.0,0.55,0.0,2.8000000000000003,283.38,283.39,0.01,0.08,3
1650744125.19924212,178670030,0.0,0.54,0.0,2.8000000000000003,283.35,283.36,0.01,0.07,3
1650744125.29930711,178770095,0.0,0.54,0.0,2.81,283.33,283.34000000000003,0.01,0.05,3
1650744125.39928794,178870076,0.0,0.53,0.0,2.81,283.31,283.32,0.01,0.07,3
1650744125.49939609,178970184,0.0,0.55,0.0,2.81,283.29,283.3,0.01,0.08,3
1650744125.59931397,179070102,0.0,0.56,0.0,2.81,283.28000000000003,283.29,0.01,0.08,3
1650744125.69934988,179170138,0.0,0.54,0.0,2.81,283.25,283.26,0.01,0.08,3
1650744125.79940009,179270188,0.0,0.56,0.0,2.81,283.21,283.22,0.01,0.07,3
1650744125.89938807,179370176,0.0,0.54,0.0,2.8000000000000003,283.19,283.2,0.01,0.07,3
1650744125.99930692,179470095,0.0,0.55,0.0,2.81,283.17,283.18,0.01,0.08,3
1650744126.09929609,179570084,0.0,0.56,0.0,2.81,283.13,283.14,0.01,0.1,3
1650744126.19931507,179670103,0.0,0.5700000000000001,0.0,2.71,283.13,283.13,0.01,0.13,3
1650744126.29924393,179770032,0.0,0.59,0.0,2.67,283.13,283.09000000000003,0.01,0.24,3
1650744126.39928794,179870076,0.0,0.55,0.0,2.64,283.13,282.99,0.01,0.26,3
1650744126.49930811,179970096,0.0,0.59,0.0,2.67,283.13,282.94,0.01,0.25,3
1650744126.59930491,180070093,0.0,0.62,0.0,2.75,283.13,282.86,0.01,0.28,3
1650744126.69927001,180170058,0.0,0.59,0.0,2.64,283.13,282.79,0.01,0.3,3
1650744126.79932904,180270117,0.0,0.52,0.0,2.67,283.13,282.69,0.01,0.3,3
1650744126.89937806,180370166,0.0,0.62,0.0,2.67,283.13,282.62,0.02,0.27,3
1650744126.99931407,180470102,0.0,0.58,0.0,2.69,282.49,282.5,0.02,0.28,3
1650744127.09927511,180570063,0.0,0.6,0.0,2.7800000000000002,282.37,282.38,0.02,0.29,3
1650744127.19930601,180670094,0.0,0.6,0.0,2.83,282.3,282.31,0.02,0.25,3
1650744127.29936004,180770148,0.0,0.59,0.0,2.85,282.29,282.3,0.02,0.21,3
1650744127.39933896,180870127,0.0,0.56,0.0,2.8000000000000003,282.23,282.24,0.02,0.19,3
1650744127.49925590,180970044,0.0,0.5700000000000001,0.0,2.79,282.18,282.19,0.02,0.15,3
1650744127.59940600,181070194,0.0,0.55,0.0,2.83,282.19,282.2,0.02,0.12,3
1650744127.69932389,181170112,0.0,0.5700000000000001,0.0,2.84,282.19,282.2,0.01,0.13,3
1650744127.79928493,181270073,0.0,0.55,0.0,2.82,282.18,282.19,0.01,0.12,3
1650744127.89966893,181370457,0.0,0.56,0.0,2.81,282.2,282.21,0.01,0.09,3
1650744127.99927902,181470067,0.0,0.55,0.0,2.82,282.23,282.24,0.01,0.08,3
1650744128.09922600,181570014,0.0,0.55,0.0,2.85,282.22,282.23,0.01,0.08,3
1650744128.19929695,181670085,0.0,0.56,0.0,2.84,282.2,282.21,0.01,0.08,3
1650744128.29923105,181770019,0.0,0.55,0.0,2.82,282.24,282.25,0.01,0.07,3
1650744128.39929390,181870082,0.0,0.55,0.0,2.85,282.23,282.24,0.01,0.07,3
1650744128.49923992,181970028,0.0,0.56,0.0,2.87,282.18,282.19,0.01,0.07,3
1650744128.59945607,182070244,0.0,0.52,0.0,2.85,282.2,282.21,0.01,0.06,3
1650744128.69935989,182170148,0.0,0.5700000000000001,0.0,2.85,282.21,282.22,0.0,0.04,3
1650744128.79931808,182270106,0.0,0.53,0.0,2.87,282.16,282.17,0.0,0.07,3
1650744128.89982510,182370613,0.0,0.55,0.0,2.87,282.17,282.18,0.0,0.07,3
1650744128.99932790,182470116,0.0,0.56,0.0,2.85,282.21,282.22,0.0,0.06,3
1650744129.09926891,182570057,0.0,0.54,0.0,2.85,282.2,282.21,0.0,0.09,3
1650744129.19928694,182670075,0.0,0.5700000000000001,0.0,2.86,282.19,282.2,0.0,0.08,3
1650744129.29930592,182770094,0.0,0.54,0.0,2.86,282.23,282.24,0.0,0.07,3
1650744129.39924693,182870035,0.0,0.58,0.0,2.84,282.24,282.25,0.0,0.06,3
1650744129.49936795,182970156,0.0,0.56,0.0,2.84,282.23,282.24,0.0,0.05,3
1650744129.59929299,183070081,0.0,0.56,0.0,2.86,282.24,282.25,0.0,0.05,3
1650744129.69927692,183170065,0.0,0.58,0.0,2.85,282.26,282.27,0.0,0.06,3
1650744129.79927397,183270062,0.0,0.55,0.0,2.84,282.24,282.25,0.0,0.06,3
1650744129.89997792,183370766,0.0,0.58,0.0,2.84,282.24,282.25,0.0,0.05,3
1650744129.99929190,183470080,0.0,0.56,0.0,2.85,282.26,282.27,0.0,0.05,3
1650744130.09931588,183570104,0.0,0.5700000000000001,0.0,2.84,282.25,282.26,0.0,0.05,3
1650744130.19932890,183670117,0.0,0.5700000000000001,0.0,2.84,282.24,282.25,0.0,0.04,3
1650744130.29930902,183770097,0.0,0.56,0.0,2.85,282.26,282.27,0.0,0.04,3
1650744130.39944291,183870231,0.0,0.58,0.0,2.86,282.25,282.26,0.0,0.04,3
1650744130.49939704,183970185,0.0,0.56,0.0,2.85,282.24,282.25,0.0,0.03,3
1650744130.59925294,184070041,0.0,0.5700000000000001,0.0,2.86,282.25,282.26,0.0,0.03,3
1650744130.69942403,184170212,0.0,0.5700000000000001,0.0,2.86,282.24,282.25,0.0,0.02,3
1650744130.79929399,184270082,0.0,0.5700000000000001,0.0,2.86,282.22,282.23,0.0,0.04,3
1650744130.89999390,184370782,0.0,0.5700000000000001,0.0,2.86,282.23,282.24,0.0,0.04,3
1650744130.99925208,184470040,0.0,0.56,0.0,2.86,282.23,282.24,0.0,0.05,3
1650744131.09928393,184570072,0.0,0.58,0.0,2.86,282.23,282.24,0.0,0.04,3
1650744131.19923592,184670024,0.0,0.56,0.0,2.86,282.22,282.23,0.0,0.04,3
1650744131.29929709,184770085,0.0,0.58,0.0,2.86,282.24,282.25,0.0,0.03,3
1650744131.39929104,184870079,0.0,0.5700000000000001,0.0,2.85,282.24,282.25,0.0,0.03,3
1650744131.49929810,184970086,0.0,0.5700000000000001,0.0,2.85,282.22,282.23,0.0,0.03,3
1650744131.59937310,185070161,0.0,0.5700000000000001,0.0,2.86,282.23,282.24,0.0,0.03,3
1650744131.69926405,185170052,0.0,0.5700000000000001,0.0,2.85,282.23,282.24,0.0,0.04,3
1650744131.79939795,185270186,0.0,0.58,0.0,2.85,282.22,282.23,0.0,0.04,3
1650744131.90002894,185370817,0.0,0.5700000000000001,0.0,2.85,282.23,282.24,0.0,0.03,3
1650744131.99935889,185470147,0.0,0.58,0.0,2.85,282.24,282.25,0.0,0.05,3
1650744132.09929299,185570081,0.0,0.5700000000000001,0.0,2.84,282.23,282.24,0.0,0.06,3
1650744132.19929409,185670082,0.0,0.5700000000000001,0.0,2.84,282.23,282.24,0.0,0.05,3
1650744132.29928398,185770072,0.0,0.5700000000000001,0.0,2.84,282.26,282.27,0.0,0.06,3
1650744132.39931488,185870103,0.0,0.55,0.0,2.84,282.26,282.27,0.0,0.06,3
1650744132.49929094,185970079,0.0,0.5700000000000001,0.0,2.84,282.26,282.27,0.0,0.07,3
1650744132.59923792,186070026,0.0,0.55,0.0,2.84,282.28000000000003,282.29,0.0,0.08,3
1650744132.69928503,186170073,0.0,0.56,0.0,2.84,282.29,282.3,0.0,0.08,3
1650744132.79931593,186270104,0.0,0.56,0.0,2.84,282.3,282.31,0.0,0.08,3
1650744132.89982700,186370615,0.0,0.55,0.0,2.84,282.33,282.34000000000003,0.0,0.07,3
1650744132.99928403,186470072,0.0,0.56,0.0,2.84,282.34000000000003,282.35,0.0,0.06,3
1650744133.09937406,186570162,0.0,0.55,0.0,2.84,282.34000000000003,282.35,0.0,0.05,3
1650744133.19931102,186670099,0.0,0.5700000000000001,0.0,2.84,282.35,282.36,0.0,0.06,3
1650744133.29925108,186770039,0.0,0.56,0.0,2.84,282.36,282.37,0.0,0.06,3
1650744133.39937496,186870163,0.0,0.56,0.0,2.84,282.36,282.37,0.0,0.05,3
1650744133.49930310,186970091,0.0,0.56,0.0,2.84,282.36,282.37,0.0,0.06,3
1650744133.59941602,187070204,0.0,0.56,0.0,2.84,282.37,282.38,0.0,0.05,3
1650744133.69924688,187170035,0.0,0.56,0.0,2.84,282.36,282.37,0.0,0.05,3
1650744133.79928088,187270069,0.0,0.55,0.0,2.84,282.35,282.36,0.0,0.04,3
1650744133.89974999,187370538,0.0,0.56,0.0,2.85,282.36,282.37,0.0,0.05,3
1650744133.99934506,187470133,0.0,0.55,0.0,2.85,282.35,282.36,0.0,0.05,3
1650744134.09923005,187570018,0.0,0.56,0.0,2.85,282.34000000000003,282.35,0.0,0.08,3
1650744134.19926405,187670052,0.0,0.56,0.0,2.84,282.36,282.37,0.0,0.09,3
1650744134.29925489,187770043,0.0,0.56,0.0,2.84,282.36,282.37,0.0,0.09,3
1650744134.39929295,187870081,0.0,0.56,0.0,2.84,282.37,282.38,0.0,0.07,3
1650744134.49928308,187970071,0.0,0.56,0.0,2.84,282.39,282.40000000000003,0.0,0.06,3
1650744134.59923697,188070025,0.0,0.56,0.0,2.84,282.41,282.42,0.0,0.05,3
1650744134.69925809,188170046,0.0,0.55,0.0,2.84,282.40000000000003,282.41,0.0,0.04,3
1650744134.79930210,188270090,0.0,0.56,0.0,2.84,282.40000000000003,282.41,0.0,0.07,3
1650744134.89988589,188370674,0.0,0.56,0.0,2.84,282.41,282.42,0.0,0.06,3
1650744134.99937105,188470159,0.0,0.56,0.0,2.84,282.41,282.42,0.0,0.07,3
1650744135.09931803,188570106,0.0,0.56,0.0,2.84,282.41,282.42,0.0,0.07,3
1650744135.19941807,188670206,0.0,0.56,0.0,2.84,282.43,282.44,0.0,0.07,3
1650744135.29924011,188770028,0.0,0.56,0.0,2.84,282.44,282.45,0.0,0.06,3
1650744135.39941096,188870199,0.0,0.56,0.0,2.84,282.44,282.45,0.0,0.05,3
1650744135.49930406,188970092,0.0,0.55,0.0,2.85,282.45,282.46,0.0,0.05,3
1650744135.59930801,189070096,0.0,0.56,0.0,2.85,282.45,282.46,0.0,0.05,3
1650744135.69924808,189170036,0.0,0.55,0.0,2.84,282.45,282.46,0.0,0.04,3
1650744135.79935193,189270140,0.0,0.56,0.0,2.85,282.45,282.46,0.0,0.03,3
1650744135.89971900,189370507,0.0,0.55,0.0,2.85,282.46,282.47,0.0,0.03,3
1650744135.99930596,189470094,0.0,0.55,0.0,2.84,282.45,282.46,0.0,0.02,3
1650744136.09924197,189570030,0.0,0.56,0.0,2.84,282.45,282.46,0.0,0.02,3
1650744136.19926190,189670050,0.0,0.55,0.0,2.85,282.45,282.46,0.0,0.02,3
1650744136.29927492,189770063,0.0,0.56,0.0,2.85,282.45,282.46,0.0,0.02,3
1650744136.39930892,189870097,0.0,0.54,0.0,2.84,282.44,282.45,0.0,0.03,3
1650744136.49936795,189970156,0.0,0.55,0.0,2.84,282.45,282.46,0.0,0.03,3
1650744136.59935308,190070141,0.0,0.55,0.0,2.84,282.45,282.46,0.0,0.03,3
1650744136.69943094,190170219,0.0,0.54,0.0,2.84,282.45,282.46,0.0,0.03,3
1650744136.79936409,190270152,0.0,0.56,0.0,2.84,282.46,282.47,0.0,0.02,3
1650744136.89966011,190370448,0.0,0.54,0.0,2.84,282.46,282.47,0.0,0.03,3
1650744136.99941707,190470205,0.0,0.55,0.0,2.84,282.46,282.47,0.0,0.03,3
1650744137.09928393,190570072,0.0,0.55,0.0,2.84,282.46,282.47,0.0,0.03,3
1650744137.19931388,190670102,0.0,0.55,0.0,2.84,282.46,282.47,0.0,0.03,3
1650744137.29926705,190770055,0.0,0.55,0.0,2.84,282.45,282.46,0.0,0.03,3
1650744137.39929509,190870083,0.0,0.55,0.0,2.84,282.45,282.46,0.0,0.03,3
1650744137.49926305,190970051,0.0,0.55,0.0,2.84,282.46,282.47,0.0,0.03,3
1650744137.59930396,191070092,0.0,0.55,0.0,2.84,282.45,282.46,0.0,0.04,3
1650744137.69924092,191170029,0.0,0.55,0.0,2.85,282.44,282.45,0.0,0.04,3
1650744137.79928088,191270069,0.0,0.55,0.0,2.85,282.45,282.46,0.0,0.04,3
1650744137.89936709,191370155,0.0,0.55,0.0,2.84,282.45,282.46,0.0,0.04,3
1650744137.99930096,191470089,0.0,0.55,0.0,2.85,282.45,282.46,0.0,0.03,3
1650744138.09939408,191570182,0.0,0.54,0.0,2.85,282.45,282.47,0.0,0.04,3
1650744138.19936991,191670158,0.0,0.55,0.0,2.84,282.45,282.47,0.0,0.03,3
1650744138.29936910,191770157,0.0,0.54,0.0,2.84,282.45,282.47,0.0,0.04,3
1650744138.39932489,191870113,0.0,0.56,0.0,2.84,282.45,282.47,0.0,0.03,3
1650744138.49932408,191970112,0.0,0.55,0.0,2.85,282.45,282.47,0.0,0.03,3
1650744138.59930110,192070089,0.0,0.55,0.0,2.84,282.45,282.47,0.0,0.04,3
1650744138.69922400,192170012,0.0,0.56,0.0,2.84,282.45,282.48,0.0,0.04,3
1650744138.79931688,192270105,0.0,0.55,0.0,2.84,282.45,282.49,0.0,0.04,3
1650744138.89927602,192370064,0.0,0.56,0.0,2.84,282.45,282.49,0.0,0.04,3
1650744138.99928594,192470074,0.0,0.55,0.0,2.84,282.45,282.5,0.0,0.04,3
1650744139.09930205,192570090,0.0,0.56,0.0,2.84,282.45,282.51,0.0,0.04,3
1650744139.19934893,192670137,0.0,0.55,0.0,2.84,282.45,282.52,0.0,0.04,3
1650744139.29923511,192770023,0.0,0.55,0.0,2.84,282.45,282.52,0.0,0.04,3
1650744139.39938688,192870175,0.0,0.56,0.0,2.84,282.45,282.53000000000003,0.0,0.03,3
1650744139.49930906,192970097,0.0,0.55,0.0,2.83,282.45,282.54,0.0,0.03,3
1650744139.59930110,193070089,0.0,0.56,0.0,2.83,282.45,282.53000000000003,0.0,0.03,3
1650744139.69936109,193170149,0.0,0.54,0.0,2.83,282.45,282.53000000000003,0.01,0.04,3
1650744139.79933095,193270119,0.0,0.55,0.0,2.83,282.45,282.54,0.01,0.04,3
1650744139.89941192,193370200,0.0,0.55,0.0,2.83,282.53000000000003,282.54,0.01,0.03,3
1650744139.99924898,193470037,0.0,0.54,0.0,2.84,282.53000000000003,282.54,0.01,0.03,3
1650744140.09935308,193570141,0.0,0.56,0.0,2.84,282.54,282.55,0.01,0.03,3
1650744140.19934893,193670137,0.0,0.55,0.0,2.83,282.54,282.55,0.01,0.04,3
1650744140.29930711,193770095,0.0,0.55,0.0,2.83,282.53000000000003,282.54,0.01,0.05,3
1650744140.39927697,193870065,0.0,0.54,0.0,2.84,282.54,282.56,0.01,0.04,3
1650744140.49922991,193970018,0.0,0.54,0.0,2.84,282.54,282.57,0.0,0.03,3
1650744140.59925604,194070044,0.0,0.54,0.0,2.83,282.54,282.57,0.0,0.03,3
1650744140.69922304,194170011,0.0,0.54,0.0,2.82,282.54,282.56,0.01,0.03,3
1650744140.79926610,194270054,0.0,0.55,0.0,2.82,282.54,282.58,0.01,0.05,3
1650744140.89928508,194370073,0.0,0.55,0.0,2.79,282.54,282.56,0.01,0.08,3
1650744140.99935699,194470145,0.0,0.5700000000000001,0.0,2.72,282.54,282.54,0.01,0.18,3
1650744141.09928107,194570069,0.0,0.56,0.0,2.63,282.54,282.51,0.01,0.24,3
1650744141.19946504,194670253,0.0,0.5,0.0,2.7,282.54,282.45,0.01,0.26,3
1650744141.29939103,194770179,0.0,0.52,0.0,2.68,282.54,282.36,0.01,0.25,3
1650744141.39938211,194870170,0.0,0.61,0.0,2.68,282.54,282.27,0.01,0.26,3
1650744141.49934411,194970132,0.0,0.5700000000000001,0.0,2.71,282.54,282.21,0.01,0.28,3
1650744141.59926200,195070050,0.0,0.63,0.0,2.69,282.54,282.11,0.01,0.29,3
1650744141.69931102,195170099,0.0,0.64,0.0,2.69,282.54,282.03000000000003,0.01,0.29,3
1650744141.79927301,195270061,0.0,0.46,0.0,2.68,282.54,281.96,0.01,0.3,3
1650744141.89933801,195370126,0.0,0.67,0.0,2.71,282.54,281.88,0.01,0.3,3
1650744141.99925494,195470043,0.0,0.55,0.0,2.66,282.54,281.79,0.01,0.3,3
1650744142.09935999,195570148,0.0,0.63,0.0,2.7,282.54,281.73,0.01,0.29,3
1650744142.19926000,195670048,0.0,0.56,0.0,2.69,282.54,281.64,0.01,0.31,3
1650744142.29929590,195770084,0.0,0.56,0.0,2.67,282.54,281.59000000000003,0.01,0.34,3
1650744142.39927101,195870059,0.0,0.55,0.0,2.67,282.54,281.49,0.01,0.34,3
1650744142.49927497,195970063,0.0,0.6,0.0,2.69,282.48,281.39,0.01,0.36,3
1650744142.59935308,196070141,0.0,0.64,0.0,2.73,281.99,281.27,0.01,0.35000000000000003,3
1650744142.69929290,196170081,0.0,0.62,0.0,2.67,281.56,281.15000000000003,0.01,0.35000000000000003,3
1650744142.79937696,196270165,0.0,0.55,0.0,2.68,281.31,281.11,0.01,0.3,3
1650744142.89936209,196370150,0.0,0.65,0.0,2.72,281.08,281.09000000000003,0.01,0.3,3
1650744142.99944711,196470235,0.0,0.61,0.0,2.82,280.94,280.95,0.01,0.25,3
1650744143.09938312,196570171,0.0,0.56,0.0,2.86,280.83,280.84000000000003,0.01,0.21,3
1650744143.19929409,196670082,0.0,0.6,0.0,2.79,280.86,280.88,0.01,0.18,3
1650744143.29933500,196770123,0.0,0.5700000000000001,0.0,2.7800000000000002,280.84000000000003,280.85,0.01,0.15,3
1650744143.39923811,196870026,0.0,0.58,0.0,2.82,280.77,280.78000000000003,0.01,0.13,3
1650744143.49926996,196970058,0.0,0.5700000000000001,0.0,2.85,280.77,280.78000000000003,0.01,0.11,3
1650744143.59925890,197070047,0.0,0.58,0.0,2.82,280.8,280.81,0.01,0.09,3
1650744143.69931388,197170102,0.0,0.56,0.0,2.8000000000000003,280.77,280.78000000000003,0.01,0.08,3
1650744143.79925108,197270039,0.0,0.56,0.0,2.82,280.74,280.75,0.01,0.07,3
1650744143.89974499,197370533,0.0,0.5700000000000001,0.0,2.84,280.78000000000003,280.79,0.01,0.06,3
1650744143.99933100,197470119,0.0,0.55,0.0,2.82,280.76,280.78000000000003,0.01,0.05,3
1650744144.09931588,197570104,0.0,0.56,0.0,2.81,280.74,280.76,0.01,0.06,3
1650744144.19935298,197670141,0.0,0.54,0.0,2.83,280.76,280.78000000000003,0.01,0.05,3
1650744144.29927492,197770063,0.0,0.5700000000000001,0.0,2.83,280.79,280.8,0.0,0.04,3
1650744144.39941311,197870201,0.0,0.56,0.0,2.81,280.76,280.77,0.0,0.04,3
1650744144.49933100,197970119,0.0,0.55,0.0,2.82,280.76,280.77,0.0,0.03,3
1650744144.59934306,198070131,0.0,0.58,0.0,2.83,280.79,280.8,0.0,0.03,3
1650744144.69922900,198170017,0.0,0.5700000000000001,0.0,2.83,280.76,280.77,0.0,0.02,3
1650744144.79934692,198270135,0.0,0.56,0.0,2.82,280.75,280.76,0.0,0.03,3
1650744144.89970088,198370489,0.0,0.56,0.0,2.82,280.78000000000003,280.79,0.0,0.04,3
1650744144.99924803,198470036,0.0,0.5700000000000001,0.0,2.82,280.78000000000003,280.79,0.0,0.04,3
1650744145.09928203,198570070,0.0,0.56,0.0,2.82,280.77,280.78000000000003,0.0,0.05,3
1650744145.19928789,198670076,0.0,0.56,0.0,2.82,280.79,280.8,0.0,0.04,3
1650744145.29925394,198770042,0.0,0.5700000000000001,0.0,2.83,280.8,280.81,0.0,0.04,3
1650744145.39930010,198870088,0.0,0.56,0.0,2.83,280.8,280.81,0.0,0.03,3
1650744145.49929595,198970084,0.0,0.58,0.0,2.83,280.82,280.83,0.0,0.03,3
1650744145.59927797,199070066,0.0,0.56,0.0,2.83,280.83,280.84000000000003,0.0,0.03,3
1650744145.69936204,199170150,0.0,0.56,0.0,2.84,280.82,280.83,0.0,0.05,3
1650744145.79936099,199270149,0.0,0.5700000000000001,0.0,2.84,280.84000000000003,280.85,0.0,0.04,3
1650744145.89970088,199370489,0.0,0.55,0.0,2.83,280.85,280.86,0.0,0.03,3
1650744145.99942589,199470214,0.0,0.58,0.0,2.83,280.84000000000003,280.85,0.0,0.03,3
1650744146.09932995,199570118,0.0,0.55,0.0,2.83,280.85,280.86,0.0,0.04,3
1650744146.19937801,199670166,0.0,0.5700000000000001,0.0,2.84,280.86,280.87,0.0,0.03,3
1650744146.29932904,199770117,0.0,0.56,0.0,2.83,280.86,280.87,0.0,0.03,3
1650744146.39932895,199870117,0.0,0.56,0.0,2.84,280.86,280.87,0.0,0.04,3
1650744146.49929404,199970082,0.0,0.5700000000000001,0.0,2.85,280.88,280.89,0.0,0.04,3
1650744146.59935403,200070142,0.0,0.56,0.0,2.84,280.88,280.89,0.0,0.04,3
1650744146.69924688,200170035,0.0,0.58,0.0,2.84,280.88,280.89,0.0,0.04,3
1650744146.79922891,200270017,0.0,0.56,0.0,2.84,280.90000000000003,280.91,0.0,0.03,3
1650744146.89971495,200370503,0.0,0.5700000000000001,0.0,2.84,280.91,280.92,0.0,0.04,3
1650744146.99927402,200470062,0.0,0.5700000000000001,0.0,2.84,280.90000000000003,280.91,0.0,0.04,3
1650744147.09930301,200570091,0.0,0.5700000000000001,0.0,2.84,280.91,280.92,0.0,0.04,3
1650744147.19927192,200670060,0.0,0.58,0.0,2.84,280.93,280.94,0.0,0.04,3
1650744147.29930401,200770092,0.0,0.56,0.0,2.84,280.92,280.93,0.0,0.03,3
1650744147.39931202,200870100,0.0,0.58,0.0,2.83,280.92,280.93,0.0,0.03,3
1650744147.49940801,200970196,0.0,0.56,0.0,2.84,280.93,280.94,0.0,0.04,3
1650744147.59938002,201070168,0.0,0.58,0.0,2.84,280.93,280.94,0.0,0.05,3
1650744147.69928789,201170076,0.0,0.58,0.0,2.83,280.93,280.94,0.0,0.04,3
1650744147.79935408,201270142,0.0,0.5700000000000001,0.0,2.83,280.95,280.96,0.0,0.05,3
1650744147.89971590,201370504,0.0,0.59,0.0,2.84,280.96,280.97,0.0,0.07,3
1650744147.99931312,201470101,0.0,0.56,0.0,2.83,280.97,280.98,0.0,0.05,3
1650744148.09923005,201570018,0.0,0.58,0.0,2.83,280.99,281.0,0.0,0.04,3
1650744148.19935489,201670143,0.0,0.56,0.0,2.83,281.01,281.02,0.0,0.04,3
1650744148.29924202,201770030,0.0,0.5700000000000001,0.0,2.84,281.0,281.01,0.0,0.04,3
1650744148.39936090,201870149,0.0,0.5700000000000001,0.0,2.83,281.01,281.02,0.0,0.03,3
1650744148.49928093,201970069,0.0,0.56,0.0,2.83,281.03000000000003,281.04,0.0,0.04,3
1650744148.59931493,202070103,0.0,0.58,0.0,2.83,281.02,281.03000000000003,0.0,0.04,3
1650744148.69927812,202170066,0.0,0.56,0.0,2.83,281.03000000000003,281.04,0.0,0.05,3
1650744148.79926395,202270052,0.0,0.5700000000000001,0.0,2.83,281.04,281.06,0.0,0.04,3
1650744148.89941502,202370203,0.0,0.5700000000000001,0.0,2.83,281.04,281.06,0.0,0.04,3
1650744148.99930096,202470089,0.0,0.5700000000000001,0.0,2.83,281.04,281.06,0.0,0.05,3
1650744149.09937501,202570163,0.0,0.58,0.0,2.83,281.04,281.08,0.0,0.05,3
1650744149.19938397,202670172,0.0,0.5700000000000001,0.0,2.83,281.04,281.09000000000003,0.0,0.05,3
1650744149.29933000,202770118,0.0,0.58,0.0,2.82,281.04,281.1,0.0,0.06,3
1650744149.39935398,202870142,0.0,0.56,0.0,2.83,281.04,281.11,0.0,0.06,3
1650744149.49928093,202970069,0.0,0.5700000000000001,0.0,2.83,281.04,281.13,0.0,0.06,3
1650744149.59935093,203070139,0.0,0.5700000000000001,0.0,2.82,281.04,281.14,0.0,0.06,3
1650744149.69921088,203169999,0.0,0.56,0.0,2.82,281.04,281.15000000000003,0.0,0.04,3
1650744149.79927206,203270060,0.0,0.5700000000000001,0.0,2.83,281.04,281.17,0.0,0.04,3
1650744149.89936996,203370158,0.0,0.56,0.0,2.83,281.04,281.18,0.0,0.03,3
1650744149.99926710,203470055,0.0,0.5700000000000001,0.0,2.82,281.04,281.18,0.0,0.03,3
1650744150.09919906,203569987,0.0,0.56,0.0,2.82,281.04,281.19,0.01,0.03,3
1650744150.19928193,203670070,0.0,0.56,0.0,2.83,281.04,281.19,0.01,0.03,3
1650744150.29926109,203770049,0.0,0.56,0.0,2.83,281.04,281.19,0.01,0.04,3
1650744150.39928794,203870076,0.0,0.56,0.0,2.82,281.04,281.2,0.01,0.06,3
1650744150.49928308,203970071,0.0,0.56,0.0,2.83,281.04,281.21,0.01,0.05,3
1650744150.59932899,204070117,0.0,0.56,0.0,2.83,281.04,281.22,0.01,0.04,3
1650744150.69943500,204170223,0.0,0.56,0.0,2.83,281.04,281.23,0.01,0.03,3
1650744150.79935002,204270138,0.0,0.55,0.0,2.83,281.24,281.25,0.01,0.04,3
1650744150.89937401,204370162,0.0,0.56,0.0,2.83,281.24,281.25,0.01,0.04,3
1650744150.99934411,204470132,0.0,0.56,0.0,2.83,281.24,281.25,0.01,0.03,3
1650744151.09934092,204570129,0.0,0.56,0.0,2.83,281.26,281.27,0.01,0.03,3
1650744151.19929695,204670085,0.0,0.56,0.0,2.83,281.26,281.27,0.01,0.03,3
1650744151.29923201,204770020,0.0,0.56,0.0,2.84,281.26,281.27,0.01,0.03,3
1650744151.39929795,204870086,0.0,0.56,0.0,2.84,281.26,281.27,0.01,0.02,3
1650744151.49923611,204970024,0.0,0.56,0.0,2.84,281.26,281.27,0.01,0.02,3
1650744151.59926796,205070056,0.0,0.55,0.0,2.84,281.28000000000003,281.29,0.01,0.02,3
1650744151.69930410,205170092,0.0,0.58,0.0,2.85,281.29,281.3,0.01,0.03,3
1650744151.79937601,205270164,0.0,0.56,0.0,2.85,281.26,281.27,0.01,0.05,3
1650744151.89932799,205370116,0.0,0.58,0.0,2.85,281.24,281.25,0.01,0.05,3
1650744151.99938703,205470175,0.0,0.56,0.0,2.84,281.25,281.26,0.01,0.05,3
1650744152.09934807,205570136,0.0,0.56,0.0,2.86,281.23,281.24,0.01,0.05,3
1650744152.19931388,205670102,0.0,0.6,0.0,2.85,281.2,281.21,0.01,0.05,3
1650744152.29934907,205770137,0.0,0.5700000000000001,0.0,2.85,281.2,281.21,0.01,0.05,3
1650744152.39924788,205870036,0.0,0.59,0.0,2.85,281.18,281.19,0.01,0.05,3
1650744152.49932504,205970113,0.0,0.5700000000000001,0.0,2.86,281.16,281.17,0.01,0.07,3
1650744152.59929490,206070083,0.0,0.5700000000000001,0.0,2.86,281.16,281.17,0.01,0.08,3
1650744152.69930100,206170089,0.0,0.5700000000000001,0.0,2.83,281.13,281.14,0.01,0.08,3
1650744152.79938507,206270173,0.0,0.56,0.0,2.84,281.1,281.11,0.01,0.07,3
1650744152.89938402,206370172,0.0,0.5700000000000001,0.0,2.85,281.09000000000003,281.1,0.01,0.07,3
1650744152.99927306,206470061,0.0,0.5700000000000001,0.0,2.84,281.07,281.08,0.01,0.07,3
1650744153.09925199,206570040,0.0,0.58,0.0,2.84,281.04,281.05,0.01,0.06,3
1650744153.19926500,206670053,0.0,0.59,0.0,2.84,281.03000000000003,281.04,0.01,0.07,3
1650744153.29922104,206770009,0.0,0.58,0.0,2.85,281.02,281.03000000000003,0.01,0.07,3
1650744153.39930296,206870091,0.0,0.58,0.0,2.85,280.99,281.0,0.01,0.06,3
1650744153.49929810,206970086,0.0,0.58,0.0,2.84,280.97,280.98,0.01,0.05,3
1650744153.59936309,207070151,0.0,0.58,0.0,2.84,280.98,280.99,0.01,0.04,3
1650744153.69929504,207170083,0.0,0.59,0.0,2.84,280.97,280.98,0.01,0.05,3
1650744153.79941201,207270200,0.0,0.56,0.0,2.84,280.94,280.95,0.01,0.07,3
1650744153.89943004,207370218,0.0,0.58,0.0,2.82,280.93,280.94,0.01,0.06,3
1650744153.99932790,207470116,0.0,0.56,0.0,2.83,280.92,280.93,0.01,0.05,3
1650744154.09933400,207570122,0.0,0.59,0.0,2.83,280.89,280.90000000000003,0.01,0.05,3
1650744154.19929695,207670085,0.0,0.5700000000000001,0.0,2.83,280.88,280.89,0.01,0.05,3
1650744154.29929709,207770085,0.0,0.59,0.0,2.83,280.86,280.87,0.01,0.05,3
1650744154.39925098,207870039,0.0,0.59,0.0,2.83,280.85,280.86,0.01,0.04,3
1650744154.49927402,207970062,0.0,0.56,0.0,2.84,280.84000000000003,280.85,0.01,0.06,3
1650744154.59919810,208069986,0.0,0.58,0.0,2.84,280.82,280.83,0.01,0.06,3
1650744154.69927311,208170061,0.0,0.55,0.0,2.84,280.83,280.84000000000003,0.01,0.05,3
1650744154.79929709,208270085,0.0,0.5700000000000001,0.0,2.82,280.83,280.84000000000003,0.01,0.04,3
1650744154.89976001,208370548,0.0,0.56,0.0,2.82,280.84000000000003,280.85,0.0,0.05,3
1650744154.99928498,208470073,0.0,0.54,0.0,2.83,280.82,280.83,0.0,0.04,3
1650744155.09928703,208570075,0.0,0.58,0.0,2.85,280.85,280.86,0.0,0.04,3
1650744155.19940591,208670194,0.0,0.55,0.0,2.82,280.85,280.86,0.0,0.04,3
1650744155.29930496,208770093,0.0,0.56,0.0,2.81,280.84000000000003,280.85,0.0,0.04,3
1650744155.39935398,208870142,0.0,0.5700000000000001,0.0,2.84,280.86,280.87,0.0,0.04,3
1650744155.49931502,208970103,0.0,0.55,0.0,2.85,280.88,280.89,0.0,0.04,3
1650744155.59934902,209070137,0.0,0.58,0.0,2.82,280.85,280.86,0.0,0.03,3
1650744155.69931388,209170102,0.0,0.56,0.0,2.81,280.86,280.87,0.0,0.03,3
1650744155.79929996,209270088,0.0,0.5700000000000001,0.0,2.83,280.88,280.89,0.0,0.04,3
1650744155.89978600,209370574,0.0,0.55,0.0,2.83,280.86,280.87,0.0,0.03,3
1650744155.99925995,209470048,0.0,0.55,0.0,2.82,280.87,280.88,0.0,0.03,3
1650744156.09928393,209570072,0.0,0.55,0.0,2.82,280.90000000000003,280.91,0.0,0.04,3
1650744156.19924903,209670037,0.0,0.54,0.0,2.83,280.88,280.89,0.0,0.04,3
1650744156.29926610,209770054,0.0,0.56,0.0,2.83,280.88,280.89,0.0,0.05,3
1650744156.39925408,209870042,0.0,0.54,0.0,2.83,280.93,280.94,0.0,0.05,3
1650744156.49931097,209970099,0.0,0.56,0.0,2.83,280.92,280.93,0.0,0.05,3
1650744156.59931588,210070104,0.0,0.55,0.0,2.84,280.91,280.92,0.0,0.05,3
1650744156.69929504,210170083,0.0,0.54,0.0,2.84,280.94,280.95,0.0,0.05,3
1650744156.79936194,210270150,0.0,0.55,0.0,2.84,280.95,280.96,0.0,0.05,3
1650744156.89969110,210370479,0.0,0.54,0.0,2.84,280.93,280.94,0.0,0.06,3
1650744156.99939704,210470185,0.0,0.56,0.0,2.85,280.96,280.97,0.0,0.06,3
1650744157.09923506,210570023,0.0,0.55,0.0,2.84,280.98,280.99,0.0,0.05,3
1650744157.19936204,210670150,0.0,0.56,0.0,2.84,280.97,280.98,0.0,0.05,3
1650744157.29927492,210770063,0.0,0.56,0.0,2.84,280.98,280.99,0.0,0.04,3
1650744157.39934397,210870132,0.0,0.55,0.0,2.84,281.01,281.02,0.0,0.04,3
1650744157.49925900,210970047,0.0,0.56,0.0,2.84,281.0,281.01,0.0,0.04,3
1650744157.59924698,211070035,0.0,0.56,0.0,2.83,281.0,281.01,0.0,0.05,3
1650744157.69927907,211170067,0.0,0.5700000000000001,0.0,2.84,281.0,281.04,0.0,0.04,3
1650744157.79925489,211270043,0.0,0.55,0.0,2.83,281.0,281.04,0.0,0.04,3
1650744157.89930701,211370095,0.0,0.5700000000000001,0.0,2.83,281.0,281.04,0.0,0.05,3
1650744157.99929309,211470081,0.0,0.56,0.0,2.84,281.0,281.06,0.0,0.04,3
1650744158.09930205,211570090,0.0,0.56,0.0,2.84,281.0,281.07,0.0,0.03,3
1650744158.19923401,211670022,0.0,0.56,0.0,2.84,281.0,281.08,0.0,0.03,3
1650744158.29935288,211770141,0.0,0.55,0.0,2.83,281.0,281.09000000000003,0.01,0.03,3
1650744158.39935899,211870147,0.0,0.5700000000000001,0.0,2.83,281.0,281.09000000000003,0.01,0.03,3
1650744158.49930906,211970097,0.0,0.55,0.0,2.83,281.0,281.09000000000003,0.01,0.03,3
1650744158.59940600,212070194,0.0,0.56,0.0,2.82,281.0,281.1,0.01,0.03,3
1650744158.69927597,212170064,0.0,0.56,0.0,2.82,281.0,281.1,0.01,0.02,3
1650744158.79939294,212270181,0.0,0.55,0.0,2.82,281.0,281.09000000000003,0.01,0.04,3
1650744158.89931989,212370108,0.0,0.58,0.0,2.82,281.0,281.1,0.01,0.04,3
1650744158.99929905,212470087,0.0,0.55,0.0,2.82,281.0,281.11,0.01,0.04,3
1650744159.09931993,212570108,0.0,0.56,0.0,2.82,281.0,281.12,0.01,0.03,3
1650744159.19934702,212670135,0.0,0.55,0.0,2.82,281.0,281.12,0.01,0.03,3
1650744159.29928088,212770069,0.0,0.5700000000000001,0.0,2.82,281.0,281.14,0.01,0.03,3
1650744159.39925194,212870040,0.0,0.56,0.0,2.82,281.0,281.15000000000003,0.01,0.04,3
1650744159.49923801,212970026,0.0,0.55,0.0,2.82,281.0,281.15000000000003,0.01,0.05,3
1650744159.59926295,213070051,0.0,0.5700000000000001,0.0,2.82,281.16,281.17,0.01,0.04,3
1650744159.69935703,213170145,0.0,0.54,0.0,2.82,281.17,281.18,0.01,0.04,3
1650744159.79930305,213270091,0.0,0.5700000000000001,0.0,2.82,281.18,281.19,0.01,0.05,3
1650744159.89940310,213370191,0.0,0.55,0.0,2.82,281.21,281.22,0.01,0.04,3
1650744159.99928904,213470077,0.0,0.56,0.0,2.82,281.21,281.22,0.01,0.04,3
1650744160.09944510,213570233,0.0,0.56,0.0,2.83,281.2,281.21,0.01,0.03,3
1650744160.19933605,213670124,0.0,0.56,0.0,2.83,281.23,281.24,0.01,0.03,3
1650744160.29923797,213770026,0.0,0.58,0.0,2.83,281.25,281.26,0.01,0.04,3
1650744160.39932299,213870111,0.0,0.55,0.0,2.82,281.21,281.22,0.01,0.05,3
1650744160.49926591,213970054,0.0,0.61,0.0,2.83,281.19,281.2,0.01,0.06,3
1650744160.59929895,214070087,0.0,0.53,0.0,2.85,281.24,281.25,0.01,0.07,3
1650744160.69925308,214170041,0.0,0.58,0.0,2.84,281.26,281.27,0.01,0.07,3
1650744160.79928803,214270076,0.0,0.5700000000000001,0.0,2.84,281.2,281.21,0.01,0.07,3
1650744160.89927888,214370067,0.0,0.5700000000000001,0.0,2.85,281.2,281.21,0.01,0.07,3
1650744160.99936008,214470148,0.0,0.59,0.0,2.84,281.21,281.22,0.01,0.06,3
1650744161.09925890,214570047,0.0,0.5700000000000001,0.0,2.84,281.17,281.18,0.01,0.06,3
1650744161.19937801,214670166,0.0,0.58,0.0,2.84,281.14,281.15000000000003,0.01,0.06,3
1650744161.29925299,214770041,0.0,0.5700000000000001,0.0,2.86,281.15000000000003,281.16,0.0,0.06,3
1650744161.39927888,214870067,0.0,0.56,0.0,2.84,281.13,281.14,0.0,0.06,3
1650744161.49937201,214970160,0.0,0.58,0.0,2.85,281.09000000000003,281.1,0.0,0.05,3
1650744161.59937596,215070164,0.0,0.58,0.0,2.86,281.1,281.11,0.0,0.06,3
1650744161.69942188,215170210,0.0,0.58,0.0,2.86,281.09000000000003,281.1,0.0,0.06,3
1650744161.79932499,215270113,0.0,0.5700000000000001,0.0,2.84,281.05,281.06,0.0,0.05,3
1650744161.89978409,215370572,0.0,0.56,0.0,2.84,281.05,281.06,0.0,0.04,3
1650744161.99936390,215470152,0.0,0.58,0.0,2.86,281.08,281.09000000000003,0.0,0.04,3
1650744162.09922099,215570009,0.0,0.55,0.0,2.84,281.03000000000003,281.04,0.0,0.04,3
1650744162.19937301,215670161,0.0,0.59,0.0,2.84,281.03000000000003,281.04,0.0,0.03,3
1650744162.29921794,215770006,0.0,0.56,0.0,2.86,281.07,281.08,0.0,0.03,3
1650744162.39929795,215870086,0.0,0.58,0.0,2.84,281.04,281.05,0.0,0.03,3
1650744162.49925900,215970047,0.0,0.5700000000000001,0.0,2.83,281.02,281.03000000000003,0.0,0.03,3
1650744162.59929109,216070079,0.0,0.5700000000000001,0.0,2.84,281.05,281.06,0.0,0.04,3
1650744162.69925189,216170040,0.0,0.58,0.0,2.85,281.06,281.07,0.0,0.03,3
1650744162.79931092,216270099,0.0,0.5700000000000001,0.0,2.84,281.03000000000003,281.04,0.0,0.03,3
1650744162.89973903,216370527,0.0,0.59,0.0,2.83,281.05,281.06,0.0,0.03,3
1650744162.99926400,216470052,0.0,0.55,0.0,2.83,281.08,281.09000000000003,0.0,0.03,3
1650744163.09935904,216570147,0.0,0.59,0.0,2.84,281.08,281.09000000000003,0.0,0.03,3
1650744163.19966507,216670453,0.0,0.56,0.0,2.84,281.07,281.08,0.0,0.02,3
1650744163.29940391,216770192,0.0,0.5700000000000001,0.0,2.83,281.09000000000003,281.1,0.0,0.02,3
1650744163.39925408,216870042,0.0,0.5700000000000001,0.0,2.83,281.08,281.09000000000003,0.0,0.02,3
1650744163.49927902,216970067,0.0,0.54,0.0,2.84,281.07,281.08,0.0,0.02,3
1650744163.59932709,217070115,0.0,0.59,0.0,2.84,281.08,281.09000000000003,0.0,0.02,3
1650744163.69931793,217170106,0.0,0.54,0.0,2.84,281.09000000000003,281.1,0.0,0.02,3
1650744163.79932594,217270114,0.0,0.5700000000000001,0.0,2.84,281.07,281.08,0.0,0.02,3
1650744163.89969492,217370483,0.0,0.58,0.0,2.83,281.08,281.09000000000003,0.0,0.01,3
1650744163.99929690,217470085,0.0,0.56,0.0,2.83,281.1,281.11,0.0,0.03,3
1650744164.09923697,217570025,0.0,0.59,0.0,2.83,281.09000000000003,281.1,0.0,0.03,3
1650744164.19958210,217670370,0.0,0.56,0.0,2.83,281.09000000000003,281.1,0.0,0.03,3
1650744164.29929399,217770082,0.0,0.6,0.0,2.83,281.11,281.12,0.0,0.04,3
1650744164.39936900,217870157,0.0,0.58,0.0,2.83,281.11,281.12,0.0,0.05,3
1650744164.49924994,217970038,0.0,0.58,0.0,2.83,281.11,281.12,0.0,0.04,3
1650744164.59940791,218070196,0.0,0.6,0.0,2.84,281.12,281.13,0.0,0.03,3
1650744164.69940901,218170197,0.0,0.5700000000000001,0.0,2.84,281.12,281.13,0.0,0.04,3
1650744164.79935789,218270146,0.0,0.61,0.0,2.83,281.13,281.14,0.0,0.04,3
1650744164.89972091,218370509,0.0,0.58,0.0,2.83,281.13,281.14,0.0,0.04,3
1650744164.99931502,218470103,0.0,0.6,0.0,2.83,281.13,281.14,0.0,0.04,3
1650744165.09937596,218570164,0.0,0.59,0.0,2.83,281.14,281.15000000000003,0.0,0.06,3
1650744165.19955897,218670347,0.0,0.58,0.0,2.84,281.15000000000003,281.16,0.0,0.05,3
1650744165.29924703,218770035,0.0,0.62,0.0,2.84,281.17,281.18,0.0,0.05,3
1650744165.39938307,218870171,0.0,0.58,0.0,2.84,281.17,281.18,0.0,0.04,3
1650744165.49930906,218970097,0.0,0.61,0.0,2.84,281.18,281.19,0.0,0.05,3
1650744165.59925795,219070046,0.0,0.58,0.0,2.84,281.2,281.21,0.0,0.05,3
1650744165.69922996,219170018,0.0,0.6,0.0,2.84,281.2,281.21,0.0,0.04,3
1650744165.79924703,219270035,0.0,0.59,0.0,2.84,281.2,281.22,0.0,0.04,3
1650744165.89927006,219370058,0.0,0.56,0.0,2.84,281.2,281.25,0.0,0.04,3
1650744165.99931407,219470102,0.0,0.61,0.0,2.84,281.2,281.26,0.0,0.04,3
1650744166.09926510,219570053,0.0,0.5700000000000001,0.0,2.84,281.2,281.25,0.0,0.04,3
1650744166.19966006,219670448,0.0,0.59,0.0,2.85,281.2,281.28000000000003,0.0,0.04,3
1650744166.29932308,219770111,0.0,0.59,0.0,2.84,281.2,281.29,0.0,0.03,3
1650744166.39942098,219870209,0.0,0.5700000000000001,0.0,2.84,281.2,281.28000000000003,0.0,0.03,3
1650744166.49936008,219970148,0.0,0.6,0.0,2.84,281.2,281.3,0.0,0.03,3
1650744166.59938097,220070169,0.0,0.5700000000000001,0.0,2.84,281.2,281.32,0.0,0.03,3
1650744166.69928598,220170074,0.0,0.6,0.0,2.83,281.2,281.31,0.0,0.03,3
1650744166.79922891,220270017,0.0,0.58,0.0,2.83,281.2,281.32,0.0,0.02,3
1650744166.89935589,220370144,0.0,0.58,0.0,2.83,281.2,281.33,0.0,0.03,3
1650744166.99925494,220470043,0.0,0.59,0.0,2.83,281.2,281.32,0.0,0.04,3
1650744167.09925699,220570045,0.0,0.5700000000000001,0.0,2.84,281.2,281.33,0.01,0.03,3
1650744167.19929099,220670079,0.0,0.6,0.0,2.84,281.2,281.35,0.01,0.03,3
1650744167.29937196,220770160,0.0,0.5700000000000001,0.0,2.84,281.2,281.35,0.01,0.03,3
1650744167.39929700,220870085,0.0,0.58,0.0,2.84,281.2,281.36,0.01,0.03,3
1650744167.49930906,220970097,0.0,0.59,0.0,2.84,281.2,281.38,0.01,0.03,3
1650744167.59935498,221070143,0.0,0.5700000000000001,0.0,2.84,281.2,281.38,0.01,0.03,3
1650744167.69928598,221170074,0.0,0.59,0.0,2.84,281.2,281.38,0.01,0.04,3
1650744167.79936290,221270151,0.0,0.5700000000000001,0.0,2.84,281.40000000000003,281.41,0.01,0.05,3
1650744167.89936209,221370150,0.0,0.58,0.0,2.84,281.41,281.42,0.01,0.05,3
1650744167.99936008,221470148,0.0,0.5700000000000001,0.0,2.84,281.42,281.43,0.01,0.04,3
1650744168.09924507,221570033,0.0,0.5700000000000001,0.0,2.84,281.44,281.45,0.01,0.04,3
1650744168.19959307,221670381,0.0,0.58,0.0,2.84,281.45,281.46,0.01,0.03,3
1650744168.29929805,221770086,0.0,0.5700000000000001,0.0,2.84,281.45,281.46,0.0,0.03,3
1650744168.39926600,221870054,0.0,0.58,0.0,2.84,281.46,281.47,0.0,0.03,3
1650744168.49938107,221970169,0.0,0.58,0.0,2.84,281.48,281.49,0.0,0.02,3
1650744168.59924698,222070035,0.0,0.59,0.0,2.85,281.49,281.5,0.0,0.03,3
1650744168.69924498,222170033,0.0,0.5700000000000001,0.0,2.85,281.46,281.47,0.01,0.06,3
1650744168.79928899,222270077,0.0,0.59,0.0,2.85,281.46,281.47,0.01,0.07,3
1650744168.89933109,222370119,0.0,0.58,0.0,2.85,281.47,281.48,0.01,0.06,3
1650744168.99927211,222470060,0.0,0.56,0.0,2.84,281.43,281.44,0.01,0.05,3
1650744169.09936905,222570157,0.0,0.6,0.0,2.85,281.41,281.42,0.01,0.04,3
1650744169.19946599,222670254,0.0,0.58,0.0,2.86,281.40000000000003,281.41,0.01,0.05,3
1650744169.29933310,222770121,0.0,0.59,0.0,2.85,281.39,281.40000000000003,0.01,0.06,3
1650744169.39942002,222870208,0.0,0.59,0.0,2.84,281.38,281.39,0.01,0.05,3
1650744169.49937606,222970164,0.0,0.58,0.0,2.84,281.36,281.37,0.0,0.05,3
1650744169.59938908,223070177,0.0,0.59,0.0,2.85,281.34000000000003,281.35,0.0,0.06,3
1650744169.69925499,223170043,0.0,0.5700000000000001,0.0,2.85,281.33,281.34000000000003,0.01,0.06,3
1650744169.79930305,223270091,0.0,0.5700000000000001,0.0,2.84,281.32,281.33,0.01,0.07,3
1650744169.89932108,223370109,0.0,0.55,0.0,2.84,281.3,281.31,0.01,0.07,3
1650744169.99933600,223470124,0.0,0.5700000000000001,0.0,2.85,281.28000000000003,281.29,0.01,0.08,3
1650744170.09926701,223570055,0.0,0.5700000000000001,0.0,2.84,281.27,281.28000000000003,0.01,0.07,3
1650744170.19942498,223670213,0.0,0.58,0.0,2.83,281.24,281.25,0.01,0.06,3
1650744170.29924393,223770032,0.0,0.59,0.0,2.84,281.22,281.23,0.01,0.06,3
1650744170.39926910,223870057,0.0,0.5700000000000001,0.0,2.84,281.22,281.23,0.01,0.07,3
1650744170.49924588,223970034,0.0,0.5700000000000001,0.0,2.83,281.21,281.22,0.02,0.07,3
1650744170.59931207,224070100,0.0,0.54,0.0,2.83,281.17,281.18,0.02,0.07,3
1650744170.69932795,224170116,0.0,0.56,0.0,2.83,281.17,281.18,0.01,0.07,3
1650744170.79929304,224270081,0.0,0.56,0.0,2.83,281.16,281.17,0.01,0.06,3
1650744170.89943695,224370225,0.0,0.5700000000000001,0.0,2.83,281.12,281.13,0.01,0.06,3
1650744170.99936295,224470151,0.0,0.56,0.0,2.85,281.12,281.13,0.01,0.05,3
1650744171.09932709,224570115,0.0,0.56,0.0,2.84,281.12,281.13,0.01,0.06,3
1650744171.19934297,224670131,0.0,0.58,0.0,2.84,281.1,281.11,0.01,0.06,3
1650744171.29935789,224770146,0.0,0.56,0.0,2.84,281.08,281.09000000000003,0.01,0.07,3
1650744171.39931202,224870100,0.0,0.6,0.0,2.84,281.08,281.09000000000003,0.01,0.07,3
1650744171.49922109,224970009,0.0,0.58,0.0,2.83,281.05,281.06,0.01,0.06,3
1650744171.59929299,225070081,0.0,0.56,0.0,2.83,281.03000000000003,281.04,0.01,0.06,3
1650744171.69930792,225170096,0.0,0.5700000000000001,0.0,2.83,281.04,281.05,0.01,0.06,3
1650744171.79931402,225270102,0.0,0.55,0.0,2.83,281.0,281.01,0.01,0.06,3
1650744171.89972401,225370512,0.0,0.5700000000000001,0.0,2.82,280.98,280.99,0.01,0.05,3
1650744171.99922895,225470017,0.0,0.56,0.0,2.82,280.98,280.99,0.01,0.04,3
1650744172.09930301,225570091,0.0,0.56,0.0,2.82,280.96,280.97,0.01,0.03,3
1650744172.19931102,225670099,0.0,0.5700000000000001,0.0,2.82,280.95,280.96,0.01,0.03,3
1650744172.29928088,225770069,0.0,0.54,0.0,2.82,280.95,280.96,0.0,0.02,3
1650744172.39931202,225870100,0.0,0.5700000000000001,0.0,2.83,280.96,280.97,0.0,0.02,3
1650744172.49931312,225970101,0.0,0.54,0.0,2.84,280.94,280.95,0.0,0.02,3
1650744172.59935188,226070140,0.0,0.5700000000000001,0.0,2.83,280.94,280.95,0.0,0.02,3
1650744172.69931388,226170102,0.0,0.53,0.0,2.83,280.96,280.97,0.0,0.01,3
1650744172.79926801,226270056,0.0,0.55,0.0,2.85,280.96,280.97,0.0,0.01,3
1650744172.89968896,226370477,0.0,0.53,0.0,2.84,280.95,280.96,0.0,0.02,3
1650744172.99931407,226470102,0.0,0.54,0.0,2.83,280.96,280.97,0.0,0.02,3
1650744173.09922290,226570011,0.0,0.55,0.0,2.85,280.96,280.97,0.0,0.03,3
1650744173.19929004,226670078,0.0,0.53,0.0,2.85,280.94,280.95,0.0,0.03,3
1650744173.29925203,226770040,0.0,0.55,0.0,2.85,280.97,280.98,0.0,0.03,3
1650744173.39929605,226870084,0.0,0.53,0.0,2.84,280.99,281.0,0.0,0.04,3
1650744173.49921608,226970004,0.0,0.55,0.0,2.86,280.97,280.98,0.0,0.03,3
1650744173.59937596,227070164,0.0,0.54,0.0,2.86,280.98,280.99,0.0,0.04,3
1650744173.69927812,227170066,0.0,0.55,0.0,2.86,281.01,281.02,0.0,0.04,3
1650744173.79936790,227270156,0.0,0.55,0.0,2.85,281.01,281.02,0.0,0.05,3
1650744173.89976406,227370552,0.0,0.55,0.0,2.86,281.0,281.01,0.0,0.04,3
1650744173.99927998,227470068,0.0,0.5700000000000001,0.0,2.87,281.03000000000003,281.04,0.0,0.04,3
1650744174.09937501,227570163,0.0,0.55,0.0,2.86,281.04,281.05,0.0,0.04,3
1650744174.19936490,227670153,0.0,0.56,0.0,2.86,281.04,281.05,0.0,0.03,3
1650744174.29925489,227770043,0.0,0.56,0.0,2.86,281.05,281.06,0.0,0.03,3
1650744174.39934897,227870137,0.0,0.56,0.0,2.86,281.07,281.08,0.0,0.03,3
1650744174.49935007,227970138,0.0,0.56,0.0,2.86,281.06,281.07,0.0,0.04,3
1650744174.59929490,228070083,0.0,0.55,0.0,2.86,281.06,281.07,0.0,0.03,3
1650744174.69922709,228170015,0.0,0.5700000000000001,0.0,2.86,281.09000000000003,281.1,0.0,0.03,3
1650744174.79939103,228270179,0.0,0.55,0.0,2.86,281.08,281.09000000000003,0.0,0.03,3
1650744174.89969206,228370480,0.0,0.56,0.0,2.85,281.08,281.09000000000003,0.0,0.04,3
1650744174.99926591,228470054,0.0,0.56,0.0,2.85,281.1,281.11,0.0,0.03,3
1650744175.09925294,228570041,0.0,0.55,0.0,2.85,281.11,281.12,0.0,0.03,3
1650744175.19934893,228670137,0.0,0.56,0.0,2.85,281.11,281.12,0.0,0.05,3
1650744175.29925203,228770040,0.0,0.55,0.0,2.85,281.13,281.14,0.0,0.04,3
1650744175.39935493,228870143,0.0,0.56,0.0,2.85,281.14,281.15000000000003,0.0,0.04,3
1650744175.49931097,228970099,0.0,0.55,0.0,2.86,281.14,281.15000000000003,0.0,0.03,3
1650744175.59932590,229070114,0.0,0.55,0.0,2.85,281.15000000000003,281.16,0.0,0.02,3
1650744175.69937611,229170164,0.0,0.55,0.0,2.85,281.17,281.18,0.0,0.02,3
1650744175.79931808,229270106,0.0,0.55,0.0,2.85,281.16,281.17,0.0,0.03,3
1650744175.89977694,229370565,0.0,0.56,0.0,2.85,281.17,281.18,0.0,0.03,3
1650744175.99934793,229470136,0.0,0.55,0.0,2.85,281.19,281.2,0.0,0.03,3
1650744176.09930491,229570093,0.0,0.56,0.0,2.85,281.18,281.19,0.0,0.03,3
1650744176.19929290,229670081,0.0,0.56,0.0,2.85,281.18,281.19,0.0,0.03,3
1650744176.29932904,229770117,0.0,0.55,0.0,2.85,281.2,281.21,0.0,0.03,3
1650744176.39927292,229870061,0.0,0.5700000000000001,0.0,2.84,281.21,281.22,0.0,0.03,3
1650744176.49922490,229970013,0.0,0.55,0.0,2.85,281.21,281.22,0.0,0.03,3
1650744176.59929490,230070083,0.0,0.56,0.0,2.85,281.22,281.23,0.0,0.03,3
1650744176.69927001,230170058,0.0,0.56,0.0,2.85,281.23,281.24,0.0,0.04,3
1650744176.79928994,230270078,0.0,0.55,0.0,2.85,281.22,281.23,0.0,0.04,3
1650744176.89978909,230370577,0.0,0.5700000000000001,0.0,2.85,281.23,281.24,0.0,0.03,3
1650744176.99936795,230470156,0.0,0.55,0.0,2.85,281.24,281.25,0.0,0.03,3
1650744177.09929895,230570087,0.0,0.56,0.0,2.85,281.24,281.25,0.0,0.03,3
1650744177.19944501,230670233,0.0,0.55,0.0,2.85,281.24,281.25,0.0,0.04,3
1650744177.29935288,230770141,0.0,0.55,0.0,2.85,281.25,281.26,0.0,0.04,3
1650744177.39929700,230870085,0.0,0.56,0.0,2.84,281.26,281.27,0.0,0.03,3
1650744177.49925494,230970043,0.0,0.54,0.0,2.84,281.26,281.27,0.0,0.03,3
1650744177.59929299,231070081,0.0,0.56,0.0,2.85,281.28000000000003,281.29,0.0,0.03,3
1650744177.69928598,231170074,0.0,0.54,0.0,2.85,281.29,281.3,0.0,0.03,3
1650744177.79923701,231270025,0.0,0.56,0.0,2.84,281.29,281.3,0.0,0.03,3
1650744177.89971089,231370499,0.0,0.55,0.0,2.84,281.3,281.31,0.0,0.03,3
1650744177.99929094,231470079,0.0,0.54,0.0,2.85,281.31,281.32,0.0,0.03,3
1650744178.09931397,231570102,0.0,0.56,0.0,2.84,281.31,281.32,0.0,0.02,3
1650744178.19924593,231670034,0.0,0.54,0.0,2.84,281.31,281.32,0.0,0.03,3
1650744178.29923201,231770020,0.0,0.55,0.0,2.85,281.34000000000003,281.35,0.0,0.03,3
1650744178.39928102,231870069,0.0,0.54,0.0,2.85,281.34000000000003,281.35,0.0,0.04,3
1650744178.49926209,231970050,0.0,0.54,0.0,2.85,281.34000000000003,281.35,0.0,0.04,3
1650744178.59930706,232070095,0.0,0.54,0.0,2.85,281.36,281.37,0.0,0.03,3
1650744178.69929409,232170082,0.0,0.54,0.0,2.85,281.37,281.38,0.0,0.04,3
1650744178.79943299,232270221,0.0,0.54,0.0,2.85,281.37,281.38,0.0,0.03,3
1650744178.89972210,232370510,0.0,0.53,0.0,2.85,281.38,281.39,0.0,0.03,3
1650744178.99933600,232470124,0.0,0.55,0.0,2.85,281.40000000000003,281.41,0.0,0.03,3
1650744179.09938908,232570177,0.0,0.54,0.0,2.85,281.40000000000003,281.41,0.0,0.03,3
1650744179.19930911,232670097,0.0,0.54,0.0,2.85,281.41,281.42,0.0,0.03,3
1650744179.29929399,232770082,0.0,0.55,0.0,2.85,281.43,281.44,0.0,0.03,3
1650744179.39924097,232870029,0.0,0.55,0.0,2.84,281.42,281.43,0.0,0.03,3
1650744179.49925995,232970048,0.0,0.55,0.0,2.84,281.43,281.44,0.0,0.03,3
1650744179.59924793,233070036,0.0,0.54,0.0,2.85,281.44,281.45,0.0,0.02,3
1650744179.69927096,233170059,0.0,0.55,0.0,2.85,281.44,281.45,0.0,0.02,3
1650744179.79923201,233270020,0.0,0.54,0.0,2.85,281.43,281.44,0.0,0.02,3
1650744179.89977288,233370561,0.0,0.54,0.0,2.85,281.45,281.46,0.0,0.02,3
1650744179.99936700,233470155,0.0,0.55,0.0,2.85,281.45,281.46,0.0,0.02,3
1650744180.09930491,233570093,0.0,0.54,0.0,2.85,281.45,281.46,0.0,0.02,3
1650744180.19931102,233670099,0.0,0.55,0.0,2.85,281.46,281.47,0.0,0.02,3
1650744180.29929399,233770082,0.0,0.54,0.0,2.85,281.47,281.48,0.0,0.02,3
1650744180.39939308,233870181,0.0,0.55,0.0,2.85,281.46,281.47,0.0,0.02,3
1650744180.49931788,233970106,0.0,0.54,0.0,2.85,281.47,281.48,0.0,0.02,3
1650744180.59932899,234070117,0.0,0.54,0.0,2.85,281.48,281.49,0.0,0.02,3
1650744180.69930100,234170089,0.0,0.55,0.0,2.85,281.48,281.49,0.0,0.01,3
1650744180.79934406,234270132,0.0,0.54,0.0,2.85,281.49,281.5,0.0,0.01,3
1650744180.89971709,234370505,0.0,0.55,0.0,2.85,281.5,281.51,0.0,0.01,3
1650744180.99921393,234470002,0.0,0.54,0.0,2.85,281.51,281.52,0.0,0.02,3
1650744181.09940600,234570194,0.0,0.54,0.0,2.85,281.51,281.52,0.0,0.02,3
1650744181.19924998,234670038,0.0,0.54,0.0,2.85,281.52,281.53000000000003,0.0,0.02,3
1650744181.29928303,234770071,0.0,0.54,0.0,2.85,281.53000000000003,281.54,0.0,0.02,3
1650744181.39922905,234870017,0.0,0.55,0.0,2.85,281.53000000000003,281.54,0.0,0.02,3
1650744181.49928689,234970075,0.0,0.55,0.0,2.84,281.54,281.55,0.0,0.02,3
1650744181.59930801,235070096,0.0,0.55,0.0,2.85,281.56,281.57,0.0,0.01,3
1650744181.69930100,235170089,0.0,0.55,0.0,2.85,281.56,281.57,0.0,0.01,3
1650744181.79936910,235270157,0.0,0.55,0.0,2.84,281.56,281.57,0.0,0.02,3
1650744181.89938498,235370173,0.0,0.54,0.0,2.85,281.57,281.59000000000003,0.0,0.01,3
1650744181.99943495,235470223,0.0,0.55,0.0,2.84,281.57,281.59000000000003,0.0,0.02,3
1650744182.09932208,235570110,0.0,0.54,0.0,2.84,281.57,281.6,0.0,0.02,3
1650744182.19937992,235670168,0.0,0.55,0.0,2.84,281.57,281.61,0.0,0.02,3
1650744182.29927897,235770067,0.0,0.54,0.0,2.85,281.57,281.62,0.0,0.01,3
1650744182.39932799,235870116,0.0,0.55,0.0,2.84,281.57,281.62,0.0,0.01,3
1650744182.49921107,235969999,0.0,0.54,0.0,2.84,281.57,281.63,0.0,0.01,3
1650744182.59934497,236070133,0.0,0.54,0.0,2.84,281.57,281.63,0.0,0.02,3
1650744182.69924808,236170036,0.0,0.54,0.0,2.84,281.57,281.64,0.0,0.02,3
1650744182.79923201,236270020,0.0,0.53,0.0,2.84,281.57,281.65000000000003,0.0,0.02,3
1650744182.89935207,236370140,0.0,0.55,0.0,2.84,281.57,281.65000000000003,0.0,0.02,3
1650744182.99926400,236470052,0.0,0.54,0.0,2.84,281.57,281.65000000000003,0.0,0.02,3
1650744183.09927106,236570059,0.0,0.55,0.0,2.84,281.57,281.66,0.0,0.02,3
1650744183.19938302,236670171,0.0,0.54,0.0,2.84,281.57,281.66,0.0,0.02,3
1650744183.29926991,236770058,0.0,0.53,0.0,2.84,281.57,281.66,0.0,0.01,3
1650744183.39930797,236870096,0.0,0.55,0.0,2.84,281.57,281.66,0.0,0.01,3
1650744183.49942994,236970218,0.0,0.53,0.0,2.84,281.57,281.66,0.0,0.01,3
1650744183.59933710,237070125,0.0,0.54,0.0,2.84,281.57,281.66,0.0,0.01,3
1650744183.69928098,237170069,0.0,0.53,0.0,2.84,281.57,281.66,0.0,0.01,3
1650744183.79936194,237270150,0.0,0.54,0.0,2.84,281.57,281.66,0.0,0.01,3
1650744183.89931703,237370105,0.0,0.55,0.0,2.84,281.66,281.67,0.0,0.01,3
1650744183.99931788,237470106,0.0,0.54,0.0,2.84,281.66,281.67,0.0,0.01,3
1650744184.09923601,237570024,0.0,0.54,0.0,2.84,281.66,281.67,0.0,0.01,3
1650744184.19929910,237670087,0.0,0.53,0.0,2.84,281.67,281.68,0.0,0.01,3
1650744184.29930806,237770096,0.0,0.54,0.0,2.84,281.68,281.69,0.01,0.01,3
1650744184.39940596,237870194,0.0,0.54,0.0,2.84,281.68,281.69,0.01,0.01,3
1650744184.49923110,237970019,0.0,0.53,0.0,2.85,281.68,281.69,0.01,0.01,3
1650744184.59926796,238070056,0.0,0.55,0.0,2.85,281.69,281.7,0.01,0.02,3
1650744184.69934392,238170132,0.0,0.52,0.0,2.84,281.69,281.7,0.01,0.02,3
1650744184.79931092,238270099,0.0,0.56,0.0,2.84,281.71,281.72,0.01,0.03,3
1650744184.89941907,238370207,0.0,0.54,0.0,2.85,281.7,281.71,0.01,0.06,3
1650744184.99933004,238470118,0.0,0.54,0.0,2.84,281.68,281.69,0.01,0.07,3
1650744185.09939408,238570182,0.0,0.56,0.0,2.84,281.67,281.68,0.01,0.06,3
1650744185.19924903,238670037,0.0,0.5700000000000001,0.0,2.85,281.65000000000003,281.66,0.01,0.06,3
1650744185.29931998,238770108,0.0,0.56,0.0,2.84,281.64,281.65000000000003,0.01,0.06,3
1650744185.39935803,238870146,0.0,0.56,0.0,2.83,281.63,281.64,0.01,0.06,3
1650744185.49927306,238970061,0.0,0.58,0.0,2.83,281.61,281.62,0.01,0.06,3
1650744185.59930491,239070093,0.0,0.56,0.0,2.84,281.6,281.61,0.01,0.06,3
1650744185.69922805,239170016,0.0,0.58,0.0,2.83,281.59000000000003,281.6,0.0,0.07,3
1650744185.79925704,239270045,0.0,0.5700000000000001,0.0,2.82,281.57,281.58,0.0,0.07,3
1650744185.89927793,239370066,0.0,0.5700000000000001,0.0,2.83,281.56,281.57,0.0,0.07,3
1650744185.99927592,239470064,0.0,0.59,0.0,2.84,281.54,281.55,0.0,0.07,3
1650744186.09922409,239570012,0.0,0.55,0.0,2.85,281.52,281.53000000000003,0.0,0.06,3
1650744186.19937611,239670164,0.0,0.59,0.0,2.83,281.51,281.52,0.0,0.06,3
1650744186.29930997,239770098,0.0,0.5700000000000001,0.0,2.82,281.49,281.5,0.0,0.07,3
1650744186.39937401,239870162,0.0,0.58,0.0,2.84,281.48,281.49,0.0,0.06,3
1650744186.49930906,239970097,0.0,0.58,0.0,2.83,281.47,281.48,0.01,0.06,3
1650744186.59937000,240070158,0.0,0.5700000000000001,0.0,2.83,281.45,281.46,0.01,0.06,3
1650744186.69938898,240170177,0.0,0.59,0.0,2.83,281.44,281.45,0.01,0.06,3
1650744186.79924488,240270033,0.0,0.55,0.0,2.85,281.43,281.44,0.01,0.05,3
1650744186.89940190,240370190,0.0,0.58,0.0,2.83,281.41,281.42,0.01,0.06,3
1650744186.99931407,240470102,0.0,0.58,0.0,2.83,281.40000000000003,281.41,0.01,0.06,3
1650744187.09931111,240570099,0.0,0.5700000000000001,0.0,2.84,281.39,281.40000000000003,0.01,0.05,3
1650744187.19933105,240670119,0.0,0.61,0.0,2.84,281.37,281.38,0.01,0.05,3
1650744187.29922891,240770017,0.0,0.55,0.0,2.82,281.36,281.37,0.01,0.05,3
1650744187.39939094,240870179,0.0,0.59,0.0,2.82,281.37,281.38,0.01,0.05,3
1650744187.49923205,240970020,0.0,0.59,0.0,2.84,281.34000000000003,281.35,0.0,0.04,3
1650744187.59925103,241070039,0.0,0.58,0.0,2.83,281.33,281.34000000000003,0.0,0.03,3
1650744187.69924903,241170037,0.0,0.59,0.0,2.83,281.33,281.34000000000003,0.0,0.03,3
1650744187.79937506,241270163,0.0,0.5700000000000001,0.0,2.82,281.34000000000003,281.35,0.0,0.02,3
1650744187.89976692,241370555,0.0,0.59,0.0,2.83,281.32,281.33,0.0,0.02,3
1650744187.99940395,241470192,0.0,0.5700000000000001,0.0,2.84,281.31,281.32,0.0,0.01,3
1650744188.09929204,241570080,0.0,0.56,0.0,2.83,281.33,281.34000000000003,0.0,0.01,3
1650744188.19939804,241670186,0.0,0.58,0.0,2.82,281.33,281.34000000000003,0.0,0.01,3
1650744188.29933310,241770121,0.0,0.5700000000000001,0.0,2.84,281.31,281.32,0.0,0.01,3
1650744188.39926291,241870051,0.0,0.5700000000000001,0.0,2.84,281.32,281.33,0.0,0.01,3
1650744188.49940801,241970196,0.0,0.5700000000000001,0.0,2.82,281.33,281.34000000000003,0.0,0.01,3
1650744188.59927893,242070067,0.0,0.55,0.0,2.82,281.32,281.33,0.0,0.01,3
1650744188.69934011,242170128,0.0,0.58,0.0,2.83,281.32,281.33,0.0,0.01,3
1650744188.79922199,242270010,0.0,0.5700000000000001,0.0,2.83,281.34000000000003,281.35,0.0,0.02,3
1650744188.89972997,242370518,0.0,0.56,0.0,2.82,281.35,281.36,0.0,0.02,3
1650744188.99929500,242470083,0.0,0.5700000000000001,0.0,2.82,281.35,281.36,0.0,0.02,3
1650744189.09922695,242570015,0.0,0.56,0.0,2.83,281.36,281.37,0.0,0.02,3
1650744189.19926000,242670048,0.0,0.58,0.0,2.82,281.37,281.38,0.0,0.02,3
1650744189.29925704,242770045,0.0,0.5700000000000001,0.0,2.81,281.38,281.39,0.0,0.02,3
1650744189.39928889,242870077,0.0,0.5700000000000001,0.0,2.82,281.38,281.39,0.0,0.01,3
1650744189.49936509,242970153,0.0,0.58,0.0,2.83,281.38,281.39,0.0,0.02,3
1650744189.59937406,243070162,0.0,0.5700000000000001,0.0,2.82,281.39,281.40000000000003,0.0,0.02,3
1650744189.69937110,243170159,0.0,0.58,0.0,2.81,281.39,281.40000000000003,0.0,0.02,3
1650744189.79942799,243270216,0.0,0.58,0.0,2.82,281.40000000000003,281.41,0.0,0.02,3
1650744189.89967394,243370462,0.0,0.58,0.0,2.82,281.41,281.42,0.0,0.03,3
1650744189.99924994,243470038,0.0,0.58,0.0,2.81,281.42,281.43,0.0,0.02,3
1650744190.09929109,243570079,0.0,0.58,0.0,2.82,281.42,281.43,0.0,0.02,3
1650744190.19928908,243670077,0.0,0.58,0.0,2.82,281.43,281.44,0.0,0.02,3
1650744190.29925990,243770048,0.0,0.58,0.0,2.82,281.44,281.45,0.0,0.02,3
1650744190.39923096,243870019,0.0,0.58,0.0,2.82,281.44,281.45,0.0,0.02,3
1650744190.49927092,243970059,0.0,0.58,0.0,2.82,281.44,281.45,0.0,0.02,3
1650744190.59935689,244070145,0.0,0.58,0.0,2.82,281.45,281.46,0.0,0.01,3
1650744190.69936991,244170158,0.0,0.58,0.0,2.81,281.45,281.46,0.0,0.02,3
1650744190.79926109,244270049,0.0,0.59,0.0,2.82,281.45,281.46,0.0,0.02,3
1650744190.89962792,244370416,0.0,0.58,0.0,2.82,281.46,281.47,0.0,0.02,3
1650744190.99934888,244470137,0.0,0.59,0.0,2.81,281.47,281.48,0.0,0.02,3
1650744191.09927011,244570058,0.0,0.58,0.0,2.81,281.47,281.48,0.0,0.01,3
1650744191.19936991,244670158,0.0,0.59,0.0,2.81,281.48,281.49,0.0,0.02,3
1650744191.29931688,244770105,0.0,0.58,0.0,2.81,281.48,281.49,0.0,0.02,3
1650744191.39936590,244870154,0.0,0.58,0.0,2.81,281.49,281.5,0.0,0.02,3
1650744191.49924898,244970037,0.0,0.58,0.0,2.81,281.5,281.51,0.0,0.02,3
1650744191.59941411,245070202,0.0,0.59,0.0,2.81,281.5,281.51,0.0,0.02,3
1650744191.69929790,245170086,0.0,0.58,0.0,2.82,281.5,281.51,0.0,0.02,3
1650744191.79929709,245270085,0.0,0.59,0.0,2.82,281.51,281.52,0.0,0.02,3
1650744191.89970994,245370498,0.0,0.59,0.0,2.82,281.52,281.53000000000003,0.0,0.02,3
1650744191.99924994,245470038,0.0,0.59,0.0,2.82,281.52,281.53000000000003,0.0,0.03,3
1650744192.09928393,245570072,0.0,0.59,0.0,2.82,281.53000000000003,281.54,0.0,0.03,3
1650744192.19926810,245670056,0.0,0.58,0.0,2.82,281.55,281.56,0.0,0.03,3
1650744192.29925704,245770045,0.0,0.58,0.0,2.83,281.55,281.56,0.0,0.03,3
1650744192.39926505,245870053,0.0,0.58,0.0,2.82,281.55,281.56,0.0,0.03,3
1650744192.49938202,245970170,0.0,0.58,0.0,2.82,281.57,281.58,0.0,0.02,3
1650744192.59931493,246070103,0.0,0.5700000000000001,0.0,2.82,281.58,281.59000000000003,0.0,0.02,3
1650744192.69937801,246170166,0.0,0.5700000000000001,0.0,2.83,281.57,281.58,0.0,0.02,3
1650744192.79934502,246270133,0.0,0.58,0.0,2.83,281.58,281.59000000000003,0.0,0.02,3
1650744192.89971209,246370500,0.0,0.5700000000000001,0.0,2.83,281.6,281.61,0.0,0.02,3
1650744192.99935293,246470141,0.0,0.5700000000000001,0.0,2.83,281.59000000000003,281.6,0.0,0.02,3
1650744193.09931397,246570102,0.0,0.5700000000000001,0.0,2.83,281.59000000000003,281.6,0.0,0.02,3
1650744193.19930196,246670090,0.0,0.5700000000000001,0.0,2.83,281.61,281.62,0.0,0.02,3
1650744193.29927492,246770063,0.0,0.5700000000000001,0.0,2.83,281.61,281.62,0.0,0.03,3
1650744193.39933896,246870127,0.0,0.58,0.0,2.83,281.61,281.62,0.0,0.03,3
1650744193.49928808,246970076,0.0,0.5700000000000001,0.0,2.83,281.62,281.63,0.0,0.03,3
1650744193.59924197,247070030,0.0,0.5700000000000001,0.0,2.83,281.63,281.64,0.0,0.03,3
1650744193.69931388,247170102,0.0,0.5700000000000001,0.0,2.84,281.63,281.64,0.0,0.03,3
1650744193.79927993,247270068,0.0,0.5700000000000001,0.0,2.84,281.64,281.65000000000003,0.0,0.03,3
1650744193.89972496,247370513,0.0,0.58,0.0,2.84,281.66,281.67,0.0,0.02,3
1650744193.99929500,247470083,0.0,0.5700000000000001,0.0,2.84,281.66,281.67,0.0,0.02,3
1650744194.09934807,247570136,0.0,0.58,0.0,2.84,281.67,281.68,0.0,0.02,3
1650744194.19931293,247670101,0.0,0.58,0.0,2.85,281.68,281.69,0.0,0.02,3
1650744194.29939604,247770184,0.0,0.5700000000000001,0.0,2.85,281.68,281.69,0.0,0.02,3
1650744194.39936304,247870151,0.0,0.58,0.0,2.85,281.69,281.7,0.0,0.02,3
1650744194.49930596,247970094,0.0,0.56,0.0,2.85,281.69,281.7,0.0,0.02,3
1650744194.59929395,248070082,0.0,0.58,0.0,2.85,281.69,281.7,0.0,0.02,3
1650744194.69924808,248170036,0.0,0.58,0.0,2.85,281.7,281.71,0.0,0.02,3
1650744194.79941297,248270201,0.0,0.5700000000000001,0.0,2.85,281.71,281.72,0.0,0.03,3
1650744194.89967799,248370466,0.0,0.58,0.0,2.84,281.71,281.72,0.0,0.03,3
1650744194.99931598,248470104,0.0,0.5700000000000001,0.0,2.85,281.72,281.73,0.0,0.03,3
1650744195.09923100,248570019,0.0,0.58,0.0,2.85,281.74,281.75,0.0,0.03,3
1650744195.19932795,248670116,0.0,0.5700000000000001,0.0,2.85,281.74,281.75,0.0,0.03,3
1650744195.29927993,248770068,0.0,0.5700000000000001,0.0,2.85,281.75,281.76,0.0,0.03,3
1650744195.39924502,248870033,0.0,0.58,0.0,2.85,281.76,281.77,0.0,0.02,3
