timestamp,TimeUS,I,Status,GMS,GWk,NSats,HDop,Lat,Lng,Alt,Spd,GCrs,VZ,Yaw,U
1650744119.59899998,173069788,0,3,590537599,2206,15,0.7000000000000001,42.688062699999996,-84.4918371,271.83,0.007280109915882349,195.94540405273438,0.058000002056360245,0.0,1
1650744119.79901004,173269798,0,3,590537799,2206,15,0.7000000000000001,42.688062699999996,-84.49183699999999,271.84000000000003,0.015652475878596306,206.56504821777344,0.04700000211596489,0.0,1
1650744120.01897192,173489760,0,3,590537999,2206,15,0.7000000000000001,42.688062599999995,-84.49183699999999,271.84000000000003,0.01726267673075199,79.99201202392578,0.0020000000949949026,0.0,1
1650744120.21893191,173689720,0,3,590538199,2206,15,0.7000000000000001,42.688062599999995,-84.49183699999999,271.86,0.023430749773979187,129.80557250976562,0.09000000357627869,0.0,1
1650744120.39895105,173869739,0,3,590538399,2206,15,0.7000000000000001,42.688062599999995,-84.4918369,271.86,0.0072111026383936405,123.6900634765625,0.029000001028180122,0.0,1
1650744120.59901309,174069801,0,3,590538599,2206,15,0.7000000000000001,42.688062599999995,-84.4918369,271.86,0.009219544939696789,139.39869689941406,-0.013000000268220901,0.0,1
1650744120.79905105,174269839,0,3,590538799,2206,15,0.7000000000000001,42.688062599999995,-84.4918369,271.87,0.00412310566753149,255.96377563476562,-0.007000000216066837,0.0,1
1650744120.99902010,174469808,0,3,590538999,2206,15,0.7000000000000001,42.688062599999995,-84.4918369,271.87,0.003000000026077032,0.0,0.026000000536441803,0.0,1
1650744121.19901109,174669799,0,3,590539199,2206,15,0.7000000000000001,42.688062599999995,-84.4918369,271.88,0.019416488707065582,281.888671875,0.006000000052154064,0.0,1
1650744121.39901805,174869806,0,3,590539399,2206,15,0.7000000000000001,42.688062599999995,-84.49183699999999,271.89,0.029546573758125305,336.0375061035156,0.007000000216066837,0.0,1
1650744121.59899807,175069786,0,3,590539599,2206,15,0.7000000000000001,42.688062599999995,-84.49183699999999,271.9,0.028071338310837746,184.08563232421875,0.014000000432133675,0.0,1
1650744121.79892206,175269710,0,3,590539799,2206,15,0.7000000000000001,42.688062599999995,-84.49183699999999,271.91,0.01044030673801899,163.30075073242188,0.017000000923871994,0.0,1
1650744121.99895597,175469744,0,3,590539999,2206,15,0.7000000000000001,42.688062599999995,-84.49183699999999,271.92,0.014035669155418873,265.9143981933594,-0.00800000037997961,0.0,1
1650744122.19891405,175669702,0,3,590540199,2206,15,0.7000000000000001,42.688062599999995,-84.4918371,271.93,0.012529964558780193,298.6104736328125,0.015000000596046448,0.0,1
1650744122.39903498,175869823,0,3,590540399,2206,15,0.7000000000000001,42.688062599999995,-84.4918371,271.93,0.022360680624842644,206.56504821777344,-0.03400000184774399,0.0,1
1650744122.59905100,176069839,0,3,590540599,2206,15,0.7000000000000001,42.6880625,-84.49183719999999,271.94,0.014142136089503765,171.86988830566406,-0.03100000135600567,0.0,1
1650744122.79901505,176269803,0,3,590540799,2206,15,0.7000000000000001,42.6880625,-84.4918371,271.96,0.02961418591439724,101.68936157226562,-0.01900000125169754,0.0,1
1650744122.99904799,176469836,0,3,590540999,2206,15,0.7000000000000001,42.688062599999995,-84.49183719999999,271.97,0.00824621133506298,255.96377563476562,0.01900000125169754,0.0,1
1650744123.19903803,176669826,0,3,590541199,2206,15,0.7000000000000001,42.688062599999995,-84.49183719999999,271.98,0.01044030673801899,253.30076599121094,0.003000000026077032,0.0,1
1650744123.39901996,176869808,0,3,590541399,2206,15,0.7000000000000001,42.688062599999995,-84.4918373,272.0,0.012727922759950161,45.0,0.00800000037997961,0.0,1
1650744123.59895205,177069740,0,3,590541599,2206,15,0.7000000000000001,42.688062599999995,-84.4918373,272.01,0.020396079868078232,281.3099365234375,-0.02800000086426735,0.0,1
1650744123.79902697,177269815,0,3,590541799,2206,15,0.7000000000000001,42.688062599999995,-84.4918374,272.02,0.012529964558780193,28.610454559326172,-0.04400000348687172,0.0,1
1650744123.99895692,177469745,0,3,590541999,2206,15,0.7000000000000001,42.688062699999996,-84.4918374,272.05,0.017088009044528008,200.55606079101562,-0.04200000315904617,0.0,1
1650744124.19904590,177669834,0,3,590542199,2206,15,0.7000000000000001,42.688062699999996,-84.4918375,272.06,0.020615529268980026,230.90615844726562,-0.009000000543892384,0.0,1
1650744124.39902997,177869818,0,3,590542399,2206,15,0.7000000000000001,42.688062699999996,-84.4918376,272.07,0.00412310566753149,14.036242485046387,-0.017000000923871994,0.0,1
1650744124.59903789,178069826,0,3,590542599,2206,15,0.7000000000000001,42.688062699999996,-84.4918376,272.08,0.01486606989055872,42.273685455322266,0.0,0.0,1
1650744124.79903102,178269819,0,3,590542799,2206,15,0.7000000000000001,42.688062699999996,-84.49183769999999,272.09000000000003,0.018248287960886955,260.5376892089844,-0.08900000154972076,0.0,1
1650744124.99897599,178469764,0,3,590542999,2206,15,0.7000000000000001,42.688062699999996,-84.4918378,272.11,0.02370654046535492,152.35401916503906,0.023000001907348633,0.0,1
1650744125.19896197,178669750,0,3,590543199,2206,15,0.7000000000000001,42.688062599999995,-84.4918378,272.11,0.007615773472934961,246.80142211914062,-0.017000000923871994,0.0,1
1650744125.39893103,178869719,0,3,590543399,2206,15,0.7000000000000001,42.688062599999995,-84.4918379,272.12,0.02088061347603798,106.69923400878906,-0.07200000435113907,0.0,1
1650744125.59897399,179069762,0,3,590543599,2206,15,0.7000000000000001,42.688062599999995,-84.4918379,272.13,0.00632455525919795,341.5650634765625,0.07400000095367432,0.0,1
1650744125.79902792,179269816,0,3,590543799,2206,15,0.7000000000000001,42.688062599999995,-84.491838,272.12,0.021023796871304512,267.273681640625,-0.07200000435113907,0.0,1
1650744125.99902701,179469815,0,3,590543999,2206,15,0.7000000000000001,42.688062599999995,-84.491838,272.14,0.004472136031836271,296.5650634765625,0.007000000216066837,0.0,1
1650744126.19903898,179669827,0,3,590544199,2206,15,0.7000000000000001,42.688062599999995,-84.4918381,272.14,0.009219544939696789,257.47119140625,0.005000000353902578,0.0,1
1650744126.39903212,179869820,0,3,590544399,2206,15,0.7000000000000001,42.688062599999995,-84.49183819999999,272.14,0.04390899837017059,239.93142700195312,0.005000000353902578,0.0,1
1650744126.59906006,180069848,0,3,590544599,2206,15,0.7000000000000001,42.688062599999995,-84.49183819999999,272.14,0.0573149211704731,42.878902435302734,-0.02800000086426735,0.0,1
1650744126.79899096,180269779,0,3,590544799,2206,15,0.7000000000000001,42.688062599999995,-84.4918383,272.14,0.03101612627506256,268.15240478515625,-0.02800000086426735,0.0,1
1650744126.99900007,180469788,0,3,590544999,2206,15,0.7000000000000001,42.688062599999995,-84.4918383,272.14,0.028844410553574562,123.6900634765625,0.013000000268220901,0.0,1
1650744127.19897795,180669766,0,3,590545199,2206,15,0.7000000000000001,42.688062599999995,-84.4918383,272.15,0.019924860447645187,107.52555847167969,0.02500000037252903,0.0,1
1650744127.39896798,180869756,0,3,590545399,2206,15,0.7000000000000001,42.688062599999995,-84.4918383,272.14,0.017888544127345085,296.5650634765625,-0.02800000086426735,0.0,1
1650744127.61895800,181089746,0,3,590545599,2206,15,0.7000000000000001,42.688062599999995,-84.4918383,272.15,0.022561030462384224,102.80426025390625,0.010000000707805157,0.0,1
1650744127.79898596,181269774,0,3,590545799,2206,15,0.7000000000000001,42.6880625,-84.4918383,272.14,0.00412310566753149,14.036242485046387,-0.0860000029206276,0.0,1
1650744127.99901700,181469805,0,3,590545999,2206,15,0.7000000000000001,42.6880625,-84.4918383,272.14,0.038832977414131165,55.49147415161133,0.04400000348687172,0.0,1
1650744128.19894290,181669731,0,3,590546199,2206,15,0.7000000000000001,42.6880625,-84.4918383,272.14,0.02617250569164753,173.4180450439453,-0.02200000174343586,0.0,1
1650744128.39897895,181869767,0,3,590546399,2206,15,0.7000000000000001,42.6880625,-84.49183819999999,272.15,0.04390899837017059,149.93141174316406,-0.055000003427267075,0.0,1
1650744128.59904099,182069829,0,3,590546599,2206,15,0.7000000000000001,42.6880624,-84.49183819999999,272.15,0.01077033020555973,338.1986083984375,-0.07500000298023224,0.0,1
1650744128.79896307,182269751,0,3,590546799,2206,15,0.7000000000000001,42.6880624,-84.4918383,272.16,0.03981206193566322,295.2777099609375,-0.09100000560283661,0.0,1
1650744128.99896288,182469751,0,3,590546999,2206,15,0.7000000000000001,42.6880625,-84.49183839999999,272.17,0.011180340312421322,333.4349365234375,-0.029000001028180122,0.0,1
1650744129.19900203,182669790,0,3,590547199,2206,15,0.7000000000000001,42.6880625,-84.49183839999999,272.16,0.015620499849319458,39.805572509765625,-0.012000000104308128,0.0,1
1650744129.39898610,182869774,0,3,590547399,2206,15,0.7000000000000001,42.6880625,-84.4918385,272.16,0.023086795583367348,274.9697265625,-0.02800000086426735,0.0,1
1650744129.59902000,183069808,0,3,590547599,2206,15,0.7000000000000001,42.6880625,-84.4918385,272.16,0.00806225836277008,150.25511169433594,0.014000000432133675,0.0,1
1650744129.79896092,183269749,0,3,590547799,2206,15,0.7000000000000001,42.6880625,-84.4918385,272.16,0.00632455525919795,108.43494415283203,0.12600000202655792,0.0,1
1650744129.99898195,183469770,0,3,590547999,2206,15,0.7000000000000001,42.6880625,-84.4918385,272.15,0.018384777009487152,67.61985778808594,0.029000001028180122,0.0,1
1650744130.21897006,183689758,0,3,590548199,2206,15,0.7000000000000001,42.6880625,-84.4918385,272.15,0.011180340312421322,79.69514465332031,0.020000001415610313,0.0,1
1650744130.39901209,183869800,0,3,590548399,2206,15,0.7000000000000001,42.6880625,-84.4918385,272.16,0.011401754803955555,127.87498474121094,0.058000002056360245,0.0,1
1650744130.59895611,184069744,0,3,590548599,2206,15,0.7000000000000001,42.6880625,-84.4918385,272.15,0.012041594833135605,85.2363510131836,-0.009000000543892384,0.0,1
1650744130.79896498,184269753,0,3,590548799,2206,15,0.7000000000000001,42.6880625,-84.4918386,272.16,0.013152946718037128,351.25384521484375,-0.007000000216066837,0.0,1
1650744130.99895811,184469746,0,3,590548999,2206,15,0.7000000000000001,42.688062599999995,-84.4918386,272.15,0.020615529268980026,337.1663513183594,-0.02200000174343586,0.0,1
1650744131.19893789,184669726,0,3,590549199,2206,15,0.7000000000000001,42.688062599999995,-84.4918386,272.16,0.01615549437701702,158.19857788085938,0.03700000047683716,0.0,1
1650744131.39902711,184869815,0,3,590549399,2206,15,0.7000000000000001,42.688062599999995,-84.4918387,272.16,0.0230867937207222,342.3498840332031,-0.010000000707805157,0.0,1
1650744131.59900188,185069790,0,3,590549599,2206,15,0.7000000000000001,42.688062599999995,-84.4918387,272.17,0.0070710680447518826,261.8699035644531,0.08000000566244125,0.0,1
1650744131.79899192,185269780,0,3,590549799,2206,15,0.7000000000000001,42.688062599999995,-84.4918387,272.16,0.004472136031836271,296.5650634765625,-0.015000000596046448,0.0,1
1650744131.99902296,185469811,0,3,590549999,2206,15,0.7000000000000001,42.688062599999995,-84.4918388,272.17,0.019026298075914383,176.98719787597656,0.02800000086426735,0.0,1
1650744132.19896388,185669752,0,3,590550199,2206,15,0.7000000000000001,42.688062599999995,-84.4918388,272.16,0.023000001907348633,270.0,-0.05300000309944153,0.0,1
1650744132.39898896,185869777,0,3,590550399,2206,15,0.7000000000000001,42.6880625,-84.4918388,272.16,0.022472206503152847,147.72434997558594,0.006000000052154064,0.0,1
1650744132.59897494,186069763,0,3,590550599,2206,15,0.7000000000000001,42.6880625,-84.49183889999999,272.15,0.015231546945869923,23.198589324951172,0.01600000075995922,0.0,1
1650744132.79894090,186269729,0,3,590550799,2206,15,0.7000000000000001,42.688062599999995,-84.49183889999999,272.15,0.04313931241631508,315.939208984375,0.052000001072883606,0.0,1
1650744132.99894691,186469735,0,3,590550999,2206,15,0.7000000000000001,42.688062599999995,-84.49183889999999,272.15,0.027856776490807533,111.03750610351562,-0.015000000596046448,0.0,1
1650744133.19901299,186669801,0,3,590551199,2206,15,0.7000000000000001,42.688062599999995,-84.49183889999999,272.14,0.012083047069609165,245.55606079101562,-0.004000000189989805,0.0,1
1650744133.39897704,186869765,0,3,590551399,2206,15,0.7000000000000001,42.688062599999995,-84.491839,272.14,0.03500000014901161,143.13009643554688,0.018000001087784767,0.0,1
1650744133.59903288,187069821,0,3,590551599,2206,15,0.7000000000000001,42.688062599999995,-84.49183889999999,272.13,0.010630146600306034,41.18592071533203,-0.06300000101327896,0.0,1
1650744133.79899311,187269781,0,3,590551799,2206,15,0.7000000000000001,42.688062599999995,-84.49183889999999,272.14,0.014764823019504547,118.3007583618164,0.0,0.0,1
1650744133.99900699,187469795,0,3,590551999,2206,15,0.7000000000000001,42.688062699999996,-84.491839,272.15,0.02961418591439724,258.3106384277344,0.055000003427267075,0.0,1
1650744134.19899297,187669781,0,3,590552199,2206,15,0.7000000000000001,42.688062699999996,-84.491839,272.13,0.0020000000949949026,270.0,-0.014000000432133675,0.0,1
1650744134.39893699,187869725,0,3,590552399,2206,15,0.7000000000000001,42.688062699999996,-84.491839,272.13,0.008485281839966774,135.0,0.06100000441074371,0.0,1
1650744134.59894705,188069735,0,3,590552599,2206,15,0.7000000000000001,42.688062699999996,-84.491839,272.12,0.018439089879393578,12.528807640075684,0.026000000536441803,0.0,1
1650744134.79893208,188269720,0,3,590552799,2206,15,0.7000000000000001,42.6880628,-84.491839,272.1,0.008602325804531574,215.53768920898438,0.036000002175569534,0.0,1
1650744134.99898100,188469769,0,3,590552999,2206,15,0.7000000000000001,42.6880628,-84.491839,272.1,0.009219544939696789,229.39871215820312,0.013000000268220901,0.0,1
1650744135.19905591,188669844,0,3,590553199,2206,15,0.7000000000000001,42.6880628,-84.491839,272.11,0.009486833587288857,108.4349365234375,0.049000002443790436,0.0,1
1650744135.39902401,188869812,0,3,590553399,2206,15,0.7000000000000001,42.6880628,-84.491839,272.1,0.017000000923871994,151.927490234375,0.0020000000949949026,0.0,1
1650744135.59900808,189069796,0,3,590553599,2206,15,0.7000000000000001,42.6880628,-84.491839,272.1,0.020591260865330696,330.9454040527344,-0.029000001028180122,0.0,1
1650744135.79902196,189269810,0,3,590553799,2206,15,0.7000000000000001,42.6880628,-84.491839,272.1,0.009219544939696789,139.39869689941406,-0.05900000408291817,0.0,1
1650744135.99895406,189469742,0,3,590553999,2206,15,0.7000000000000001,42.6880628,-84.491839,272.11,0.02408318966627121,94.76364135742188,-0.0020000000949949026,0.0,1
1650744136.19895697,189669745,0,3,590554199,2206,15,0.7000000000000001,42.6880628,-84.491839,272.11,0.013000000268220901,157.380126953125,-0.007000000216066837,0.0,1
1650744136.39894795,189869736,0,3,590554399,2206,15,0.7000000000000001,42.6880628,-84.491839,272.11,0.017000000923871994,298.0724792480469,0.006000000052154064,0.0,1
1650744136.59895205,190069740,0,3,590554599,2206,15,0.7000000000000001,42.6880628,-84.491839,272.1,0.00412310566753149,345.9637451171875,0.014000000432133675,0.0,1
1650744136.79898000,190269768,0,3,590554799,2206,15,0.7000000000000001,42.6880628,-84.491839,272.11,0.038897302001714706,133.95835876464844,0.009000000543892384,0.0,1
1650744136.99903393,190469822,0,3,590554999,2206,15,0.7000000000000001,42.6880628,-84.491839,272.11,0.02475883811712265,316.6365661621094,0.036000002175569534,0.0,1
1650744137.19902897,190669817,0,3,590555199,2206,15,0.7000000000000001,42.6880629,-84.491839,272.11,0.012806248851120472,51.34019088745117,0.04800000041723251,0.0,1
1650744137.39901495,190869803,0,3,590555399,2206,15,0.7000000000000001,42.6880629,-84.491839,272.11,0.023086795583367348,175.03025817871094,0.012000000104308128,0.0,1
1650744137.61896491,191089753,0,3,590555599,2206,15,0.7000000000000001,42.6880628,-84.491839,272.1,0.01615549437701702,21.801406860351562,-0.02500000037252903,0.0,1
1650744137.79898405,191269772,0,3,590555799,2206,15,0.7000000000000001,42.6880628,-84.491839,272.1,0.024839486926794052,229.8990936279297,-0.014000000432133675,0.0,1
1650744137.99901891,191469807,0,3,590555999,2206,15,0.7000000000000001,42.6880628,-84.49183909999999,272.11,0.012206556275486946,304.9920349121094,0.02200000174343586,0.0,1
1650744138.21898794,191689776,0,3,590556199,2206,15,0.7000000000000001,42.6880628,-84.49183909999999,272.1,0.00806225836277008,119.744873046875,0.02500000037252903,0.0,1
1650744138.39900208,191869790,0,3,590556399,2206,15,0.7000000000000001,42.6880628,-84.49183909999999,272.09000000000003,0.005000000353902578,36.869895935058594,-0.07300000637769699,0.0,1
1650744138.59902596,192069814,0,3,590556599,2206,15,0.7000000000000001,42.6880628,-84.49183909999999,272.1,0.021931713446974754,24.22774314880371,-0.05400000140070915,0.0,1
1650744138.79903507,192269823,0,3,590556799,2206,15,0.7000000000000001,42.6880628,-84.49183909999999,272.1,0.027294687926769257,8.426968574523926,-0.0560000017285347,0.0,1
1650744138.99903297,192469821,0,3,590556999,2206,15,0.7000000000000001,42.6880628,-84.49183909999999,272.11,0.010000000707805157,233.13009643554688,0.020000001415610313,0.0,1
1650744139.19904590,192669834,0,3,590557199,2206,15,0.7000000000000001,42.6880628,-84.49183909999999,272.11,0.020591260865330696,150.94540405273438,0.01900000125169754,0.0,1
1650744139.39904308,192869831,0,3,590557399,2206,15,0.7000000000000001,42.6880628,-84.49183909999999,272.11,0.01702938787639141,49.76363754272461,-0.0010000000474974513,0.0,1
1650744139.59894490,193069733,0,3,590557599,2206,15,0.7000000000000001,42.6880628,-84.4918392,272.11,0.018973667174577713,198.43495178222656,-0.0010000000474974513,0.0,1
1650744139.79898500,193269773,0,3,590557799,2206,15,0.7000000000000001,42.6880628,-84.4918392,272.11,0.004242640919983387,45.0,-0.0010000000474974513,0.0,1
1650744139.99898100,193469769,0,3,590557999,2206,15,0.7000000000000001,42.6880628,-84.4918392,272.11,0.012041594833135605,265.2363586425781,-0.023000001907348633,0.0,1
1650744140.21897006,193689758,0,3,590558199,2206,15,0.7000000000000001,42.688062699999996,-84.4918392,272.11,0.015652475878596306,153.43495178222656,0.006000000052154064,0.0,1
1650744140.39901400,193869802,0,3,590558399,2206,15,0.7000000000000001,42.688062699999996,-84.4918393,272.12,0.0150332972407341,93.81407165527344,0.08500000089406967,0.0,1
1650744140.59903288,194069821,0,3,590558599,2206,15,0.7000000000000001,42.688062699999996,-84.4918393,272.11,0.039051249623298645,230.19442749023438,-0.05700000375509262,0.0,1
1650744140.79904795,194269836,0,3,590558799,2206,15,0.7000000000000001,42.688062599999995,-84.49183939999999,272.12,0.015132746659219265,262.4053649902344,0.07400000095367432,0.0,1
1650744141.01902890,194489817,0,3,590558999,2206,15,0.7000000000000001,42.688062699999996,-84.49183939999999,272.13,0.004472136031836271,26.56505012512207,0.05000000074505806,0.0,1
1650744141.21898794,194689776,0,3,590559199,2206,15,0.7000000000000001,42.688062599999995,-84.49183939999999,272.12,0.021023796871304512,205.34617614746094,0.02200000174343586,0.0,1
1650744141.39902091,194869809,0,3,590559399,2206,15,0.7000000000000001,42.688062599999995,-84.4918395,272.12,0.007280109915882349,195.94540405273438,0.026000000536441803,0.0,1
1650744141.59899211,195069780,0,3,590559599,2206,15,0.7000000000000001,42.688062599999995,-84.4918395,272.12,0.011045361869037151,95.19442749023438,-0.07700000703334808,0.0,1
1650744141.79898500,195269773,0,3,590559799,2206,15,0.7000000000000001,42.688062599999995,-84.4918395,272.13,0.025632010772824287,159.44393920898438,0.03400000184774399,0.0,1
1650744141.99900007,195469788,0,3,590559999,2206,15,0.7000000000000001,42.6880625,-84.4918395,272.13,0.010630146600306034,138.81407165527344,0.04000000283122063,0.0,1
1650744142.19903994,195669828,0,3,590560199,2206,15,0.7000000000000001,42.6880625,-84.4918395,272.13,0.020223749801516533,81.46923065185547,-0.06200000271201134,0.0,1
1650744142.39904308,195869831,0,3,590560399,2206,15,0.7000000000000001,42.6880625,-84.4918395,272.14,0.018027756363153458,236.3099365234375,0.049000002443790436,0.0,1
1650744142.59903789,196069826,0,3,590560599,2206,15,0.7000000000000001,42.6880625,-84.4918395,272.14,0.011180340312421322,26.56505012512207,-0.021000001579523087,0.0,1
1650744142.79906511,196269853,0,3,590560799,2206,15,0.7000000000000001,42.6880625,-84.49183959999999,272.16,0.01600000075995922,270.0,0.020000001415610313,0.0,1
1650744142.99903703,196469825,0,3,590560999,2206,15,0.7000000000000001,42.6880625,-84.49183959999999,272.16,0.02500000037252903,73.73979187011719,-0.03400000184774399,0.0,1
1650744143.19900107,196669789,0,3,590561199,2206,15,0.7000000000000001,42.6880625,-84.4918395,272.17,0.03101612627506256,69.22773742675781,0.005000000353902578,0.0,1
1650744143.39898801,196869776,0,3,590561399,2206,15,0.7000000000000001,42.6880625,-84.4918395,272.18,0.0014142136787995696,45.0,-0.004000000189989805,0.0,1
1650744143.59899306,197069781,0,3,590561599,2206,15,0.7000000000000001,42.6880625,-84.4918395,272.18,0.01303840521723032,4.398705005645752,0.018000001087784767,0.0,1
1650744143.79894304,197269731,0,3,590561799,2206,15,0.7000000000000001,42.6880625,-84.4918395,272.18,0.021023796871304512,295.34619140625,-0.026000000536441803,0.0,1
1650744143.99905896,197469847,0,3,590561999,2206,15,0.7000000000000001,42.6880625,-84.49183959999999,272.19,0.014035669155418873,265.9143981933594,0.07000000029802322,0.0,1
1650744144.19896007,197669748,0,3,590562199,2206,15,0.7000000000000001,42.6880625,-84.49183959999999,272.19,0.023194829002022743,172.56858825683594,0.004000000189989805,0.0,1
1650744144.39902496,197869813,0,3,590562399,2206,15,0.7000000000000001,42.6880625,-84.4918397,272.18,0.029154760763049126,264.0938720703125,-0.0020000000949949026,0.0,1
1650744144.59898901,198069777,0,3,590562599,2206,15,0.7000000000000001,42.6880624,-84.4918397,272.19,0.014560219831764698,195.94540405273438,-0.032999999821186066,0.0,1
1650744144.79902196,198269810,0,3,590562799,2206,15,0.7000000000000001,42.6880625,-84.4918397,272.2,0.039849720895290375,17.52556610107422,0.009000000543892384,0.0,1
1650744144.99896693,198469755,0,3,590562999,2206,15,0.7000000000000001,42.6880625,-84.4918397,272.21,0.006403124425560236,51.34019088745117,0.046000003814697266,0.0,1
1650744145.19901991,198669808,0,3,590563199,2206,15,0.7000000000000001,42.6880625,-84.4918397,272.21,0.02154066041111946,158.19857788085938,0.029000001028180122,0.0,1
1650744145.39893794,198869726,0,3,590563399,2206,15,0.7000000000000001,42.6880625,-84.4918397,272.22,0.010198039934039116,78.6900634765625,0.010000000707805157,0.0,1
1650744145.59898400,199069772,0,3,590563599,2206,15,0.7000000000000001,42.6880625,-84.4918397,272.23,0.018439089879393578,139.39869689941406,0.0010000000474974513,0.0,1
1650744145.79897308,199269761,0,3,590563799,2206,15,0.7000000000000001,42.6880625,-84.4918397,272.23,0.006403124425560236,218.65982055664062,0.039000000804662704,0.0,1
1650744145.99901009,199469798,0,3,590563999,2206,15,0.7000000000000001,42.6880625,-84.4918397,272.23,0.0010000000474974513,270.0,-0.014000000432133675,0.0,1
1650744146.19899297,199669781,0,3,590564199,2206,15,0.7000000000000001,42.6880625,-84.4918397,272.23,0.02376973070204258,75.3791275024414,-0.032999999821186066,0.0,1
1650744146.39902210,199869810,0,3,590564399,2206,15,0.7000000000000001,42.6880625,-84.4918397,272.24,0.005385165102779865,21.801406860351562,-0.027000000700354576,0.0,1
1650744146.59898591,200069774,0,3,590564599,2206,15,0.7000000000000001,42.6880625,-84.49183959999999,272.25,0.025612497702240944,141.34017944335938,-0.01100000087171793,0.0,1
1650744146.79892898,200269717,0,3,590564799,2206,15,0.7000000000000001,42.6880625,-84.49183959999999,272.26,0.013000000268220901,247.380126953125,-0.015000000596046448,0.0,1
1650744146.99894309,200469731,0,3,590564999,2206,15,0.7000000000000001,42.6880625,-84.4918397,272.25,0.01603122055530548,3.576334238052368,-0.030000001192092896,0.0,1
1650744147.19897199,200669760,0,3,590565199,2206,15,0.7000000000000001,42.6880625,-84.4918397,272.26,0.02280350960791111,164.744873046875,0.04800000041723251,0.0,1
1650744147.39894700,200869735,0,3,590565399,2206,15,0.7000000000000001,42.6880625,-84.49183959999999,272.26,0.03106445074081421,3.6913857460021973,0.003000000026077032,0.0,1
1650744147.61902905,201089817,0,3,590565599,2206,15,0.7000000000000001,42.6880625,-84.49183959999999,272.26,0.015264337882399559,148.39248657226562,0.03800000250339508,0.0,1
1650744147.81898808,201289776,0,3,590565799,2206,15,0.7000000000000001,42.6880625,-84.49183959999999,272.25,0.028160257264971733,196.50437927246094,0.02500000037252903,0.0,1
1650744147.99902797,201469816,0,3,590565999,2206,15,0.7000000000000001,42.6880624,-84.49183959999999,272.26,0.011704700998961926,289.9831237792969,-0.015000000596046448,0.0,1
1650744148.19901395,201669802,0,3,590566199,2206,15,0.7000000000000001,42.6880624,-84.49183959999999,272.27,0.013928388245403767,158.9624786376953,0.0020000000949949026,0.0,1
1650744148.39896297,201869751,0,3,590566399,2206,15,0.7000000000000001,42.6880624,-84.49183959999999,272.27,0.006082762498408556,189.4623260498047,-0.04000000283122063,0.0,1
1650744148.61903095,202089819,0,3,590566599,2206,15,0.7000000000000001,42.6880624,-84.49183959999999,272.28000000000003,0.01303840521723032,327.52880859375,-0.09400000423192978,0.0,1
1650744148.79897404,202269762,0,3,590566799,2206,15,0.7000000000000001,42.6880624,-84.49183959999999,272.28000000000003,0.027073973789811134,4.236394882202148,-0.06000000238418579,0.0,1
1650744148.99895692,202469745,0,3,590566999,2206,15,0.7000000000000001,42.6880625,-84.49183959999999,272.29,0.016552945598959923,244.98312377929688,0.015000000596046448,0.0,1
1650744149.19898391,202669772,0,3,590567199,2206,15,0.7000000000000001,42.6880625,-84.49183959999999,272.29,0.027000000700354576,270.0,0.08000000566244125,0.0,1
1650744149.39901495,202869803,0,3,590567399,2206,15,0.7000000000000001,42.6880625,-84.49183959999999,272.29,0.006403124425560236,38.65980529785156,0.012000000104308128,0.0,1
1650744149.59904599,203069834,0,3,590567599,2206,15,0.7000000000000001,42.6880625,-84.49183959999999,272.3,0.024041632190346718,163.07247924804688,-0.009000000543892384,0.0,1
1650744149.79902411,203269812,0,3,590567799,2206,15,0.7000000000000001,42.6880624,-84.49183959999999,272.3,0.03448187932372093,150.46121215820312,0.017000000923871994,0.0,1
1650744149.99904895,203469837,0,3,590567999,2206,15,0.7000000000000001,42.6880625,-84.49183959999999,272.31,0.03623534366488457,332.0205383300781,0.06000000238418579,0.0,1
1650744150.21897411,203689762,0,3,590568199,2206,15,0.7000000000000001,42.6880625,-84.49183959999999,272.3,0.0126491105183959,198.43495178222656,0.04100000113248825,0.0,1
1650744150.39894390,203869732,0,3,590568399,2206,15,0.7000000000000001,42.6880625,-84.49183959999999,272.31,0.026000000536441803,270.0,0.11300000548362732,0.0,1
1650744150.59896708,204069755,0,3,590568599,2206,15,0.7000000000000001,42.6880625,-84.49183959999999,272.31,0.021931713446974754,136.84759521484375,0.0010000000474974513,0.0,1
1650744150.79902411,204269812,0,3,590568799,2206,15,0.7000000000000001,42.6880625,-84.49183959999999,272.32,0.00984885822981596,113.96247863769531,0.01900000125169754,0.0,1
1650744150.99901891,204469807,0,3,590568999,2206,15,0.7000000000000001,42.6880625,-84.4918395,272.32,0.018110770732164383,173.65980529785156,0.01600000075995922,0.0,1
1650744151.19902611,204669814,0,3,590569199,2206,15,0.7000000000000001,42.6880625,-84.49183939999999,272.33,0.05721888318657875,95.01310729980469,0.024000000208616257,0.0,1
1650744151.39903593,204869824,0,3,590569399,2206,15,0.7000000000000001,42.6880625,-84.49183939999999,272.32,0.017464250326156616,23.629375457763672,0.014000000432133675,0.0,1
1650744151.59903789,205069826,0,3,590569599,2206,15,0.7000000000000001,42.6880625,-84.4918393,272.33,0.036674242466688156,154.13363647460938,0.023000001907348633,0.0,1
1650744151.79909396,205269882,0,3,590569799,2206,15,0.7000000000000001,42.6880625,-84.4918393,272.33,0.02282542549073696,208.810791015625,-0.09400000423192978,0.0,1
1650744151.99896002,205469748,0,3,590569999,2206,15,0.7000000000000001,42.6880625,-84.4918393,272.33,0.005000000353902578,126.8698959350586,-0.003000000026077032,0.0,1
1650744152.19897008,205669758,0,3,590570199,2206,15,0.7000000000000001,42.6880625,-84.4918393,272.33,0.02607681043446064,175.60128784179688,-0.0020000000949949026,0.0,1
1650744152.39897609,205869764,0,3,590570399,2206,15,0.7000000000000001,42.6880624,-84.4918393,272.33,0.019209373742341995,141.34017944335938,-0.046000003814697266,0.0,1
1650744152.59901690,206069805,0,3,590570599,2206,15,0.7000000000000001,42.6880624,-84.4918392,272.34000000000003,0.036221541464328766,173.65980529785156,-0.01100000087171793,0.0,1
1650744152.79905200,206269840,0,3,590570799,2206,15,0.7000000000000001,42.6880624,-84.4918392,272.33,0.006403124425560236,321.3402099609375,0.0020000000949949026,0.0,1
1650744152.99902391,206469812,0,3,590570999,2206,15,0.7000000000000001,42.6880624,-84.4918393,272.33,0.027166156098246574,353.6598205566406,0.003000000026077032,0.0,1
1650744153.19903493,206669823,0,3,590571199,2206,15,0.7000000000000001,42.6880625,-84.4918393,272.32,0.022203605622053146,262.2348327636719,-0.007000000216066837,0.0,1
1650744153.39908004,206869868,0,3,590571399,2206,15,0.7000000000000001,42.6880625,-84.4918393,272.32,0.01486606989055872,312.273681640625,0.02200000174343586,0.0,1
1650744153.59903407,207069822,0,3,590571599,2206,15,0.7000000000000001,42.6880625,-84.4918393,272.31,0.012083047069609165,294.4439697265625,0.023000001907348633,0.0,1
1650744153.79901409,207269802,0,3,590571799,2206,15,0.7000000000000001,42.6880625,-84.4918393,272.32,0.03106445074081421,123.17850494384766,0.01100000087171793,0.0,1
1650744153.99903393,207469822,0,3,590571999,2206,15,0.7000000000000001,42.6880625,-84.4918393,272.32,0.030016662552952766,181.90916442871094,-0.017000000923871994,0.0,1
1650744154.19901395,207669802,0,3,590572199,2206,15,0.7000000000000001,42.6880624,-84.4918393,272.32,0.012369317002594471,104.0362319946289,0.0,0.0,1
1650744154.39896703,207869755,0,3,590572399,2206,15,0.7000000000000001,42.6880624,-84.4918393,272.31,0.020591260865330696,299.0545959472656,-0.05300000309944153,0.0,1
1650744154.59891391,208069702,0,3,590572599,2206,15,0.7000000000000001,42.6880624,-84.4918393,272.31,0.011401754803955555,164.744873046875,0.02800000086426735,0.0,1
1650744154.79903698,208269825,0,3,590572799,2206,15,0.7000000000000001,42.6880624,-84.4918393,272.31,0.027586231008172035,313.53118896484375,0.009000000543892384,0.0,1
1650744154.99899006,208469778,0,3,590572999,2206,15,0.7000000000000001,42.6880625,-84.4918393,272.3,0.005000000353902578,323.1300964355469,0.0020000000949949026,0.0,1
1650744155.19900990,208669798,0,3,590573199,2206,15,0.7000000000000001,42.6880625,-84.4918393,272.31,0.018027756363153458,199.44004821777344,0.06000000238418579,0.0,1
1650744155.39900994,208869798,0,3,590573399,2206,15,0.7000000000000001,42.6880625,-84.4918393,272.31,0.014142136089503765,171.86988830566406,-0.06300000101327896,0.0,1
1650744155.59897089,209069759,0,3,590573599,2206,15,0.7000000000000001,42.6880624,-84.4918393,272.3,0.01910497434437275,263.9909973144531,0.023000001907348633,0.0,1
1650744155.79899096,209269779,0,3,590573799,2206,15,0.7000000000000001,42.6880624,-84.4918393,272.3,0.04609772562980652,167.47119140625,0.05100000277161598,0.0,1
1650744155.99898911,209469777,0,3,590573999,2206,15,0.7000000000000001,42.6880624,-84.4918393,272.3,0.018384777009487152,247.619873046875,-0.012000000104308128,0.0,1
1650744156.19892597,209669714,0,3,590574199,2206,15,0.7000000000000001,42.6880624,-84.4918393,272.3,0.0394081249833107,144.29330444335938,0.01100000087171793,0.0,1
1650744156.39894199,209869730,0,3,590574399,2206,15,0.7000000000000001,42.6880623,-84.4918392,272.3,0.007810249924659729,129.80557250976562,-0.05400000140070915,0.0,1
1650744156.59902692,210069815,0,3,590574599,2206,15,0.7000000000000001,42.6880623,-84.4918392,272.3,0.02828427404165268,135.0,-0.00800000037997961,0.0,1
1650744156.79895711,210269745,0,3,590574799,2206,15,0.7000000000000001,42.6880623,-84.49183909999999,272.29,0.02408318966627121,41.63353729248047,-0.02500000037252903,0.0,1
1650744156.99902391,210469812,0,3,590574999,2206,15,0.7000000000000001,42.6880623,-84.49183909999999,272.29,0.02973213978111744,312.273681640625,-0.06200000271201134,0.0,1
1650744157.19898891,210669777,0,3,590575199,2206,15,0.7000000000000001,42.6880623,-84.49183909999999,272.29,0.013601470738649368,197.1027374267578,-0.05400000140070915,0.0,1
1650744157.39900303,210869791,0,3,590575399,2206,15,0.7000000000000001,42.6880623,-84.49183909999999,272.3,0.015652475878596306,333.4349365234375,-0.004000000189989805,0.0,1
1650744157.59899902,211069787,0,3,590575599,2206,15,0.7000000000000001,42.6880623,-84.49183909999999,272.29,0.0213775597512722,169.21568298339844,-0.003000000026077032,0.0,1
1650744157.79896593,211269754,0,3,590575799,2206,15,0.7000000000000001,42.6880623,-84.49183909999999,272.28000000000003,0.012206556275486946,145.00796508789062,0.006000000052154064,0.0,1
1650744157.99897003,211469758,0,3,590575999,2206,15,0.7000000000000001,42.6880622,-84.4918392,272.28000000000003,0.03546829894185066,220.42608642578125,0.017000000923871994,0.0,1
1650744158.21904612,211689834,0,3,590576199,2206,15,0.7000000000000001,42.6880622,-84.4918393,272.26,0.05679788812994957,296.1139221191406,0.02200000174343586,0.0,1
1650744158.41902590,211889814,0,3,590576399,2206,15,0.7000000000000001,42.6880622,-84.4918393,272.26,0.033837851136922836,198.9704132080078,0.020000001415610313,0.0,1
1650744158.59905005,212069838,0,3,590576599,2206,15,0.7000000000000001,42.688062099999996,-84.49183939999999,272.25,0.005000000353902578,233.13009643554688,-0.0690000057220459,0.0,1
1650744158.79903007,212269818,0,3,590576799,2206,15,0.7000000000000001,42.688062099999996,-84.49183939999999,272.23,0.01969771645963192,293.9624938964844,-0.0820000022649765,0.0,1
1650744158.99902296,212469811,0,3,590576999,2206,15,0.7000000000000001,42.688062099999996,-84.49183939999999,272.24,0.02745906077325344,280.4914855957031,-0.07100000232458115,0.0,1
1650744159.19901800,212669806,0,3,590577199,2206,15,0.7000000000000001,42.688062099999996,-84.4918395,272.24,0.042379241436719894,160.70994567871094,0.04500000178813934,0.0,1
1650744159.39895511,212869743,0,3,590577399,2206,15,0.7000000000000001,42.688061999999995,-84.4918395,272.23,0.012165524996817112,260.5376892089844,0.0,0.0,1
1650744159.59896898,213069757,0,3,590577599,2206,15,0.7000000000000001,42.688061999999995,-84.4918395,272.22,0.034669872373342514,303.2317199707031,0.021000001579523087,0.0,1
1650744159.79895210,213269740,0,3,590577799,2206,15,0.7000000000000001,42.688061999999995,-84.4918395,272.23,0.009486833587288857,18.434947967529297,0.012000000104308128,0.0,1
1650744159.99897408,213469762,0,3,590577999,2206,15,0.7000000000000001,42.688061999999995,-84.4918395,272.22,0.015231546945869923,66.80140686035156,0.029000001028180122,0.0,1
1650744160.21903610,213689824,0,3,590578199,2206,15,0.7000000000000001,42.688061999999995,-84.4918395,272.22,0.01486606989055872,137.72630310058594,0.04700000211596489,0.0,1
1650744160.39904094,213869829,0,3,590578399,2206,15,0.7000000000000001,42.688061999999995,-84.49183939999999,272.22,0.011180340312421322,333.4349365234375,0.058000002056360245,0.0,1
1650744160.59900904,214069797,0,3,590578599,2206,15,0.7000000000000001,42.6880619,-84.49183939999999,272.21,0.00412310566753149,165.9637451171875,0.015000000596046448,0.0,1
1650744160.79904008,214269828,0,3,590578799,2206,15,0.7000000000000001,42.6880619,-84.49183939999999,272.21,0.0072111026383936405,303.6900634765625,0.03500000014901161,0.0,1
1650744160.99898410,214469772,0,3,590578999,2206,15,0.7000000000000001,42.6880619,-84.49183939999999,272.21,0.015811389312148094,71.56504821777344,-0.007000000216066837,0.0,1
1650744161.19902492,214669813,0,3,590579199,2206,15,0.7000000000000001,42.6880619,-84.4918393,272.22,0.016401220113039017,142.431396484375,-0.004000000189989805,0.0,1
1650744161.39896989,214869758,0,3,590579399,2206,15,0.7000000000000001,42.6880619,-84.4918393,272.23,0.029154760763049126,149.03623962402344,0.012000000104308128,0.0,1
1650744161.59897995,215069768,0,3,590579599,2206,15,0.7000000000000001,42.6880618,-84.4918392,272.24,0.022135945037007332,161.56504821777344,0.02200000174343586,0.0,1
1650744161.79895496,215269743,0,3,590579799,2206,15,0.7000000000000001,42.6880618,-84.4918392,272.24,0.014142136089503765,261.8699035644531,-0.04500000178813934,0.0,1
1650744161.99903798,215469826,0,3,590579999,2206,15,0.7000000000000001,42.6880618,-84.4918392,272.24,0.015811389312148094,325.3048400878906,0.06400000303983688,0.0,1
1650744162.19901395,215669802,0,3,590580199,2206,15,0.7000000000000001,42.6880618,-84.4918392,272.24,0.0058309524320065975,300.9637451171875,-0.0430000014603138,0.0,1
1650744162.39902592,215869814,0,3,590580399,2206,15,0.7000000000000001,42.6880618,-84.4918392,272.24,0.019026298075914383,176.98719787597656,-0.017000000923871994,0.0,1
1650744162.59902310,216069811,0,3,590580599,2206,15,0.7000000000000001,42.6880618,-84.4918392,272.25,0.02745906077325344,190.49148559570312,-0.006000000052154064,0.0,1
1650744162.79896903,216269757,0,3,590580799,2206,15,0.7000000000000001,42.6880617,-84.4918392,272.24,0.013152946718037128,261.25384521484375,-0.004000000189989805,0.0,1
1650744162.99894094,216469729,0,3,590580999,2206,15,0.7000000000000001,42.6880617,-84.4918393,272.24,0.026870058849453926,225.0,0.032999999821186066,0.0,1
1650744163.19899392,216669782,0,3,590581199,2206,15,0.7000000000000001,42.6880617,-84.4918393,272.24,0.02420743741095066,141.7098388671875,0.039000000804662704,0.0,1
1650744163.39896393,216869752,0,3,590581399,2206,15,0.7000000000000001,42.6880617,-84.4918393,272.23,0.018384777009487152,247.619873046875,-0.06300000101327896,0.0,1
1650744163.59898806,217069776,0,3,590581599,2206,15,0.7000000000000001,42.6880617,-84.4918392,272.25,0.030463093891739845,66.80140686035156,0.00800000037997961,0.0,1
1650744163.79903293,217269821,0,3,590581799,2206,15,0.7000000000000001,42.6880617,-84.4918392,272.24,0.023194829002022743,352.568603515625,-0.02500000037252903,0.0,1
1650744163.99903393,217469822,0,3,590581999,2206,15,0.7000000000000001,42.6880617,-84.4918392,272.24,0.01077033020555973,248.1986083984375,0.020000001415610313,0.0,1
1650744164.19903111,217669819,0,3,590582199,2206,15,0.7000000000000001,42.6880617,-84.4918392,272.25,0.020099753513932228,275.7106018066406,-0.005000000353902578,0.0,1
1650744164.39904404,217869832,0,3,590582399,2206,15,0.7000000000000001,42.6880617,-84.4918392,272.25,0.031144823879003525,95.52753448486328,0.007000000216066837,0.0,1
1650744164.59895802,218069746,0,3,590582599,2206,15,0.7000000000000001,42.6880617,-84.49183909999999,272.25,0.011045361869037151,185.19442749023438,0.006000000052154064,0.0,1
1650744164.79900908,218269797,0,3,590582799,2206,15,0.7000000000000001,42.6880616,-84.49183909999999,272.25,0.011704700998961926,19.983104705810547,0.03100000135600567,0.0,1
1650744164.99896598,218469754,0,3,590582999,2206,15,0.7000000000000001,42.6880616,-84.49183909999999,272.25,0.022472206503152847,32.27564239501953,-0.021000001579523087,0.0,1
1650744165.19895697,218669745,0,3,590583199,2206,15,0.7000000000000001,42.6880616,-84.49183909999999,272.26,0.006403124425560236,141.34017944335938,-0.010000000707805157,0.0,1
1650744165.39902711,218869815,0,3,590583399,2206,15,0.7000000000000001,42.6880616,-84.49183909999999,272.25,0.02692582458257675,158.19857788085938,-0.018000001087784767,0.0,1
1650744165.59896111,219069749,0,3,590583599,2206,15,0.7000000000000001,42.688061499999996,-84.49183909999999,272.25,0.016278821974992752,132.51043701171875,-0.01900000125169754,0.0,1
1650744165.79895711,219269745,0,3,590583799,2206,15,0.7000000000000001,42.688061499999996,-84.491839,272.25,0.0414004847407341,142.85330200195312,0.06300000101327896,0.0,1
1650744165.99902511,219469813,0,3,590583999,2206,15,0.7000000000000001,42.688061399999995,-84.491839,272.25,0.011401754803955555,37.87498092651367,-0.024000000208616257,0.0,1
1650744166.19896889,219669757,0,3,590584199,2206,15,0.7000000000000001,42.688061399999995,-84.491839,272.25,0.01345362514257431,318.0127868652344,-0.02500000037252903,0.0,1
1650744166.39902902,219869817,0,3,590584399,2206,15,0.7000000000000001,42.688061399999995,-84.491839,272.24,0.013928388245403767,21.03750991821289,-0.04000000283122063,0.0,1
1650744166.59901905,220069807,0,3,590584599,2206,15,0.7000000000000001,42.688061399999995,-84.491839,272.24,0.006403124425560236,128.65980529785156,0.07200000435113907,0.0,1
1650744166.79897809,220269766,0,3,590584799,2206,15,0.7000000000000001,42.688061399999995,-84.491839,272.23,0.03312098979949951,298.8865966796875,-0.026000000536441803,0.0,1
1650744166.99900293,220469791,0,3,590584999,2206,15,0.7000000000000001,42.688061399999995,-84.491839,272.22,0.01414213702082634,135.0,-0.020000001415610313,0.0,1
1650744167.19893193,220669720,0,3,590585199,2206,15,0.7000000000000001,42.688061399999995,-84.491839,272.22,0.019723083823919296,239.53445434570312,0.046000003814697266,0.0,1
1650744167.39901090,220869799,0,3,590585399,2206,15,0.7000000000000001,42.688061399999995,-84.49183909999999,272.21,0.008485281839966774,315.0,0.039000000804662704,0.0,1
1650744167.61902308,221089811,0,3,590585599,2206,15,0.7000000000000001,42.688061399999995,-84.49183909999999,272.21,0.022360680624842644,169.6951446533203,-0.020000001415610313,0.0,1
1650744167.79898000,221269768,0,3,590585799,2206,15,0.7000000000000001,42.6880613,-84.491839,272.21,0.011401754803955555,52.1250114440918,-0.018000001087784767,0.0,1
1650744168.01901102,221489799,0,3,590585999,2206,15,0.7000000000000001,42.6880613,-84.491839,272.2,0.016278821974992752,100.6196517944336,-0.09000000357627869,0.0,1
1650744168.21897197,221689760,0,3,590586199,2206,15,0.7000000000000001,42.6880613,-84.491839,272.2,0.013601470738649368,107.10272216796875,0.030000001192092896,0.0,1
1650744168.39900398,221869792,0,3,590586399,2206,15,0.7000000000000001,42.6880612,-84.49183889999999,272.19,0.008602325804531574,35.53767776489258,0.03800000250339508,0.0,1
1650744168.59902906,222069817,0,3,590586599,2206,15,0.7000000000000001,42.6880612,-84.49183889999999,272.18,0.024413112550973892,145.00796508789062,-0.06599999964237213,0.0,1
1650744168.81899309,222289781,0,3,590586799,2206,15,0.7000000000000001,42.6880612,-84.49183889999999,272.19,0.03088689222931862,29.054601669311523,-0.04100000113248825,0.0,1
1650744168.99898601,222469774,0,3,590586999,2206,15,0.7000000000000001,42.6880612,-84.49183889999999,272.19,0.008485281839966774,135.0,-0.046000003814697266,0.0,1
1650744169.19896507,222669753,0,3,590587199,2206,15,0.7000000000000001,42.6880611,-84.49183889999999,272.19,0.005099019967019558,78.6900634765625,-0.058000002056360245,0.0,1
1650744169.39903593,222869824,0,3,590587399,2206,15,0.7000000000000001,42.6880611,-84.49183889999999,272.19,0.014000000432133675,0.0,-0.032999999821186066,0.0,1
1650744169.59905505,223069843,0,3,590587599,2206,15,0.7000000000000001,42.6880611,-84.49183889999999,272.2,0.013928388245403767,158.9624786376953,0.020000001415610313,0.0,1
1650744169.79902792,223269816,0,3,590587799,2206,15,0.7000000000000001,42.6880611,-84.491839,272.21,0.04601087048649788,312.3574523925781,-0.005000000353902578,0.0,1
1650744169.99901700,223469805,0,3,590587999,2206,15,0.7000000000000001,42.6880611,-84.491839,272.22,0.038832977414131165,168.111328125,0.08000000566244125,0.0,1
1650744170.21893907,223689727,0,3,590588199,2206,15,0.7000000000000001,42.688061,-84.49183909999999,272.21,0.05597320944070816,228.62149047851562,0.03100000135600567,0.0,1
1650744170.39897609,223869764,0,3,590588399,2206,15,0.7000000000000001,42.688060899999996,-84.4918392,272.22,0.015811389312148094,341.5650634765625,0.06200000271201134,0.0,1
1650744170.59899592,224069784,0,3,590588599,2206,15,0.7000000000000001,42.688061,-84.4918392,272.22,0.014422205276787281,303.6900634765625,0.00800000037997961,0.0,1
1650744170.79895091,224269739,0,3,590588799,2206,15,0.7000000000000001,42.688061,-84.4918393,272.23,0.014560219831764698,254.0546112060547,0.052000001072883606,0.0,1
1650744170.99903011,224469818,0,3,590588999,2206,15,0.7000000000000001,42.688060899999996,-84.4918393,272.23,0.00824621133506298,284.0362548828125,0.032999999821186066,0.0,1
1650744171.19903398,224669822,0,3,590589199,2206,15,0.7000000000000001,42.688060899999996,-84.49183939999999,272.23,0.04501111060380936,268.72698974609375,-0.03400000184774399,0.0,1
1650744171.39904308,224869831,0,3,590589399,2206,15,0.7000000000000001,42.688060899999996,-84.4918395,272.24,0.018867963925004005,237.99462890625,-0.0010000000474974513,0.0,1
1650744171.59902906,225069817,0,3,590589599,2206,15,0.7000000000000001,42.688060899999996,-84.4918395,272.25,0.02500000223517418,323.1300964355469,-0.026000000536441803,0.0,1
1650744171.79894495,225269733,0,3,590589799,2206,15,0.7000000000000001,42.688060899999996,-84.49183959999999,272.25,0.00806225836277008,172.87496948242188,-0.04200000315904617,0.0,1
1650744171.99893308,225469721,0,3,590589999,2206,15,0.7000000000000001,42.688060899999996,-84.49183959999999,272.26,0.011180340312421322,190.3048553466797,0.04200000315904617,0.0,1
1650744172.19894910,225669737,0,3,590590199,2206,15,0.7000000000000001,42.688060899999996,-84.49183959999999,272.26,0.017804494127631187,141.84275817871094,0.027000000700354576,0.0,1
1650744172.39893699,225869725,0,3,590590399,2206,15,0.7000000000000001,42.688060799999995,-84.4918395,272.26,0.033600594848394394,143.47113037109375,-0.003000000026077032,0.0,1
1650744172.59902501,226069813,0,3,590590599,2206,15,0.7000000000000001,42.688060799999995,-84.4918395,272.26,0.026627056300640106,124.28687286376953,0.013000000268220901,0.0,1
1650744172.79898095,226269769,0,3,590590799,2206,15,0.7000000000000001,42.688060799999995,-84.49183939999999,272.26,0.027294687926769257,98.42696380615234,-0.07700000703334808,0.0,1
1650744172.99901605,226469804,0,3,590590999,2206,15,0.7000000000000001,42.688060799999995,-84.49183939999999,272.27,0.003162277629598975,18.434947967529297,0.046000003814697266,0.0,1
1650744173.19903111,226669819,0,3,590591199,2206,15,0.7000000000000001,42.688060799999995,-84.4918393,272.28000000000003,0.0255538672208786,149.42076110839844,-0.03800000250339508,0.0,1
1650744173.39902806,226869816,0,3,590591399,2206,15,0.7000000000000001,42.688060899999996,-84.4918393,272.28000000000003,0.03101612627506256,1.8476099967956543,-0.01900000125169754,0.0,1
1650744173.59896803,227069756,0,3,590591599,2206,15,0.7000000000000001,42.688060899999996,-84.4918392,272.28000000000003,0.018384777009487152,67.61985778808594,0.04700000211596489,0.0,1
1650744173.79901910,227269807,0,3,590591799,2206,15,0.7000000000000001,42.688060899999996,-84.4918392,272.28000000000003,0.03206244111061096,93.57632446289062,0.036000002175569534,0.0,1
1650744173.99895000,227469738,0,3,590591999,2206,15,0.7000000000000001,42.688061,-84.49183909999999,272.27,0.02617250569164753,6.581944465637207,-0.026000000536441803,0.0,1
1650744174.19901800,227669806,0,3,590592199,2206,15,0.7000000000000001,42.688061,-84.49183909999999,272.27,0.025079874321818352,246.50143432617188,0.030000001192092896,0.0,1
1650744174.39897108,227869759,0,3,590592399,2206,15,0.7000000000000001,42.688061,-84.49183909999999,272.26,0.02088061347603798,106.69923400878906,-0.036000002175569534,0.0,1
1650744174.59897709,228069765,0,3,590592599,2206,15,0.7000000000000001,42.688061,-84.491839,272.27,0.02607681043446064,237.52880859375,0.005000000353902578,0.0,1
1650744174.79903197,228269820,0,3,590592799,2206,15,0.7000000000000001,42.688061,-84.491839,272.28000000000003,0.0072111026383936405,123.6900634765625,-0.08000000566244125,0.0,1
1650744174.99897003,228469758,0,3,590592999,2206,15,0.7000000000000001,42.688061,-84.491839,272.28000000000003,0.021954499185085297,149.93141174316406,0.015000000596046448,0.0,1
1650744175.19905496,228669843,0,3,590593199,2206,15,0.7000000000000001,42.688061,-84.49183889999999,272.27,0.013601470738649368,17.10272789001465,0.010000000707805157,0.0,1
1650744175.39892006,228869708,0,3,590593399,2206,15,0.7000000000000001,42.688061,-84.49183889999999,272.27,0.025961510837078094,195.6422576904297,0.006000000052154064,0.0,1
1650744175.59897709,229069765,0,3,590593599,2206,15,0.7000000000000001,42.6880611,-84.49183889999999,272.27,0.05246904119849205,7.666804313659668,-0.009000000543892384,0.0,1
1650744175.79895997,229269748,0,3,590593799,2206,15,0.7000000000000001,42.6880611,-84.4918388,272.27,0.026683328673243523,77.00537872314453,-0.052000001072883606,0.0,1
1650744175.99901605,229469804,0,3,590593999,2206,15,0.7000000000000001,42.6880611,-84.4918387,272.27,0.01303840521723032,212.47120666503906,-0.018000001087784767,0.0,1
1650744176.19899511,229669783,0,3,590594199,2206,15,0.7000000000000001,42.6880611,-84.4918387,272.27,0.0152970589697361,78.6900634765625,0.046000003814697266,0.0,1
1650744176.39900589,229869794,0,3,590594399,2206,15,0.7000000000000001,42.6880612,-84.4918386,272.27,0.018601076677441597,126.25382995605469,0.02500000037252903,0.0,1
1650744176.59902692,230069815,0,3,590594599,2206,15,0.7000000000000001,42.6880612,-84.4918385,272.27,0.03818376734852791,315.0,-0.05300000309944153,0.0,1
1650744176.79898405,230269772,0,3,590594799,2206,15,0.7000000000000001,42.6880612,-84.4918385,272.26,0.00806225836277008,352.8749694824219,0.06100000441074371,0.0,1
1650744176.99897194,230469760,0,3,590594999,2206,15,0.7000000000000001,42.6880612,-84.4918385,272.26,0.018248287960886955,189.4623260498047,0.014000000432133675,0.0,1
1650744177.19901705,230669805,0,3,590595199,2206,15,0.7000000000000001,42.6880612,-84.49183839999999,272.26,0.0020000000949949026,90.0,-0.04700000211596489,0.0,1
1650744177.39896297,230869751,0,3,590595399,2206,15,0.7000000000000001,42.6880613,-84.49183839999999,272.26,0.029120439663529396,285.9454040527344,0.03100000135600567,0.0,1
1650744177.59900093,231069789,0,3,590595599,2206,15,0.7000000000000001,42.6880613,-84.49183839999999,272.26,0.018867963925004005,237.99462890625,-0.04100000113248825,0.0,1
1650744177.79897308,231269761,0,3,590595799,2206,15,0.7000000000000001,42.6880613,-84.4918383,272.27,0.017000000923871994,118.07247924804688,-0.009000000543892384,0.0,1
1650744177.99894810,231469736,0,3,590595999,2206,15,0.7000000000000001,42.6880613,-84.49183819999999,272.26,0.014317821711301804,192.0947723388672,-0.023000001907348633,0.0,1
1650744178.19894505,231669733,0,3,590596199,2206,15,0.7000000000000001,42.6880613,-84.49183819999999,272.28000000000003,0.006403124425560236,321.3402099609375,0.032999999821186066,0.0,1
1650744178.41900110,231889789,0,3,590596399,2206,15,0.7000000000000001,42.6880613,-84.4918381,272.27,0.022472206503152847,147.72434997558594,-0.04000000283122063,0.0,1
1650744178.61895990,232089748,0,3,590596599,2206,15,0.7000000000000001,42.6880613,-84.491838,272.27,0.018027758225798607,266.8201904296875,-0.05400000140070915,0.0,1
1650744178.81899595,232289784,0,3,590596799,2206,15,0.7000000000000001,42.6880613,-84.491838,272.29,0.013000000268220901,202.619873046875,-0.03100000135600567,0.0,1
1650744178.99898601,232469774,0,3,590596999,2206,15,0.7000000000000001,42.6880613,-84.4918379,272.3,0.0305941179394722,11.309930801391602,-0.039000000804662704,0.0,1
1650744179.19899988,232669788,0,3,590597199,2206,15,0.7000000000000001,42.688061399999995,-84.4918378,272.3,0.006082762498408556,80.53767395019531,-0.07600000500679016,0.0,1
1650744179.39897490,232869763,0,3,590597399,2206,15,0.7000000000000001,42.688061399999995,-84.49183769999999,272.31,0.007810249924659729,50.194427490234375,-0.032999999821186066,0.0,1
1650744179.59899402,233069782,0,3,590597599,2206,15,0.7000000000000001,42.688061399999995,-84.4918376,272.31,0.007280109915882349,15.945395469665527,-0.005000000353902578,0.0,1
1650744179.79893804,233269726,0,3,590597799,2206,15,0.7000000000000001,42.688061399999995,-84.4918376,272.31,0.00632455525919795,288.4349365234375,-0.021000001579523087,0.0,1
1650744179.99901104,233469799,0,3,590597999,2206,15,0.7000000000000001,42.688061499999996,-84.4918375,272.32,0.009219544939696789,257.47119140625,0.04400000348687172,0.0,1
1650744180.21900702,233689795,0,3,590598199,2206,15,0.7000000000000001,42.688061499999996,-84.4918375,272.32,0.022203605622053146,262.2348327636719,0.10300000756978989,0.0,1
1650744180.39900398,233869792,0,3,590598399,2206,15,0.7000000000000001,42.688061499999996,-84.4918374,272.32,0.040816664695739746,120.96375274658203,0.07700000703334808,0.0,1
1650744180.59899211,234069780,0,3,590598599,2206,15,0.7000000000000001,42.688061499999996,-84.4918373,272.31,0.011180340312421322,153.43495178222656,0.01900000125169754,0.0,1
1650744180.79898810,234269776,0,3,590598799,2206,15,0.7000000000000001,42.688061499999996,-84.49183719999999,272.32,0.03036445379257202,162.75852966308594,0.0,0.0,1
1650744180.99895906,234469747,0,3,590598999,2206,15,0.7000000000000001,42.688061499999996,-84.49183719999999,272.32,0.038897302001714706,316.0416259765625,0.05100000277161598,0.0,1
1650744181.19894195,234669730,0,3,590599199,2206,15,0.7000000000000001,42.6880616,-84.4918371,272.31,0.028301943093538284,32.00537872314453,-0.024000000208616257,0.0,1
1650744181.39893198,234869720,0,3,590599399,2206,15,0.7000000000000001,42.6880616,-84.4918371,272.31,0.009486833587288857,251.5650634765625,0.03400000184774399,0.0,1
1650744181.59893489,235069723,0,3,590599599,2206,15,0.7000000000000001,42.6880616,-84.49183699999999,272.3,0.004472136031836271,153.43495178222656,0.030000001192092896,0.0,1
1650744181.79898190,235269770,0,3,590599799,2206,15,0.7000000000000001,42.6880616,-84.4918369,272.31,0.00412310566753149,104.0362319946289,0.0020000000949949026,0.0,1
1650744181.99904609,235469834,0,3,590599999,2206,15,0.7000000000000001,42.6880616,-84.4918369,272.3,0.0036055513191968203,56.309932708740234,0.00800000037997961,0.0,1
1650744182.19903708,235669825,0,3,590600199,2206,15,0.7000000000000001,42.6880617,-84.4918368,272.31,0.005000000353902578,233.13009643554688,0.05400000140070915,0.0,1
1650744182.39904809,235869836,0,3,590600399,2206,15,0.7000000000000001,42.6880617,-84.4918367,272.3,0.008944272063672543,116.5650405883789,-0.03400000184774399,0.0,1
1650744182.59902406,236069812,0,3,590600599,2206,15,0.7000000000000001,42.6880617,-84.4918367,272.31,0.0020000000949949026,270.0,0.009000000543892384,0.0,1
1650744182.79894996,236269738,0,3,590600799,2206,15,0.7000000000000001,42.6880617,-84.4918366,272.32,0.004242640919983387,135.0,-0.004000000189989805,0.0,1
1650744182.99896693,236469755,0,3,590600999,2206,15,0.7000000000000001,42.6880617,-84.49183649999999,272.32,0.01486606989055872,137.72630310058594,0.032999999821186066,0.0,1
1650744183.19904208,236669830,0,3,590601199,2206,15,0.7000000000000001,42.6880616,-84.4918364,272.32,0.029017237946391106,178.02505493164062,-0.03800000250339508,0.0,1
1650744183.39898491,236869773,0,3,590601399,2206,15,0.7000000000000001,42.6880616,-84.4918364,272.33,0.017691805958747864,312.7093811035156,-0.03500000014901161,0.0,1
1650744183.59899402,237069782,0,3,590601599,2206,15,0.7000000000000001,42.6880616,-84.4918363,272.34000000000003,0.003162277629598975,341.5650634765625,-0.026000000536441803,0.0,1
1650744183.79903007,237269818,0,3,590601799,2206,15,0.7000000000000001,42.6880616,-84.4918363,272.35,0.021023796871304512,115.3461685180664,0.02500000037252903,0.0,1
1650744183.99903989,237469828,0,3,590601999,2206,15,0.7000000000000001,42.6880616,-84.4918362,272.36,0.036878179758787155,167.47119140625,0.036000002175569534,0.0,1
1650744184.19905090,237669839,0,3,590602199,2206,15,0.7000000000000001,42.688061499999996,-84.4918361,272.35,0.03827532008290291,123.2748794555664,0.010000000707805157,0.0,1
1650744184.39897799,237869766,0,3,590602399,2206,15,0.7000000000000001,42.688061499999996,-84.49183599999999,272.35,0.016763055697083473,287.3540344238281,0.03200000151991844,0.0,1
1650744184.59898591,238069774,0,3,590602599,2206,15,0.7000000000000001,42.688061499999996,-84.49183599999999,272.36,0.026419691741466522,299.47589111328125,-0.03500000014901161,0.0,1
1650744184.79895306,238269741,0,3,590602799,2206,15,0.7000000000000001,42.6880616,-84.49183599999999,272.37,0.028160257264971733,353.8844909667969,0.02200000174343586,0.0,1
1650744184.99900699,238469795,0,3,590602999,2206,15,0.7000000000000001,42.6880616,-84.4918359,272.37,0.028017854318022728,124.8244857788086,-0.0650000050663948,0.0,1
1650744185.19896889,238669757,0,3,590603199,2206,15,0.7000000000000001,42.688061499999996,-84.49183579999999,272.39,0.024698179215192795,148.2405242919922,-0.027000000700354576,0.0,1
1650744185.39904189,238869830,0,3,590603399,2206,15,0.7000000000000001,42.688061499999996,-84.4918357,272.39,0.019723083823919296,120.46554565429688,-0.03700000047683716,0.0,1
1650744185.59903002,239069818,0,3,590603599,2206,15,0.7000000000000001,42.688061499999996,-84.4918357,272.39,0.014422205276787281,123.6900634765625,0.014000000432133675,0.0,1
1650744185.79903007,239269818,0,3,590603799,2206,15,0.7000000000000001,42.688061499999996,-84.4918356,272.39,0.011180340312421322,169.6951446533203,0.0010000000474974513,0.0,1
1650744185.99904203,239469830,0,3,590603999,2206,15,0.7000000000000001,42.688061499999996,-84.4918356,272.39,0.008944272063672543,26.56505012512207,-0.036000002175569534,0.0,1
1650744186.19901204,239669800,0,3,590604199,2206,15,0.7000000000000001,42.688061499999996,-84.4918356,272.4,0.010049876756966114,5.710592269897461,-0.01600000075995922,0.0,1
1650744186.39895797,239869746,0,3,590604399,2206,15,0.7000000000000001,42.6880616,-84.4918355,272.41,0.03324154019355774,105.70863342285156,-0.027000000700354576,0.0,1
1650744186.59898400,240069772,0,3,590604599,2206,15,0.7000000000000001,42.6880616,-84.4918354,272.41,0.010198039934039116,11.309930801391602,-0.012000000104308128,0.0,1
1650744186.79896808,240269756,0,3,590604799,2206,15,0.7000000000000001,42.6880616,-84.4918354,272.42,0.008544004522264004,200.55606079101562,-0.07000000029802322,0.0,1
1650744186.99902511,240469813,0,3,590604999,2206,15,0.7000000000000001,42.6880616,-84.4918354,272.43,0.015000000596046448,233.13009643554688,-0.04100000113248825,0.0,1
1650744187.19904709,240669835,0,3,590605199,2206,15,0.7000000000000001,42.6880616,-84.4918354,272.43,0.00984885822981596,23.962488174438477,-0.023000001907348633,0.0,1
1650744187.39898705,240869775,0,3,590605399,2206,15,0.7000000000000001,42.6880616,-84.4918354,272.43,0.0072111026383936405,213.69007873535156,-0.08500000089406967,0.0,1
1650744187.59894800,241069736,0,3,590605599,2206,15,0.7000000000000001,42.6880617,-84.49183529999999,272.44,0.02282542549073696,28.810791015625,-0.003000000026077032,0.0,1
1650744187.79905009,241269838,0,3,590605799,2206,15,0.7000000000000001,42.6880617,-84.49183529999999,272.43,0.016278821974992752,169.38034057617188,-0.0010000000474974513,0.0,1
1650744187.99894500,241469733,0,3,590605999,2206,15,0.7000000000000001,42.6880616,-84.4918352,272.43,0.04883646219968796,169.38034057617188,-0.014000000432133675,0.0,1
1650744188.19901609,241669804,0,3,590606199,2206,15,0.7000000000000001,42.6880616,-84.4918352,272.43,0.02475883811712265,316.6365661621094,-0.052000001072883606,0.0,1
1650744188.39895797,241869746,0,3,590606399,2206,15,0.7000000000000001,42.6880616,-84.4918352,272.44,0.05622277408838272,174.8978271484375,-0.015000000596046448,0.0,1
1650744188.59899402,242069782,0,3,590606599,2206,15,0.7000000000000001,42.688061499999996,-84.4918352,272.43,0.02332380972802639,329.0362548828125,-0.1080000028014183,0.0,1
1650744188.81894302,242289731,0,3,590606799,2206,15,0.7000000000000001,42.688061499999996,-84.4918351,272.43,0.007280109915882349,195.94540405273438,-0.004000000189989805,0.0,1
1650744188.99903393,242469822,0,3,590606999,2206,15,0.7000000000000001,42.6880616,-84.4918351,272.42,0.046529561281204224,28.217355728149414,-0.07500000298023224,0.0,1
1650744189.19896007,242669748,0,3,590607199,2206,15,0.7000000000000001,42.6880616,-84.491835,272.42,0.008602325804531574,234.46234130859375,-0.01600000075995922,0.0,1
