timestamp,TimeUS,Lat,Lng,Alt,RelHomeAlt,RelOriginAlt
1650744119.49955511,172970343,42.6880631,-84.4918387,271.80999755859375,0.005403976887464523,-0.9345960021018982
1650744119.59953690,173070325,42.6880631,-84.4918387,271.82000732421875,0.010610681027173996,-0.9293892979621887
1650744119.69949698,173170285,42.6880631,-84.4918387,271.82000732421875,0.013836007565259933,-0.9261639714241028
1650744119.79954696,173270335,42.6880631,-84.4918387,271.82000732421875,0.016694050282239914,-0.9233059287071228
1650744119.89959598,173370384,42.688063,-84.4918387,271.82000732421875,0.016515713185071945,-0.9234842658042908
1650744119.99948096,173470269,42.688063,-84.4918387,271.82000732421875,0.017628531903028488,-0.9223714470863342
1650744120.09949088,173570279,42.688063,-84.4918386,271.82000732421875,0.017978530377149582,-0.9220214486122131
1650744120.19953609,173670324,42.688063,-84.4918386,271.82000732421875,0.018969755619764328,-0.9210302233695984
1650744120.29946089,173770249,42.688063,-84.4918386,271.82000732421875,0.016790013760328293,-0.9232099652290344
1650744120.39948201,173870270,42.688063,-84.4918386,271.82000732421875,0.01523391529917717,-0.9247660636901855
1650744120.49955297,173970341,42.688063,-84.4918385,271.82000732421875,0.012055378407239914,-0.9279446005821228
1650744120.59952593,174070314,42.688063,-84.4918385,271.82000732421875,0.010274332016706467,-0.9297256469726562
1650744120.69945312,174170241,42.6880629,-84.4918385,271.80999755859375,0.008867960423231125,-0.9311320185661316
1650744120.79959297,174270381,42.6880629,-84.4918385,271.80999755859375,0.008390288800001144,-0.9316096901893616
1650744120.89953494,174370323,42.6880629,-84.49183839999999,271.80999755859375,0.007143896073102951,-0.9328560829162598
1650744120.99953103,174470319,42.6880629,-84.49183839999999,271.80999755859375,0.0064101628959178925,-0.9335898160934448
1650744121.09952998,174570318,42.6880629,-84.49183839999999,271.80999755859375,0.0037849359214305878,-0.9362150430679321
1650744121.19955397,174670342,42.6880629,-84.49183839999999,271.80999755859375,0.0027770213782787323,-0.937222957611084
1650744121.29951811,174770306,42.6880629,-84.49183839999999,271.80999755859375,0.0014322809875011444,-0.9385676980018616
1650744121.39956808,174870356,42.6880629,-84.49183839999999,271.80999755859375,0.0007064752280712128,-0.9392935037612915
1650744121.49955392,174970342,42.6880629,-84.4918385,271.79998779296875,-0.0009465403854846954,-0.9409465193748474
1650744121.59947300,175070261,42.6880629,-84.4918385,271.79998779296875,-0.0017948932945728302,-0.9417948722839355
1650744121.69952893,175170317,42.6880629,-84.4918385,271.79998779296875,-0.002989489585161209,-0.9429894685745239
1650744121.79943395,175270222,42.6880629,-84.4918385,271.79998779296875,-0.003004450350999832,-0.9430044293403625
1650744121.89953589,175370324,42.6880629,-84.4918385,271.79998779296875,-0.00405772402882576,-0.9440577030181885
1650744121.99950290,175470291,42.6880629,-84.4918385,271.79998779296875,-0.004413146525621414,-0.9444131255149841
1650744122.09952211,175570310,42.6880629,-84.4918385,271.79998779296875,-0.004074711352586746,-0.9440746903419495
1650744122.19946194,175670250,42.6880629,-84.4918385,271.79998779296875,-0.0033624954521656036,-0.9433624744415283
1650744122.29965496,175770443,42.6880629,-84.4918385,271.79998779296875,-0.004234392195940018,-0.9442343711853027
1650744122.39952493,175870313,42.6880629,-84.4918385,271.79998779296875,-0.005017954856157303,-0.94501793384552
1650744122.49952507,175970313,42.6880628,-84.4918385,271.79998779296875,-0.0035698600113391876,-0.9435698390007019
1650744122.59956908,176070357,42.6880628,-84.4918385,271.79998779296875,-0.0020569749176502228,-0.9420569539070129
1650744122.69955611,176170344,42.6880628,-84.4918385,271.80999755859375,0.0006609968841075897,-0.9393389821052551
1650744122.79954910,176270337,42.6880628,-84.4918385,271.80999755859375,0.0026540569961071014,-0.9373459219932556
1650744122.89957404,176370362,42.6880628,-84.4918385,271.80999755859375,0.004154842346906662,-0.935845136642456
1650744122.99958992,176470378,42.6880628,-84.4918385,271.80999755859375,0.005114953964948654,-0.9348850250244141
1650744123.09945107,176570239,42.6880628,-84.4918385,271.80999755859375,0.004430156201124191,-0.9355698227882385
1650744123.19958496,176670373,42.6880628,-84.4918385,271.80999755859375,0.0034918002784252167,-0.9365081787109375
1650744123.29957199,176770360,42.6880628,-84.4918385,271.80999755859375,0.001566808670759201,-0.9384331703186035
1650744123.39950800,176870296,42.6880628,-84.4918385,271.79998779296875,-0.0005095787346363068,-0.940509557723999
1650744123.49953294,176970321,42.6880628,-84.4918385,271.79998779296875,-0.002626139670610428,-0.9426261186599731
1650744123.59948397,177070272,42.6880628,-84.4918385,271.79998779296875,-0.004238564521074295,-0.944238543510437
1650744123.69953895,177170327,42.6880628,-84.4918385,271.79998779296875,-0.004128534346818924,-0.9441285133361816
1650744123.79948092,177270269,42.6880628,-84.4918385,271.79998779296875,-0.004638750106096268,-0.944638729095459
1650744123.89957190,177370360,42.6880628,-84.4918386,271.79998779296875,-0.0032168813049793243,-0.943216860294342
1650744123.99952888,177470317,42.6880628,-84.4918386,271.79998779296875,-0.0021332092583179474,-0.9421331882476807
1650744124.09954691,177570335,42.6880628,-84.4918386,271.80999755859375,0.0005817823112010956,-0.9394181966781616
1650744124.19959402,177670382,42.6880628,-84.4918386,271.80999755859375,0.001738470047712326,-0.9382615089416504
1650744124.29954791,177770336,42.6880628,-84.4918386,271.80999755859375,0.002784591168165207,-0.9372153878211975
1650744124.39957190,177870360,42.6880628,-84.4918387,271.80999755859375,0.00280032679438591,-0.9371996521949768
1650744124.49951196,177970300,42.6880628,-84.4918387,271.80999755859375,0.0023603253066539764,-0.9376396536827087
1650744124.59956503,178070353,42.6880628,-84.4918387,271.80999755859375,0.0007296018302440643,-0.9392703771591187
1650744124.69950509,178170293,42.6880628,-84.4918387,271.79998779296875,-0.001860339194536209,-0.9418603181838989
1650744124.79952192,178270310,42.6880628,-84.4918388,271.79998779296875,-0.005178589373826981,-0.9451785683631897
1650744124.89953899,178370327,42.6880628,-84.4918388,271.79998779296875,-0.0034755654633045197,-0.9434755444526672
1650744124.99956608,178470354,42.6880628,-84.4918388,271.79998779296875,-0.002313036471605301,-0.942313015460968
1650744125.09952211,178570310,42.6880628,-84.4918388,271.79998779296875,-0.003309924155473709,-0.9433099031448364
1650744125.19947910,178670267,42.6880628,-84.49183889999999,271.79998779296875,-0.0046391673386096954,-0.9446391463279724
1650744125.29955196,178770340,42.6880628,-84.49183889999999,271.79998779296875,-0.005431730300188065,-0.9454317092895508
1650744125.39948988,178870278,42.6880628,-84.49183889999999,271.79998779296875,-0.007048148661851883,-0.9470481276512146
1650744125.49961591,178970404,42.6880628,-84.491839,271.79998779296875,-0.004850465804338455,-0.9448504447937012
1650744125.59951091,179070299,42.6880628,-84.491839,271.79998779296875,-0.003927487879991531,-0.9439274668693542
1650744125.69956589,179170354,42.6880628,-84.491839,271.79998779296875,-0.00732763484120369,-0.9473276138305664
1650744125.79957199,179270360,42.6880628,-84.491839,271.7900085449219,-0.010045845061540604,-0.9500458240509033
1650744125.89959693,179370385,42.6880628,-84.49183909999999,271.79998779296875,-0.007968742400407791,-0.9479687213897705
1650744125.99955606,179470344,42.6880628,-84.49183909999999,271.79998779296875,-0.006490547209978104,-0.9464905261993408
1650744126.09952402,179570312,42.6880628,-84.49183909999999,271.79998779296875,-0.006317693740129471,-0.9463176727294922
1650744126.19949698,179670285,42.6880628,-84.4918392,271.79998779296875,-0.007242340594530106,-0.9472423195838928
1650744126.29948401,179770272,42.6880628,-84.4918392,271.79998779296875,-0.00953950360417366,-0.9495394825935364
1650744126.39954305,179870331,42.6880628,-84.4918393,271.7900085449219,-0.01284601166844368,-0.9528459906578064
1650744126.49954891,179970337,42.6880628,-84.4918393,271.7900085449219,-0.017493505030870438,-0.9574934840202332
1650744126.59953690,180070325,42.6880628,-84.4918393,271.7799987792969,-0.02195187285542488,-0.9619518518447876
1650744126.69951510,180170303,42.6880628,-84.49183939999999,271.7799987792969,-0.02291085198521614,-0.9629108309745789
1650744126.79962111,180270409,42.6880628,-84.49183939999999,271.7799987792969,-0.02259238436818123,-0.962592363357544
1650744126.89961004,180370398,42.6880628,-84.49183939999999,271.7799987792969,-0.020558912307024002,-0.9605588912963867
1650744126.99953508,180470323,42.6880628,-84.4918395,271.7900085449219,-0.01933576539158821,-0.9593357443809509
1650744127.09948707,180570275,42.6880628,-84.4918395,271.7900085449219,-0.01998867467045784,-0.9599886536598206
1650744127.19951200,180670300,42.6880628,-84.4918395,271.7799987792969,-0.021068472415208817,-0.9610684514045715
1650744127.29954696,180770335,42.6880628,-84.4918395,271.7799987792969,-0.02305646613240242,-0.9630564451217651
1650744127.39955997,180870348,42.6880628,-84.4918395,271.7799987792969,-0.0246669240295887,-0.9646669030189514
1650744127.49954605,180970334,42.6880628,-84.4918395,271.7799987792969,-0.025756318122148514,-0.9657562971115112
1650744127.59964609,181070434,42.6880628,-84.4918395,271.7799987792969,-0.02787007763981819,-0.9678700566291809
1650744127.69958997,181170378,42.6880628,-84.49183959999999,271.7699890136719,-0.030472833663225174,-0.9704728126525879
1650744127.79955912,181270347,42.6880628,-84.49183959999999,271.7699890136719,-0.033079881221055984,-0.9730798602104187
1650744127.89990807,181370696,42.6880628,-84.49183959999999,271.7699890136719,-0.03247125819325447,-0.9724712371826172
1650744127.99954891,181470337,42.6880628,-84.49183959999999,271.7699890136719,-0.035428185015916824,-0.9754281640052795
1650744128.09949493,181570283,42.6880628,-84.49183959999999,271.7599792480469,-0.040056128054857254,-0.98005610704422
1650744128.19955111,181670339,42.6880628,-84.49183959999999,271.7599792480469,-0.046062905341386795,-0.9860628843307495
1650744128.29949498,181770283,42.6880628,-84.49183959999999,271.75,-0.05138416960835457,-0.9913841485977173
1650744128.39954996,181870338,42.6880628,-84.49183959999999,271.75,-0.05603833869099617,-0.9960383176803589
1650744128.49949002,181970278,42.6880628,-84.4918395,271.75,-0.0577898807823658,-0.9977898597717285
1650744128.59981203,182070600,42.6880628,-84.4918395,271.739990234375,-0.06067581847310066,-1.0006757974624634
1650744128.69952607,182170314,42.6880628,-84.4918395,271.739990234375,-0.06007261946797371,-1.0000725984573364
1650744128.79954195,182270330,42.6880628,-84.4918395,271.739990234375,-0.06061287596821785,-1.0006128549575806
1650744128.90004706,182370835,42.6880628,-84.49183959999999,271.75,-0.059024471789598465,-0.9990244507789612
1650744128.99952793,182470316,42.688062699999996,-84.49183959999999,271.75,-0.059070367366075516,-0.9990703463554382
1650744129.09954190,182570330,42.6880628,-84.49183959999999,271.75,-0.05729540064930916,-0.9972953796386719
1650744129.19955111,182670339,42.6880628,-84.49183959999999,271.75,-0.05454017594456673,-0.9945401549339294
1650744129.29950500,182770293,42.6880628,-84.49183959999999,271.75,-0.052010733634233475,-0.9920107126235962
1650744129.39955401,182870342,42.6880628,-84.49183959999999,271.75,-0.052405912429094315,-0.992405891418457
1650744129.49964309,182970431,42.6880628,-84.49183959999999,271.75,-0.050600189715623856,-0.9906001687049866
1650744129.59956789,183070356,42.6880628,-84.49183959999999,271.7599792480469,-0.04884513095021248,-0.9888451099395752
1650744129.69956589,183170354,42.6880628,-84.4918397,271.7599792480469,-0.04732682183384895,-0.9873268008232117
1650744129.79955292,183270341,42.6880628,-84.4918397,271.7599792480469,-0.04555865004658699,-0.9855586290359497
1650744129.90028405,183371072,42.6880628,-84.4918397,271.7599792480469,-0.04822846129536629,-0.988228440284729
1650744129.99955511,183470343,42.6880628,-84.4918397,271.75,-0.05084391310811043,-0.9908438920974731
1650744130.09950900,183570297,42.6880628,-84.4918397,271.75,-0.05341728404164314,-0.9934172630310059
1650744130.19953895,183670327,42.6880628,-84.4918397,271.75,-0.05598701909184456,-0.9959869980812073
1650744130.29954004,183770328,42.6880628,-84.4918397,271.75,-0.05797244980931282,-0.9979724287986755
1650744130.39967799,183870466,42.6880628,-84.4918397,271.75,-0.059442419558763504,-0.9994423985481262
1650744130.49959993,183970388,42.6880628,-84.4918397,271.739990234375,-0.0618562288582325,-1.0018562078475952
1650744130.59950495,184070293,42.6880628,-84.4918397,271.739990234375,-0.06407935917377472,-1.0040793418884277
1650744130.69966602,184170454,42.6880628,-84.4918397,271.739990234375,-0.06390507519245148,-1.0039050579071045
1650744130.79955602,184270344,42.6880628,-84.4918397,271.739990234375,-0.0629325658082962,-1.0029325485229492
1650744130.90021610,184371004,42.6880628,-84.4918397,271.739990234375,-0.06114550307393074,-1.0011454820632935
1650744130.99953699,184470325,42.6880628,-84.4918397,271.739990234375,-0.060862381011247635,-1.0008623600006104
1650744131.09954691,184570335,42.6880628,-84.4918397,271.75,-0.059806544333696365,-0.9998065233230591
1650744131.19950795,184670296,42.6880628,-84.4918397,271.75,-0.059172410517930984,-0.9991723895072937
1650744131.29955101,184770339,42.6880628,-84.4918397,271.739990234375,-0.06024380400776863,-1.0002437829971313
1650744131.39954996,184870338,42.6880628,-84.4918397,271.739990234375,-0.06152232363820076,-1.0015223026275635
1650744131.49957204,184970360,42.6880628,-84.4918397,271.739990234375,-0.06252308189868927,-1.0025230646133423
1650744131.59969091,185070479,42.6880628,-84.4918397,271.739990234375,-0.06404121220111847,-1.0040411949157715
1650744131.69950509,185170293,42.6880628,-84.4918398,271.739990234375,-0.06766684353351593,-1.007666826248169
1650744131.79964495,185270433,42.6880628,-84.4918398,271.72998046875,-0.07098789513111115,-1.0109878778457642
1650744131.90022492,185371013,42.6880628,-84.4918399,271.72998046875,-0.07113952934741974,-1.0111395120620728
1650744131.99961901,185470407,42.6880628,-84.4918399,271.72998046875,-0.07230134308338165,-1.0123013257980347
1650744132.09955907,185570347,42.6880628,-84.4918399,271.72998046875,-0.07509167492389679,-1.0150916576385498
1650744132.19955802,185670346,42.6880628,-84.4918399,271.72998046875,-0.07745583355426788,-1.017455816268921
1650744132.29954910,185770337,42.6880628,-84.4918399,271.72998046875,-0.0772523432970047,-1.0172523260116577
1650744132.39956808,185870356,42.6880628,-84.4918399,271.72998046875,-0.07801397144794464,-1.0180139541625977
1650744132.49959302,185970381,42.6880628,-84.4918399,271.72998046875,-0.0783507376909256,-1.0183507204055786
1650744132.59952307,186070311,42.6880628,-84.49184,271.72998046875,-0.0789850503206253,-1.0189850330352783
1650744132.69954801,186170336,42.6880628,-84.49184,271.72998046875,-0.07930786907672882,-1.0193078517913818
1650744132.79957199,186270360,42.6880628,-84.49184,271.72998046875,-0.07872875034809113,-1.0187287330627441
1650744132.90004802,186370836,42.6880628,-84.49184,271.72998046875,-0.07859297096729279,-1.0185929536819458
1650744132.99955201,186470340,42.6880628,-84.49184,271.72998046875,-0.07910032570362091,-1.019100308418274
1650744133.09963393,186570422,42.6880628,-84.49184009999999,271.72998046875,-0.07877309620380402,-1.018773078918457
1650744133.19950509,186670293,42.6880628,-84.49184009999999,271.72998046875,-0.07888658344745636,-1.0188865661621094
1650744133.29948211,186770270,42.6880628,-84.49184009999999,271.72998046875,-0.07775361835956573,-1.0177536010742188
1650744133.39957309,186870361,42.6880628,-84.49184009999999,271.72998046875,-0.07663650810718536,-1.0166364908218384
1650744133.49955893,186970347,42.6880628,-84.49184009999999,271.72998046875,-0.07567043602466583,-1.0156704187393188
1650744133.59958911,187070377,42.6880628,-84.49184009999999,271.72998046875,-0.07561381161212921,-1.0156137943267822
1650744133.69950104,187170289,42.6880628,-84.49184009999999,271.72998046875,-0.07528729736804962,-1.0152872800827026
1650744133.79956007,187270348,42.6880628,-84.49184009999999,271.72998046875,-0.07617826759815216,-1.0161782503128052
1650744133.90002394,187370812,42.6880628,-84.49184009999999,271.72998046875,-0.07717032730579376,-1.0171703100204468
1650744133.99961400,187470402,42.6880628,-84.49184009999999,271.72998046875,-0.07837267220020294,-1.018372654914856
1650744134.09951210,187570300,42.6880628,-84.49184009999999,271.7200012207031,-0.080044224858284,-1.020044207572937
1650744134.19953895,187670327,42.6880628,-84.4918402,271.7200012207031,-0.08232076466083527,-1.0223207473754883
1650744134.29951692,187770305,42.6880628,-84.4918402,271.7200012207031,-0.08322782814502716,-1.0232278108596802
1650744134.39955401,187870342,42.6880628,-84.4918402,271.7200012207031,-0.08387608826160431,-1.0238760709762573
1650744134.49955606,187970344,42.6880628,-84.4918402,271.7200012207031,-0.08621509373188019,-1.0262150764465332
1650744134.59950900,188070297,42.6880628,-84.4918402,271.7099914550781,-0.09004969894886017,-1.0300496816635132
1650744134.69956899,188170357,42.6880628,-84.4918402,271.7099914550781,-0.09418542683124542,-1.0341854095458984
1650744134.79951310,188270301,42.6880628,-84.4918402,271.7099914550781,-0.09595783054828644,-1.0359578132629395
1650744134.90013289,188370921,42.6880628,-84.4918402,271.7099914550781,-0.09745879471302032,-1.0374587774276733
1650744134.99963689,188470425,42.6880628,-84.4918402,271.6999816894531,-0.10012407600879669,-1.0401240587234497
1650744135.09953308,188570321,42.6880628,-84.49184029999999,271.6999816894531,-0.10179300606250763,-1.0417929887771606
1650744135.19959903,188670387,42.6880628,-84.49184029999999,271.6999816894531,-0.10387106239795685,-1.0438710451126099
1650744135.29950094,188770289,42.6880628,-84.49184029999999,271.6999816894531,-0.10600002110004425,-1.0460000038146973
1650744135.39964890,188870437,42.6880628,-84.49184029999999,271.6999816894531,-0.10671575367450714,-1.0467157363891602
1650744135.49959207,188970380,42.6880628,-84.49184029999999,271.6999816894531,-0.10589571297168732,-1.0458956956863403
1650744135.59956789,189070356,42.6880628,-84.49184029999999,271.6999816894531,-0.10483737289905548,-1.0448373556137085
1650744135.69951701,189170305,42.6880629,-84.49184029999999,271.6999816894531,-0.10340555012226105,-1.043405532836914
1650744135.79964709,189270435,42.6880629,-84.49184029999999,271.6999816894531,-0.1045190840959549,-1.044519066810608
1650744135.89991593,189370704,42.6880629,-84.49184029999999,271.6999816894531,-0.1034601479768753,-1.0434601306915283
1650744135.99958992,189470378,42.6880629,-84.49184029999999,271.6999816894531,-0.10375328361988068,-1.0437532663345337
1650744136.09950089,189570289,42.6880629,-84.49184029999999,271.6999816894531,-0.10510523617267609,-1.045105218887329
1650744136.19951296,189670301,42.6880629,-84.49184029999999,271.6999816894531,-0.10621877014636993,-1.046218752861023
1650744136.29954505,189770333,42.6880629,-84.49184029999999,271.6999816894531,-0.10489232838153839,-1.0448923110961914
1650744136.39953303,189870321,42.6880629,-84.49184029999999,271.6999816894531,-0.10394914448261261,-1.0439491271972656
1650744136.49963689,189970425,42.6880629,-84.49184029999999,271.6999816894531,-0.10246820747852325,-1.0424681901931763
1650744136.59955502,190070343,42.6880629,-84.49184029999999,271.6999816894531,-0.10222406685352325,-1.0422240495681763
1650744136.69962502,190170413,42.6880629,-84.49184029999999,271.6999816894531,-0.10344822704792023,-1.0434482097625732
1650744136.79957390,190270362,42.6880629,-84.49184029999999,271.6999816894531,-0.10570986568927765,-1.0457098484039307
1650744136.89985108,190370639,42.6880629,-84.49184029999999,271.6999816894531,-0.10761232674121857,-1.0476123094558716
1650744136.99965692,190470445,42.6880629,-84.49184029999999,271.6999816894531,-0.10819609463214874,-1.0481960773468018
1650744137.09953094,190570319,42.6880629,-84.49184029999999,271.6999816894531,-0.10878165066242218,-1.0487816333770752
1650744137.19957900,190670367,42.6880629,-84.49184029999999,271.69000244140625,-0.11002762615680695,-1.05002760887146
1650744137.29954600,190770334,42.6880629,-84.49184029999999,271.69000244140625,-0.1114160567522049,-1.051416039466858
1650744137.39954805,190870336,42.6880629,-84.49184029999999,271.69000244140625,-0.11134465038776398,-1.051344633102417
1650744137.49955606,190970344,42.688063,-84.49184029999999,271.69000244140625,-0.11085326969623566,-1.0508532524108887
1650744137.59956288,191070351,42.688063,-84.49184029999999,271.69000244140625,-0.11111028492450714,-1.0511102676391602
1650744137.69949889,191170287,42.688063,-84.49184029999999,271.69000244140625,-0.11143024265766144,-1.0514302253723145
1650744137.79954290,191270331,42.688063,-84.49184029999999,271.69000244140625,-0.11272235214710236,-1.0527223348617554
1650744137.89952588,191370314,42.688063,-84.49184029999999,271.69000244140625,0.00798407569527626,-1.0520159006118774
1650744137.99950194,191470290,42.688063,-84.49184029999999,271.69000244140625,0.008494768291711807,-1.051505208015442
1650744138.09957600,191570364,42.688063,-84.49184029999999,271.69000244140625,0.008439693599939346,-1.0515602827072144
1650744138.19954491,191670333,42.688063,-84.49184029999999,271.69000244140625,0.007465872913599014,-1.0525341033935547
1650744138.29955697,191770345,42.688063,-84.49184029999999,271.69000244140625,0.005833659321069717,-1.054166316986084
1650744138.39952302,191870311,42.688063,-84.49184029999999,271.69000244140625,0.0036228038370609283,-1.0563771724700928
1650744138.49956608,191970354,42.688063,-84.49184029999999,271.69000244140625,0.004394087940454483,-1.0556058883666992
1650744138.59954190,192070330,42.688063,-84.49184029999999,271.69000244140625,0.003952894359827042,-1.0560470819473267
1650744138.69945502,192170243,42.688063,-84.49184029999999,271.69000244140625,0.005300555378198624,-1.054699420928955
1650744138.79951501,192270303,42.688063,-84.49184029999999,271.69000244140625,0.005576763302087784,-1.054423213005066
1650744138.89953208,192370320,42.688063,-84.49184029999999,271.69000244140625,0.00815192237496376,-1.05184805393219
1650744138.99952698,192470315,42.688063,-84.49184029999999,271.69000244140625,0.009362492710351944,-1.0506374835968018
1650744139.09953499,192570323,42.688063,-84.49184029999999,271.69000244140625,0.009852442890405655,-1.050147533416748
1650744139.19955206,192670340,42.688063,-84.49184029999999,271.69000244140625,0.009436879307031631,-1.050563097000122
1650744139.29940605,192770194,42.688063,-84.49184029999999,271.69000244140625,0.008392248302698135,-1.0516077280044556
1650744139.39968300,192870471,42.688063,-84.49184029999999,271.69000244140625,0.006694469600915909,-1.0533055067062378
1650744139.49949503,192970283,42.688063,-84.49184029999999,271.69000244140625,0.005733523517847061,-1.0542664527893066
1650744139.59948301,193070271,42.688063,-84.49184029999999,271.69000244140625,0.004504356533288956,-1.0554956197738647
1650744139.69951391,193170302,42.688063,-84.49184029999999,271.69000244140625,0.0038265325129032135,-1.0561734437942505
1650744139.79952502,193270313,42.688063,-84.4918404,271.69000244140625,0.002275858074426651,-1.057724118232727
1650744139.89959407,193370382,42.688063,-84.4918404,271.69000244140625,0.00157228484749794,-1.0584276914596558
1650744139.99949193,193470280,42.688063,-84.4918404,271.69000244140625,0.0001840926706790924,-1.0598158836364746
1650744140.09956408,193570352,42.688063,-84.4918404,271.69000244140625,0.00020972266793251038,-1.0597902536392212
1650744140.19958496,193670373,42.688063,-84.4918404,271.67999267578125,-0.0006066225469112396,-1.060606598854065
1650744140.29955292,193770341,42.688063,-84.4918404,271.67999267578125,-0.0010215900838375092,-1.0610215663909912
1650744140.39953494,193870323,42.688063,-84.4918404,271.67999267578125,-0.0010405443608760834,-1.0610405206680298
1650744140.49944401,193970232,42.688063,-84.4918404,271.67999267578125,-0.0035109184682369232,-1.0635108947753906
1650744140.59951091,194070299,42.688063,-84.4918404,271.67999267578125,-0.005512204021215439,-1.0655121803283691
1650744140.69942808,194170216,42.688063,-84.4918405,271.67999267578125,-0.004329647868871689,-1.0643296241760254
1650744140.79951692,194270305,42.688063,-84.4918405,271.67999267578125,-0.004496898502111435,-1.0644968748092651
1650744140.89952207,194370310,42.688063,-84.4918405,271.67999267578125,-0.008175935596227646,-1.0681759119033813
1650744140.99959397,194470382,42.688063,-84.49184059999999,271.66998291015625,-0.012594904750585556,-1.0725948810577393
1650744141.09945393,194570242,42.688063,-84.49184059999999,271.66998291015625,-0.01786300167441368,-1.0778629779815674
1650744141.19970608,194670494,42.6880629,-84.49184059999999,271.6600036621094,-0.02315446361899376,-1.0831544399261475
1650744141.29953909,194770327,42.6880629,-84.49184059999999,271.6600036621094,-0.027801599353551865,-1.0878015756607056
1650744141.39954495,194870333,42.6880629,-84.49184059999999,271.6499938964844,-0.03194400295615196,-1.0919439792633057
1650744141.49955606,194970344,42.6880629,-84.4918407,271.6499938964844,-0.03552147373557091,-1.0955214500427246
1650744141.59949994,195070288,42.6880629,-84.4918407,271.6499938964844,-0.03885182365775108,-1.0988517999649048
1650744141.69955111,195170339,42.6880629,-84.4918407,271.6499938964844,-0.03677007183432579,-1.0967700481414795
1650744141.79951501,195270303,42.6880629,-84.4918407,271.6499938964844,-0.036650266498327255,-1.096650242805481
1650744141.89958310,195370371,42.6880628,-84.4918407,271.6499938964844,-0.037562694400548935,-1.0975626707077026
1650744141.99944496,195470233,42.6880628,-84.4918407,271.6499938964844,-0.039237942546606064,-1.0992379188537598
1650744142.09957409,195570362,42.6880628,-84.4918407,271.6399841308594,-0.04116198047995567,-1.1011619567871094
1650744142.19950104,195670289,42.6880628,-84.4918407,271.6399841308594,-0.043208327144384384,-1.103208303451538
1650744142.29953003,195770318,42.6880628,-84.4918407,271.6399841308594,-0.042059507220983505,-1.1020594835281372
1650744142.39950705,195870295,42.6880628,-84.4918407,271.6399841308594,-0.042659249156713486,-1.1026592254638672
1650744142.49945807,195970246,42.6880628,-84.4918407,271.6399841308594,-0.045214857906103134,-1.1052148342132568
1650744142.59951091,196070299,42.6880628,-84.4918407,271.6399841308594,-0.047906603664159775,-1.1079065799713135
1650744142.69949198,196170280,42.6880628,-84.4918407,271.6399841308594,-0.049058880656957626,-1.1090588569641113
1650744142.79955506,196270343,42.6880628,-84.4918407,271.6300048828125,-0.05083223804831505,-1.1108322143554688
1650744142.89954209,196370330,42.6880628,-84.49184079999999,271.6300048828125,-0.05179199203848839,-1.111791968345642
1650744142.99965310,196470441,42.6880628,-84.49184079999999,271.6300048828125,-0.052684392780065536,-1.1126843690872192
1650744143.09961796,196570406,42.6880628,-84.49184079999999,271.6399841308594,-0.049791302531957626,-1.1097912788391113
1650744143.19956803,196670356,42.6880628,-84.49184079999999,271.6399841308594,-0.04541584476828575,-1.1054158210754395
1650744143.29961395,196770402,42.6880628,-84.49184079999999,271.6399841308594,-0.04081102833151817,-1.1008110046386719
1650744143.39948797,196870276,42.6880628,-84.49184079999999,271.6499938964844,-0.03798874840140343,-1.0979887247085571
1650744143.49955106,196970339,42.6880628,-84.49184079999999,271.6499938964844,-0.03341313824057579,-1.0934131145477295
1650744143.59954691,197070335,42.6880628,-84.49184079999999,271.6600036621094,-0.02948853000998497,-1.0894885063171387
1650744143.69957805,197170366,42.6880628,-84.49184079999999,271.6600036621094,-0.024954643100500107,-1.0849546194076538
1650744143.79950809,197270296,42.6880628,-84.49184079999999,271.6600036621094,-0.02077445015311241,-1.0807744264602661
1650744143.89991498,197370703,42.6880628,-84.49184079999999,271.66998291015625,-0.014816250652074814,-1.0748162269592285
1650744143.99958992,197470378,42.6880628,-84.49184079999999,271.67999267578125,-0.009755339473485947,-1.0697553157806396
1650744144.09959102,197570379,42.6880628,-84.49184079999999,271.67999267578125,-0.00707336887717247,-1.0670733451843262
1650744144.19952703,197670315,42.6880628,-84.4918409,271.67999267578125,-0.005959954112768173,-1.0659599304199219
1650744144.29950190,197770290,42.6880628,-84.4918409,271.67999267578125,-0.004351701587438583,-1.0643516778945923
1650744144.39964890,197870437,42.6880628,-84.4918409,271.67999267578125,-0.0035673044621944427,-1.0635672807693481
1650744144.49956799,197970356,42.6880628,-84.4918409,271.67999267578125,-0.0031722448766231537,-1.0631722211837769
1650744144.59958005,198070368,42.688062699999996,-84.4918409,271.67999267578125,-0.003835882991552353,-1.063835859298706
1650744144.69949603,198170284,42.688062699999996,-84.491841,271.67999267578125,-0.0033259056508541107,-1.0633258819580078
1650744144.79961205,198270400,42.688062699999996,-84.491841,271.67999267578125,-0.003143753856420517,-1.0631437301635742
1650744144.89998889,198370777,42.688062699999996,-84.491841,271.67999267578125,-0.002901758998632431,-1.0629017353057861
1650744144.99958110,198470369,42.688062699999996,-84.491841,271.67999267578125,-0.003524031490087509,-1.0635240077972412
1650744145.09955597,198570344,42.688062699999996,-84.491841,271.67999267578125,-0.0039391182363033295,-1.063939094543457
1650744145.19955397,198670342,42.688062699999996,-84.491841,271.67999267578125,-0.003495302051305771,-1.0634952783584595
1650744145.29951000,198770298,42.688062699999996,-84.491841,271.67999267578125,-0.0024686716496944427,-1.0624686479568481
1650744145.39961290,198870401,42.688062699999996,-84.491841,271.67999267578125,-0.001252736896276474,-1.0612527132034302
1650744145.49965501,198970443,42.688062699999996,-84.491841,271.69000244140625,0.0003756619989871979,-1.0596243143081665
1650744145.59952807,199070316,42.688062699999996,-84.491841,271.69000244140625,0.0032745935022830963,-1.0567253828048706
1650744145.69961691,199170405,42.688062699999996,-84.491841,271.69000244140625,0.009570036083459854,-1.0504299402236938
1650744145.79952788,199270316,42.688062699999996,-84.491841,271.6999816894531,0.017022524029016495,-1.0429774522781372
1650744145.89995193,199370740,42.688062699999996,-84.491841,271.7099914550781,0.023869071155786514,-1.0361309051513672
1650744145.99966502,199470453,42.688062699999996,-84.491841,271.7200012207031,0.032513294368982315,-1.0274866819381714
1650744146.09954691,199570335,42.688062699999996,-84.491841,271.72998046875,0.043275509029626846,-1.0167244672775269
1650744146.19962311,199670411,42.688062699999996,-84.491841,271.739990234375,0.05348995700478554,-1.0065100193023682
1650744146.29955006,199770338,42.688062699999996,-84.491841,271.75,0.0643250048160553,-0.9956749677658081
1650744146.39958191,199870370,42.688062699999996,-84.491841,271.7599792480469,0.07454702258110046,-0.9854529500007629
1650744146.49961495,199970403,42.688062699999996,-84.491841,271.7699890136719,0.0843329131603241,-0.9756670594215393
1650744146.59962296,200070411,42.688062699999996,-84.491841,271.7799987792969,0.09146526455879211,-0.9685347080230713
1650744146.69951892,200170307,42.688062699999996,-84.491841,271.7799987792969,0.09607216715812683,-0.9639278054237366
1650744146.79949999,200270288,42.688062699999996,-84.491841,271.7799987792969,0.09855535626411438,-0.961444616317749
1650744146.89989495,200370683,42.688062699999996,-84.491841,271.7900085449219,0.10188606381416321,-0.9581139087677002
1650744146.99954891,200470337,42.688062699999996,-84.491841,271.7900085449219,0.10629531741142273,-0.9537046551704407
1650744147.09965396,200570442,42.688062699999996,-84.491841,271.79998779296875,0.11135807633399963,-0.9486418962478638
1650744147.19954610,200670334,42.688062699999996,-84.491841,271.79998779296875,0.11550989747047424,-0.9444900751113892
1650744147.29955792,200770346,42.688062699999996,-84.491841,271.79998779296875,0.11997249722480774,-0.9400274753570557
1650744147.39950800,200870296,42.688062699999996,-84.491841,271.80999755859375,0.12470880150794983,-0.9352911710739136
1650744147.49971294,200970501,42.688062699999996,-84.491841,271.80999755859375,0.12817826867103577,-0.9318217039108276
1650744147.59957290,201070361,42.688062699999996,-84.491841,271.82000732421875,0.13089510798454285,-0.9291048645973206
1650744147.69952297,201170311,42.688062699999996,-84.491841,271.82000732421875,0.13173148036003113,-0.9282684922218323
1650744147.79959297,201270381,42.688062699999996,-84.491841,271.82000732421875,0.13182172179222107,-0.9281782507896423
1650744147.89996099,201370749,42.688062699999996,-84.491841,271.82000732421875,0.13236185908317566,-0.9276381134986877
1650744147.99959111,201470379,42.688062699999996,-84.491841,271.82000732421875,0.13462510704994202,-0.9253748655319214
1650744148.09948611,201570274,42.688062699999996,-84.491841,271.82000732421875,0.13894560933113098,-0.9210543632507324
1650744148.19965792,201670446,42.688062699999996,-84.491841,271.8299865722656,0.14366605877876282,-0.9163339138031006
1650744148.29944801,201770236,42.688062699999996,-84.491841,271.8299865722656,0.14917424321174622,-0.9108257293701172
1650744148.39962602,201870414,42.688062699999996,-84.491841,271.8399963378906,0.1551407277584076,-0.9048592448234558
1650744148.49955606,201970344,42.688062699999996,-84.491841,271.8500061035156,0.16049602627754211,-0.8995039463043213
1650744148.59962106,202070409,42.688062699999996,-84.491841,271.8500061035156,0.16601243615150452,-0.8939875364303589
1650744148.69953799,202170326,42.688062699999996,-84.491841,271.8599853515625,0.17368099093437195,-0.8863189816474915
1650744148.79943395,202270222,42.688062699999996,-84.491841,271.8699951171875,0.010688180103898048,-0.8793118000030518
1650744148.89964795,202370436,42.688062699999996,-84.491841,271.8699951171875,0.017710501328110695,-0.8722894787788391
1650744148.99950695,202470295,42.688062699999996,-84.491841,271.8800048828125,0.022348279133439064,-0.8676517009735107
1650744149.09952092,202570309,42.688062699999996,-84.491841,271.8800048828125,0.025191182270646095,-0.8648087978363037
1650744149.19955802,202670346,42.688062699999996,-84.491841,271.8800048828125,0.027290040627121925,-0.8627099394798279
1650744149.29953909,202770327,42.688062699999996,-84.491841,271.8800048828125,0.026923412457108498,-0.8630765676498413
1650744149.39952707,202870315,42.688062699999996,-84.491841,271.8800048828125,0.026756340637803078,-0.8632436394691467
1650744149.49953103,202970319,42.688062699999996,-84.491841,271.8800048828125,0.026614004746079445,-0.8633859753608704
1650744149.59958911,203070377,42.688062699999996,-84.491841,271.8800048828125,0.026222283020615578,-0.8637776970863342
1650744149.69944406,203170232,42.688062699999996,-84.491841,271.8800048828125,0.02584790624678135,-0.8641520738601685
1650744149.79953003,203270318,42.688062699999996,-84.491841,271.8800048828125,0.02503257431089878,-0.864967405796051
1650744149.89958310,203370371,42.688062699999996,-84.491841,271.8800048828125,0.024072641506791115,-0.8659273386001587
1650744149.99952006,203470308,42.688062699999996,-84.491841,271.8800048828125,0.023142391815781593,-0.8668575882911682
1650744150.09938598,203570174,42.688062699999996,-84.491841,271.8800048828125,0.020474785938858986,-0.8695251941680908
1650744150.19952297,203670311,42.688062699999996,-84.491841,271.8699951171875,0.01774262823164463,-0.8722573518753052
1650744150.29943299,203770221,42.688062699999996,-84.491841,271.8699951171875,0.014705831184983253,-0.8752941489219666
1650744150.39946604,203870254,42.688062699999996,-84.491841,271.8699951171875,0.01198619045317173,-0.8780137896537781
1650744150.49950194,203970290,42.688062699999996,-84.491841,271.8599853515625,0.0068982187658548355,-0.883101761341095
1650744150.59952903,204070317,42.688062699999996,-84.491841,271.8599853515625,0.003229612484574318,-0.8867703676223755
1650744150.69967294,204170461,42.688062699999996,-84.491841,271.8599853515625,0.0004984084516763687,-0.8895015716552734
1650744150.79954910,204270337,42.688062699999996,-84.491841,271.8500061035156,-0.002024894580245018,-0.8920248746871948
1650744150.89958501,204370373,42.688062699999996,-84.491841,271.8500061035156,-0.004307573661208153,-0.894307553768158
1650744150.99955511,204470343,42.688062699999996,-84.491841,271.8500061035156,-0.006592338904738426,-0.8965923190116882
1650744151.09958410,204570372,42.688062699999996,-84.491841,271.8500061035156,-0.008339887484908104,-0.8983398675918579
1650744151.19949603,204670284,42.688062699999996,-84.491841,271.8399963378906,-0.010070448741316795,-0.9000704288482666
1650744151.29946589,204770254,42.688062699999996,-84.491841,271.8399963378906,-0.011917417868971825,-0.9019173979759216
1650744151.39956307,204870351,42.688062699999996,-84.491841,271.8399963378906,-0.014091020449995995,-0.9040910005569458
1650744151.49948812,204970276,42.688062699999996,-84.491841,271.8399963378906,-0.015913790091872215,-0.905913770198822
1650744151.59950495,205070293,42.688062699999996,-84.4918409,271.8399963378906,-0.017956143245100975,-0.9079561233520508
1650744151.69954109,205170329,42.688062699999996,-84.4918409,271.8399963378906,-0.01985061727464199,-0.9098505973815918
1650744151.79958010,205270368,42.688062699999996,-84.4918409,271.8299865722656,-0.021821564063429832,-0.9118215441703796
1650744151.89948797,205370276,42.688062699999996,-84.49184079999999,271.8399963378906,-0.019385462626814842,-0.9093854427337646
1650744151.99958706,205470375,42.688062699999996,-84.49184079999999,271.8399963378906,-0.01815134845674038,-0.9081513285636902
1650744152.09952307,205570311,42.688062599999995,-84.49184079999999,271.8399963378906,-0.016898637637495995,-0.9068986177444458
1650744152.19950390,205670292,42.688062599999995,-84.49184079999999,271.8399963378906,-0.016584819182753563,-0.9065847992897034
1650744152.29956007,205770348,42.688062599999995,-84.49184079999999,271.8399963378906,-0.016437476500868797,-0.9064374566078186
1650744152.39947796,205870266,42.688062599999995,-84.49184079999999,271.8399963378906,-0.01719523034989834,-0.9071952104568481
1650744152.49953508,205970323,42.688062599999995,-84.49184079999999,271.8399963378906,-0.01558501087129116,-0.905584990978241
1650744152.59954309,206070331,42.688062599999995,-84.4918407,271.8399963378906,-0.015064125880599022,-0.9050641059875488
1650744152.69948196,206170270,42.688062599999995,-84.4918407,271.8399963378906,-0.01392865739762783,-0.9039286375045776
1650744152.79961610,206270404,42.688062599999995,-84.4918407,271.8399963378906,-0.013837045058608055,-0.9038370251655579
1650744152.89960098,206370389,42.688062599999995,-84.4918407,271.8399963378906,-0.013776248320937157,-0.903776228427887
1650744152.99956703,206470355,42.6880625,-84.4918407,271.8399963378906,-0.0150380190461874,-0.9050379991531372
1650744153.09949398,206570282,42.6880625,-84.4918407,271.8399963378906,-0.01591617427766323,-0.905916154384613
1650744153.19949389,206670282,42.688062599999995,-84.4918407,271.8399963378906,-0.017345910891890526,-0.9073458909988403
1650744153.29943895,206770227,42.688062599999995,-84.4918407,271.8399963378906,-0.018559938296675682,-0.9085599184036255
1650744153.39953899,206870327,42.688062599999995,-84.4918407,271.8299865722656,-0.020615464076399803,-0.9106154441833496
1650744153.49948502,206970273,42.688062599999995,-84.4918407,271.8299865722656,-0.022891050204634666,-0.9128910303115845
1650744153.59952593,207070314,42.688062599999995,-84.4918407,271.8299865722656,-0.025487607344985008,-0.9154875874519348
1650744153.69949698,207170285,42.688062599999995,-84.4918407,271.8299865722656,-0.028129762038588524,-0.9181297421455383
1650744153.79961610,207270404,42.688062599999995,-84.4918407,271.82000732421875,-0.030747180804610252,-0.9207471609115601
1650744153.89960194,207370390,42.688062599999995,-84.4918407,271.82000732421875,-0.032647378742694855,-0.9226473569869995
1650744153.99954700,207470335,42.688062599999995,-84.4918407,271.82000732421875,-0.03446067124605179,-0.9244606494903564
1650744154.09953594,207570324,42.688062599999995,-84.4918407,271.82000732421875,-0.03457797318696976,-0.9245779514312744
1650744154.19954491,207670333,42.688062599999995,-84.4918407,271.82000732421875,-0.035347647964954376,-0.925347626209259
1650744154.29948902,207770277,42.688062599999995,-84.4918407,271.82000732421875,-0.03559214621782303,-0.9255921244621277
1650744154.39948893,207870277,42.688062599999995,-84.4918407,271.82000732421875,-0.036738522350788116,-0.9267385005950928
1650744154.49955106,207970339,42.688062599999995,-84.4918407,271.82000732421875,-0.034197814762592316,-0.924197793006897
1650744154.59944296,208070231,42.688062599999995,-84.4918407,271.82000732421875,-0.03159613162279129,-0.921596109867096
1650744154.69953609,208170324,42.688062599999995,-84.4918407,271.82000732421875,-0.03210610896348953,-0.9221060872077942
1650744154.79954910,208270337,42.688062599999995,-84.4918407,271.82000732421875,-0.03391868621110916,-0.9239186644554138
1650744154.89993405,208370722,42.688062599999995,-84.4918407,271.82000732421875,-0.03841204196214676,-0.9284120202064514
1650744154.99955201,208470340,42.688062599999995,-84.4918407,271.80999755859375,-0.04534453898668289,-0.9353445172309875
1650744155.09952211,208570310,42.688062599999995,-84.4918407,271.79998779296875,-0.051761336624622345,-0.941761314868927
1650744155.19964910,208670437,42.688062599999995,-84.4918407,271.79998779296875,-0.055819518864154816,-0.9458194971084595
1650744155.29952407,208770312,42.688062599999995,-84.4918407,271.79998779296875,-0.05714208632707596,-0.9471420645713806
1650744155.39957500,208870363,42.688062599999995,-84.4918407,271.79998779296875,-0.055575497448444366,-0.945575475692749
1650744155.49955606,208970344,42.688062599999995,-84.4918407,271.80999755859375,-0.048674531280994415,-0.9386745095252991
1650744155.59957290,209070361,42.688062599999995,-84.4918407,271.80999755859375,-0.04119998961687088,-0.9311999678611755
1650744155.69957805,209170366,42.688062599999995,-84.4918407,271.82000732421875,-0.03557724505662918,-0.9255772233009338
1650744155.79955506,209270343,42.688062599999995,-84.4918407,271.8299865722656,-0.029737358912825584,-0.9197373390197754
1650744155.90005589,209370844,42.688062599999995,-84.4918407,271.8299865722656,-0.023057525977492332,-0.9130575060844421
1650744155.99956894,209470357,42.688062599999995,-84.4918407,271.8399963378906,-0.015869563445448875,-0.9058695435523987
1650744156.09953308,209570321,42.688062599999995,-84.4918407,271.8500061035156,-0.0087702926248312,-0.898770272731781
1650744156.19946599,209670254,42.688062599999995,-84.4918407,271.8500061035156,-0.0043693240731954575,-0.8943693041801453
1650744156.29952312,209770311,42.6880625,-84.4918407,271.8500061035156,-0.000239616259932518,-0.8902395963668823
1650744156.39951801,209870306,42.6880625,-84.4918407,271.8599853515625,0.003811771050095558,-0.8861882090568542
1650744156.49958301,209970371,42.6880625,-84.4918407,271.8599853515625,0.009348446503281593,-0.8806515336036682
1650744156.59957409,210070362,42.6880625,-84.4918407,271.8699951171875,0.012954765930771828,-0.877045214176178
1650744156.69948697,210170275,42.6880625,-84.4918407,271.8699951171875,0.01847195066511631,-0.8715280294418335
1650744156.79955506,210270343,42.6880625,-84.4918407,271.8800048828125,0.023799771443009377,-0.8662002086639404
1650744156.89991498,210370703,42.6880625,-84.4918407,271.8800048828125,0.02884029783308506,-0.8611596822738647
1650744156.99962497,210470413,42.6880625,-84.4918407,271.8899841308594,0.03359281271696091,-0.8564071655273438
1650744157.09950209,210570290,42.6880625,-84.4918407,271.8999938964844,0.04032861441373825,-0.8496713638305664
1650744157.19960809,210670396,42.6880625,-84.4918407,271.8999938964844,0.04483490437269211,-0.8451650738716125
1650744157.29953003,210770318,42.6880625,-84.4918407,271.8999938964844,0.04935019463300705,-0.8406497836112976
1650744157.39960790,210870396,42.6880625,-84.4918407,271.9100036621094,0.052965693175792694,-0.837034285068512
1650744157.49956608,210970354,42.6880625,-84.4918407,271.9100036621094,0.05730002373456955,-0.8326999545097351
1650744157.59948802,211070276,42.6880625,-84.4918407,271.91998291015625,0.001294909045100212,-0.8287050724029541
1650744157.69953108,211170319,42.6880625,-84.4918407,271.91998291015625,0.004821477457880974,-0.8251785039901733
1650744157.79949903,211270287,42.6880625,-84.49184059999999,271.91998291015625,0.007092950865626335,-0.822907030582428
1650744157.89954090,211370329,42.6880625,-84.49184059999999,271.91998291015625,0.008939443156123161,-0.8210605382919312
1650744157.99954295,211470331,42.6880625,-84.49184059999999,271.92999267578125,0.010081587359309196,-0.8199183940887451
1650744158.09952807,211570316,42.6880625,-84.49184059999999,271.92999267578125,0.010346291586756706,-0.8196536898612976
1650744158.19946909,211670257,42.6880625,-84.49184059999999,271.91998291015625,0.009908972308039665,-0.8200910091400146
1650744158.29953098,211770319,42.6880625,-84.49184059999999,271.91998291015625,0.008988616988062859,-0.8210113644599915
1650744158.39954090,211870329,42.6880625,-84.49184059999999,271.91998291015625,0.007600067183375359,-0.822399914264679
1650744158.49952006,211970308,42.6880625,-84.49184059999999,271.91998291015625,0.006073771044611931,-0.8239262104034424
1650744158.59960103,212070389,42.6880624,-84.4918407,271.91998291015625,0.004287181422114372,-0.8257128000259399
1650744158.69952607,212170314,42.6880624,-84.4918407,271.91998291015625,0.004751918837428093,-0.8252480626106262
1650744158.79957008,212270358,42.6880624,-84.4918407,271.91998291015625,0.004164336249232292,-0.825835645198822
1650744158.89955807,212370346,42.6880624,-84.4918407,271.91998291015625,0.006414769217371941,-0.8235852122306824
1650744158.99948907,212470277,42.6880624,-84.4918407,271.91998291015625,0.00748741440474987,-0.8225125670433044
1650744159.09955907,212570347,42.6880624,-84.49184079999999,271.92999267578125,0.010642288252711296,-0.819357693195343
1650744159.19957304,212670361,42.6880624,-84.49184079999999,271.92999267578125,0.012891052290797234,-0.8171089291572571
1650744159.29950094,212770289,42.6880624,-84.49184079999999,271.92999267578125,0.013190088793635368,-0.816809892654419
1650744159.39942503,212870213,42.6880624,-84.49184079999999,271.92999267578125,0.012181518599390984,-0.8178184628486633
1650744159.49949408,212970282,42.6880623,-84.4918409,271.92999267578125,0.011393724009394646,-0.8186062574386597
1650744159.59949398,213070282,42.6880623,-84.4918409,271.92999267578125,0.010114965960383415,-0.8198850154876709
1650744159.69953394,213170322,42.6880623,-84.4918409,271.91998291015625,0.008832154795527458,-0.8211678266525269
1650744159.79951406,213270302,42.6880623,-84.4918409,271.91998291015625,0.007834909483790398,-0.8221650719642639
1650744159.89955211,213370340,42.6880623,-84.4918409,271.91998291015625,0.006835876032710075,-0.8231641054153442
1650744159.99951196,213470300,42.6880623,-84.491841,271.91998291015625,0.004787979647517204,-0.8252120018005371
1650744160.09961891,213570407,42.6880623,-84.4918409,271.91998291015625,0.0021433811634778976,-0.8278566002845764
1650744160.19954610,213670334,42.6880623,-84.4918409,271.9100036621094,-0.0008624810725450516,-0.8308624625205994
1650744160.29947805,213770266,42.6880623,-84.4918409,271.9100036621094,-0.004550458863377571,-0.8345504403114319
1650744160.39955401,213870342,42.6880623,-84.4918409,271.9100036621094,-0.008454026654362679,-0.838454008102417
1650744160.49953198,213970320,42.6880623,-84.4918409,271.8999938964844,-0.012780310586094856,-0.8427802920341492
1650744160.59949994,214070288,42.6880623,-84.4918409,271.8999938964844,-0.01666027493774891,-0.8466602563858032
1650744160.69949698,214170285,42.6880623,-84.4918409,271.8999938964844,-0.01976996846497059,-0.8497699499130249
1650744160.79952312,214270311,42.6880623,-84.4918409,271.8899841308594,-0.022747816517949104,-0.8527477979660034
1650744160.89950609,214370294,42.6880623,-84.4918409,271.8899841308594,-0.025659920647740364,-0.8556599020957947
1650744160.99961400,214470402,42.6880623,-84.4918409,271.8899841308594,-0.027813078835606575,-0.8578130602836609
1650744161.09949207,214570280,42.6880623,-84.4918409,271.8899841308594,-0.027768554165959358,-0.8577685356140137
1650744161.19968009,214670468,42.6880623,-84.4918409,271.8899841308594,-0.02809399552643299,-0.8580939769744873
1650744161.29947400,214770262,42.6880623,-84.4918409,271.8899841308594,-0.0273131150752306,-0.8573130965232849
1650744161.39949894,214870287,42.6880622,-84.4918409,271.8899841308594,-0.026812495663762093,-0.8568124771118164
1650744161.49955201,214970340,42.6880622,-84.4918409,271.8899841308594,-0.02650553174316883,-0.8565055131912231
1650744161.59956503,215070353,42.6880622,-84.4918409,271.8899841308594,-0.027303578332066536,-0.8573035597801208
1650744161.69960189,215170390,42.6880622,-84.49184079999999,271.8899841308594,-0.026489796116948128,-0.8564897775650024
1650744161.79951406,215270302,42.6880622,-84.49184079999999,271.8899841308594,-0.02462613768875599,-0.8546261191368103
1650744161.89999509,215370783,42.688062099999996,-84.49184079999999,271.8999938964844,-0.019297244027256966,-0.8492972254753113
1650744161.99959993,215470388,42.688062099999996,-84.49184079999999,271.8999938964844,-0.013305367901921272,-0.8433053493499756
1650744162.09949398,215570282,42.688062099999996,-84.49184079999999,271.9100036621094,-0.006858589127659798,-0.8368585705757141
1650744162.19964290,215670431,42.688062099999996,-84.49184079999999,271.91998291015625,0.0008437018841505051,-0.8291562795639038
1650744162.29949307,215770281,42.688062099999996,-84.49184079999999,271.92999267578125,0.011213062331080437,-0.8187869191169739
1650744162.39955211,215870340,42.688062099999996,-84.49184079999999,271.94000244140625,0.02177971415221691,-0.8082202672958374
1650744162.49953389,215970322,42.688062099999996,-84.49184079999999,271.9499816894531,0.033750176429748535,-0.7962498068809509
1650744162.59954691,216070335,42.688062099999996,-84.49184079999999,271.9599914550781,0.04442650079727173,-0.7855734825134277
1650744162.69951510,216170303,42.688062099999996,-84.49184079999999,271.9700012207031,0.05435061454772949,-0.77564936876297
1650744162.79956889,216270357,42.688061999999995,-84.4918407,271.97998046875,0.06333935260772705,-0.7666606307029724
1650744162.89994788,216370736,42.688061999999995,-84.4918407,271.989990234375,0.07194298505783081,-0.7580569982528687
1650744162.99951005,216470298,42.688061999999995,-84.4918407,271.989990234375,0.07872545719146729,-0.7512745261192322
1650744163.09955692,216570345,42.688061999999995,-84.49184079999999,272.0,0.08371353149414062,-0.7462864518165588
1650744163.19987106,216670659,42.688061999999995,-84.49184079999999,272.0,0.08896654844284058,-0.7410334348678589
1650744163.29963708,216770425,42.688061999999995,-84.49184079999999,272.0099792480469,0.09418904781341553,-0.7358109354972839
1650744163.39952803,216870316,42.688061999999995,-84.49184079999999,272.0099792480469,0.09888321161270142,-0.731116771697998
1650744163.49955511,216970343,42.6880619,-84.49184079999999,272.0199890136719,0.10668635368347168,-0.7233136296272278
1650744163.59958696,217070375,42.6880619,-84.49184079999999,272.0299987792969,0.11579346656799316,-0.7142065167427063
1650744163.69957805,217170366,42.6880619,-84.49184079999999,272.0400085449219,0.12529593706130981,-0.7047040462493896
1650744163.79963493,217270423,42.6880619,-84.4918407,272.04998779296875,0.13560760021209717,-0.6943923830986023
1650744163.89986110,217370649,42.6880619,-84.4918407,272.05999755859375,0.14555859565734863,-0.6844413876533508
1650744163.99956894,217470357,42.6880619,-84.4918407,272.07000732421875,0.15456122159957886,-0.6754387617111206
1650744164.09949398,217570282,42.6880619,-84.4918407,272.0799865722656,0.1627761721611023,-0.6672238111495972
1650744164.19987297,217670661,42.6880619,-84.4918407,272.0799865722656,0.16941070556640625,-0.6605892777442932
1650744164.29955411,217770342,42.6880619,-84.4918407,272.0899963378906,0.17520791292190552,-0.654792070388794
1650744164.39970303,217870491,42.6880619,-84.4918407,272.1000061035156,0.18214327096939087,-0.6478567123413086
1650744164.49949408,217970282,42.6880619,-84.4918407,272.1000061035156,0.18916237354278564,-0.6408376097679138
1650744164.59961390,218070402,42.6880619,-84.4918407,272.1099853515625,0.1957179307937622,-0.6342820525169373
1650744164.69964099,218170429,42.6880619,-84.4918407,272.1199951171875,0.2035641074180603,-0.6264358758926392
1650744164.79958105,218270369,42.6880619,-84.4918407,272.1300048828125,0.21111947298049927,-0.6188805103302002
1650744164.89996696,218370755,42.6880619,-84.4918407,272.1300048828125,0.21568745374679565,-0.6143125295639038
1650744164.99956489,218470353,42.6880619,-84.49184059999999,272.1399841308594,0.22010409832000732,-0.6098958849906921
1650744165.09956789,218570356,42.6880619,-84.49184059999999,272.1399841308594,0.22561413049697876,-0.6043858528137207
1650744165.19974399,218670532,42.6880619,-84.49184059999999,272.1499938964844,0.23113489151000977,-0.5988650918006897
1650744165.29950905,218770297,42.6880619,-84.49184059999999,272.1499938964844,0.23701459169387817,-0.5929853916168213
1650744165.39966702,218870455,42.6880619,-84.49184059999999,272.1600036621094,0.24157661199569702,-0.5884233713150024
1650744165.49956989,218970358,42.6880619,-84.49184059999999,272.1600036621094,0.24590128660202026,-0.5840986967086792
1650744165.59953809,219070326,42.6880619,-84.49184059999999,272.16998291015625,0.24999690055847168,-0.5800030827522278
1650744165.69950008,219170288,42.6880619,-84.4918405,272.16998291015625,0.2535695433616638,-0.5764304399490356
1650744165.79948902,219270277,42.6880619,-84.4918405,272.16998291015625,0.005713645368814468,-0.5742863416671753
1650744165.89949799,219370286,42.6880618,-84.4918405,272.16998291015625,0.0057765282690525055,-0.5742234587669373
1650744165.99950504,219470293,42.6880618,-84.4918405,272.16998291015625,0.005691055208444595,-0.5743089318275452
1650744166.09944797,219570236,42.6880618,-84.4918405,272.16998291015625,0.006117943674325943,-0.5738820433616638
1650744166.19985509,219670643,42.6880618,-84.4918404,272.16998291015625,0.005867902189493179,-0.5741320848464966
1650744166.29952693,219770315,42.6880618,-84.4918404,272.16998291015625,0.006226781755685806,-0.573773205280304
1650744166.39961600,219870404,42.6880618,-84.4918404,272.16998291015625,0.0060955919325351715,-0.5739043951034546
1650744166.49958110,219970369,42.6880618,-84.4918404,272.16998291015625,0.007151547819375992,-0.5728484392166138
1650744166.59955502,220070343,42.6880618,-84.4918404,272.16998291015625,0.007914010435342789,-0.572085976600647
1650744166.69953299,220170321,42.6880618,-84.4918404,272.16998291015625,0.00649893656373024,-0.5735010504722595
1650744166.79946303,220270251,42.6880618,-84.4918404,272.16998291015625,0.005163554102182388,-0.5748364329338074
1650744166.89959908,220370387,42.6880618,-84.4918404,272.16998291015625,0.0051768459379673,-0.5748231410980225
1650744166.99951506,220470303,42.6880618,-84.4918404,272.16998291015625,0.0050666965544223785,-0.5749332904815674
1650744167.09949589,220570284,42.6880618,-84.4918404,272.16998291015625,0.005420748144388199,-0.5745792388916016
1650744167.19952393,220670312,42.6880618,-84.4918404,272.16998291015625,0.004908565431833267,-0.5750914216041565
1650744167.29960704,220770395,42.6880617,-84.4918404,272.16998291015625,0.0031263865530490875,-0.5768736004829407
1650744167.39953494,220870323,42.6880617,-84.4918404,272.16998291015625,0.001499418169260025,-0.5785005688667297
1650744167.49955988,220970348,42.6880617,-84.4918405,272.1600036621094,-0.0013128481805324554,-0.5813128352165222
1650744167.59958410,221070372,42.6880617,-84.4918405,272.1600036621094,-0.004015978425741196,-0.584015965461731
1650744167.69949603,221170284,42.6880617,-84.4918405,272.1600036621094,-0.005811985582113266,-0.585811972618103
1650744167.79954004,221270328,42.6880617,-84.4918405,272.1600036621094,-0.007509168237447739,-0.5875091552734375
1650744167.89955711,221370345,42.6880617,-84.4918405,272.1600036621094,-0.007948573678731918,-0.5879485607147217
1650744167.99956989,221470358,42.6880617,-84.4918405,272.1600036621094,-0.00829678401350975,-0.5882967710494995
1650744168.09947991,221570268,42.6880617,-84.4918405,272.1600036621094,-0.005631204694509506,-0.5856311917304993
1650744168.19981503,221670603,42.6880617,-84.4918405,272.1600036621094,-0.0031598173081874847,-0.5831598043441772
1650744168.29948592,221770274,42.6880617,-84.4918404,272.1600036621094,-0.00239616259932518,-0.5823961496353149
1650744168.39949393,221870282,42.6880617,-84.4918404,272.1600036621094,-0.002339061349630356,-0.5823390483856201
1650744168.49957108,221970359,42.6880616,-84.4918404,272.1600036621094,-0.0032592974603176117,-0.5832592844963074
1650744168.59948301,222070271,42.6880616,-84.4918404,272.1600036621094,-0.004115458577871323,-0.5841154456138611
1650744168.69949794,222170286,42.6880616,-84.4918404,272.1600036621094,-0.002267535775899887,-0.5822675228118896
1650744168.79953098,222270319,42.6880616,-84.4918404,272.1600036621094,-0.0016276203095912933,-0.581627607345581
1650744168.89956594,222370354,42.6880616,-84.49184029999999,272.1600036621094,-0.0005461536347866058,-0.5805461406707764
1650744168.99951005,222470298,42.6880616,-84.49184029999999,272.1600036621094,-0.0002202354371547699,-0.5802202224731445
1650744169.09960008,222570388,42.6880616,-84.49184029999999,272.16998291015625,0.0015733279287815094,-0.5784266591072083
1650744169.19973707,222670525,42.6880616,-84.49184029999999,272.16998291015625,0.0026791729032993317,-0.5773208141326904
1650744169.29950309,222770291,42.6880616,-84.49184029999999,272.16998291015625,0.005249861627817154,-0.5747501254081726
1650744169.39956903,222870357,42.688061499999996,-84.49184029999999,272.16998291015625,0.005826357752084732,-0.574173629283905
1650744169.49954796,222970336,42.688061499999996,-84.49184029999999,272.16998291015625,0.006551925092935562,-0.5734480619430542
1650744169.59960699,223070395,42.688061499999996,-84.49184029999999,272.16998291015625,0.006147030740976334,-0.5738529562950134
1650744169.69950604,223170294,42.688061499999996,-84.49184029999999,272.16998291015625,0.005854491144418716,-0.574145495891571
1650744169.79955292,223270341,42.688061499999996,-84.49184029999999,272.16998291015625,0.004757586866617203,-0.5752424001693726
1650744169.89950109,223370289,42.688061499999996,-84.49184029999999,272.16998291015625,0.004032079130411148,-0.5759679079055786
1650744169.99959111,223470379,42.688061499999996,-84.49184029999999,272.16998291015625,0.002776864916086197,-0.5772231221199036
1650744170.09951591,223570304,42.688061499999996,-84.49184029999999,272.1600036621094,-0.0015751682221889496,-0.5815751552581787
1650744170.19968009,223670468,42.688061399999995,-84.49184029999999,272.1600036621094,-0.005675908178091049,-0.5856758952140808
1650744170.29947591,223770264,42.688061399999995,-84.49184029999999,272.1499938964844,-0.010090943425893784,-0.5900909304618835
1650744170.39944601,223870234,42.688061399999995,-84.49184029999999,272.1499938964844,-0.015157099813222885,-0.5951570868492126
1650744170.49949408,223970282,42.688061399999995,-84.49184029999999,272.1399841308594,-0.021336909383535385,-0.6013368964195251
1650744170.59955406,224070342,42.6880613,-84.49184029999999,272.1399841308594,-0.027063187211751938,-0.6070631742477417
1650744170.69948697,224170275,42.6880613,-84.4918404,272.1300048828125,-0.032100554555654526,-0.6121005415916443
1650744170.79949093,224270279,42.6880613,-84.4918404,272.1300048828125,-0.0370975099503994,-0.6170974969863892
1650744170.89964700,224370435,42.6880613,-84.4918405,272.1199951171875,-0.04311084374785423,-0.623110830783844
