timestamp,TimeUS,C,Q1,Q2,Q3,Q4
1650744119.49862695,172969415,1,0.7838618755340576,0.017735693603754044,0.01514582522213459,-0.6204971075057983
1650744119.59864211,173069430,1,0.7839528322219849,0.017645632848143578,0.015192381106317043,-0.620383620262146
1650744119.69863510,173169423,1,0.7839401364326477,0.017754804342985153,0.015107423067092896,-0.6203985810279846
1650744119.79863095,173269419,1,0.7838560342788696,0.01769491657614708,0.015153476037085056,-0.6205054521560669
1650744119.89862704,173369415,1,0.7839238047599792,0.01770542375743389,0.015168092213571072,-0.6204191446304321
1650744119.99862003,173469408,1,0.7839787602424622,0.01764666475355625,0.015151901170611382,-0.6203517913818359
1650744120.09861994,173569408,1,0.7838611602783203,0.017685934901237488,0.015122009441256523,-0.6204999685287476
1650744120.19862700,173669415,1,0.7838228940963745,0.0176930520683527,0.015187294222414494,-0.6205465197563171
1650744120.29862809,173769416,1,0.7838492393493652,0.01775144599378109,0.015153116546571255,-0.6205123662948608
1650744120.39862108,173869409,1,0.7837547063827515,0.017783628776669502,0.015079541131854057,-0.6206326484680176
1650744120.49863291,173969421,1,0.7837046980857849,0.017717227339744568,0.015171132981777191,-0.6206954717636108
1650744120.59864902,174069437,1,0.7837217450141907,0.017850425094366074,0.0150954844430089,-0.6206719875335693
1650744120.69862604,174169414,1,0.7836663722991943,0.017806757241487503,0.015136010944843292,-0.6207422018051147
1650744120.79860997,174269398,1,0.7835894823074341,0.017788879573345184,0.015068553388118744,-0.620841383934021
1650744120.89862490,174369413,1,0.7836304306983948,0.01780947484076023,0.015080500394105911,-0.6207888126373291
1650744120.99863911,174469427,1,0.7836349606513977,0.01786840334534645,0.015160659328103065,-0.6207793951034546
1650744121.09864902,174569437,1,0.7835289835929871,0.017833886668086052,0.01516727451235056,-0.6209140419960022
1650744121.19863391,174669422,1,0.7834793925285339,0.01774188131093979,0.015158834867179394,-0.6209794878959656
1650744121.29864097,174769429,1,0.7834764719009399,0.017779070883989334,0.015121210366487503,-0.6209830045700073
1650744121.39862299,174869411,1,0.7833775877952576,0.01774768717586994,0.015164555050432682,-0.6211075186729431
1650744121.49863100,174969419,1,0.7833679914474487,0.01777389831840992,0.015093597583472729,-0.6211206316947937
1650744121.59863400,175069422,1,0.7834111452102661,0.017779290676116943,0.0150895481929183,-0.6210662126541138
1650744121.69862199,175169410,1,0.7833633422851562,0.017786357551813126,0.015114512294530869,-0.6211256384849548
1650744121.79859495,175269383,1,0.7833322286605835,0.017920881509780884,0.015080918557941914,-0.6211618185043335
1650744121.89862609,175369414,1,0.7834130525588989,0.01785242184996605,0.015176372602581978,-0.6210595369338989
1650744121.99862599,175469414,1,0.7834106087684631,0.017908398061990738,0.015120756812393665,-0.6210623979568481
1650744122.09863091,175569419,1,0.7833831310272217,0.01791326515376568,0.015145701356232166,-0.6210963129997253
1650744122.19862390,175669412,1,0.7833520770072937,0.017912063747644424,0.015102680772542953,-0.6211365461349487
1650744122.29865098,175769439,1,0.7834087610244751,0.017915859818458557,0.015012589283287525,-0.6210671067237854
1650744122.39864492,175869433,1,0.7834656834602356,0.01784970611333847,0.015130732208490372,-0.6209943890571594
1650744122.49863410,175969422,1,0.7834745049476624,0.018014198169112206,0.014910050667822361,-0.6209838390350342
1650744122.59863091,176069419,1,0.7833681106567383,0.01807446964085102,0.015030128881335258,-0.6211133599281311
1650744122.69865298,176169441,1,0.7832642197608948,0.018039118498563766,0.015080738812685013,-0.6212441921234131
1650744122.79863405,176269422,1,0.7832139134407043,0.01813642308115959,0.014846986159682274,-0.6213104128837585
1650744122.89865208,176369440,1,0.783104419708252,0.017807163298130035,0.01510828360915184,-0.6214516758918762
1650744122.99863100,176469419,1,0.7829355597496033,0.01815238781273365,0.014934482984244823,-0.6216585636138916
1650744123.09862995,176569418,1,0.7828238606452942,0.018133044242858887,0.014980624429881573,-0.6217986345291138
1650744123.19862294,176669411,1,0.7827374339103699,0.018199382349848747,0.014854846522212029,-0.6219084858894348
1650744123.29863000,176769418,1,0.7825953960418701,0.01821139082312584,0.01475557778030634,-0.6220892667770386
1650744123.39863110,176869419,1,0.7824069261550903,0.018068421632051468,0.014934783801436424,-0.6223261952400208
1650744123.49862289,176969411,1,0.7822657823562622,0.018300402909517288,0.014715033583343029,-0.6225020885467529
1650744123.59862995,177069418,1,0.7821750640869141,0.01810922473669052,0.014874543063342571,-0.622617781162262
1650744123.69863701,177169425,1,0.782002329826355,0.018075836822390556,0.014928020536899567,-0.6228344440460205
1650744123.79865694,177269445,1,0.781736433506012,0.018211856484413147,0.014850232750177383,-0.6231660842895508
1650744123.89865899,177369447,1,0.7816152572631836,0.018090831115841866,0.014964370988309383,-0.6233188509941101
1650744123.99862003,177469408,1,0.7815418839454651,0.018191570416092873,0.014682373963296413,-0.6234146356582642
1650744124.09864306,177569431,1,0.7814164757728577,0.01810881681740284,0.01480997633188963,-0.6235711574554443
1650744124.19864893,177669437,1,0.7811699509620667,0.018192986026406288,0.014810113236308098,-0.6238775253295898
1650744124.29866600,177769454,1,0.781029224395752,0.01819821260869503,0.01487740408629179,-0.6240519881248474
1650744124.39862490,177869413,1,0.7809830904006958,0.018127188086509705,0.014880192466080189,-0.6241117119789124
1650744124.49864888,177969437,1,0.7808656096458435,0.018155129626393318,0.01487382035702467,-0.6242580413818359
1650744124.59862399,178069412,1,0.7807629108428955,0.018251733854413033,0.014942976646125317,-0.624381959438324
1650744124.69862509,178169413,1,0.7806629538536072,0.018150122836232185,0.014892805367708206,-0.6245111227035522
1650744124.79859591,178269384,1,0.7805818915367126,0.018078839406371117,0.01484823226928711,-0.6246156096458435
1650744124.89862800,178369416,1,0.7804940938949585,0.018154120072722435,0.014804327860474586,-0.6247241497039795
1650744124.99863100,178469419,1,0.7803664803504944,0.01809987798333168,0.014846681617200375,-0.6248840689659119
1650744125.09862995,178569418,1,0.7801744341850281,0.018229415640234947,0.014798667281866074,-0.6251212358474731
1650744125.19862604,178669414,1,0.7799970507621765,0.01818910427391529,0.014794978313148022,-0.6253437995910645
1650744125.29864693,178769435,1,0.7799162268638611,0.018153760582208633,0.014869743958115578,-0.6254438757896423
1650744125.39862108,178869409,1,0.7798236012458801,0.018124878406524658,0.014962032437324524,-0.6255579590797424
1650744125.49864101,178969429,1,0.7797096967697144,0.018201420083642006,0.014833623543381691,-0.6257007718086243
1650744125.59863591,179069424,1,0.7796319723129272,0.018269473686814308,0.014824933372437954,-0.625795841217041
1650744125.69863605,179169424,1,0.7795122861862183,0.01815066859126091,0.01494209561496973,-0.6259456276893616
1650744125.79866004,179269448,1,0.779306948184967,0.01826031506061554,0.014862089417874813,-0.6261999607086182
1650744125.89864111,179369429,1,0.7792108654975891,0.018128812313079834,0.014886008575558662,-0.6263227462768555
1650744125.99863505,179469423,1,0.7790771126747131,0.01815628819167614,0.014924092218279839,-0.6264874339103699
1650744126.09862995,179569418,1,0.7788715362548828,0.018277445808053017,0.014882844872772694,-0.6267403960227966
1650744126.19864106,179669429,1,0.778806746006012,0.017659960314631462,0.01428889948874712,-0.6268525123596191
1650744126.29859090,179769379,1,0.7786209583282471,0.017480049282312393,0.013762399554252625,-0.6271000504493713
1650744126.39862609,179869414,1,0.7781655788421631,0.017308102920651436,0.013760299421846867,-0.6276698112487793
1650744126.49862504,179969413,1,0.777806282043457,0.017470546066761017,0.013831020332872868,-0.6281089186668396
1650744126.59862804,180069416,1,0.7774379849433899,0.01821448653936386,0.014307094737887383,-0.6285330057144165
1650744126.69860411,180169392,1,0.7770520448684692,0.018077494576573372,0.013273011893033981,-0.6290366649627686
1650744126.79863095,180269419,1,0.7764710783958435,0.0170602947473526,0.014288407750427723,-0.6297598481178284
1650744126.89865899,180369447,1,0.7760850191116333,0.01800021156668663,0.01343921571969986,-0.6302281022071838
1650744126.99866605,180469454,1,0.7754174470901489,0.017887728288769722,0.013830759562551975,-0.6310439705848694
1650744127.09864998,180569438,1,0.7747500538825989,0.018326235935091972,0.014479539357125759,-0.6318360567092896
1650744127.19863510,180669423,1,0.7743825912475586,0.01862301677465439,0.014756318181753159,-0.6322713494300842
1650744127.29865289,180769441,1,0.7743191123008728,0.018736518919467926,0.014812877401709557,-0.6323444247245789
1650744127.39862394,180869412,1,0.7739877700805664,0.01830446533858776,0.014678647741675377,-0.6327657103538513
1650744127.49863410,180969422,1,0.7737348675727844,0.018343685194849968,0.014576402492821217,-0.6330761909484863
1650744127.59864998,181069438,1,0.7737789154052734,0.01845579408109188,0.014901015907526016,-0.6330114603042603
1650744127.69861698,181169405,1,0.7737581729888916,0.0186149999499321,0.01492494810372591,-0.6330316066741943
1650744127.79861593,181269404,1,0.7737509608268738,0.018299024552106857,0.014848044142127037,-0.6330514550209045
1650744127.89861798,181369406,1,0.7738261222839355,0.01830160804092884,0.014739823527634144,-0.6329620480537415
1650744127.99861693,181469405,1,0.7739961743354797,0.018297825008630753,0.01490039937198162,-0.632750391960144
1650744128.09861898,181569407,1,0.7739206552505493,0.018483785912394524,0.015017759054899216,-0.6328346133232117
1650744128.19862103,181669409,1,0.7737954258918762,0.018507005646824837,0.014979662373661995,-0.6329879760742188
1650744128.29861903,181769407,1,0.7740507125854492,0.01830831542611122,0.014950676821172237,-0.632682204246521
1650744128.39864492,181869433,1,0.7739694118499756,0.018432339653372765,0.015085151419043541,-0.6327748894691467
1650744128.49862695,181969415,1,0.7737279534339905,0.018609318882226944,0.015197868458926678,-0.6330622434616089
1650744128.59868193,182069470,1,0.7738332152366638,0.018262239173054695,0.01532086543738842,-0.6329407095909119
1650744128.69861102,182169399,1,0.7738581299781799,0.018479393795132637,0.015050291083753109,-0.6329103708267212
1650744128.79860711,182269395,1,0.7736127972602844,0.018349723890423775,0.015417392365634441,-0.633205235004425
1650744128.89863610,182369424,1,0.7736862301826477,0.018496287986636162,0.015313460491597652,-0.6331137418746948
1650744128.99863410,182469422,1,0.7738990187644958,0.018354935571551323,0.015123522840440273,-0.6328623294830322
1650744129.09863400,182569422,1,0.7738421559333801,0.018225770443677902,0.015190673060715199,-0.6329339742660522
1650744129.19862604,182669414,1,0.7738017439842224,0.018481377512216568,0.015136491507291794,-0.6329772472381592
1650744129.29862094,182769409,1,0.774047315120697,0.018280867487192154,0.015299071557819843,-0.6326788067817688
1650744129.39862394,182869412,1,0.7741254568099976,0.018384790048003197,0.01499869953840971,-0.6325873732566833
1650744129.49861789,182969406,1,0.7740224003791809,0.01822526566684246,0.015126124955713749,-0.6327150464057922
1650744129.59860611,183069394,1,0.7741321921348572,0.018317241221666336,0.01516774483025074,-0.6325770616531372
1650744129.69861698,183169405,1,0.7742127776145935,0.01839078776538372,0.01503593660891056,-0.6324794292449951
1650744129.79861808,183269406,1,0.7741097211837769,0.018175581470131874,0.015095330774784088,-0.6326103806495667
1650744129.89864898,183369437,1,0.7741119861602783,0.018427999690175056,0.01499276701360941,-0.6326027512550354
1650744129.99865294,183469441,1,0.7742382884025574,0.01834544911980629,0.01517915353178978,-0.6324461102485657
1650744130.09864593,183569434,1,0.7741931080818176,0.018348919227719307,0.01510398369282484,-0.6325031518936157
1650744130.19863510,183669423,1,0.7741521000862122,0.018388008698821068,0.015052682720124722,-0.6325533986091614
1650744130.29862189,183769410,1,0.774249255657196,0.018337231129407883,0.015167330391705036,-0.6324332356452942
1650744130.39862704,183869415,1,0.7742266654968262,0.018524110317230225,0.015084860846400261,-0.632457435131073
1650744130.49864411,183969432,1,0.7741464376449585,0.018344365060329437,0.015192302875220776,-0.632558286190033
1650744130.59863210,184069420,1,0.7741912603378296,0.018466677516698837,0.015103243291378021,-0.6325019598007202
1650744130.69864893,184169437,1,0.7741991877555847,0.01846870221197605,0.015185000374913216,-0.6324902772903442
1650744130.79861593,184269404,1,0.7741091847419739,0.018495634198188782,0.0151736531406641,-0.632599949836731
1650744130.89861703,184369405,1,0.7741199135780334,0.018528766930103302,0.015122880227863789,-0.6325870156288147
1650744130.99862194,184469410,1,0.7741848826408386,0.018471477553248405,0.015134424902498722,-0.6325089335441589
1650744131.09862900,184569417,1,0.7741267085075378,0.01854316145181656,0.015091381035745144,-0.6325790286064148
1650744131.19861603,184669404,1,0.7741387486457825,0.018457088619470596,0.015170726925134659,-0.632564902305603
1650744131.29862094,184769409,1,0.7742277383804321,0.018542908132076263,0.015059534460306168,-0.6324561238288879
1650744131.39860606,184869394,1,0.7742003202438354,0.018465010449290276,0.015093580819666386,-0.6324911713600159
1650744131.49864602,184969434,1,0.7741231918334961,0.018524136394262314,0.01500196848064661,-0.6325860023498535
1650744131.59864902,185069437,1,0.7741419076919556,0.018508881330490112,0.01497790589928627,-0.632564127445221
1650744131.69864011,185169428,1,0.7741449475288391,0.0184562336653471,0.014959679916501045,-0.6325623989105225
1650744131.79863906,185269427,1,0.774052083492279,0.018504617735743523,0.014855182729661465,-0.6326770782470703
1650744131.89863300,185369421,1,0.7741167545318604,0.018446462228894234,0.01495766919106245,-0.6325972080230713
1650744131.99862790,185469416,1,0.7742087244987488,0.018529966473579407,0.014851323328912258,-0.6324846744537354
1650744132.09862208,185569410,1,0.7741372585296631,0.018442291766405106,0.014896716922521591,-0.632573664188385
1650744132.19863296,185669421,1,0.774198055267334,0.018436232581734657,0.014873537234961987,-0.6324999928474426
1650744132.29861689,185769405,1,0.7743047475814819,0.018493302166461945,0.014832079410552979,-0.6323686838150024
1650744132.39861703,185869405,1,0.7743198275566101,0.01836099661886692,0.014918648637831211,-0.6323520541191101
1650744132.49861693,185969405,1,0.774334728717804,0.018440693616867065,0.014784271828830242,-0.6323346495628357
1650744132.59861803,186069406,1,0.77447909116745,0.018331458792090416,0.014908979646861553,-0.6321580410003662
1650744132.69862008,186169408,1,0.7745433449745178,0.018395815044641495,0.01486864686012268,-0.6320784091949463
1650744132.79861593,186269404,1,0.7745997309684753,0.018401747569441795,0.01485507469624281,-0.6320095062255859
1650744132.89862204,186369410,1,0.7747731804847717,0.018358582630753517,0.014861688949167728,-0.6317979097366333
1650744132.99861908,186469407,1,0.7748521566390991,0.01842447556555271,0.014841561205685139,-0.6316996216773987
1650744133.09866095,186569449,1,0.7748417854309082,0.018342673778533936,0.014901189133524895,-0.631713330745697
1650744133.19863296,186669421,1,0.7749202847480774,0.018399326130747795,0.014825007878243923,-0.6316171884536743
1650744133.29865408,186769442,1,0.7749959230422974,0.018299221992492676,0.014908568933606148,-0.6315252780914307
1650744133.39862108,186869409,1,0.7749618887901306,0.01838373765349388,0.01488106045871973,-0.631565272808075
1650744133.49864006,186969428,1,0.774999737739563,0.018374493345618248,0.014866674318909645,-0.6315193772315979
1650744133.59865689,187069445,1,0.7750469446182251,0.018314477056264877,0.014911315403878689,-0.6314621567726135
1650744133.69863200,187169420,1,0.7749522924423218,0.018343200907111168,0.014858536422252655,-0.6315787434577942
1650744133.79858303,187269371,1,0.7749412059783936,0.018296143040060997,0.01489734835922718,-0.6315928101539612
1650744133.89862108,187369409,1,0.774957001209259,0.0183702502399683,0.014867054298520088,-0.6315719485282898
1650744133.99861693,187469405,1,0.7749128341674805,0.018299607560038567,0.014948857948184013,-0.631626307964325
1650744134.09862089,187569409,1,0.7748655676841736,0.018343288451433182,0.014918885193765163,-0.6316837072372437
1650744134.19862700,187669415,1,0.7749256491661072,0.018314139917492867,0.014917854219675064,-0.6316108703613281
1650744134.29862094,187769409,1,0.7749594449996948,0.01830427348613739,0.014902550727128983,-0.631570041179657
1650744134.39861894,187869407,1,0.7749910354614258,0.01831982284784317,0.014860342256724834,-0.6315317749977112
1650744134.49862003,187969408,1,0.7751180529594421,0.01825285330414772,0.014887623488903046,-0.6313772201538086
1650744134.59863210,188069420,1,0.77519690990448,0.018292618915438652,0.01489556860178709,-0.6312790513038635
1650744134.69862890,188169417,1,0.7751662135124207,0.01829487830400467,0.014932427555322647,-0.6313158273696899
1650744134.79865098,188269439,1,0.7751798033714294,0.018347006291151047,0.014913991093635559,-0.6312980055809021
1650744134.89863491,188369423,1,0.7752178907394409,0.018382491543889046,0.014888453297317028,-0.6312508583068848
1650744134.99863291,188469421,1,0.7752214074134827,0.01837635040283203,0.01489871647208929,-0.6312464475631714
1650744135.09862709,188569415,1,0.7752357125282288,0.01842162013053894,0.014886562712490559,-0.6312278509140015
1650744135.19866109,188669449,1,0.7753133177757263,0.018422149121761322,0.014916050247848034,-0.6311318874359131
1650744135.29864311,188769431,1,0.7753649950027466,0.018432436510920525,0.014883817173540592,-0.6310688257217407
1650744135.39864707,188869435,1,0.7753795385360718,0.018453240394592285,0.014867175370454788,-0.631050705909729
1650744135.49861693,188969405,1,0.775411069393158,0.018353864550590515,0.014928126707673073,-0.6310134530067444
1650744135.59862089,189069409,1,0.775431215763092,0.018374765291810036,0.01486807968467474,-0.6309894919395447
1650744135.69861889,189169407,1,0.7754021883010864,0.01827336847782135,0.014865386299788952,-0.6310281753540039
1650744135.79862094,189269409,1,0.7754149436950684,0.018350854516029358,0.014782865531742573,-0.6310121417045593
1650744135.89862108,189369409,1,0.7754315733909607,0.018369467929005623,0.014821194112300873,-0.6309902667999268
1650744135.99862099,189469409,1,0.7754361033439636,0.018345344811677933,0.014787710271775723,-0.630986213684082
1650744136.09861708,189569405,1,0.7754269242286682,0.018390381708741188,0.014724448323249817,-0.6309976577758789
1650744136.19863510,189669423,1,0.7754373550415039,0.018358968198299408,0.014797675423324108,-0.6309840679168701
1650744136.29866910,189769457,1,0.7753950357437134,0.018435146659612656,0.014728347770869732,-0.6310354471206665
1650744136.39865589,189869444,1,0.7753695845603943,0.018374904990196228,0.01476435735821724,-0.6310676336288452
1650744136.49861193,189969400,1,0.7753959894180298,0.018426408991217613,0.014710288494825363,-0.6310349702835083
1650744136.59863091,190069419,1,0.775394856929779,0.018460644409060478,0.014663088135421276,-0.6310364603996277
1650744136.69864297,190169431,1,0.7754064798355103,0.018375374376773834,0.014686319045722485,-0.6310241222381592
1650744136.79862905,190269417,1,0.7754526138305664,0.01844434253871441,0.014590907841920853,-0.6309676170349121
1650744136.89863896,190369427,1,0.7754548788070679,0.018359694629907608,0.014713452197611332,-0.630964457988739
1650744136.99862003,190469408,1,0.7754546999931335,0.018427729606628418,0.01467973180115223,-0.6309635043144226
1650744137.09861898,190569407,1,0.7754616737365723,0.018348416313529015,0.014682712033390999,-0.6309571862220764
1650744137.19863296,190669421,1,0.775467038154602,0.01835256814956665,0.014718091115355492,-0.6309496164321899
1650744137.29862094,190769409,1,0.7754231095314026,0.018383337184786797,0.014684176072478294,-0.6310034990310669
1650744137.39861894,190869407,1,0.7754315137863159,0.018362510949373245,0.014692562632262707,-0.6309935450553894
1650744137.49861598,190969404,1,0.7754625678062439,0.01838415488600731,0.014655143953859806,-0.630955696105957
1650744137.59862399,191069412,1,0.7754414081573486,0.01836739294230938,0.014694903045892715,-0.6309812664985657
1650744137.69861102,191169399,1,0.7753968238830566,0.018423685804009438,0.014719823375344276,-0.6310337781906128
1650744137.79862094,191269409,1,0.7754344940185547,0.018351703882217407,0.014728115871548653,-0.6309894323348999
1650744137.89864898,191369437,1,0.7754437327384949,0.01838524267077446,0.014666263945400715,-0.630978524684906
1650744137.99862099,191469409,1,0.7754404544830322,0.01834273524582386,0.014663361012935638,-0.630983829498291
1650744138.09862709,191569415,1,0.7754552960395813,0.018293604254722595,0.014708159491419792,-0.6309660077095032
1650744138.19866109,191669449,1,0.7754735946655273,0.018358295783400536,0.014669807627797127,-0.6309425830841064
1650744138.29863906,191769427,1,0.7754369974136353,0.01826772280037403,0.014705352485179901,-0.6309893131256104
1650744138.39862704,191869415,1,0.7754694223403931,0.018355531617999077,0.014623835682868958,-0.6309488415718079
1650744138.49864793,191969436,1,0.7754819989204407,0.018345622345805168,0.01464539673179388,-0.6309331059455872
1650744138.59862089,192069409,1,0.775459885597229,0.0182923823595047,0.014660571701824665,-0.630961537361145
1650744138.69862604,192169414,1,0.7754759192466736,0.01836506277322769,0.014609911479055882,-0.6309409141540527
1650744138.79862404,192269412,1,0.7755252718925476,0.018259743228554726,0.01468292623758316,-0.6308815479278564
1650744138.89863110,192369419,1,0.7755411863327026,0.018381433561444283,0.014633837155997753,-0.6308596134185791
1650744138.99862599,192469414,1,0.7755648493766785,0.018276406452059746,0.014717788435518742,-0.6308315992355347
1650744139.09862208,192569410,1,0.7756378054618835,0.018326913937926292,0.014629341661930084,-0.6307424902915955
1650744139.19861603,192669404,1,0.7756900787353516,0.01829221285879612,0.014633728191256523,-0.6306791305541992
1650744139.29863405,192769422,1,0.7756973505020142,0.018248917534947395,0.01465571392327547,-0.630670964717865
1650744139.39864993,192869438,1,0.7757235169410706,0.01828552968800068,0.014606277458369732,-0.630638837814331
1650744139.49864793,192969436,1,0.7757608294487,0.018221545964479446,0.01464150007814169,-0.6305939555168152
1650744139.59864402,193069432,1,0.7757298946380615,0.018285853788256645,0.014552490785717964,-0.630632221698761
1650744139.69863796,193169426,1,0.775714635848999,0.018172847107052803,0.014636519365012646,-0.6306523084640503
1650744139.79861498,193269403,1,0.7757512927055359,0.018227407708764076,0.01458764262497425,-0.6306067705154419
1650744139.89863205,193369420,1,0.7757706642150879,0.01824140176177025,0.01451821718364954,-0.6305841207504272
1650744139.99863791,193469426,1,0.7757704854011536,0.018172072246670723,0.01461754646152258,-0.6305840611457825
1650744140.09863400,193569422,1,0.7758039832115173,0.018248992040753365,0.014550641179084778,-0.6305422186851501
1650744140.19862103,193669409,1,0.7758128643035889,0.018182849511504173,0.01462184265255928,-0.6305314898490906
1650744140.29862404,193769412,1,0.775777280330658,0.018214520066976547,0.014575934037566185,-0.63057541847229
1650744140.39862704,193869415,1,0.7758350372314453,0.018185613676905632,0.014597057364881039,-0.6305047273635864
1650744140.49862599,193969414,1,0.7759456634521484,0.0181752759963274,0.014603625051677227,-0.630368709564209
1650744140.59862590,194069414,1,0.7758845686912537,0.018147457391023636,0.014521948993206024,-0.6304465532302856
1650744140.69863391,194169422,1,0.7758457660675049,0.01808048039674759,0.014474556781351566,-0.630497395992279
1650744140.79862809,194269416,1,0.775967538356781,0.01820214092731476,0.014429090544581413,-0.6303450465202332
1650744140.89866209,194369450,1,0.7758503556251526,0.018022051081061363,0.014237730763852596,-0.6304987668991089
1650744140.99866700,194469455,1,0.7757494449615479,0.018046678975224495,0.013505691662430763,-0.6306383609771729
1650744141.09865904,194569447,1,0.7755908370018005,0.017634276300668716,0.013011930510401726,-0.6308554410934448
1650744141.19862509,194669413,1,0.7752925157546997,0.017270643264055252,0.01382843405008316,-0.6312147378921509
1650744141.29864097,194769429,1,0.7747211456298828,0.01810850389301777,0.013243320398032665,-0.6319049596786499
1650744141.39864492,194869433,1,0.7742563486099243,0.01800047792494297,0.01308743841946125,-0.6324806809425354
1650744141.49862194,194969410,1,0.7739227414131165,0.017870070412755013,0.013470840640366077,-0.6328845024108887
1650744141.59864998,195069438,1,0.7733606100082397,0.018025971949100494,0.013003164902329445,-0.6335766315460205
1650744141.69862795,195169416,1,0.7728927135467529,0.01812053844332695,0.012975511141121387,-0.634145200252533
1650744141.79863000,195269418,1,0.7725915312767029,0.01739382930099964,0.013494172133505344,-0.6345216631889343
1650744141.89863396,195369422,1,0.7720497846603394,0.01837051659822464,0.012745521031320095,-0.6351686120033264
1650744141.99862599,195469414,1,0.7716004848480225,0.01778293587267399,0.012924427166581154,-0.6357274651527405
1650744142.09863091,195569419,1,0.7712609767913818,0.018307888880372047,0.01288877334445715,-0.6361251473426819
1650744142.19862700,195669415,1,0.7707512974739075,0.0174624752253294,0.013324915431439877,-0.6367573738098145
1650744142.29862905,195769417,1,0.770498514175415,0.018056854605674744,0.012951348908245564,-0.6370543837547302
1650744142.39863992,195869428,1,0.7699429392814636,0.017902880907058716,0.013027075678110123,-0.6377285122871399
1650744142.49867702,195969465,1,0.7693760991096497,0.01849609985947609,0.012906731106340885,-0.638397753238678
1650744142.59863997,196069428,1,0.7687592506408691,0.01846049726009369,0.013121414929628372,-0.6391371488571167
1650744142.69866395,196169452,1,0.7680457234382629,0.017968006432056427,0.012951935641467571,-0.6400118470191956
1650744142.79863501,196269423,1,0.7678046822547913,0.017215413972735405,0.013332757167518139,-0.6403138637542725
1650744142.89863610,196369424,1,0.7677194476127625,0.018671110272407532,0.013033764436841011,-0.6403814554214478
1650744142.99868107,196469469,1,0.7669199109077454,0.018803304061293602,0.013746864162385464,-0.641319990158081
1650744143.09862804,196569416,1,0.7663277983665466,0.018778229132294655,0.014240514487028122,-0.6420174241065979
1650744143.19864392,196669432,1,0.7665199637413025,0.018799278885126114,0.013406977988779545,-0.6418052315711975
1650744143.29862094,196769409,1,0.766389787197113,0.01842513680458069,0.01354382373392582,-0.6419686079025269
1650744143.39861703,196869405,1,0.7659947872161865,0.018669677898287773,0.013786743395030499,-0.6424276828765869
1650744143.49861598,196969404,1,0.766007661819458,0.01883811503648758,0.013991564512252808,-0.6424030065536499
1650744143.59861898,197069407,1,0.7661665081977844,0.018745888024568558,0.01380522083491087,-0.6422202587127686
1650744143.69862294,197169411,1,0.7660314440727234,0.01852562092244625,0.013793832622468472,-0.6423880457878113
1650744143.79862404,197269412,1,0.7658758759498596,0.018648331984877586,0.013902593404054642,-0.6425675749778748
1650744143.89862108,197369409,1,0.7660821676254272,0.018800079822540283,0.01402472984045744,-0.6423145532608032
1650744143.99865103,197469439,1,0.7659720778465271,0.018595727160573006,0.013917580246925354,-0.6424540877342224
1650744144.09864402,197569432,1,0.7658548355102539,0.018591631203889847,0.013808092102408409,-0.6425963044166565
1650744144.19863701,197669425,1,0.7659690380096436,0.018611356616020203,0.014080868102610111,-0.6424537301063538
1650744144.29860997,197769398,1,0.766108512878418,0.018754512071609497,0.013972115702927113,-0.6422855854034424
1650744144.39863491,197869423,1,0.7659109830856323,0.018517836928367615,0.013939743861556053,-0.6425287127494812
1650744144.49863100,197969419,1,0.7659149765968323,0.018424279987812042,0.014069569297134876,-0.6425238251686096
1650744144.59862995,198069418,1,0.7660617828369141,0.01862904615700245,0.013962693512439728,-0.6423451900482178
1650744144.69863605,198169424,1,0.7659175992012024,0.01858823001384735,0.01399290096014738,-0.642517626285553
1650744144.79862404,198269412,1,0.7658501863479614,0.018472399562597275,0.01402075681835413,-0.6426007151603699
1650744144.89861608,198369404,1,0.7660118937492371,0.018475249409675598,0.01400669850409031,-0.6424081921577454
1650744144.99862504,198469413,1,0.7660109400749207,0.01857571490108967,0.013937665149569511,-0.6424079537391663
1650744145.09866500,198569453,1,0.7659513354301453,0.018457461148500443,0.013992090709507465,-0.6424812078475952
1650744145.19861794,198669406,1,0.7660353183746338,0.01847417838871479,0.013945896178483963,-0.6423816084861755
1650744145.29862189,198769410,1,0.7661108374595642,0.018578922376036644,0.013953144662082195,-0.6422883868217468
1650744145.39860010,198869388,1,0.766123354434967,0.018465111032128334,0.014048662967979908,-0.6422746181488037
1650744145.49862099,198969409,1,0.7661973237991333,0.018570121377706528,0.013946132734417915,-0.642185628414154
1650744145.59866595,199069454,1,0.7662358283996582,0.018448002636432648,0.014112108387053013,-0.6421395540237427
1650744145.69864297,199169431,1,0.7662157416343689,0.0185044277459383,0.014134966768324375,-0.6421613693237305
1650744145.79865289,199269441,1,0.7662901878356934,0.018581636250019073,0.014055676758289337,-0.6420720219612122
1650744145.89862394,199369412,1,0.766382098197937,0.0183551162481308,0.014114748686552048,-0.6419675350189209
1650744145.99860907,199469397,1,0.7663542628288269,0.018502838909626007,0.013928302563726902,-0.6420006155967712
1650744146.09864593,199569434,1,0.7663751244544983,0.018324388191103935,0.014132414013147354,-0.6419764161109924
1650744146.19863391,199669422,1,0.7664437294006348,0.018487215042114258,0.014043274335563183,-0.6418917775154114
1650744146.29859900,199769387,1,0.7664292454719543,0.018341222777962685,0.014061659574508667,-0.6419128179550171
1650744146.39861798,199869406,1,0.7664749622344971,0.018355386331677437,0.014097708277404308,-0.6418570280075073
1650744146.49863100,199969419,1,0.7665628790855408,0.018441056832671165,0.014100289903581142,-0.6417495608329773
1650744146.59861898,200069407,1,0.7665531635284424,0.018358586356043816,0.014153298921883106,-0.641762375831604
1650744146.69859195,200169380,1,0.7665567398071289,0.018477940931916237,0.014036744832992554,-0.6417571902275085
1650744146.79862094,200269409,1,0.7666405439376831,0.018331199884414673,0.014197121374309063,-0.6416577696800232
1650744146.89861894,200369407,1,0.7666885256767273,0.01839127019047737,0.01413668692111969,-0.6416000723838806
1650744146.99858999,200469378,1,0.7666547894477844,0.01833817921578884,0.014134783297777176,-0.6416419148445129
1650744147.09863400,200569422,1,0.7667368054389954,0.018312891945242882,0.01415383443236351,-0.6415442228317261
1650744147.19864798,200669436,1,0.7668213844299316,0.018405690789222717,0.014111544005572796,-0.6414414048194885
1650744147.29864097,200769429,1,0.7667891979217529,0.018269166350364685,0.014225922524929047,-0.6414812207221985
1650744147.39865088,200869439,1,0.7668022513389587,0.01837185025215149,0.014079728163778782,-0.641465961933136
1650744147.49863100,200969419,1,0.7668648362159729,0.018261423334479332,0.014219392091035843,-0.6413911581039429
1650744147.59864688,201069435,1,0.766842246055603,0.018359271809458733,0.014133403077721596,-0.6414172649383545
1650744147.69863605,201169424,1,0.7668576240539551,0.018316417932510376,0.014113105833530426,-0.6414006352424622
1650744147.79865193,201269440,1,0.7669405937194824,0.018296796828508377,0.014162988401949406,-0.6413008570671082
1650744147.89865088,201369439,1,0.7669797539710999,0.01843392848968506,0.014063063077628613,-0.6412522792816162
1650744147.99862194,201469410,1,0.7670075297355652,0.018231764435768127,0.014228112995624542,-0.6412212252616882
1650744148.09861708,201569405,1,0.7671140432357788,0.018325986340641975,0.014105349779129028,-0.6410937905311584
1650744148.19861794,201669406,1,0.7671910524368286,0.018216881901025772,0.014225490391254425,-0.6410021185874939
1650744148.29861808,201769406,1,0.7671651244163513,0.018276622518897057,0.014186114072799683,-0.6410322785377502
1650744148.39862800,201869416,1,0.7671914100646973,0.018291978165507317,0.01413426548242569,-0.6410015225410461
1650744148.49862003,201969408,1,0.7672834396362305,0.018195295706391335,0.014174716547131538,-0.6408932209014893
1650744148.59862399,202069412,1,0.7672565579414368,0.018348483368754387,0.014103365130722523,-0.6409226059913635
1650744148.69864702,202169435,1,0.7672792077064514,0.01826062984764576,0.014220434240996838,-0.640895426273346
1650744148.79866195,202269450,1,0.7673913836479187,0.01830204576253891,0.014110736548900604,-0.6407623291015625
1650744148.89864993,202369438,1,0.767433762550354,0.018251078203320503,0.0140782305970788,-0.6407137513160706
1650744148.99862099,202469409,1,0.7674177289009094,0.018306007608771324,0.014110962860286236,-0.6407306790351868
1650744149.09863210,202569420,1,0.7674947381019592,0.018397551029920578,0.01402304507791996,-0.6406377553939819
1650744149.19864297,202669431,1,0.7675700783729553,0.01831441931426525,0.014033148996531963,-0.6405496001243591
1650744149.29864407,202769432,1,0.7675998210906982,0.018377915024757385,0.013873101212084293,-0.6405156254768372
1650744149.39858699,202869375,1,0.7676706314086914,0.01830693893134594,0.014016923494637012,-0.640429675579071
1650744149.49862099,202969409,1,0.7677775025367737,0.018396273255348206,0.013980834744870663,-0.6402997970581055
1650744149.59863210,203069420,1,0.7678315043449402,0.018347740173339844,0.01393070351332426,-0.6402375102043152
1650744149.69862103,203169409,1,0.7679216861724854,0.018309177830815315,0.013958211988210678,-0.6401298642158508
1650744149.79862094,203269409,1,0.7680246233940125,0.01848643645644188,0.013948364183306694,-0.6400014758110046
1650744149.89866304,203369451,1,0.768055260181427,0.018420521169900894,0.014051809906959534,-0.6399643421173096
1650744149.99862099,203469409,1,0.7680674195289612,0.01843799650669098,0.013927362859249115,-0.6399519443511963
1650744150.09859896,203569387,1,0.7681282758712769,0.0183853916823864,0.013962329365313053,-0.6398796439170837
1650744150.19862103,203669409,1,0.7681341171264648,0.018405182287096977,0.014005007222294807,-0.6398711800575256
1650744150.29865789,203769446,1,0.7681096196174622,0.018434720113873482,0.013908660039305687,-0.6399018168449402
1650744150.39865589,203869444,1,0.7681629657745361,0.01835978776216507,0.01391667127609253,-0.639839768409729
1650744150.49865294,203969441,1,0.7682431936264038,0.018456321209669113,0.013871271163225174,-0.6397416591644287
1650744150.59862995,204069418,1,0.7682397961616516,0.01842137984931469,0.013912428170442581,-0.6397457718849182
1650744150.69863701,204169425,1,0.7683289647102356,0.018402915447950363,0.013881015591323376,-0.6396399736404419
1650744150.79864693,204269435,1,0.768427312374115,0.018395671620965004,0.01391485147178173,-0.6395213007926941
1650744150.89863300,204369421,1,0.7684321999549866,0.018457520753145218,0.013919549994170666,-0.6395134925842285
1650744150.99865508,204469443,1,0.7684767246246338,0.018426215276122093,0.013907200656831264,-0.6394611597061157
1650744151.09862804,204569416,1,0.768572211265564,0.01838180050253868,0.013894639909267426,-0.6393479108810425
1650744151.19862294,204669411,1,0.7685908675193787,0.01843210496008396,0.013900632970035076,-0.6393239498138428
1650744151.29862690,204769415,1,0.7685726284980774,0.018495481461286545,0.013981731608510017,-0.6393423080444336
1650744151.39862490,204869413,1,0.7685992121696472,0.018512504175305367,0.013876494020223618,-0.6393121480941772
1650744151.49862409,204969412,1,0.7686071395874023,0.01850477047264576,0.01381535455584526,-0.6393041014671326
1650744151.59862590,205069414,1,0.7686871886253357,0.018458537757396698,0.013868600130081177,-0.6392080187797546
1650744151.69862390,205169412,1,0.768731951713562,0.018701346591114998,0.013775503262877464,-0.6391491889953613
1650744151.79865694,205269445,1,0.7685741186141968,0.018543904647231102,0.01392158679664135,-0.639340341091156
1650744151.89863610,205369424,1,0.7684895992279053,0.01869162730872631,0.013742142356932163,-0.6394415497779846
1650744151.99864507,205469433,1,0.7685323357582092,0.01850646361708641,0.013808595947921276,-0.6393941640853882
1650744152.09861898,205569407,1,0.7684115767478943,0.018571646884083748,0.013905181549489498,-0.6395352482795715
1650744152.19863510,205669423,1,0.7682555317878723,0.018839552998542786,0.013679002411663532,-0.6397197842597961
1650744152.29864407,205769432,1,0.7682388424873352,0.018613247200846672,0.01383267343044281,-0.6397431492805481
1650744152.39863896,205869427,1,0.7681663036346436,0.018739469349384308,0.013714151456952095,-0.6398290991783142
1650744152.49862194,205969410,1,0.7680578827857971,0.018611477687954903,0.013902521692216396,-0.6399589776992798
1650744152.59863400,206069422,1,0.7680611610412598,0.01862417720258236,0.013862096704542637,-0.6399555206298828
1650744152.69862795,206169416,1,0.7679165601730347,0.01854817196726799,0.013639375567436218,-0.6401360034942627
1650744152.79862499,206269413,1,0.767747163772583,0.01848389394581318,0.013790653087198734,-0.6403377652168274
1650744152.89861298,206369401,1,0.7676659822463989,0.01865782029926777,0.013659031130373478,-0.6404328942298889
1650744152.99862790,206469416,1,0.7675631046295166,0.018596988171339035,0.01368985790759325,-0.6405572891235352
1650744153.09862494,206569413,1,0.7673888206481934,0.01867111213505268,0.01360254269093275,-0.6407657861709595
1650744153.19862294,206669411,1,0.7673288583755493,0.018777692690491676,0.013524854555726051,-0.6408360600471497
1650744153.29863596,206769424,1,0.7673414945602417,0.018734227865934372,0.013698187656700611,-0.6408185362815857
1650744153.39868093,206869469,1,0.7671456336975098,0.018735533580183983,0.013610977679491043,-0.6410548090934753
1650744153.49864507,206969433,1,0.7670612931251526,0.018633870407938957,0.013678966090083122,-0.6411572694778442
1650744153.59865189,207069440,1,0.7670734524726868,0.01867106184363365,0.013669119216501713,-0.6411418914794922
1650744153.69862509,207169413,1,0.7670177817344666,0.018699930980801582,0.0136148352175951,-0.6412087678909302
1650744153.79862595,207269414,1,0.7668820023536682,0.01856105588376522,0.013665787875652313,-0.6413741111755371
1650744153.89866495,207369453,1,0.7668289542198181,0.018603622913360596,0.01347420271486044,-0.6414403319358826
1650744153.99866700,207469455,1,0.7667436003684998,0.018477559089660645,0.013639792799949646,-0.6415424942970276
1650744154.09860110,207569389,1,0.7665541768074036,0.01875522918999195,0.013424939475953579,-0.6417653560638428
1650744154.19862700,207669415,1,0.7664945721626282,0.018605995923280716,0.01353218499571085,-0.641838550567627
1650744154.29863906,207769427,1,0.7664280533790588,0.018722200766205788,0.013474040664732456,-0.6419158577919006
1650744154.39862108,207869409,1,0.7663383483886719,0.018693573772907257,0.013475286774337292,-0.6420237421989441
1650744154.49861908,207969407,1,0.7663190960884094,0.018564457073807716,0.013695236295461655,-0.642045795917511
1650744154.59859800,208069386,1,0.7662317156791687,0.01876859739422798,0.013627943582832813,-0.642145574092865
1650744154.69858503,208169373,1,0.7662838101387024,0.018579430878162384,0.013800125569105148,-0.6420853137969971
1650744154.79862094,208269409,1,0.7662715911865234,0.01860128343105316,0.013623327016830444,-0.6421029567718506
1650744154.89862609,208369414,1,0.7663566470146179,0.018573222681879997,0.01364336721599102,-0.6420018672943115
1650744154.99867105,208469459,1,0.7662623524665833,0.01849929429590702,0.013851715251803398,-0.6421120762825012
1650744155.09863806,208569426,1,0.766412079334259,0.01884528435766697,0.013790318742394447,-0.6419246196746826
1650744155.19863605,208669424,1,0.7664323449134827,0.018499864265322685,0.013736351393163204,-0.6419116854667664
1650744155.29863906,208769427,1,0.7663880586624146,0.01854049786925316,0.01354986522346735,-0.6419672966003418
1650744155.39862204,208869410,1,0.7665036916732788,0.018791235983371735,0.013738168403506279,-0.6418179273605347
1650744155.49863291,208969421,1,0.7665590047836304,0.01870398037135601,0.013935225084424019,-0.641750156879425
1650744155.59863305,209069421,1,0.7663519978523254,0.018761824816465378,0.013576260767877102,-0.6420033574104309
1650744155.69858909,209169377,1,0.766429603099823,0.018592746928334236,0.013650953769683838,-0.6419140696525574
1650744155.79861903,209269407,1,0.766541063785553,0.018786858767271042,0.013703213073313236,-0.6417741179466248
1650744155.89861798,209369406,1,0.7663856148719788,0.018639689311385155,0.013797806575894356,-0.6419620513916016
1650744155.99861789,209469406,1,0.7664470076560974,0.018589798361063004,0.013723178766667843,-0.6418917775154114
1650744156.09862208,209569410,1,0.7666282057762146,0.018582860007882118,0.013752788305282593,-0.6416749954223633
1650744156.19861698,209669405,1,0.766508162021637,0.018591968342661858,0.013882254250347614,-0.6418153047561646
1650744156.29860997,209769398,1,0.7665050029754639,0.018739772960543633,0.013793367892503738,-0.6418166756629944
1650744156.39862609,209869414,1,0.7667497396469116,0.018579162657260895,0.013882170431315899,-0.6415270566940308
1650744156.49863291,209969421,1,0.7667611837387085,0.01869376190006733,0.013857887126505375,-0.641510546207428
1650744156.59863496,210069423,1,0.7666954398155212,0.018696188926696777,0.01394017692655325,-0.6415873169898987
1650744156.69864511,210169433,1,0.7669022083282471,0.01866362988948822,0.013993040658533573,-0.641339898109436
1650744156.79861593,210269404,1,0.7669407725334167,0.018713630735874176,0.013913508504629135,-0.6412940621376038
1650744156.89863110,210369419,1,0.7668591737747192,0.018619686365127563,0.014050590805709362,-0.6413913369178772
1650744156.99862194,210469410,1,0.7670174837112427,0.01877761073410511,0.013972646556794643,-0.6411991119384766
1650744157.09863091,210569419,1,0.7671501636505127,0.018686214461922646,0.014017404988408089,-0.6410421133041382
1650744157.19861889,210669407,1,0.7670800089836121,0.01871510036289692,0.013960459269583225,-0.6411264538764954
1650744157.29862499,210769413,1,0.767185628414154,0.018748946487903595,0.013952636159956455,-0.6409991979598999
1650744157.39862299,210869411,1,0.7673585414886475,0.01870853640139103,0.01404708530753851,-0.6407912969589233
1650744157.49861598,210969404,1,0.7673099637031555,0.018797626718878746,0.014046721160411835,-0.6408469080924988
1650744157.59862804,211069416,1,0.7673395276069641,0.01874530129134655,0.014077600091695786,-0.6408123970031738
1650744157.69862199,211169410,1,0.7674975395202637,0.018808092921972275,0.014040335081517696,-0.640622079372406
1650744157.79862404,211269412,1,0.7675175070762634,0.01869318261742592,0.014165647327899933,-0.6405987739562988
1650744157.89862800,211369416,1,0.767498791217804,0.018811365589499474,0.013994445092976093,-0.6406214833259583
1650744157.99860907,211469397,1,0.7676323056221008,0.018741944804787636,0.014093690551817417,-0.6404613852500916
1650744158.09868288,211569471,1,0.7676994204521179,0.018762612715363503,0.014066360890865326,-0.6403809189796448
1650744158.19862294,211669411,1,0.7677475810050964,0.018779998645186424,0.014040695503354073,-0.6403232216835022
1650744158.29864693,211769435,1,0.7678185105323792,0.018630139529705048,0.014103188179433346,-0.6402411460876465
1650744158.39863300,211869421,1,0.7678226232528687,0.018737655133008957,0.013968796469271183,-0.6402360796928406
1650744158.49862194,211969410,1,0.7678194642066956,0.01857140101492405,0.014034269377589226,-0.6402432322502136
1650744158.59865499,212069443,1,0.7679013609886169,0.018649332225322723,0.013915857300162315,-0.6401453614234924
1650744158.69863510,212169423,1,0.7679508924484253,0.018570588901638985,0.01392479706555605,-0.6400880217552185
1650744158.79864907,212269437,1,0.7679033875465393,0.01854269951581955,0.013931477442383766,-0.6401456594467163
1650744158.89862895,212369417,1,0.7679348587989807,0.018653912469744682,0.01385650783777237,-0.6401062607765198
1650744158.99862289,212469411,1,0.7680091857910156,0.018459806218743324,0.014036064967513084,-0.6400188207626343
1650744159.09862089,212569409,1,0.7680397629737854,0.018522122874855995,0.013965250924229622,-0.6399819254875183
1650744159.19862199,212669410,1,0.768074631690979,0.018476810306310654,0.014071791432797909,-0.63993901014328
1650744159.29864311,212769431,1,0.7681713104248047,0.018609749153256416,0.013965526595711708,-0.639821469783783
1650744159.39861989,212869408,1,0.7682021856307983,0.018548540771007538,0.013993789441883564,-0.6397855281829834
1650744159.49862003,212969408,1,0.7682212591171265,0.018420260399580002,0.014023150317370892,-0.639765739440918
1650744159.59863496,213069423,1,0.76833575963974,0.01861734874546528,0.013864384964108467,-0.6396259665489197
1650744159.69864607,213169434,1,0.7683793902397156,0.018459368497133255,0.01408332958817482,-0.639573335647583
1650744159.79864502,213269433,1,0.7684444189071655,0.01863001100718975,0.013934949412941933,-0.639493465423584
1650744159.89864302,213369431,1,0.7686164379119873,0.0184265598654747,0.014040921814739704,-0.6392902731895447
1650744159.99863601,213469424,1,0.7686243653297424,0.018576258793473244,0.013924439437687397,-0.6392790079116821
1650744160.09864807,213569436,1,0.768589437007904,0.018602604046463966,0.014043225906789303,-0.6393175721168518
1650744160.19863796,213669426,1,0.7687334418296814,0.018677884712815285,0.014012202620506287,-0.6391429305076599
1650744160.29863906,213769427,1,0.7688503861427307,0.018802909180521965,0.01385437697172165,-0.6390020251274109
1650744160.39865994,213869448,1,0.7686299681663513,0.01853053644299507,0.014075765386223793,-0.6392703056335449
1650744160.49862289,213969411,1,0.7685459852218628,0.019024349749088287,0.013699935749173164,-0.6393648982048035
1650744160.59863210,214069420,1,0.768841028213501,0.018587155267596245,0.01428165566176176,-0.6390101909637451
1650744160.69863105,214169419,1,0.7689469456672668,0.018836574628949165,0.013967620208859444,-0.6388823986053467
1650744160.79862404,214269412,1,0.7686300277709961,0.018791714683175087,0.01405578013509512,-0.6392629742622375
1650744160.89862490,214369413,1,0.7686341404914856,0.018893908709287643,0.014101751148700714,-0.6392540335655212
1650744160.99863911,214469427,1,0.7687087655067444,0.019044846296310425,0.013843330554664135,-0.6391655206680298
1650744161.09862590,214569414,1,0.7684633135795593,0.018919894471764565,0.013941173441708088,-0.6394621133804321
1650744161.19864011,214669428,1,0.7682809829711914,0.01895039714872837,0.014006980694830418,-0.6396788358688354
1650744161.29864502,214769433,1,0.7684047222137451,0.01906171813607216,0.014173921197652817,-0.6395232081413269
1650744161.39865208,214869440,1,0.768258273601532,0.01897488534450531,0.014094104059040546,-0.6397034525871277
1650744161.49862194,214969410,1,0.7681057453155518,0.019182801246643066,0.01393734011799097,-0.639883816242218
1650744161.59865999,215069448,1,0.7681560516357422,0.019244065508246422,0.014065642841160297,-0.6398188471794128
1650744161.69864011,215169428,1,0.7680802345275879,0.019253727048635483,0.014053424820303917,-0.6399098038673401
1650744161.79863191,215269420,1,0.7678278684616089,0.019098879769444466,0.013953281566500664,-0.6402193903923035
1650744161.89862704,215369415,1,0.7678424715995789,0.01903320662677288,0.014063677750527859,-0.6402014493942261
1650744161.99861908,215469407,1,0.7679864764213562,0.01932174526154995,0.014034555293619633,-0.6400206685066223
1650744162.09861803,215569406,1,0.7676998972892761,0.01903216913342476,0.014123775064945221,-0.6403711438179016
1650744162.19861889,215669407,1,0.7677180767059326,0.019312085583806038,0.013940567150712013,-0.6403449177742004
1650744162.29862094,215769409,1,0.7679407000541687,0.019263623282313347,0.014160620048642159,-0.6400745511054993
1650744162.39862299,215869411,1,0.7678101062774658,0.019313622266054153,0.013935279101133347,-0.6402347087860107
1650744162.49861789,215969406,1,0.7677339911460876,0.019235318526625633,0.013889151625335217,-0.6403293013572693
1650744162.59861803,216069406,1,0.7679144740104675,0.01925485022366047,0.014011954888701439,-0.6401095390319824
1650744162.69863701,216169425,1,0.7679683566093445,0.01930229179561138,0.01396267395466566,-0.6400445699691772
1650744162.79864788,216269436,1,0.7678107619285583,0.01919395849108696,0.014001041650772095,-0.6402360200881958
1650744162.89864993,216369438,1,0.7679067850112915,0.019265683367848396,0.013813341967761517,-0.6401228308677673
1650744162.99864602,216469434,1,0.7680777907371521,0.019015919417142868,0.014051221311092377,-0.6399198770523071
1650744163.09863591,216569424,1,0.7680562138557434,0.01926930993795395,0.0139211630448699,-0.6399410963058472
1650744163.19863701,216669425,1,0.7680668234825134,0.01913362368941307,0.01406139601022005,-0.6399292945861816
1650744163.29866910,216769457,1,0.7681345343589783,0.01911386288702488,0.013971802778542042,-0.6398506164550781
1650744163.39864111,216869429,1,0.7681015729904175,0.019183356314897537,0.013956124894320965,-0.6398884057998657
1650744163.49859190,216969380,1,0.7680413126945496,0.018951943144202232,0.014187974855303764,-0.6399625539779663
1650744163.59862399,217069412,1,0.7681507468223572,0.019301041960716248,0.013927435502409935,-0.6398264765739441
1650744163.69861889,217169407,1,0.7681984305381775,0.01900688372552395,0.014149420894682407,-0.6397731900215149
1650744163.79862309,217269411,1,0.7681009769439697,0.019211243838071823,0.014020578004419804,-0.6398869156837463
1650744163.89861798,217369406,1,0.7682000398635864,0.01926087588071823,0.013998900540173054,-0.6397669315338135
1650744163.99862790,217469416,1,0.7682825922966003,0.019137514755129814,0.014074845239520073,-0.6396698355674744
1650744164.09863305,217569421,1,0.7682417631149292,0.019294317811727524,0.013892288319766521,-0.6397181749343872
1650744164.19861293,217669401,1,0.7682649493217468,0.019109077751636505,0.014061554335057735,-0.6396921873092651
1650744164.29864407,217769432,1,0.7683712244033813,0.01931518316268921,0.013846375048160553,-0.6395630240440369
1650744164.39866400,217869452,1,0.7684254050254822,0.019164465367794037,0.013925012201070786,-0.6395007967948914
1650744164.49864292,217969431,1,0.7684351205825806,0.01918405294418335,0.013895666226744652,-0.6394891738891602
1650744164.59861207,218069400,1,0.76847904920578,0.01934799551963806,0.013842384330928326,-0.6394325494766235
1650744164.69864011,218169428,1,0.7685072422027588,0.01911921612918377,0.01402444951236248,-0.6394015550613403
1650744164.79864502,218269433,1,0.768525242805481,0.01929621957242489,0.013790440745651722,-0.6393797397613525
1650744164.89865589,218369444,1,0.7685509920120239,0.019115716218948364,0.013966686092317104,-0.6393503546714783
1650744164.99864697,218469435,1,0.7685762047767639,0.019235044717788696,0.013907693326473236,-0.6393177509307861
1650744165.09861994,218569408,1,0.7686103582382202,0.019130511209368706,0.013969280757009983,-0.6392785310745239
1650744165.19861794,218669406,1,0.7687046527862549,0.01910853013396263,0.014023992232978344,-0.6391645669937134
1650744165.29862094,218769409,1,0.7687880992889404,0.019315199926495552,0.013874470256268978,-0.6390612721443176
1650744165.39861894,218869407,1,0.7688412666320801,0.01900438219308853,0.0140963951125741,-0.6390017867088318
1650744165.49860597,218969394,1,0.768889844417572,0.019243547692894936,0.013880525715649128,-0.6389408707618713
1650744165.59862208,219069410,1,0.7689823508262634,0.019039418548345566,0.014036341570317745,-0.6388322114944458
1650744165.69862700,219169415,1,0.7690194845199585,0.019229792058467865,0.0139216473326087,-0.6387843489646912
1650744165.79860902,219269397,1,0.7690577507019043,0.01915656588971615,0.013972073793411255,-0.6387394070625305
1650744165.89866304,219369451,1,0.7691808938980103,0.018998512998223305,0.0141544034704566,-0.6385917663574219
1650744165.99864006,219469428,1,0.7692365646362305,0.019277743995189667,0.013897623866796494,-0.6385219693183899
1650744166.09865403,219569442,1,0.7692215442657471,0.018959905952215195,0.014147733338177204,-0.6385440826416016
1650744166.19862509,219669413,1,0.7693552374839783,0.01917620748281479,0.013971252366900444,-0.6383804082870483
1650744166.29864502,219769433,1,0.7694126963615417,0.019113555550575256,0.013975775800645351,-0.6383129358291626
1650744166.39864492,219869433,1,0.7693586349487305,0.018952708691358566,0.01402951031923294,-0.6383817791938782
1650744166.49861288,219969401,1,0.7694856524467468,0.019108902662992477,0.013887585140764713,-0.6382270455360413
1650744166.59865093,220069439,1,0.7695887088775635,0.018891215324401855,0.014065639115869999,-0.6381053924560547
1650744166.69862390,220169412,1,0.7695329189300537,0.01905812695622444,0.013832755386829376,-0.6381728053092957
1650744166.79862189,220269410,1,0.7696011066436768,0.018985411152243614,0.013898471370339394,-0.6380912661552429
1650744166.89862490,220369413,1,0.7696648240089417,0.018952472135424614,0.013914807699620724,-0.63801509141922
1650744166.99862409,220469412,1,0.7696104049682617,0.019030578434467316,0.0137806860730052,-0.6380813121795654
1650744167.09862089,220569409,1,0.7696388363838196,0.0188696701079607,0.013941156677901745,-0.6380482912063599
1650744167.19862103,220669409,1,0.7697799205780029,0.019086819142103195,0.01385381817817688,-0.6378735899925232
1650744167.29863191,220769420,1,0.7697767615318298,0.01892749033868313,0.01399118360131979,-0.6378790736198425
1650744167.39861488,220869403,1,0.7698057889938354,0.01893376186490059,0.013956771232187748,-0.6378446221351624
1650744167.49864292,220969431,1,0.7699175477027893,0.019020330160856247,0.013952948153018951,-0.6377072334289551
1650744167.59865808,221069446,1,0.7699492573738098,0.01889258809387684,0.014096294529736042,-0.637669563293457
1650744167.69864297,221169431,1,0.7699633836746216,0.019035855308175087,0.013951429165899754,-0.6376515030860901
1650744167.79863596,221269424,1,0.7701032757759094,0.018895143643021584,0.01407663431018591,-0.6374839544296265
1650744167.89863396,221369422,1,0.7702158689498901,0.018966631963849068,0.014003158546984196,-0.6373473405838013
1650744167.99862790,221469416,1,0.7702734470367432,0.018919898197054863,0.014016739092767239,-0.6372789144515991
1650744168.09864306,221569431,1,0.7703794240951538,0.018912747502326965,0.014013255015015602,-0.6371510624885559
1650744168.19865894,221669447,1,0.7704947590827942,0.01899293251335621,0.01397484727203846,-0.6370100378990173
1650744168.29862309,221769411,1,0.7705034017562866,0.018894663080573082,0.014045164920389652,-0.6370009779930115
1650744168.39863205,221869420,1,0.7705512046813965,0.018968475982546806,0.013929017819464207,-0.6369434595108032
1650744168.49862409,221969412,1,0.7706425189971924,0.018908079713582993,0.013969122432172298,-0.636833906173706
1650744168.59862399,222069412,1,0.7707448601722717,0.01900358870625496,0.013954771682620049,-0.6367075443267822
1650744168.69862604,222169414,1,0.7705740332603455,0.01888337731361389,0.014041000045835972,-0.636915922164917
1650744168.79863811,222269426,1,0.7706064581871033,0.019048864021897316,0.013912365771830082,-0.6368746161460876
1650744168.89862800,222369416,1,0.7706353664398193,0.019005166366696358,0.014001023955643177,-0.636838972568512
1650744168.99867105,222469459,1,0.7704692482948303,0.018876846879720688,0.013988071121275425,-0.6370440721511841
1650744169.09864593,222569434,1,0.7703453898429871,0.019107196480035782,0.013797711580991745,-0.6371910572052002
1650744169.19864702,222669435,1,0.7703014016151428,0.01900937221944332,0.014000825583934784,-0.6372427940368652
1650744169.29862905,222769417,1,0.77023845911026,0.019125448539853096,0.01386694423854351,-0.6373183131217957
1650744169.39864612,222869434,1,0.7701519727706909,0.019027438014745712,0.013863964006304741,-0.6374258399009705
1650744169.49864888,222969437,1,0.7700484395027161,0.019020434468984604,0.013821529224514961,-0.63755202293396
1650744169.59864688,223069435,1,0.7699451446533203,0.019156457856297493,0.013868811540305614,-0.6376716494560242
1650744169.69864011,223169428,1,0.7698994874954224,0.019068175926804543,0.013904374092817307,-0.6377286911010742
1650744169.79862309,223269411,1,0.7698183059692383,0.018996113911271095,0.013810484670102596,-0.6378308534622192
1650744169.89862299,223369411,1,0.7696828842163086,0.01891780085861683,0.013975393958389759,-0.6379930377006531
1650744169.99862289,223469411,1,0.769578754901886,0.019079623743891716,0.013903060927987099,-0.6381153464317322
1650744170.09862804,223569416,1,0.7695416808128357,0.019037993624806404,0.013917624019086361,-0.6381609439849854
1650744170.19862294,223669411,1,0.769402801990509,0.019109129905700684,0.013751793652772903,-0.6383299231529236
1650744170.29862404,223769412,1,0.7692776322364807,0.019222693517804146,0.013713778927922249,-0.63847815990448
1650744170.39863610,223869424,1,0.7693021297454834,0.019089197739958763,0.01382867619395256,-0.6384501457214355
1650744170.49862003,223969408,1,0.7692127227783203,0.01903810352087021,0.013812590390443802,-0.6385597586631775
1650744170.59865403,224069442,1,0.7690065503120422,0.018865542486310005,0.013927901163697243,-0.6388106346130371
1650744170.69863296,224169421,1,0.7689915299415588,0.019045930355787277,0.013793811202049255,-0.638826310634613
1650744170.79864192,224269430,1,0.7689256072044373,0.019007932394742966,0.013771801255643368,-0.638907253742218
1650744170.89863396,224369422,1,0.7686984539031982,0.019069897010922432,0.013694090768694878,-0.6391803622245789
1650744170.99864888,224469437,1,0.7686933279037476,0.019064800813794136,0.01390734501183033,-0.6391820907592773
1650744171.09867907,224569467,1,0.7687144875526428,0.019062703475356102,0.0137642128393054,-0.6391597390174866
1650744171.19861889,224669407,1,0.7685900330543518,0.01918865740299225,0.013622784987092018,-0.6393086910247803
1650744171.29865694,224769445,1,0.7684938311576843,0.018989743664860725,0.013792390935122967,-0.639426589012146
1650744171.39862394,224869412,1,0.7685072422027588,0.019278306514024734,0.013567296788096428,-0.639406681060791
1650744171.49862409,224969412,1,0.7683262825012207,0.0191775094717741,0.013586211018264294,-0.639626681804657
1650744171.59862995,225069418,1,0.768245279788971,0.019073564559221268,0.013663025572896004,-0.6397254467010498
1650744171.69862390,225169412,1,0.768255889415741,0.019165175035595894,0.013653058558702469,-0.6397101879119873
1650744171.79861689,225269405,1,0.7680599093437195,0.019005751237273216,0.013735262677073479,-0.6399484872817993
1650744171.89861107,225369399,1,0.7679482102394104,0.019216712564229965,0.01354406401515007,-0.6400803327560425
1650744171.99861789,225469406,1,0.7679766416549683,0.019111335277557373,0.013604968786239624,-0.640048086643219
1650744172.09863591,225569424,1,0.7678714990615845,0.019154056906700134,0.013534888625144958,-0.640174388885498
1650744172.19864798,225669436,1,0.7677856087684631,0.019181441515684128,0.0135000329464674,-0.6402773261070251
1650744172.29865599,225769444,1,0.7678008079528809,0.01900647208094597,0.01363205723464489,-0.6402615308761597
1650744172.39861798,225869406,1,0.7678406834602356,0.01923907920718193,0.013564757071435452,-0.6402081847190857
1650744172.49864006,225969428,1,0.7677761912345886,0.019054654985666275,0.0137582803145051,-0.640286922454834
1650744172.59865189,226069440,1,0.7677807211875916,0.019192218780517578,0.013469574972987175,-0.6402835249900818
1650744172.69861794,226169406,1,0.7678831219673157,0.018926456570625305,0.013767154887318611,-0.6401622891426086
1650744172.79864097,226269429,1,0.7678238749504089,0.019211411476135254,0.013769102282822132,-0.640224814414978
