timestamp,TimeUS,C,Roll,Pitch,Yaw,VN,VE,VD,dPD,PN,PE,PD,GX,GY,GZ,OH
1650744119.49862695,172969415,1,0.51,2.62,283.28000000000003,0.01185588352382183,-0.0006732728215865791,-0.07134565711021423,-0.06060703843832016,-0.19801364839076996,-0.39770469069480896,0.9090197086334229,0.26,-0.07,-0.13,272.68
1650744119.59864211,173069430,1,0.5,2.62,283.29,0.011997307650744915,-0.002792570274323225,-0.07157309353351593,-0.05578112229704857,-0.1982640027999878,-0.3968828022480011,0.9031592607498169,0.26,-0.07,-0.13,272.68
1650744119.69863510,173169423,1,0.52,2.62,283.29,0.011193253099918365,-0.0016575573245063424,-0.0705811008810997,-0.04192322492599487,-0.19928114116191864,-0.39595016837120056,0.8990404009819031,0.26,-0.07,-0.13,272.68
1650744119.79863095,173269419,1,0.51,2.62,283.28000000000003,0.011737342923879623,-0.0002945746236946434,-0.0692531019449234,-0.03080049715936184,-0.19989077746868134,-0.39511674642562866,0.8953323364257812,0.26,-0.07,-0.13,272.68
1650744119.89862704,173369415,1,0.51,2.62,283.29,0.009283717721700668,-0.0028416025452315807,-0.06722057610750198,-0.002262018620967865,-0.2017306685447693,-0.39386457204818726,0.8951554298400879,0.26,-0.07,-0.13,272.68
1650744119.99862003,173469408,1,0.5,2.61,283.3,0.008371465839445591,-0.0018272959860041738,-0.06540687382221222,-0.006176665425300598,-0.20294234156608582,-0.39315566420555115,0.8931720852851868,0.26,-0.07,-0.13,272.68
1650744120.09861994,173569408,1,0.51,2.61,283.28000000000003,0.005761824548244476,0.00043871987145394087,-0.06342383474111557,-0.006738849449902773,-0.2047514021396637,-0.39128291606903076,0.8922297358512878,0.26,-0.07,-0.13,272.68
1650744120.19862700,173669415,1,0.5,2.62,283.27,0.005920524708926678,0.0018619216280058026,-0.06178628280758858,-0.011035693809390068,-0.20621907711029053,-0.3894196152687073,0.8905016779899597,0.26,-0.07,-0.13,272.68
1650744120.29862809,173769416,1,0.51,2.62,283.28000000000003,0.0022019247990101576,0.002478801878169179,-0.058867983520030975,0.011478151194751263,-0.2086176574230194,-0.3868289887905121,0.8921474814414978,0.27,-0.07,-0.13,272.68
1650744120.39862108,173869409,1,0.52,2.61,283.26,0.00099323655012995,0.0047673690132796764,-0.056191764771938324,0.02004711888730526,-0.2110060751438141,-0.38424617052078247,0.8929610848426819,0.27,-0.07,-0.13,272.68
1650744120.49863291,173969421,1,0.51,2.62,283.25,-0.0007043987279757857,0.007510819938033819,-0.05290776863694191,0.030906183645129204,-0.2137221246957779,-0.38115641474723816,0.8958576321601868,0.27,-0.07,-0.13,272.68
1650744120.59864902,174069437,1,0.53,2.62,283.25,-0.0034422005992382765,0.007952877320349216,-0.05073671415448189,0.020687198266386986,-0.21597538888454437,-0.37864893674850464,0.8969694972038269,0.27,-0.07,-0.13,272.68
1650744120.69862604,174169414,1,0.52,2.62,283.24,-0.001820044475607574,0.009079058654606342,-0.048329707235097885,0.012732774950563908,-0.21853095293045044,-0.37588822841644287,0.8981831669807434,0.27,-0.07,-0.13,272.68
1650744120.79860997,174269398,1,0.52,2.61,283.23,-0.005604528822004795,0.009801836684346199,-0.046071089804172516,0.0007269014604389668,-0.220570906996727,-0.37351468205451965,0.8980782628059387,0.27,-0.07,-0.13,272.68
1650744120.89862490,174369413,1,0.52,2.62,283.23,-0.0027249986305832863,0.012341919355094433,-0.044456712901592255,0.005336008965969086,-0.2224474549293518,-0.3715251088142395,0.8992195129394531,0.27,-0.07,-0.13,272.68
1650744120.99863911,174469427,1,0.52,2.63,283.24,-0.005206730216741562,0.010891327634453773,-0.04299798980355263,0.003521184902638197,-0.22370557487010956,-0.36994868516921997,0.8994076251983643,0.27,-0.07,-0.13,272.68
1650744121.09864902,174569437,1,0.52,2.63,283.22,-0.0033756231423467398,0.009202558547258377,-0.04055679589509964,0.020372292026877403,-0.224734827876091,-0.3684902787208557,0.9019956588745117,0.27,-0.07,-0.13,272.68
1650744121.19863391,174669422,1,0.51,2.62,283.21,-0.0036327973939478397,0.009119526483118534,-0.038159873336553574,0.013623491860926151,-0.22538040578365326,-0.3674144446849823,0.9025608897209167,0.27,-0.07,-0.13,272.68
1650744121.29864097,174769429,1,0.52,2.62,283.21,-0.003356245346367359,0.0077294944785535336,-0.036282725632190704,0.01153545267879963,-0.22587774693965912,-0.36755403876304626,0.9039660096168518,0.27,-0.07,-0.13,272.68
1650744121.39862299,174869411,1,0.51,2.62,283.19,-0.0010688103502616286,0.005022221244871616,-0.034887008368968964,0.0048445891588926315,-0.22606976330280304,-0.3680025637149811,0.9042837023735046,0.27,-0.07,-0.13,272.68
1650744121.49863100,174969419,1,0.52,2.62,283.19,-4.037920734845102e-05,0.0013004447100684047,-0.032766398042440414,0.013313916511833668,-0.2248823344707489,-0.3690434396266937,0.9060384035110474,0.27,-0.07,-0.13,272.68
1650744121.59863400,175069422,1,0.52,2.62,283.19,0.0040300702676177025,0.0005958052934147418,-0.031701892614364624,0.008458713069558144,-0.2235814332962036,-0.37020343542099,0.9065461158752441,0.27,-0.07,-0.13,272.68
1650744121.69862199,175169410,1,0.52,2.62,283.19,0.0014540841802954674,-0.0007811858667992055,-0.029764756560325623,0.010921589098870754,-0.22459618747234344,-0.37112048268318176,0.907871425151825,0.27,-0.07,-0.13,272.68
1650744121.79859495,175269383,1,0.53,2.63,283.18,0.001202310435473919,-0.0018464752938598394,-0.028768906369805336,-0.00044249449274502695,-0.22543828189373016,-0.37208646535873413,0.9075892567634583,0.27,-0.07,-0.13,272.68
1650744121.89862609,175369414,1,0.52,2.63,283.2,-1.7988377294386737e-05,-0.002421698998659849,-0.02618100680410862,0.007140756119042635,-0.22691616415977478,-0.3723722994327545,0.9088559746742249,0.27,-0.07,-0.13,272.68
1650744121.99862599,175469414,1,0.53,2.63,283.19,-0.00230978149920702,-0.002438169904053211,-0.02454359643161297,0.0043571339920163155,-0.2282242476940155,-0.3727135956287384,0.909040093421936,0.27,-0.07,-0.13,272.68
1650744122.09863091,175569419,1,0.53,2.63,283.19,-0.002017078222706914,-0.0004806058423127979,-0.023922786116600037,-0.00176189374178648,-0.22949397563934326,-0.3734414577484131,0.9089319109916687,0.27,-0.07,-0.13,272.68
1650744122.19862390,175669412,1,0.53,2.63,283.18,-0.0031111007556319237,-0.005823440849781036,-0.021979697048664093,-0.009072103537619114,-0.23048977553844452,-0.3741092085838318,0.9080249667167664,0.27,-0.07,-0.13,272.68
1650744122.29865098,175769439,1,0.54,2.62,283.19,-0.00219909381121397,-0.0031083396170288324,-0.022080672904849052,0.004230363294482231,-0.23101599514484406,-0.3752875030040741,0.9091079235076904,0.27,-0.07,-0.13,272.68
1650744122.39864492,175869433,1,0.52,2.62,283.2,-0.002612316282466054,-0.003981772344559431,-0.022088035941123962,0.008133398368954659,-0.23132745921611786,-0.3761288821697235,0.9097229242324829,0.27,-0.07,-0.13,272.68
1650744122.49863410,175969422,1,0.55,2.62,283.21,-0.005239472258836031,-0.004528324585407972,-0.021394215524196625,-0.007462033070623875,-0.2327459752559662,-0.3775523006916046,0.908598780632019,0.27,-0.07,-0.13,272.68
1650744122.59863091,176069419,1,0.55,2.63,283.19,-0.0017049951711669564,-0.007039337884634733,-0.01860666461288929,-0.018202701583504677,-0.2339019924402237,-0.37867453694343567,0.9070318937301636,0.27,-0.07,-0.13,272.68
1650744122.69865298,176169441,1,0.54,2.63,283.17,-0.007109792437404394,-0.009858227334916592,-0.017522932961583138,-0.02615496888756752,-0.23577572405338287,-0.37933439016342163,0.9046061635017395,0.27,-0.07,-0.13,272.68
1650744122.79863405,176269422,1,0.5700000000000001,2.62,283.16,-0.0018848353065550327,-0.008287590928375721,-0.02334471233189106,-0.03173719346523285,-0.23744501173496246,-0.38042938709259033,0.9024481177330017,0.27,-0.07,-0.13,272.68
1650744122.89865208,176369440,1,0.52,2.62,283.14,-0.006212781649082899,0.00016504728409927338,-0.016002457588911057,-0.013301515951752663,-0.23898953199386597,-0.37941911816596985,0.9011070132255554,0.27,-0.07,-0.13,272.68
1650744122.99863100,176469419,1,0.56,2.63,283.11,-0.010884550400078297,-0.0048493207432329655,-0.021027807146310806,-0.013073417358100414,-0.24066458642482758,-0.37854474782943726,0.8998496532440186,0.27,-0.07,-0.13,272.68
1650744123.09862995,176569418,1,0.55,2.63,283.09000000000003,-0.003857765579596162,-0.006136950105428696,-0.017565995454788208,0.009150546044111252,-0.24150940775871277,-0.3780759274959564,0.9007847309112549,0.27,-0.07,-0.12,272.68
1650744123.19862294,176669411,1,0.5700000000000001,2.63,283.07,-0.00933872815221548,-0.01142015028744936,-0.019377706572413445,0.012238973751664162,-0.24248762428760529,-0.3779955804347992,0.9015321135520935,0.27,-0.07,-0.12,272.68
1650744123.29863000,176769418,1,0.58,2.62,283.05,-0.0012176551390439272,0.0007901352364569902,-0.01801207661628723,0.023047545924782753,-0.2427438646554947,-0.37875497341156006,0.9037202596664429,0.27,-0.07,-0.12,272.68
1650744123.39863110,176869419,1,0.55,2.62,283.01,-0.011462630704045296,-0.0036413264460861683,-0.010976449586451054,0.030120881274342537,-0.2429157942533493,-0.37945881485939026,0.90571129322052,0.27,-0.07,-0.12,272.68
1650744123.49862289,176969411,1,0.59,2.62,282.99,-0.0013626230647787452,-0.00455149682238698,-0.016076596453785896,0.02538089081645012,-0.2421327531337738,-0.3798917233943939,0.9081676006317139,0.27,-0.07,-0.12,272.68
1650744123.59862995,177069418,1,0.56,2.62,282.97,-0.005414576735347509,-0.012835640460252762,-0.009350135922431946,0.022360024973750114,-0.24139314889907837,-0.3799003064632416,0.9097312092781067,0.27,-0.07,-0.12,272.68
1650744123.69863701,177169425,1,0.55,2.62,282.94,-0.00017592625226825476,-0.005223136395215988,-0.014678532257676125,0.0025680193211883307,-0.24027195572853088,-0.38110512495040894,0.9101200699806213,0.27,-0.07,-0.12,272.68
1650744123.79865694,177269445,1,0.5700000000000001,2.63,282.89,-0.0056175123900175095,-0.003734758123755455,-0.01048222091048956,0.0034250107128173113,-0.2393820434808731,-0.3825717866420746,0.9106764197349548,0.27,-0.07,-0.12,272.68
1650744123.89865899,177369447,1,0.55,2.63,282.86,0.008257566951215267,-0.00954438466578722,-0.015234023332595825,-0.012583381496369839,-0.23770150542259216,-0.3840310275554657,0.9097540974617004,0.27,-0.07,-0.12,272.68
1650744123.99862003,177469408,1,0.58,2.61,282.85,-0.0042174383997917175,-0.00804145261645317,-0.01327096950262785,-0.015394975431263447,-0.23647181689739227,-0.3850996494293213,0.9087570905685425,0.27,-0.07,-0.12,272.68
1650744124.09864306,177569431,1,0.56,2.62,282.83,0.0071910060942173,-0.005224334076046944,-0.010056317783892155,-0.024833081290125847,-0.23563559353351593,-0.38655993342399597,0.9063172936439514,0.27,-0.07,-0.12,272.68
1650744124.19864893,177669437,1,0.5700000000000001,2.62,282.78000000000003,-0.0035008545964956284,-0.007403392810374498,-0.007602025289088488,-0.016951417550444603,-0.2349453717470169,-0.3881569504737854,0.9050716161727905,0.27,-0.07,-0.12,272.68
1650744124.29866600,177769454,1,0.56,2.63,282.76,0.007619289215654135,-0.01272912323474884,-0.008482703007757664,-0.0060110255144536495,-0.2343069165945053,-0.39102137088775635,0.9042565226554871,0.27,-0.07,-0.12,272.68
1650744124.39862490,177869413,1,0.55,2.62,282.75,0.002905867528170347,-0.017207132652401924,-0.010169646702706814,-0.0009101575124077499,-0.23377560079097748,-0.3934812843799591,0.9041467308998108,0.27,-0.07,-0.12,272.68
1650744124.49864888,177969437,1,0.56,2.63,282.73,0.0036729243583977222,-0.006201927550137043,-0.009727359749376774,0.01212404016405344,-0.23246946930885315,-0.3959241211414337,0.9050914645195007,0.27,-0.07,-0.12,272.68
1650744124.59862399,178069412,1,0.56,2.64,282.71,0.0008373642340302467,-0.015668991953134537,-0.008235642686486244,0.023348931223154068,-0.2311977595090866,-0.39830657839775085,0.906742513179779,0.27,-0.07,-0.12,272.68
1650744124.69862509,178169413,1,0.55,2.63,282.69,0.006284050643444061,-0.0193253755569458,-0.007462810259312391,0.036658838391304016,-0.22954143583774567,-0.40032759308815,0.9099155068397522,0.27,-0.07,-0.12,272.68
1650744124.79859591,178269384,1,0.55,2.62,282.67,0.010742099955677986,-0.013557846657931805,-0.00852857157588005,0.04153098538517952,-0.22812071442604065,-0.40169835090637207,0.9134033918380737,0.27,-0.07,-0.12,272.68
1650744124.89862800,178369416,1,0.56,2.62,282.66,0.00830867700278759,-0.01773815229535103,-0.005720710847526789,0.004621310159564018,-0.22693561017513275,-0.40415674448013306,0.9122681617736816,0.27,-0.07,-0.12,272.68
1650744124.99863100,178469419,1,0.55,2.62,282.64,0.002734026638790965,-0.007150044199079275,-0.006308977957814932,-0.01494618970900774,-0.22547195851802826,-0.40646281838417053,0.9112623929977417,0.27,-0.07,-0.12,272.68
1650744125.09862995,178569418,1,0.5700000000000001,2.62,282.6,0.0032728814985603094,-0.024233156815171242,-0.009684094227850437,-0.0003407080366741866,-0.22541724145412445,-0.4087032973766327,0.9126191735267639,0.27,-0.07,-0.12,272.68
1650744125.19862604,178669414,1,0.56,2.62,282.57,0.012015252374112606,-0.010944023728370667,-0.007577265612781048,0.013891606591641903,-0.22538620233535767,-0.41031548380851746,0.9139069318771362,0.27,-0.07,-0.12,272.68
1650744125.29864693,178769435,1,0.55,2.63,282.55,0.010514765046536922,-0.020650872960686684,-0.006772235035896301,0.013279989361763,-0.22573930025100708,-0.41273200511932373,0.9149239659309387,0.27,-0.07,-0.12,272.68
1650744125.39862108,178869409,1,0.54,2.63,282.54,0.004839051049202681,-0.01044862624257803,-0.00806699600070715,0.013952730223536491,-0.22568565607070923,-0.4150417149066925,0.9163852334022522,0.27,-0.07,-0.12,272.68
1650744125.49864101,178969429,1,0.56,2.63,282.52,0.0010715570533648133,-0.017346946522593498,-0.004447556100785732,-0.009199229069054127,-0.22607217729091644,-0.4169066846370697,0.9143984913825989,0.27,-0.07,-0.12,272.68
1650744125.59863591,179069424,1,0.56,2.63,282.5,0.011451825499534607,-0.011272699572145939,-0.005964372307062149,-0.01640411466360092,-0.22635962069034576,-0.4185551702976227,0.9133821725845337,0.27,-0.07,-0.11,272.68
1650744125.69863605,179169424,1,0.55,2.63,282.48,0.0079491026699543,-0.017422720789909363,-0.0038177568931132555,0.026997767388820648,-0.22658377885818481,-0.4204646646976471,0.9171554446220398,0.27,-0.07,-0.11,272.68
1650744125.79866004,179269448,1,0.56,2.63,282.44,0.00963378231972456,-0.014649377204477787,-0.0033156375866383314,0.03766088932752609,-0.2264881134033203,-0.4222153425216675,0.9199720621109009,0.27,-0.07,-0.11,272.68
1650744125.89864111,179369429,1,0.55,2.63,282.42,0.004099629353731871,-0.013582331128418446,-0.0006965280626900494,-0.0004050580901093781,-0.2264944165945053,-0.425265908241272,0.9184165596961975,0.27,-0.07,-0.11,272.68
1650744125.99863505,179469423,1,0.55,2.63,282.40000000000003,0.01678345911204815,-0.007736241444945335,0.0008703852072358131,-0.016859497874975204,-0.2262917459011078,-0.4278489947319031,0.9171512126922607,0.27,-0.07,-0.11,272.68
1650744126.09862995,179569418,1,0.56,2.64,282.36,0.002938375808298588,-0.008643971756100655,-0.005483836866915226,-0.012201686389744282,-0.22643983364105225,-0.43042826652526855,0.9172580242156982,0.27,-0.07,-0.11,272.68
1650744126.19864106,179669429,1,0.55,2.54,282.35,0.010746908374130726,-0.011214146390557289,0.004443613812327385,0.01475191954523325,-0.22616124153137207,-0.4327208995819092,0.918252170085907,0.27,-0.07,-0.11,272.68
1650744126.29859090,179769379,1,0.5700000000000001,2.48,282.31,0.0029926528222858906,-0.03619753569364548,0.001382534741424024,0.027662616223096848,-0.22612924873828888,-0.43746617436408997,0.9207606315612793,0.27,-0.07,-0.11,272.68
1650744126.39862609,179869414,1,0.55,2.47,282.23,-0.0015317986253648996,-0.013724650256335735,0.007866080850362778,0.04416893795132637,-0.226292222738266,-0.44043198227882385,0.9241462349891663,0.27,-0.07,-0.11,272.68
1650744126.49862504,179969413,1,0.56,2.49,282.16,0.007576763164252043,-0.0012097632279619575,-0.008754068985581398,0.04526009410619736,-0.22741380333900452,-0.4431462287902832,0.9297545552253723,0.27,-0.07,-0.11,272.68
1650744126.59862804,180069416,1,0.59,2.58,282.1,0.008670602925121784,-0.0017508784076198936,0.02301829867064953,0.07864254713058472,-0.2281976044178009,-0.446148544549942,0.9349645376205444,0.27,-0.07,-0.11,272.68
1650744126.69860411,180169392,1,0.65,2.48,282.03000000000003,0.016075069084763527,-0.01764308102428913,-0.022761037573218346,-0.0010665928712114692,-0.22647309303283691,-0.4484504461288452,0.9368492364883423,0.27,-0.07,-0.1,272.68
1650744126.79863095,180269419,1,0.48,2.5,281.92,0.010278208181262016,-0.015300992876291275,0.03784153237938881,0.02996859699487686,-0.2251558005809784,-0.4501928985118866,0.9372822046279907,0.27,-0.07,-0.1,272.68
1650744126.89865899,180369447,1,0.63,2.49,281.85,0.01297069527208805,-0.01287840586155653,0.016498267650604248,0.005384194664657116,-0.2249988168478012,-0.4536847770214081,0.938428521156311,0.27,-0.07,-0.1,272.68
1650744126.99866605,180469454,1,0.58,2.52,281.73,0.021253664046525955,-0.00988463219255209,0.010560443624854088,0.005798699799925089,-0.22445477545261383,-0.4564460515975952,0.939501941204071,0.27,-0.07,-0.1,272.68
1650744127.09864998,180569438,1,0.5700000000000001,2.61,281.61,-0.0008790746796876192,0.0069711944088339806,0.02135365456342697,0.028100907802581787,-0.22418278455734253,-0.45731037855148315,0.9421469569206238,0.27,-0.07,-0.1,272.68
1650744127.19863510,180669423,1,0.58,2.65,281.55,-0.003203019266948104,0.004414851311594248,0.014772946015000343,0.027639219537377357,-0.22437596321105957,-0.456834077835083,0.9446606040000916,0.27,-0.07,-0.1,272.68
1650744127.29865289,180769441,1,0.58,2.67,281.54,0.019784120842814445,-0.015057763084769249,0.021289218217134476,0.03491457551717758,-0.2254893034696579,-0.45728614926338196,0.947184681892395,0.27,-0.07,-0.1,272.68
1650744127.39862394,180869412,1,0.55,2.63,281.47,0.005968356505036354,-0.015897784382104874,0.011496379971504211,0.02209458127617836,-0.2260870337486267,-0.45890918374061584,0.949127733707428,0.27,-0.07,-0.1,272.68
1650744127.49863410,180969422,1,0.56,2.62,281.43,0.011811952106654644,-0.0066542718559503555,0.01745099574327469,0.01840132847428322,-0.22630438208580017,-0.4609868824481964,0.950744092464447,0.27,-0.07,-0.1,272.68
1650744127.59864998,181069438,1,0.55,2.66,281.44,0.0044690873473882675,-0.000665404018945992,0.013681975193321705,0.024385925382375717,-0.22614815831184387,-0.46172231435775757,0.9534911513328552,0.27,-0.07,-0.1,272.68
1650744127.69861698,181169405,1,0.56,2.67,281.43,0.011076075956225395,-0.008549652993679047,0.015123127028346062,0.034806445240974426,-0.22662128508090973,-0.4622187912464142,0.9569932818412781,0.27,-0.08,-0.1,272.68
1650744127.79861593,181269404,1,0.54,2.64,281.43,0.0076712388545274734,-0.014564129523932934,0.014111729338765144,0.03791879862546921,-0.2267283797264099,-0.4633660912513733,0.9605367183685303,0.27,-0.07,-0.1,272.68
1650744127.89861798,181369406,1,0.55,2.63,281.44,0.009195543825626373,-0.0028335389215499163,0.014734809286892414,0.008458578959107399,-0.22707414627075195,-0.46429118514060974,0.9607200622558594,0.27,-0.07,-0.1,272.68
1650744127.99861693,181469405,1,0.54,2.64,281.47,0.0047729709185659885,-0.003006772371008992,0.01702607050538063,0.02694666013121605,-0.2272782027721405,-0.4645290672779083,0.9644559621810913,0.27,-0.07,-0.1,272.68
1650744128.09861898,181569407,1,0.55,2.67,281.46,0.010438716039061546,-0.0019480525515973568,0.01655205897986889,0.055144160985946655,-0.2270984649658203,-0.46372878551483154,0.9697714447975159,0.27,-0.08,-0.1,272.68
1650744128.19862103,181669409,1,0.55,2.67,281.44,0.008071903139352798,-0.00878174602985382,0.017635539174079895,0.07073145359754562,-0.22639493644237518,-0.4635954797267914,0.9763331413269043,0.27,-0.08,-0.1,272.68
1650744128.29861903,181769407,1,0.54,2.65,281.48,0.011192772537469864,0.0005610646912828088,0.01880182884633541,0.07224829494953156,-0.2275613695383072,-0.46346843242645264,0.98219233751297,0.27,-0.08,-0.1,272.68
1650744128.39864492,181869433,1,0.54,2.67,281.47,0.005281380843371153,0.005139227490872145,0.017502568662166595,0.057538602501153946,-0.22823917865753174,-0.4624752402305603,0.9872748851776123,0.27,-0.08,-0.1,272.68
1650744128.49862695,181969415,1,0.54,2.69,281.43,0.007249031215906143,0.0013735162792727351,0.016066735610365868,0.024297134950757027,-0.23073504865169525,-0.4611145555973053,0.9893882274627686,0.27,-0.08,-0.1,272.68
1650744128.59868193,182069470,1,0.5,2.68,281.45,0.005815751850605011,-0.0006941251922398806,0.01764717511832714,0.02333727292716503,-0.23247238993644714,-0.46031343936920166,0.9925575852394104,0.27,-0.08,-0.1,272.68
1650744128.69861102,182169399,1,0.54,2.67,281.45,-0.0004176840011496097,0.007523745764046907,0.01708834618330002,-0.00024231098359450698,-0.23445555567741394,-0.45980116724967957,0.992209792137146,0.27,-0.08,-0.1,272.68
1650744128.79860711,182269395,1,0.5,2.69,281.41,0.0035969906020909548,0.010698551312088966,0.016872039064764977,-0.004072936717420816,-0.23582255840301514,-0.4587692320346832,0.9929208159446716,0.27,-0.08,-0.1,272.68
1650744128.89863610,182369424,1,0.52,2.7,281.42,-0.0033037529792636633,-0.00022999274369794875,0.014867250807583332,-0.015464250929653645,-0.23699629306793213,-0.46022167801856995,0.9915605783462524,0.27,-0.08,-0.1,272.68
1650744128.99863410,182469422,1,0.53,2.67,281.46,0.0029206331819295883,0.002591314259916544,0.013665329664945602,-0.0065469625405967236,-0.23779688775539398,-0.46155378222465515,0.9917438626289368,0.27,-0.08,-0.1,272.68
1650744129.09863400,182569422,1,0.51,2.66,281.45,-0.0016951205907389522,0.005791087634861469,0.01413090992718935,-0.012611623853445053,-0.23834286630153656,-0.46322107315063477,0.9901188611984253,0.27,-0.08,-0.1,272.68
1650744129.19862604,182669414,1,0.54,2.68,281.44,-0.0011800368083640933,0.004407376050949097,0.013004918582737446,-0.02878514677286148,-0.2389218658208847,-0.46451476216316223,0.9874325394630432,0.27,-0.08,-0.1,272.68
1650744129.29862094,182769409,1,0.51,2.68,281.48,0.0013918026816099882,0.0005087233730591834,0.01066133938729763,-0.03323794901371002,-0.23884005844593048,-0.46574124693870544,0.9849437475204468,0.27,-0.08,-0.1,272.68
1650744129.39862394,182869412,1,0.54,2.66,281.5,-0.0021444617304950953,0.0006849478813819587,0.010516630485653877,-0.005011707078665495,-0.238908588886261,-0.46676114201545715,0.9852820634841919,0.27,-0.08,-0.1,272.68
1650744129.49861789,182969406,1,0.52,2.66,281.48,0.003496089717373252,0.003992369864135981,0.010467937216162682,-0.006618266925215721,-0.23899005353450775,-0.46903663873672485,0.9834840893745422,0.27,-0.07,-0.1,272.68
1650744129.59860611,183069394,1,0.52,2.67,281.5,-0.0037058356683701277,-0.00039858566015027463,0.009227583184838295,-0.02049827389419079,-0.2389748990535736,-0.47088202834129333,0.9815889000892639,0.27,-0.07,-0.1,272.68
1650744129.69861698,183169405,1,0.54,2.66,281.51,0.0022778811398893595,-0.0034223278053104877,0.0080897007137537,-0.019082272425293922,-0.23954901099205017,-0.4729984700679779,0.9798893332481384,0.27,-0.07,-0.1,272.68
1650744129.79861808,183269406,1,0.51,2.65,281.49,-0.002023481298238039,-0.0014771950663998723,0.007625482510775328,-0.021403592079877853,-0.23976527154445648,-0.47450652718544006,0.9778201580047607,0.27,-0.07,-0.1,272.68
1650744129.89864898,183369437,1,0.54,2.66,281.5,-0.0023547846358269453,-0.00019323526066727936,0.010047164745628834,0.016245385631918907,-0.24034735560417175,-0.475704163312912,0.9803462028503418,0.27,-0.08,-0.1,272.68
1650744129.99865294,183469441,1,0.52,2.67,281.52,-1.8718341380008496e-05,-0.0020130283664911985,0.010751777328550816,0.033518657088279724,-0.24052196741104126,-0.476705938577652,0.9827274084091187,0.27,-0.08,-0.1,272.68
1650744130.09864593,183569434,1,0.53,2.67,281.51,-0.002615804085507989,-0.0028388325590640306,0.011974317021667957,0.032963331788778305,-0.24056318402290344,-0.47726237773895264,0.9851496815681458,0.27,-0.08,-0.1,272.68
1650744130.19863510,183669423,1,0.54,2.66,281.5,-0.001001353724859655,0.002960146637633443,0.013609020039439201,0.02868492342531681,-0.24065126478672028,-0.477283239364624,0.9874887466430664,0.27,-0.08,-0.1,272.68
1650744130.29862189,183769410,1,0.52,2.67,281.52,-0.00333844474516809,0.0025159127544611692,0.014347067102789879,0.021754352375864983,-0.240787073969841,-0.4770165979862213,0.9893288612365723,0.27,-0.08,-0.1,272.68
1650744130.39862704,183869415,1,0.55,2.68,281.52,-0.0023808879777789116,0.0010724554304033518,0.01555901300162077,0.013714741915464401,-0.24118594825267792,-0.4769146740436554,0.990665078163147,0.27,-0.08,-0.1,272.68
1650744130.49864411,183969432,1,0.52,2.67,281.5,-0.002748495200648904,0.0020758567843586206,0.01703319326043129,0.02032732032239437,-0.24181398749351501,-0.47700944542884827,0.9930861592292786,0.27,-0.08,-0.1,272.68
1650744130.59863210,184069420,1,0.54,2.67,281.51,-0.005997575353831053,0.004698819015175104,0.01816977560520172,0.022398686036467552,-0.24268469214439392,-0.4767085611820221,0.9952500462532043,0.27,-0.08,-0.1,272.68
1650744130.69864893,184169437,1,0.53,2.68,281.51,-0.0031245837453752756,0.005338394083082676,0.017753809690475464,0.002786839148029685,-0.2432831972837448,-0.4763469696044922,0.9950768351554871,0.27,-0.08,-0.1,272.68
1650744130.79861593,184269404,1,0.54,2.68,281.5,-0.006051421165466309,0.004355883225798607,0.01734269969165325,-0.016464974731206894,-0.24384629726409912,-0.47602131962776184,0.9939252138137817,0.27,-0.08,-0.1,272.68
1650744130.89861703,184369405,1,0.54,2.68,281.5,-0.003569489810615778,0.005374701227992773,0.016869887709617615,-0.026036826893687248,-0.24368958175182343,-0.4767068326473236,0.991979718208313,0.27,-0.08,-0.1,272.68
1650744130.99862194,184469410,1,0.54,2.68,281.51,-0.005367218051105738,0.0057218181900680065,0.017201079055666924,-0.01462140679359436,-0.2434920221567154,-0.4768885672092438,0.9914546608924866,0.27,-0.08,-0.1,272.68
1650744131.09862900,184569417,1,0.55,2.68,281.5,-0.003379671135917306,0.005484383553266525,0.016914857551455498,-0.01008679997175932,-0.24227754771709442,-0.4782406687736511,0.9903073906898499,0.27,-0.08,-0.1,272.68
1650744131.19861603,184669404,1,0.53,2.68,281.5,-0.0022357634734362364,0.004920032806694508,0.016089053824543953,-0.010169430635869503,-0.24103188514709473,-0.47915488481521606,0.9894532561302185,0.27,-0.08,-0.1,272.68
1650744131.29862094,184769409,1,0.55,2.68,281.52,-0.0036895170342177153,0.005153384525328875,0.01576910726726055,0.0053288741037249565,-0.24074383080005646,-0.48016291856765747,0.9903445839881897,0.27,-0.08,-0.1,272.68
1650744131.39860606,184869394,1,0.54,2.67,281.51,-0.0013352216919884086,0.0062718172557652,0.016303572803735733,0.014545909129083157,-0.24044503271579742,-0.4806588590145111,0.9912750720977783,0.27,-0.08,-0.1,272.68
1650744131.49864602,184969434,1,0.55,2.67,281.5,-0.00369730475358665,0.005333560984581709,0.016473133116960526,0.012088787741959095,-0.239148810505867,-0.4822772443294525,0.9921094179153442,0.27,-0.07,-0.1,272.68
1650744131.59864902,185069437,1,0.55,2.67,281.5,0.00023432308807969093,0.005849548615515232,0.017137739807367325,0.015284324064850807,-0.23806600272655487,-0.4833746552467346,0.9933937788009644,0.27,-0.07,-0.1,272.68
1650744131.69864011,185169428,1,0.55,2.66,281.5,-0.002133021829649806,0.0037165528628975153,0.01828176900744438,0.03368184342980385,-0.23730337619781494,-0.48528286814689636,0.996936023235321,0.27,-0.07,-0.1,272.68
1650744131.79863906,185269427,1,0.56,2.66,281.49,-0.0003621466166805476,0.0038404646329581738,0.019617943093180656,0.039082322269678116,-0.23678965866565704,-0.48665013909339905,1.0000947713851929,0.27,-0.07,-0.1,272.68
1650744131.89863300,185369421,1,0.55,2.66,281.5,-0.0013044645311310887,0.0030805121641606092,0.019488906487822533,0.010941966436803341,-0.236255943775177,-0.4886029064655304,1.0002080202102661,0.27,-0.07,-0.1,272.68
1650744131.99862790,185469416,1,0.56,2.66,281.51,-0.0011683593038469553,0.0015730869490653276,0.019894568249583244,0.001370490761473775,-0.23593109846115112,-0.49003496766090393,1.0011961460113525,0.27,-0.07,-0.1,272.68
1650744132.09862208,185569410,1,0.55,2.65,281.5,0.0004000056942459196,0.0010706958128139377,0.020745305344462395,0.022017385810613632,-0.2364261895418167,-0.49199214577674866,1.0039410591125488,0.27,-0.07,-0.1,272.68
1650744132.19863296,185669421,1,0.55,2.65,281.51,-0.002672863192856312,0.0008873957558535039,0.02095353975892067,0.026529761031270027,-0.2369106113910675,-0.49340447783470154,1.0061476230621338,0.27,-0.07,-0.1,272.68
1650744132.29861689,185769405,1,0.56,2.65,281.53000000000003,0.00014399137580767274,0.0002520880661904812,0.02003384567797184,0.002310360549017787,-0.2371346801519394,-0.4961760342121124,1.005879282951355,0.27,-0.07,-0.1,272.68
1650744132.39861703,185869405,1,0.54,2.65,281.53000000000003,-0.0013144747354090214,-0.0025395038537681103,0.019184736534953117,-0.000994124449789524,-0.23713749647140503,-0.4983363747596741,1.006435751914978,0.27,-0.07,-0.1,272.68
1650744132.49861693,185969405,1,0.56,2.64,281.54,-0.0012624075170606375,-0.0023618817795068026,0.01814204640686512,-0.0003153907891828567,-0.23832625150680542,-0.5000444054603577,1.006638765335083,0.27,-0.07,-0.1,272.68
1650744132.59861803,186069406,1,0.54,2.65,281.56,-0.000144300633110106,-0.0010169128654524684,0.017685269936919212,0.000568192801438272,-0.23905164003372192,-0.5012235641479492,1.0069706439971924,0.27,-0.07,-0.1,272.68
1650744132.69862008,186169408,1,0.55,2.65,281.57,-0.0021019221749156713,-0.002398164477199316,0.018111882731318474,0.0014942365232855082,-0.23921509087085724,-0.5026022791862488,1.0071431398391724,0.27,-0.07,-0.1,272.68
1650744132.79861593,186269404,1,0.55,2.65,281.58,0.0009379718103446066,-0.0026730496902018785,0.0176771879196167,-0.007780125830322504,-0.2392570972442627,-0.5036128759384155,1.006289005279541,0.27,-0.07,-0.1,272.68
1650744132.89862204,186369410,1,0.55,2.64,281.62,0.0012558515882119536,-0.0032949503511190414,0.017826203256845474,-0.007894158363342285,-0.2376602441072464,-0.5063890814781189,1.0059866905212402,0.27,-0.07,-0.1,272.68
1650744132.99861908,186469407,1,0.56,2.65,281.63,0.003946321085095406,-0.003427984192967415,0.01777019537985325,-0.0008989019552245736,-0.236338272690773,-0.5085262060165405,1.0062081813812256,0.27,-0.07,-0.1,272.68
1650744133.09866095,186569449,1,0.55,2.65,281.63,0.003987508360296488,-0.004126101732254028,0.01797453686594963,-0.0020904671400785446,-0.23553434014320374,-0.5094512104988098,1.0057425498962402,0.27,-0.07,-0.1,272.68
1650744133.19863296,186669421,1,0.56,2.64,281.64,0.004275960382074118,-0.0034612230956554413,0.018341969698667526,-0.002313374076038599,-0.23493167757987976,-0.5101816058158875,1.0056043863296509,0.27,-0.07,-0.1,272.68
1650744133.29865408,186769442,1,0.54,2.64,281.66,0.0048789153806865215,-0.00396269466727972,0.017629461362957954,-0.010887231677770615,-0.23454073071479797,-0.5116258263587952,1.0043573379516602,0.27,-0.07,-0.1,272.68
1650744133.39862108,186869409,1,0.55,2.65,281.65000000000003,0.0037188970018178225,-0.004765181336551905,0.016853708773851395,-0.017479144036769867,-0.23423007130622864,-0.5127829909324646,1.0029265880584717,0.27,-0.07,-0.1,272.68
1650744133.49864006,186969428,1,0.55,2.65,281.66,0.005031917709857225,-0.0037419325672090054,0.016678284853696823,-0.015293857082724571,-0.2350841909646988,-0.51347416639328,1.0017430782318115,0.27,-0.07,-0.1,272.68
1650744133.59865689,187069445,1,0.54,2.65,281.67,0.0023618934210389853,-0.0036369061563163996,0.016594935208559036,-0.007106929551810026,-0.2356671690940857,-0.5138842463493347,1.001277208328247,0.27,-0.07,-0.1,272.68
1650744133.69863200,187169420,1,0.55,2.64,281.65000000000003,0.004065627697855234,-0.003423732705414295,0.015672005712985992,-0.004422104451805353,-0.23573660850524902,-0.5142780542373657,1.0007092952728271,0.27,-0.07,-0.1,272.68
1650744133.79858303,187269371,1,0.54,2.64,281.65000000000003,0.0036603747867047787,-0.0026708857621997595,0.015798812732100487,0.007031554821878672,-0.23559343814849854,-0.5145144462585449,1.0012078285217285,0.27,-0.07,-0.1,272.68
1650744133.89862108,187369409,1,0.55,2.65,281.65000000000003,0.0029219496063888073,-0.001986594870686531,0.015623162500560284,0.010971974581480026,-0.2357071340084076,-0.5144707560539246,1.0020323991775513,0.27,-0.07,-0.1,272.68
1650744133.99861693,187469405,1,0.54,2.65,281.64,0.003946471028029919,-0.0007950780563987792,0.015108059160411358,0.012203525751829147,-0.2357168048620224,-0.5143073201179504,1.0028389692306519,0.27,-0.07,-0.1,272.68
1650744134.09862089,187569409,1,0.54,2.65,281.63,0.0022920097690075636,-0.002782575087621808,0.01529637910425663,0.015171058475971222,-0.23548655211925507,-0.5160307884216309,1.0042747259140015,0.27,-0.07,-0.1,272.68
1650744134.19862700,187669415,1,0.54,2.65,281.64,0.003737634513527155,-0.0023227715864777565,0.0159089807420969,0.01984480395913124,-0.23527482151985168,-0.5173898339271545,1.0061813592910767,0.27,-0.07,-0.11,272.68
1650744134.29862094,187769409,1,0.54,2.64,281.65000000000003,0.0021084642503410578,-0.0031280622351914644,0.015716033056378365,0.012666812166571617,-0.23473402857780457,-0.518983781337738,1.0068758726119995,0.27,-0.07,-0.11,272.68
1650744134.39861894,187869407,1,0.55,2.64,281.66,0.004628181457519531,-0.0025938469916582108,0.015752805396914482,0.0023786250967532396,-0.23422034084796906,-0.5201972126960754,1.0071412324905396,0.27,-0.07,-0.11,272.68
1650744134.49862003,187969408,1,0.54,2.64,281.68,0.004186003934592009,-0.003313563298434019,0.01678525283932686,0.015499100089073181,-0.23358772695064545,-0.52122962474823,1.0093051195144653,0.27,-0.07,-0.11,272.68
1650744134.59863210,188069420,1,0.54,2.64,281.69,0.004769445396959782,-0.003750585252419114,0.01751852221786976,0.03495054319500923,-0.23301547765731812,-0.5221032500267029,1.01278817653656,0.27,-0.07,-0.11,272.68
1650744134.69862890,188169417,1,0.54,2.65,281.69,0.005817950703203678,-0.005021523218601942,0.018107950687408447,0.045977503061294556,-0.23152253031730652,-0.5230397582054138,1.016732931137085,0.27,-0.07,-0.11,272.68
1650744134.79865098,188269439,1,0.55,2.65,281.69,0.004590613767504692,-0.004976066295057535,0.01849217526614666,0.024611828848719597,-0.23026718199253082,-0.5237870812416077,1.0181061029434204,0.27,-0.07,-0.11,272.68
1650744134.89863491,188369423,1,0.55,2.65,281.7,0.00549660436809063,-0.004656032659113407,0.019187644124031067,0.008377045392990112,-0.2290850430727005,-0.5248587727546692,1.019409418106079,0.27,-0.07,-0.11,272.68
1650744134.99863291,188469421,1,0.55,2.65,281.7,0.005091793369501829,-0.005072325002402067,0.019246883690357208,0.01676592230796814,-0.22801253199577332,-0.5257909893989563,1.021726369857788,0.27,-0.07,-0.11,272.68
1650744135.09862709,188569415,1,0.56,2.65,281.7,0.004785063676536083,-0.0036134207621216774,0.01983986236155033,0.017362311482429504,-0.22697871923446655,-0.526837170124054,1.023224949836731,0.27,-0.07,-0.11,272.68
1650744135.19866109,188669449,1,0.55,2.65,281.71,0.006021725479513407,-0.004006516188383102,0.02076525241136551,0.01561862975358963,-0.22603118419647217,-0.5275730490684509,1.0249569416046143,0.27,-0.07,-0.11,272.68
1650744135.29864311,188769431,1,0.56,2.65,281.72,0.006543146912008524,-0.0039398861117661,0.02154688909649849,0.020561933517456055,-0.2249046266078949,-0.5279178023338318,1.0270417928695679,0.27,-0.07,-0.11,272.68
1650744135.39864707,188869435,1,0.56,2.65,281.73,0.0074221231043338776,-0.0023385100066661835,0.022511905059218407,0.007996703498065472,-0.22385269403457642,-0.5282111763954163,1.0275895595550537,0.27,-0.07,-0.11,272.68
1650744135.49861693,188969405,1,0.55,2.65,281.73,0.006354182492941618,-0.0011709870304912329,0.022692419588565826,-0.010090851224958897,-0.22318287193775177,-0.5280504822731018,1.0267773866653442,0.27,-0.07,-0.11,272.68
1650744135.59862089,189069409,1,0.55,2.65,281.74,0.00630964245647192,-0.0015274144243448973,0.022685136646032333,-0.01821899227797985,-0.22275176644325256,-0.5278357863426208,1.025581955909729,0.27,-0.07,-0.11,272.68
1650744135.69861889,189169407,1,0.54,2.64,281.73,0.007195932324975729,-0.0009937856812030077,0.02200433425605297,-0.020455926656723022,-0.22119829058647156,-0.5283238291740417,1.0242018699645996,0.27,-0.07,-0.11,272.68
1650744135.79862094,189269409,1,0.56,2.64,281.73,0.006280405446887016,0.0002722140052355826,0.021597962826490402,0.0022019732277840376,-0.2200048565864563,-0.5285844802856445,1.0251681804656982,0.27,-0.07,-0.11,272.68
1650744135.89862108,189369409,1,0.56,2.64,281.74,0.007681567221879959,-2.6556896045804024e-05,0.02102000266313553,-0.002068821806460619,-0.21909914910793304,-0.5285750031471252,1.0241546630859375,0.27,-0.07,-0.11,272.68
1650744135.99862099,189469409,1,0.56,2.64,281.74,0.0071358527056872845,-0.0011872415198013186,0.02088235691189766,-0.0008359188796021044,-0.21823294460773468,-0.5285832285881042,1.0242938995361328,0.27,-0.07,-0.11,272.68
1650744136.09861708,189569405,1,0.5700000000000001,2.63,281.73,0.008493133820593357,0.0009384413715451956,0.021902598440647125,0.014328347519040108,-0.21741895377635956,-0.5278768539428711,1.0257179737091064,0.27,-0.07,-0.11,272.68
1650744136.19863510,189669423,1,0.56,2.64,281.74,0.009024936705827713,0.00253612594678998,0.021864337846636772,0.017249559983611107,-0.21645642817020416,-0.5270536541938782,1.026808261871338,0.27,-0.07,-0.11,272.68
1650744136.29866910,189769457,1,0.5700000000000001,2.64,281.73,0.00936642475426197,0.0020347482059150934,0.022239765152335167,-0.005754428915679455,-0.2160213738679886,-0.5263921022415161,1.0256507396697998,0.27,-0.07,-0.11,272.68
1650744136.39865589,189869444,1,0.56,2.64,281.72,0.010804174467921257,0.002451622858643532,0.022437110543251038,-0.01475767232477665,-0.21533368527889252,-0.5257961750030518,1.0247948169708252,0.27,-0.07,-0.11,272.68
1650744136.49861193,189969400,1,0.5700000000000001,2.64,281.73,0.008805850520730019,0.002458734903484583,0.021923065185546875,-0.015792036429047585,-0.21436375379562378,-0.5262306332588196,1.0235342979431152,0.27,-0.07,-0.11,272.68
1650744136.59863091,190069419,1,0.58,2.63,281.73,0.011705735698342323,0.0019901141058653593,0.02120348811149597,-0.008676023222506046,-0.21340924501419067,-0.526502788066864,1.023277759552002,0.27,-0.07,-0.11,272.68
1650744136.69864297,190169431,1,0.5700000000000001,2.63,281.73,0.010859346948564053,-5.9127061831532046e-05,0.020305391401052475,0.010012145154178143,-0.2123987376689911,-0.5270218849182129,1.0245155096054077,0.27,-0.07,-0.11,272.68
1650744136.79862905,190269417,1,0.58,2.63,281.74,0.012462755665183067,3.433296660659835e-05,0.0204924289137125,0.02498415857553482,-0.21144071221351624,-0.5274762511253357,1.0265623331069946,0.27,-0.07,-0.11,272.68
1650744136.89863896,190369427,1,0.56,2.63,281.74,0.011869207955896854,0.001274028792977333,0.021344810724258423,0.025732973590493202,-0.21163003146648407,-0.5268896818161011,1.0283839702606201,0.27,-0.07,-0.11,272.68
1650744136.99862003,190469408,1,0.5700000000000001,2.63,281.74,0.010153703391551971,-0.0001817980082705617,0.020982757210731506,0.010299166664481163,-0.2117294818162918,-0.5264125466346741,1.028761863708496,0.27,-0.07,-0.11,272.68
1650744137.09861898,190569407,1,0.56,2.63,281.74,0.01195315457880497,-0.0008158397977240384,0.020217958837747574,0.0005132686346769333,-0.21096579730510712,-0.5270450115203857,1.029266119003296,0.27,-0.07,-0.11,272.68
1650744137.19863296,190669421,1,0.56,2.63,281.74,0.010381045751273632,-0.0012739034136757255,0.019926907494664192,0.005439371801912785,-0.21015873551368713,-0.527574360370636,1.0301616191864014,0.27,-0.07,-0.11,272.68
1650744137.29862094,190769409,1,0.5700000000000001,2.63,281.73,0.01099590677767992,-0.0017555466620251536,0.019568677991628647,0.01056829746812582,-0.20892088115215302,-0.5277619957923889,1.031290888786316,0.27,-0.07,-0.11,272.68
1650744137.39861894,190869407,1,0.56,2.63,281.74,0.012169184163212776,-0.002166737336665392,0.01915898732841015,-0.0025239409878849983,-0.2076140195131302,-0.5279495120048523,1.0307600498199463,0.27,-0.07,-0.11,272.68
1650744137.49861598,190969404,1,0.5700000000000001,2.63,281.74,0.01140643935650587,-0.002067847875878215,0.019419148564338684,-0.011732378974556923,-0.2073192596435547,-0.5282143354415894,1.0300118923187256,0.27,-0.07,-0.11,272.68
1650744137.59862399,191069412,1,0.5700000000000001,2.63,281.74,0.011146320030093193,-0.001493434188887477,0.019725076854228973,-0.005779806058853865,-0.2068101465702057,-0.5284480452537537,1.029860496520996,0.27,-0.07,-0.11,272.68
1650744137.69861102,191169399,1,0.5700000000000001,2.64,281.73,0.011099940165877342,-0.001522517646662891,0.01995784230530262,-0.00018420857668388635,-0.20613713562488556,-0.5284696221351624,1.0299643278121948,0.27,-0.07,-0.11,272.68
1650744137.79862094,191269409,1,0.56,2.63,281.74,0.012360814027488232,-0.0034731675405055285,0.019438255578279495,0.008997419849038124,-0.2051708996295929,-0.528548538684845,1.030958890914917,0.27,-0.07,-0.11,272.68
1650744137.89864898,191369437,1,0.5700000000000001,2.63,281.74,0.010736927390098572,-0.0038208244368433952,0.019529039040207863,-0.000888605194631964,-0.20540399849414825,-0.5296509861946106,1.0301975011825562,0.27,-0.07,-0.11,272.68
1650744137.99862099,191469409,1,0.5700000000000001,2.63,281.74,0.013152118772268295,-0.004050687421113253,0.019696416333317757,-0.010484740138053894,-0.20522281527519226,-0.5306015014648438,1.029363751411438,0.27,-0.07,-0.11,272.68
1650744138.09862709,191569415,1,0.56,2.63,281.74,0.01220064889639616,-0.005665899720042944,0.019031068310141563,-0.005956954322755337,-0.2048962116241455,-0.5319952964782715,1.0292084217071533,0.27,-0.07,-0.11,272.68
1650744138.19866109,191669449,1,0.5700000000000001,2.63,281.74,0.013059068471193314,-0.006121016573160887,0.01920544169843197,0.0033585389610379934,-0.20440547168254852,-0.5332819819450378,1.0296616554260254,0.27,-0.07,-0.11,272.68
1650744138.29863906,191769427,1,0.56,2.62,281.74,0.013524893671274185,-0.006941840518265963,0.019530154764652252,0.01311771385371685,-0.20412693917751312,-0.5343127250671387,1.0308576822280884,0.27,-0.07,-0.11,272.68
1650744138.39862704,191869415,1,0.5700000000000001,2.62,281.74,0.01156146265566349,-0.007061487529426813,0.019924338907003403,0.019884545356035233,-0.20389994978904724,-0.535236656665802,1.0325214862823486,0.27,-0.07,-0.11,272.68
1650744138.49864793,191969436,1,0.5700000000000001,2.62,281.74,0.013428674079477787,-0.006469597574323416,0.019363367930054665,-0.0023014070466160774,-0.20380030572414398,-0.5359212756156921,1.0314271450042725,0.27,-0.07,-0.11,272.68
1650744138.59862089,192069409,1,0.56,2.62,281.74,0.01055832114070654,-0.007475960534065962,0.018435504287481308,-0.006876727566123009,-0.20343828201293945,-0.5366174578666687,1.0312734842300415,0.27,-0.07,-0.11,272.68
1650744138.69862604,192169414,1,0.5700000000000001,2.62,281.74,0.013297411613166332,-0.006883454509079456,0.018075546249747276,-0.016065564006567,-0.20268243551254272,-0.5369595289230347,1.0295778512954712,0.27,-0.07,-0.11,272.68
1650744138.79862404,192269412,1,0.56,2.62,281.75,0.013356832787394524,-0.006511857733130455,0.017692018300294876,-0.013169283047318459,-0.20155663788318634,-0.5372325778007507,1.0287847518920898,0.27,-0.07,-0.11,272.68
1650744138.89863110,192369419,1,0.5700000000000001,2.63,281.76,0.01431489922106266,-0.006444407626986504,0.016619279980659485,-0.026478582993149757,-0.2000194936990738,-0.5373905301094055,1.025962233543396,0.27,-0.08,-0.11,272.68
1650744138.99862599,192469414,1,0.56,2.63,281.76,0.017251990735530853,-0.006264287047088146,0.01588474214076996,-0.02411915920674801,-0.198161780834198,-0.537627100944519,1.0242189168930054,0.27,-0.08,-0.11,272.68
1650744139.09862208,192569410,1,0.5700000000000001,2.62,281.77,0.014642039313912392,-0.007435214705765247,0.015209294855594635,-0.011102679185569286,-0.1975906938314438,-0.5382742285728455,1.0234309434890747,0.27,-0.08,-0.11,272.68
1650744139.19861603,192669404,1,0.56,2.62,281.78000000000003,0.017737962305545807,-0.005924398545175791,0.014513906091451645,-0.0011006782297044992,-0.19671232998371124,-0.5388409495353699,1.0232294797897339,0.27,-0.08,-0.11,272.68
1650744139.29863405,192769422,1,0.56,2.62,281.78000000000003,0.013921217061579227,-0.006090032868087292,0.014573144726455212,0.009229217655956745,-0.1974250227212906,-0.5388895273208618,1.0239195823669434,0.27,-0.08,-0.11,272.68
1650744139.39864993,192869438,1,0.5700000000000001,2.62,281.79,0.014910761266946793,-0.00581513112410903,0.014848091639578342,0.015606037341058254,-0.19771672785282135,-0.5390498638153076,1.0250353813171387,0.27,-0.08,-0.11,272.68
1650744139.49864793,192969436,1,0.56,2.61,281.79,0.0136098088696599,-0.004936309065669775,0.014692173339426517,0.011735836043953896,-0.19798851013183594,-0.5386046767234802,1.025708794593811,0.27,-0.08,-0.11,272.68
1650744139.59864402,193069432,1,0.5700000000000001,2.61,281.79,0.012035096064209938,-0.003286974038928747,0.014081818051636219,0.007594471797347069,-0.19800379872322083,-0.5382312536239624,1.0263093709945679,0.27,-0.08,-0.11,272.68
1650744139.69863796,193169426,1,0.55,2.61,281.79,0.011590716429054737,-0.004030716605484486,0.0134446294978261,0.003130853408947587,-0.19933395087718964,-0.5385791659355164,1.0265939235687256,0.27,-0.08,-0.11,272.68
1650744139.79861498,193269403,1,0.56,2.61,281.79,0.007674363441765308,-0.0059847766533494,0.013759353198111057,0.007267510984092951,-0.20032046735286713,-0.5390498042106628,1.0274255275726318,0.27,-0.08,-0.11,272.68
1650744139.89863205,193369420,1,0.5700000000000001,2.6,281.8,0.009178540669381618,-0.005641875322908163,0.013896692544221878,0.005792697425931692,-0.2013596147298813,-0.5396778583526611,1.0278213024139404,0.27,-0.08,-0.11,272.68
1650744139.99863791,193469426,1,0.55,2.61,281.8,0.007024480029940605,-0.005996007472276688,0.013818949460983276,0.006716565694659948,-0.20193235576152802,-0.5402335524559021,1.0286095142364502,0.27,-0.08,-0.11,272.68
1650744140.09863400,193569422,1,0.5700000000000001,2.61,281.8,0.006911677308380604,-0.007649116218090057,0.014087977819144726,0.0002924778964370489,-0.20273971557617188,-0.5415579676628113,1.0284076929092407,0.27,-0.08,-0.11,272.68
1650744140.19862103,193669409,1,0.56,2.61,281.8,0.007159007713198662,-0.007682489231228828,0.013842719607055187,0.0006247280980460346,-0.20305368304252625,-0.5428152084350586,1.0287176370620728,0.27,-0.08,-0.11,272.68
1650744140.29862404,193769412,1,0.56,2.61,281.8,0.004875184502452612,-0.007862395606935024,0.015086391009390354,0.002248667646199465,-0.2044300138950348,-0.5435792207717896,1.0288876295089722,0.27,-0.08,-0.11,272.68
1650744140.39862704,193869415,1,0.56,2.61,281.81,0.005831862799823284,-0.007039863616228104,0.015266058035194874,-0.002685845596715808,-0.20564012229442596,-0.5441976189613342,1.0285981893539429,0.27,-0.08,-0.11,272.68
1650744140.49862599,193969414,1,0.56,2.61,281.83,0.0023824407253414392,-0.008081821724772453,0.015509191900491714,0.017568306997418404,-0.207249715924263,-0.5444797873497009,1.031114935874939,0.27,-0.08,-0.11,272.68
1650744140.59862590,194069414,1,0.56,2.6,281.82,0.00595926633104682,-0.008722870610654354,0.01697230152785778,0.02361343242228031,-0.20839177072048187,-0.5448458194732666,1.03285551071167,0.27,-0.08,-0.11,272.68
1650744140.69863391,194169422,1,0.56,2.59,281.81,-0.0003072982362937182,-0.006681676488369703,0.015065749175846577,-0.005579302553087473,-0.21080121397972107,-0.5468744039535522,1.0316407680511475,0.27,-0.08,-0.11,272.68
1650744140.79862809,194269416,1,0.5700000000000001,2.59,281.83,0.0025699411053210497,-0.013041266240179539,0.013050384819507599,-0.010451463051140308,-0.2127496749162674,-0.5485703349113464,1.0314836502075195,0.27,-0.08,-0.11,272.68
1650744140.89866209,194369450,1,0.5700000000000001,2.56,281.81,7.524532702518627e-05,-0.0209443848580122,0.006663759239017963,0.019061923027038574,-0.21514005959033966,-0.5512263178825378,1.0352392196655273,0.27,-0.08,-0.11,272.68
1650744140.99866700,194469455,1,0.62,2.5,281.79,0.01403091847896576,-0.024121198803186417,0.014854196459054947,0.04755725711584091,-0.2169516235589981,-0.5540347099304199,1.0394991636276245,0.27,-0.08,-0.11,272.68
1650744141.09865904,194569447,1,0.62,2.43,281.76,-0.0067750574089586735,-0.014879532158374786,0.00037453960976563394,0.040643054991960526,-0.21795836091041565,-0.5570548176765442,1.0446689128875732,0.27,-0.08,-0.11,272.68
1650744141.19862509,194669413,1,0.53,2.47,281.7,-0.004536640830338001,-0.00593909714370966,0.022362416610121727,0.061241645365953445,-0.2185915857553482,-0.5583011507987976,1.0496882200241089,0.27,-0.08,-0.11,272.68
1650744141.29864097,194769429,1,0.64,2.48,281.6,-0.002224751515313983,-0.009690619073808193,0.006205490790307522,0.036142442375421524,-0.22115781903266907,-0.5587636828422546,1.0543897151947021,0.27,-0.08,-0.1,272.68
1650744141.39864492,194869433,1,0.64,2.46,281.52,-0.004624892491847277,-0.005963833071291447,0.022562149912118912,0.042801566421985626,-0.22313649952411652,-0.5595788955688477,1.0585005283355713,0.27,-0.08,-0.1,272.68
1650744141.49862194,194969410,1,0.6,2.49,281.46,-0.00018817816453520209,-0.00213035149499774,0.016842372715473175,0.030579565092921257,-0.2249327450990677,-0.5607782602310181,1.0624504089355469,0.27,-0.08,-0.1,272.68
1650744141.59864998,195069438,1,0.65,2.46,281.36,-0.016717014834284782,-0.016923876479268074,0.023859767243266106,0.030118294060230255,-0.2260301262140274,-0.561320424079895,1.0657854080200195,0.27,-0.08,-0.1,272.68
1650744141.69862795,195169416,1,0.66,2.46,281.27,-0.006273824255913496,-0.008440745063126087,0.020378952845931053,-0.01066191028803587,-0.2277492880821228,-0.5614988803863525,1.0647181272506714,0.27,-0.08,-0.1,272.68
1650744141.79863000,195269418,1,0.55,2.46,281.22,0.017018195241689682,-0.0028895053546875715,-0.001375029794871807,-0.03716972470283508,-0.22836583852767944,-0.5619020462036133,1.0650694370269775,0.27,-0.08,-0.1,272.68
1650744141.89863396,195369422,1,0.6900000000000001,2.46,281.12,-0.005531007423996925,-0.0037432420067489147,0.02100575901567936,0.008675917983055115,-0.23044194281101227,-0.5624392032623291,1.0672320127487183,0.27,-0.08,-0.1,272.68
1650744141.99862599,195469414,1,0.63,2.43,281.04,-0.009554814547300339,-0.005338242277503014,-0.00528878066688776,-0.004872445948421955,-0.232299342751503,-0.5628328323364258,1.0696719884872437,0.27,-0.08,-0.1,272.68
1650744142.09863091,195569419,1,0.67,2.47,280.98,0.0027464055456221104,0.006289330776780844,0.017116829752922058,0.016570182517170906,-0.23591987788677216,-0.5628217458724976,1.0717719793319702,0.27,-0.08,-0.09,272.68
1650744142.19862700,195669415,1,0.5700000000000001,2.45,280.88,-0.00036888840259052813,0.004217168781906366,0.03610280901193619,0.030628344044089317,-0.23896776139736176,-0.562842071056366,1.073642373085022,0.27,-0.08,-0.09,272.68
1650744142.29862905,195769417,1,0.64,2.46,280.84000000000003,-0.0009540159371681511,-0.0069506545551121235,0.013815994374454021,-0.03031008131802082,-0.2403842657804489,-0.5623629093170166,1.070968747138977,0.27,-0.08,-0.09,272.68
1650744142.39863992,195869428,1,0.62,2.45,280.74,0.002765415236353874,0.00783093273639679,0.027582984417676926,-0.01611894927918911,-0.24194708466529846,-0.5619454979896545,1.0703473091125488,0.27,-0.08,-0.09,272.68
1650744142.49867702,195969465,1,0.68,2.49,280.64,-0.0004554605402518064,0.010841887444257736,0.017586655914783478,0.0008196755079552531,-0.2426229566335678,-0.5621634721755981,1.071780800819397,0.27,-0.08,-0.09,272.68
1650744142.59863997,196069428,1,0.66,2.5,280.53000000000003,-0.022166524082422256,0.008786573074758053,0.03165645897388458,0.025481725111603737,-0.24289032816886902,-0.5621419548988342,1.0733506679534912,0.27,-0.08,-0.09,272.68
1650744142.69866395,196169452,1,0.63,2.45,280.40000000000003,-0.0072811683639883995,-0.00041708376375027,0.029062815010547638,0.00572130735963583,-0.2419910430908203,-0.5625583529472351,1.0726732015609741,0.27,-0.08,-0.09,272.68
1650744142.79863501,196269423,1,0.53,2.43,280.35,0.008396060205996037,0.007141761016100645,0.03155883401632309,0.004027448128908873,-0.24054452776908875,-0.5627858638763428,1.0728015899658203,0.27,-0.08,-0.08,272.68
1650744142.89863610,196369424,1,0.68,2.5100000000000002,280.34000000000003,-0.004114870447665453,0.01959463208913803,0.038510821759700775,0.021568238735198975,-0.23951219022274017,-0.563459038734436,1.0741132497787476,0.27,-0.08,-0.08,272.68
1650744142.99868107,196469469,1,0.64,2.59,280.2,-0.00210128678008914,0.01518242433667183,0.02680797688663006,0.015485991723835468,-0.23841159045696259,-0.5626834630966187,1.0755953788757324,0.27,-0.08,-0.08,272.68
1650744143.09862804,196569416,1,0.6,2.63,280.1,0.002254406688734889,0.0006194589077495039,0.03362800180912018,-0.007469831965863705,-0.23784521222114563,-0.562526285648346,1.0733685493469238,0.27,-0.08,-0.08,272.68
1650744143.19864392,196669432,1,0.66,2.56,280.13,0.012629176490008831,-0.011184475384652615,0.026067662984132767,-0.04224114865064621,-0.23728230595588684,-0.5637572407722473,1.0698294639587402,0.27,-0.08,-0.08,272.68
1650744143.29862094,196769409,1,0.62,2.54,280.11,0.008411800488829613,0.006075602490454912,0.03031906858086586,-0.04411745071411133,-0.23662489652633667,-0.5641334652900696,1.0661633014678955,0.27,-0.08,-0.08,272.68
1650744143.39861703,196869405,1,0.62,2.58,280.04,0.006338347215205431,0.012507287785410881,0.02727889083325863,-0.028378592804074287,-0.23607106506824493,-0.5630832314491272,1.064324975013733,0.27,-0.08,-0.08,272.68
1650744143.49861598,196969404,1,0.62,2.61,280.04,0.008358744904398918,0.0018558930605649948,0.029512010514736176,-0.02776479721069336,-0.23567692935466766,-0.562061071395874,1.0608799457550049,0.27,-0.08,-0.08,272.68
1650744143.59861898,197069407,1,0.63,2.59,280.07,0.011213271878659725,-0.00038431838038377464,0.03080390766263008,-0.027587492018938065,-0.2348698228597641,-0.5618138313293457,1.0580389499664307,0.27,-0.08,-0.08,272.68
1650744143.69862294,197169411,1,0.61,2.57,280.04,0.014093329198658466,0.006304279435425997,0.030138064175844193,-0.027273287996649742,-0.2342078685760498,-0.5622832775115967,1.055002212524414,0.27,-0.08,-0.08,272.68
1650744143.79862404,197269412,1,0.61,2.59,280.02,0.008526475168764591,0.01598549447953701,0.02872973494231701,-0.029665473848581314,-0.23306889832019806,-0.5615817308425903,1.0521413087844849,0.27,-0.08,-0.08,272.68
1650744143.89862108,197369409,1,0.61,2.61,280.05,0.018937941640615463,0.005767839960753918,0.02751377411186695,-0.04213740676641464,-0.23234577476978302,-0.5618209838867188,1.047667145729065,0.27,-0.08,-0.08,272.68
1650744143.99865103,197469439,1,0.6,2.59,280.03000000000003,0.013198497705161572,0.0030462942086160183,0.027163779363036156,-0.042152319103479385,-0.2310122400522232,-0.5626254677772522,1.0440092086791992,0.27,-0.08,-0.08,272.68
1650744144.09864402,197569432,1,0.61,2.58,280.01,0.01948682591319084,0.009266178123652935,0.028875673189759254,-0.017574597150087357,-0.23039527237415314,-0.5642859935760498,1.0426808595657349,0.27,-0.08,-0.08,272.68
1650744144.19863701,197669425,1,0.59,2.6,280.03000000000003,0.017771698534488678,0.01090832520276308,0.028105661273002625,0.0024956415873020887,-0.22933244705200195,-0.5651917457580566,1.0428192615509033,0.27,-0.08,-0.08,272.68
1650744144.29860997,197769398,1,0.61,2.6,280.06,0.016012443229556084,0.003654324682429433,0.02759350836277008,0.004072267096489668,-0.22988341748714447,-0.5660317540168762,1.0424076318740845,0.27,-0.08,-0.08,272.68
1650744144.39863491,197869423,1,0.59,2.58,280.02,0.019604483619332314,0.0025278814136981964,0.029561690986156464,0.005656763445585966,-0.22991310060024261,-0.5669348835945129,1.0426933765411377,0.27,-0.08,-0.08,272.68
1650744144.49863100,197969419,1,0.58,2.59,280.02,0.014073481783270836,0.006822633091360331,0.028187589719891548,0.007728807162493467,-0.2302548736333847,-0.5694802403450012,1.043290376663208,0.27,-0.08,-0.08,272.68
1650744144.59862995,198069418,1,0.6,2.59,280.05,0.016078343614935875,0.003591822227463126,0.029534978792071342,0.016897890716791153,-0.23066070675849915,-0.5713527798652649,1.0448424816131592,0.27,-0.08,-0.08,272.68
1650744144.69863605,198169424,1,0.6,2.59,280.02,0.01459488831460476,0.0009896662086248398,0.029648806899785995,0.009642497636377811,-0.23187638819217682,-0.573345959186554,1.045257806777954,0.27,-0.08,-0.08,272.68
1650744144.79862404,198269412,1,0.58,2.59,280.01,0.015580007806420326,-0.0008178014541044831,0.030560970306396484,0.007517905905842781,-0.2330441027879715,-0.5750365257263184,1.045973539352417,0.27,-0.08,-0.08,272.68
1650744144.89861608,198369404,1,0.59,2.59,280.04,0.014289873652160168,0.001625593053176999,0.030504567548632622,0.005379762500524521,-0.23220250010490417,-0.5762928128242493,1.0466089248657227,0.27,-0.08,-0.08,272.68
1650744144.99862504,198469413,1,0.6,2.59,280.04,0.018417872488498688,0.001104068593122065,0.030089128762483597,0.011622410267591476,-0.23158521950244904,-0.5771973133087158,1.0480910539627075,0.27,-0.08,-0.08,272.68
1650744145.09866500,198569453,1,0.59,2.58,280.03000000000003,0.01732754148542881,0.00014250852109398693,0.03117358312010765,0.013537833467125893,-0.23094336688518524,-0.5778387784957886,1.0492722988128662,0.27,-0.08,-0.08,272.68
1650744145.19861794,198669406,1,0.59,2.58,280.04,0.018457775935530663,-7.84787189331837e-05,0.0316445492208004,0.0031518389005213976,-0.23017403483390808,-0.578352689743042,1.0495715141296387,0.27,-0.08,-0.08,272.68
1650744145.29862189,198769410,1,0.6,2.59,280.06,0.016448304057121277,0.002848645206540823,0.03319903835654259,-0.004915361292660236,-0.23092274367809296,-0.5787765383720398,1.0492148399353027,0.27,-0.08,-0.08,272.68
1650744145.39860010,198869388,1,0.58,2.59,280.06,0.018743880093097687,0.0030017762910574675,0.03396216034889221,-0.009134615771472454,-0.23093865811824799,-0.5787582993507385,1.0487282276153564,0.27,-0.08,-0.08,272.68
1650744145.49862099,198969409,1,0.6,2.59,280.07,0.01575666107237339,0.001938213245011866,0.035298094153404236,-0.011147068813443184,-0.23146173357963562,-0.5786463022232056,1.047908902168274,0.27,-0.08,-0.08,272.68
1650744145.59866595,199069454,1,0.58,2.59,280.08,0.018432816490530968,0.006815754342824221,0.03544803708791733,-0.02121414616703987,-0.23121801018714905,-0.5782372355461121,1.0458647012710571,0.27,-0.08,-0.08,272.68
1650744145.69864297,199169431,1,0.58,2.6,280.08,0.013650643639266491,0.0032605428714305162,0.035195473581552505,-0.055575642734766006,-0.2322567105293274,-0.5778738260269165,1.04037606716156,0.27,-0.08,-0.08,272.68
1650744145.79865289,199269441,1,0.59,2.6,280.09000000000003,0.017453214153647423,0.008268319070339203,0.03541283309459686,-0.07848474383354187,-0.23270073533058167,-0.5772355794906616,1.033820390701294,0.27,-0.08,-0.09,272.68
1650744145.89862394,199369412,1,0.5700000000000001,2.59,280.1,0.013987218961119652,0.004273893777281046,0.03530329838395119,-0.07498574256896973,-0.23354211449623108,-0.5774456858634949,1.0278035402297974,0.27,-0.08,-0.09,272.68
1650744145.99860907,199469397,1,0.6,2.58,280.1,0.013702980242669582,0.008612554520368576,0.035266175866127014,-0.08104509860277176,-0.23416034877300262,-0.5773912072181702,1.0201071500778198,0.27,-0.08,-0.09,272.68
1650744146.09864593,199569434,1,0.5700000000000001,2.59,280.1,0.016019079834222794,0.007919415831565857,0.034371454268693924,-0.10525952279567719,-0.23473595082759857,-0.5777062773704529,1.0101736783981323,0.27,-0.08,-0.09,272.68
1650744146.19863391,199669422,1,0.59,2.59,280.12,0.011725980788469315,0.007239306811243296,0.032979123294353485,-0.10604119300842285,-0.23501688241958618,-0.5778090357780457,1.000923752784729,0.27,-0.08,-0.09,272.68
1650744146.29859900,199769387,1,0.5700000000000001,2.58,280.11,0.016527630388736725,0.006379825994372368,0.03173006325960159,-0.10627968609333038,-0.23522183299064636,-0.5774149298667908,0.9909217357635498,0.27,-0.08,-0.09,272.68
1650744146.39861798,199869406,1,0.5700000000000001,2.58,280.12,0.010849826969206333,0.009907396510243416,0.02993881329894066,-0.09941525757312775,-0.23492860794067383,-0.5767639875411987,0.981643795967102,0.27,-0.08,-0.09,272.68
1650744146.49863100,199969419,1,0.58,2.59,280.14,0.013615521602332592,0.007984018884599209,0.027003169059753418,-0.09564706683158875,-0.2350185364484787,-0.5766669511795044,0.9725054502487183,0.27,-0.08,-0.09,272.68
