timestamp,TimeUS,DesRoll,Roll,DesPitch,Pitch,DesYaw,Yaw,ErrRP,ErrYaw,AEKF
1665697096.42038703,377176543,0.0,0.55,0.0,-1.23,75.16,75.15,0.0,0.06,3
1665697096.52028012,377276436,0.0,0.55,0.0,-1.24,75.16,75.13,0.0,0.08,3
1665697096.62035513,377376511,0.0,0.55,0.0,-1.24,75.16,75.12,0.0,0.07,3
1665697096.72036505,377476521,0.0,0.55,0.0,-1.24,75.16,75.11,0.0,0.08,3
1665697096.82035208,377576508,0.0,0.55,0.0,-1.24,75.16,75.11,0.0,0.08,3
1665697096.92031598,377676472,0.0,0.55,0.0,-1.24,75.16,75.10000000000001,0.0,0.08,3
1665697097.02040195,377776558,0.0,0.55,0.0,-1.24,75.16,75.08,0.0,0.08,3
1665697097.12034202,377876498,0.0,0.55,0.0,-1.24,75.16,75.07000000000001,0.0,0.07,3
1665697097.22039604,377976552,0.0,0.55,0.0,-1.25,75.16,75.06,0.01,0.07,3
1665697097.32035208,378076508,0.0,0.55,0.0,-1.25,75.16,75.06,0.01,0.06,3
1665697097.42033911,378176495,0.0,0.55,0.0,-1.25,75.16,75.05,0.0,0.07,3
1665697097.52037907,378276535,0.0,0.55,0.0,-1.25,75.16,75.04,0.0,0.07,3
1665697097.62037110,378376527,0.0,0.55,0.0,-1.25,75.16,75.02,0.01,0.1,3
1665697097.72046113,378476617,0.0,0.55,0.0,-1.25,75.16,75.0,0.01,0.11,3
1665697097.82055306,378576709,0.0,0.55,0.0,-1.25,75.16,74.96000000000001,0.01,0.09,3
1665697097.92036295,378676519,0.0,0.55,0.0,-1.24,75.16,74.94,0.01,0.1,3
1665697098.02034092,378776497,0.0,0.55,0.0,-1.24,75.16,74.92,0.01,0.08,3
1665697098.12044907,378876605,0.0,0.55,0.0,-1.24,75.16,74.91,0.01,0.09,3
1665697098.22033215,378976488,0.0,0.56,0.0,-1.24,75.16,74.9,0.01,0.08,3
1665697098.32031012,379076466,0.0,0.55,0.0,-1.24,75.16,74.89,0.01,0.09,3
1665697098.42032599,379176482,0.0,0.56,0.0,-1.24,74.89,74.89,0.01,0.09,3
1665697098.52030611,379276462,0.0,0.56,0.0,-1.23,74.9,74.9,0.01,0.09,3
1665697098.62042499,379376581,0.0,0.56,0.0,-1.23,74.91,74.91,0.01,0.07,3
1665697098.72040510,379476561,0.0,0.56,0.0,-1.23,74.92,74.92,0.01,0.08,3
1665697098.82043195,379576588,0.0,0.56,0.0,-1.23,74.92,74.92,0.01,0.09,3
1665697098.92035413,379676510,0.0,0.56,0.0,-1.23,74.92,74.92,0.01,0.12,3
1665697099.02045608,379776612,0.0,0.56,0.0,-1.23,74.92,74.91,0.01,0.13,3
1665697099.12041593,379876572,0.0,0.56,0.0,-1.23,74.92,74.91,0.01,0.13,3
1665697099.22038198,379976538,0.0,0.56,0.0,-1.22,74.92,74.9,0.01,0.12,3
1665697099.32039404,380076550,0.0,0.56,0.0,-1.22,74.92,74.9,0.01,0.11,3
1665697099.42027402,380176430,0.0,0.56,0.0,-1.22,74.92,74.9,0.01,0.08,3
1665697099.52037311,380276529,0.0,0.5700000000000001,0.0,-1.22,74.92,74.9,0.01,0.1,3
1665697099.62030196,380376458,0.0,0.5700000000000001,0.0,-1.22,74.92,74.91,0.01,0.12,3
1665697099.72045302,380476609,0.0,0.5700000000000001,0.0,-1.22,74.92,74.92,0.01,0.11,3
1665697099.82034397,380576500,0.0,0.5700000000000001,0.0,-1.22,74.92,74.93,0.01,0.09,3
1665697099.92038298,380676539,0.0,0.5700000000000001,0.0,-1.22,74.92,74.94,0.01,0.08,3
1665697100.02031207,380776468,0.0,0.5700000000000001,0.0,-1.22,74.92,74.95,0.01,0.07,3
1665697100.12031507,380876471,0.0,0.5700000000000001,0.0,-1.22,74.95,74.95,0.01,0.08,3
1665697100.22038794,380976544,0.0,0.58,0.0,-1.22,74.94,74.94,0.01,0.07,3
1665697100.32034206,381076498,0.0,0.58,0.0,-1.22,74.93,74.93,0.01,0.06,3
1665697100.42039108,381176547,0.0,0.58,0.0,-1.22,74.92,74.92,0.01,0.08,3
1665697100.52037191,381276528,0.0,0.58,0.0,-1.22,74.91,74.91,0.01,0.07,3
1665697100.62036896,381376525,0.0,0.58,0.0,-1.22,74.91,74.91,0.01,0.07,3
1665697100.72047806,381476634,0.0,0.58,0.0,-1.22,74.91,74.91,0.01,0.11,3
1665697100.82050896,381576665,0.0,0.58,0.0,-1.21,74.9,74.9,0.01,0.09,3
1665697100.92042613,381676582,0.0,0.58,0.0,-1.21,74.88,74.88,0.01,0.1,3
1665697101.02039194,381776548,0.0,0.58,0.0,-1.21,74.87,74.87,0.01,0.15,3
1665697101.12039304,381876549,0.0,0.58,0.0,-1.21,74.88,74.88,0.01,0.18,3
1665697101.22036600,381976522,0.0,0.58,0.0,-1.21,74.9,74.9,0.01,0.15,3
1665697101.32032704,382076483,0.0,0.58,0.0,-1.21,74.94,74.94,0.01,0.14,3
1665697101.42030597,382176462,0.0,0.58,0.0,-1.21,74.96000000000001,74.96000000000001,0.01,0.11,3
1665697101.52032113,382276477,0.0,0.58,0.0,-1.21,74.97,74.97,0.01,0.13,3
1665697101.62034702,382376503,0.0,0.58,0.0,-1.21,74.97,74.97,0.01,0.13,3
1665697101.72053194,382476688,0.0,0.59,0.0,-1.21,74.96000000000001,74.96000000000001,0.01,0.16,3
1665697101.82038593,382576542,0.0,0.59,0.0,-1.21,74.93,74.93,0.01,0.13,3
1665697101.92034698,382676503,0.0,0.59,0.0,-1.21,74.89,74.89,0.01,0.13,3
1665697102.02046013,382776616,0.0,0.59,0.0,-1.21,74.85000000000001,74.85000000000001,0.01,0.12,3
1665697102.12036800,382876524,0.0,0.59,0.0,-1.21,74.83,74.83,0.01,0.12,3
1665697102.22038507,382976541,0.0,0.59,0.0,-1.21,74.81,74.81,0.02,0.13,3
1665697102.32030797,383076464,0.0,0.59,0.0,-1.21,74.82000000000001,74.82000000000001,0.02,0.14,3
1665697102.42043996,383176596,0.0,0.59,0.0,-1.2,74.84,74.84,0.02,0.13,3
1665697102.52035093,383276507,0.0,0.59,0.0,-1.21,74.86,74.86,0.02,0.1,3
1665697102.62049103,383376647,0.0,0.59,0.0,-1.21,74.87,74.87,0.02,0.1,3
1665697102.72042704,383476583,0.0,0.59,0.0,-1.21,74.89,74.89,0.02,0.09,3
1665697102.82031703,383576473,0.0,0.59,0.0,-1.21,74.9,74.9,0.01,0.09,3
1665697102.92033315,383676489,0.0,0.59,0.0,-1.21,74.9,74.9,0.01,0.09,3
1665697103.02030110,383776457,0.0,0.59,0.0,-1.21,74.92,74.92,0.01,0.1,3
1665697103.12033415,383876490,0.0,0.59,0.0,-1.22,74.93,74.93,0.01,0.11,3
1665697103.22034407,383976500,0.0,0.59,0.0,-1.22,74.93,74.93,0.01,0.11,3
1665697103.32036304,384076519,0.0,0.59,0.0,-1.22,74.94,74.94,0.01,0.09,3
1665697103.42035604,384176512,0.0,0.6,0.0,-1.22,74.95,74.95,0.01,0.14,3
1665697103.52040005,384276556,0.0,0.59,0.0,-1.22,74.97,74.97,0.01,0.11,3
1665697103.62043500,384376591,0.0,0.6,0.0,-1.22,75.0,75.0,0.01,0.09,3
1665697103.72048903,384476645,0.0,0.59,0.0,-1.22,75.03,75.03,0.01,0.08,3
1665697103.82043910,384576595,0.0,0.59,0.0,-1.22,75.04,75.04,0.01,0.07,3
1665697103.92038703,384676543,0.0,0.6,0.0,-1.22,75.05,75.05,0.01,0.09,3
1665697104.02035713,384776513,0.0,0.59,0.0,-1.22,75.05,75.05,0.01,0.07,3
1665697104.12051797,384876674,0.0,0.59,0.0,-1.22,75.05,75.05,0.01,0.09,3
1665697104.22039008,384976546,0.0,0.59,0.0,-1.22,75.04,75.04,0.01,0.1,3
1665697104.32029200,385076448,0.0,0.59,0.0,-1.22,75.04,75.04,0.01,0.09,3
1665697104.42038012,385176536,0.0,0.6,0.0,-1.22,75.05,75.05,0.0,0.08,3
1665697104.52033210,385276488,0.0,0.6,0.0,-1.23,75.06,75.05,0.0,0.09,3
1665697104.62026811,385376424,0.0,0.6,0.0,-1.23,75.07000000000001,75.06,0.0,0.09,3
1665697104.72080803,385476964,0.0,0.6,0.0,-1.23,75.07000000000001,75.07000000000001,0.0,0.11,3
1665697104.82036209,385576518,0.0,0.6,0.0,-1.23,75.07000000000001,75.07000000000001,0.0,0.12,3
1665697104.92038798,385676544,0.0,0.6,0.0,-1.23,75.06,75.06,0.0,0.11,3
1665697105.02034903,385776505,0.0,0.6,0.0,-1.23,75.06,75.06,0.0,0.11,3
1665697105.12037492,385876531,0.0,0.6,0.0,-1.23,75.06,75.06,0.0,0.1,3
1665697105.22036600,385976522,0.0,0.6,0.0,-1.24,75.06,75.06,0.0,0.09,3
1665697105.32037306,386076529,0.0,0.59,0.0,-1.24,75.07000000000001,75.07000000000001,0.0,0.08,3
1665697105.42040205,386176558,0.0,0.6,0.0,-1.24,75.08,75.07000000000001,0.0,0.07,3
1665697105.52036405,386276520,0.0,0.59,0.0,-1.25,75.08,75.07000000000001,0.0,0.07,3
1665697105.62039900,386376555,0.0,0.59,0.0,-1.25,75.08,75.08,0.0,0.06,3
1665697105.72075891,386476915,0.0,0.59,0.0,-1.26,75.08,75.08,0.0,0.05,3
1665697105.82039499,386576551,0.0,0.59,0.0,-1.26,75.08,75.08,0.0,0.08,3
1665697105.92031193,386676468,0.0,0.59,0.0,-1.26,75.08,75.08,0.0,0.09,3
1665697106.02032900,386776485,0.0,0.58,0.0,-1.26,75.06,75.06,0.0,0.07,3
1665697106.12030792,386876464,0.0,0.58,0.0,-1.26,75.04,75.04,0.0,0.06,3
1665697106.22038198,386976538,0.0,0.58,0.0,-1.26,75.02,75.02,0.0,0.06,3
1665697106.32033992,387076496,0.0,0.58,0.0,-1.26,75.0,75.0,0.0,0.11,3
1665697106.42032409,387176480,0.0,0.58,0.0,-1.26,74.98,74.98,0.0,0.13,3
1665697106.52035999,387276516,0.0,0.58,0.0,-1.27,74.96000000000001,74.96000000000001,0.0,0.16,3
1665697106.62035203,387376508,0.0,0.5700000000000001,0.0,-1.27,74.96000000000001,74.96000000000001,0.0,0.16,3
1665697106.72080612,387476962,0.0,0.5700000000000001,0.0,-1.27,74.98,74.98,0.0,0.16,3
1665697106.82037592,387576532,0.0,0.5700000000000001,0.0,-1.27,75.0,75.0,0.0,0.17,3
1665697106.92042208,387676578,0.0,0.58,0.0,-1.27,75.0,75.0,0.0,0.14,3
1665697107.02040195,387776558,0.0,0.58,0.0,-1.27,75.0,75.0,0.0,0.13,3
1665697107.12045598,387876612,0.0,0.58,0.0,-1.27,75.0,75.0,0.0,0.13,3
1665697107.22042394,387976580,0.0,0.58,0.0,-1.27,74.99,74.99,0.0,0.1,3
1665697107.32032013,388076476,0.0,0.58,0.0,-1.27,74.98,74.98,0.0,0.12,3
1665697107.42038393,388176540,0.0,0.58,0.0,-1.27,74.99,74.99,0.0,0.11,3
1665697107.52029395,388276450,0.0,0.58,0.0,-1.27,75.01,75.01,0.0,0.12,3
1665697107.62031698,388376473,0.0,0.58,0.0,-1.28,75.01,75.01,0.0,0.12,3
1665697107.72073913,388476895,0.0,0.58,0.0,-1.28,75.02,75.02,0.0,0.15,3
1665697107.82039213,388576548,0.0,0.58,0.0,-1.28,75.02,75.02,0.0,0.14,3
1665697107.92033601,388676492,0.0,0.58,0.0,-1.28,75.01,75.01,0.0,0.16,3
1665697108.02075505,388776911,0.0,0.58,0.0,-1.28,74.99,74.99,0.0,0.17,3
1665697108.12036109,388876517,0.0,0.58,0.0,-1.28,74.96000000000001,74.96000000000001,0.0,0.14,3
1665697108.22035503,388976511,0.0,0.58,0.0,-1.28,74.93,74.93,0.0,0.12,3
1665697108.32044411,389076600,0.0,0.58,0.0,-1.28,74.9,74.9,0.0,0.12,3
1665697108.42035007,389176506,0.0,0.58,0.0,-1.28,74.88,74.88,0.0,0.13,3
1665697108.52037692,389276533,0.0,0.58,0.0,-1.28,74.86,74.86,0.0,0.11,3
1665697108.62040210,389376558,0.0,0.58,0.0,-1.27,74.85000000000001,74.85000000000001,0.0,0.09,3
1665697108.72076607,389476922,0.0,0.58,0.0,-1.27,74.84,74.84,0.0,0.1,3
1665697108.82046914,389576625,0.0,0.58,0.0,-1.27,74.83,74.83,0.0,0.09,3
1665697108.92039299,389676549,0.0,0.58,0.0,-1.27,74.83,74.83,0.0,0.08,3
1665697109.02060604,389776762,0.0,0.58,0.0,-1.27,74.83,74.83,0.0,0.07,3
1665697109.12030292,389876459,0.0,0.58,0.0,-1.26,74.84,74.84,0.0,0.09,3
1665697109.22034192,389976498,0.0,0.59,0.0,-1.26,74.85000000000001,74.85000000000001,0.0,0.1,3
1665697109.32029414,390076450,0.0,0.59,0.0,-1.26,74.86,74.86,0.0,0.12,3
1665697109.42032194,390176478,0.0,0.6,0.0,-1.27,74.87,74.87,0.0,0.11,3
1665697109.52033901,390276495,0.0,0.6,0.0,-1.27,74.88,74.88,0.0,0.1,3
1665697109.62036705,390376523,0.0,0.6,0.0,-1.27,74.89,74.89,0.0,0.11,3
1665697109.72076201,390476918,0.0,0.6,0.0,-1.27,74.9,74.9,0.0,0.1,3
1665697109.82042098,390576577,0.0,0.59,0.0,-1.26,74.91,74.91,0.0,0.11,3
1665697109.92040896,390676565,0.0,0.59,0.0,-1.26,74.93,74.93,0.0,0.12,3
1665697110.02057409,390776730,0.0,0.59,0.0,-1.26,74.94,74.94,0.0,0.11,3
1665697110.12039113,390876547,0.0,0.6,0.0,-1.26,74.95,74.95,0.0,0.1,3
1665697110.22037196,390976528,0.0,0.6,0.0,-1.26,74.95,74.95,0.0,0.09,3
1665697110.32043314,391076589,0.0,0.6,0.0,-1.26,74.94,74.94,0.0,0.12,3
1665697110.42046714,391176623,0.0,0.6,0.0,-1.26,74.93,74.93,0.0,0.11,3
1665697110.52035093,391276507,0.0,0.6,0.0,-1.26,74.91,74.91,0.0,0.09,3
1665697110.62028313,391376439,0.0,0.59,0.0,-1.26,74.89,74.89,0.0,0.08,3
1665697110.72080302,391476959,0.0,0.59,0.0,-1.26,74.87,74.87,0.0,0.08,3
1665697110.82035995,391576516,0.0,0.59,0.0,-1.26,74.85000000000001,74.85000000000001,0.0,0.09,3
1665697110.92030001,391676456,0.0,0.59,0.0,-1.26,74.85000000000001,74.85000000000001,0.0,0.09,3
1665697111.02049899,391776655,0.0,0.59,0.0,-1.26,74.86,74.86,0.0,0.08,3
1665697111.12033296,391876489,0.0,0.59,0.0,-1.27,74.88,74.88,0.0,0.07,3
1665697111.22037697,391976533,0.0,0.59,0.0,-1.26,74.89,74.89,0.0,0.06,3
1665697111.32034302,392076499,0.0,0.59,0.0,-1.26,74.9,74.9,0.0,0.07,3
1665697111.42039299,392176549,0.0,0.59,0.0,-1.26,74.92,74.92,0.0,0.07,3
1665697111.52036810,392276524,0.0,0.59,0.0,-1.26,74.93,74.93,0.0,0.08,3
1665697111.62050200,392376658,0.0,0.59,0.0,-1.26,74.94,74.94,0.0,0.09,3
1665697111.72080708,392476963,0.0,0.59,0.0,-1.26,74.95,74.95,0.0,0.1,3
1665697111.82043314,392576589,0.0,0.59,0.0,-1.26,74.95,74.95,0.0,0.08,3
1665697111.92041707,392676573,0.0,0.59,0.0,-1.26,74.95,74.95,0.0,0.08,3
1665697112.02049994,392776656,0.0,0.59,0.0,-1.26,74.94,74.94,0.0,0.09,3
1665697112.12035799,392876514,0.0,0.59,0.0,-1.26,74.91,74.94,0.0,0.08,3
1665697112.22031713,392976473,0.0,0.59,0.0,-1.26,74.89,74.93,0.0,0.1,3
1665697112.32032704,393076483,0.0,0.58,0.0,-1.26,74.9,74.92,0.0,0.12,3
1665697112.42033195,393176488,0.0,0.59,0.0,-1.26,74.91,74.91,0.0,0.09,3
1665697112.52037501,393276531,0.0,0.58,0.0,-1.26,74.91,74.91,0.0,0.09,3
1665697112.62032509,393376481,0.0,0.58,0.0,-1.26,74.91,74.91,0.0,0.08,3
1665697112.72077012,393476926,0.0,0.58,0.0,-1.26,74.91,74.91,0.0,0.09,3
1665697112.82039809,393576554,0.0,0.58,0.0,-1.26,74.91,74.91,0.0,0.08,3
1665697112.92033696,393676493,0.0,0.58,0.0,-1.26,74.92,74.9,0.0,0.08,3
1665697113.02039099,393776547,0.0,0.58,0.0,-1.26,74.94,74.89,0.0,0.07,3
1665697113.12035608,393876512,0.0,0.58,0.0,-1.26,74.91,74.89,0.0,0.07,3
1665697113.22043395,393976590,0.0,0.59,0.0,-1.25,74.88,74.88,0.0,0.06,3
1665697113.32038307,394076539,0.0,0.59,0.0,-1.25,74.88,74.88,0.0,0.06,3
1665697113.42048097,394176637,0.0,0.59,0.0,-1.25,74.88,74.88,0.0,0.06,3
1665697113.52034497,394276501,0.0,0.59,0.0,-1.25,74.88,74.88,0.0,0.07,3
1665697113.62040210,394376558,0.0,0.59,0.0,-1.25,74.88,74.88,0.0,0.09,3
1665697113.72041893,394476575,0.0,0.59,0.0,-1.24,74.89,74.9,0.0,0.08,3
1665697113.82034397,394576500,0.0,0.59,0.0,-1.24,74.89,74.92,0.0,0.1,3
1665697113.92031407,394676470,0.0,0.59,0.0,-1.24,74.89,74.94,0.0,0.13,3
1665697114.02030897,394776465,0.0,0.59,0.0,-1.25,74.89,74.97,0.0,0.14,3
1665697114.12032509,394876481,0.0,0.59,0.0,-1.24,74.89,74.99,0.0,0.12,3
1665697114.22033310,394976489,0.0,0.59,0.0,-1.24,74.89,75.01,0.0,0.12,3
1665697114.32040596,395076562,0.0,0.59,0.0,-1.24,74.89,75.01,0.0,0.12,3
1665697114.42037201,395176528,0.0,0.6,0.0,-1.24,74.89,75.02,0.01,0.11,3
1665697114.52035213,395276508,0.0,0.6,0.0,-1.24,74.89,75.02,0.01,0.11,3
1665697114.62056494,395376721,0.0,0.6,0.0,-1.24,74.89,75.01,0.01,0.1,3
1665697114.72040701,395476563,0.0,0.6,0.0,-1.24,74.89,75.0,0.01,0.08,3
1665697114.82046604,395576622,0.0,0.6,0.0,-1.23,74.89,74.98,0.01,0.07,3
1665697114.92037201,395676528,0.0,0.6,0.0,-1.23,74.89,74.97,0.01,0.07,3
1665697115.02045107,395776607,0.0,0.6,0.0,-1.23,74.89,74.96000000000001,0.01,0.07,3
1665697115.12033701,395876493,0.0,0.61,0.0,-1.23,74.89,74.94,0.01,0.09,3
1665697115.22040200,395976558,0.0,0.61,0.0,-1.23,74.89,74.92,0.01,0.13,3
1665697115.32033110,396076487,0.0,0.61,0.0,-1.22,74.89,74.91,0.01,0.11,3
1665697115.42032194,396176478,0.0,0.61,0.0,-1.23,74.89,74.91,0.01,0.11,3
1665697115.52031612,396276472,0.0,0.61,0.0,-1.23,74.89,74.91,0.01,0.09,3
1665697115.62030005,396376456,0.0,0.61,0.0,-1.22,74.89,74.92,0.01,0.09,3
1665697115.72042203,396476578,0.0,0.61,0.0,-1.22,74.92,74.92,0.01,0.08,3
1665697115.82036614,396576522,0.0,0.61,0.0,-1.22,74.93,74.93,0.01,0.09,3
1665697115.92036700,396676523,0.0,0.61,0.0,-1.22,74.92,74.92,0.01,0.08,3
1665697116.02035403,396776510,0.0,0.61,0.0,-1.22,74.91,74.91,0.01,0.07,3
1665697116.12044597,396876602,0.0,0.61,0.0,-1.22,74.91,74.91,0.01,0.08,3
1665697116.22040296,396976559,0.0,0.61,0.0,-1.22,74.89,74.89,0.01,0.08,3
1665697116.32036996,397076526,0.0,0.6,0.0,-1.22,74.88,74.88,0.01,0.08,3
1665697116.42042994,397176586,0.0,0.61,0.0,-1.22,74.88,74.88,0.01,0.08,3
1665697116.52041197,397276568,0.0,0.61,0.0,-1.22,74.88,74.88,0.01,0.08,3
1665697116.62041211,397376568,0.0,0.61,0.0,-1.21,74.89,74.89,0.01,0.07,3
1665697116.72057509,397476731,0.0,0.61,0.0,-1.21,74.91,74.91,0.01,0.09,3
1665697116.82039809,397576554,0.0,0.6,0.0,-1.21,74.91,74.91,0.01,0.1,3
1665697116.92028999,397676446,0.0,0.61,0.0,-1.21,74.91,74.91,0.01,0.08,3
1665697117.02035093,397776507,0.0,0.61,0.0,-1.21,74.89,74.89,0.01,0.11,3
1665697117.12032795,397876484,0.0,0.61,0.0,-1.21,74.87,74.87,0.01,0.1,3
1665697117.22031093,397976467,0.0,0.61,0.0,-1.21,74.84,74.84,0.01,0.1,3
1665697117.32032609,398076482,0.0,0.6,0.0,-1.21,74.82000000000001,74.82000000000001,0.01,0.1,3
1665697117.42034197,398176498,0.0,0.61,0.0,-1.21,74.79,74.79,0.01,0.09,3
1665697117.52038193,398276538,0.0,0.6,0.0,-1.21,74.78,74.78,0.01,0.09,3
1665697117.62034702,398376503,0.0,0.6,0.0,-1.2,74.78,74.78,0.01,0.09,3
1665697117.72047210,398476628,0.0,0.6,0.0,-1.2,74.79,74.79,0.01,0.11,3
1665697117.82039309,398576549,0.0,0.6,0.0,-1.2,74.79,74.79,0.01,0.12,3
1665697117.92040205,398676558,0.0,0.6,0.0,-1.2,74.79,74.79,0.01,0.1,3
1665697118.02039099,398776547,0.0,0.6,0.0,-1.2,74.79,74.77,0.01,0.11,3
1665697118.12045002,398876606,0.0,0.6,0.0,-1.2,74.79,74.77,0.01,0.12,3
1665697118.22039795,398976554,0.0,0.6,0.0,-1.2,74.79,74.77,0.01,0.12,3
1665697118.32034802,399076504,0.0,0.59,0.0,-1.2,74.79,74.79,0.01,0.09,3
1665697118.42032599,399176482,0.0,0.59,0.0,-1.21,74.79,74.8,0.01,0.08,3
1665697118.52029896,399276455,0.0,0.59,0.0,-1.21,74.79,74.81,0.01,0.09,3
1665697118.62037301,399376529,0.0,0.59,0.0,-1.21,74.79,74.81,0.02,0.09,3
1665697118.72035503,399476511,0.0,0.59,0.0,-1.21,74.79,74.81,0.02,0.07,3
1665697118.82041311,399576569,0.0,0.59,0.0,-1.2,74.79,74.8,0.01,0.09,3
1665697118.92037392,399676530,0.0,0.59,0.0,-1.21,74.79,74.79,0.01,0.08,3
1665697119.02036405,399776520,0.0,0.59,0.0,-1.21,74.79,74.78,0.01,0.09,3
1665697119.12032413,399876480,0.0,0.59,0.0,-1.21,74.79,74.77,0.01,0.07,3
1665697119.22038198,399976538,0.0,0.59,0.0,-1.21,74.79,74.76,0.01,0.07,3
1665697119.32039094,400076547,0.0,0.59,0.0,-1.21,74.79,74.76,0.01,0.07,3
1665697119.42035508,400176511,0.0,0.59,0.0,-1.21,74.79,74.77,0.01,0.08,3
1665697119.52039194,400276548,0.0,0.59,0.0,-1.21,74.79,74.78,0.01,0.1,3
1665697119.62039304,400376549,0.0,0.59,0.0,-1.21,74.79,74.79,0.01,0.12,3
1665697119.72053194,400476688,0.0,0.59,0.0,-1.21,74.79,74.79,0.01,0.15,3
1665697119.82039905,400576555,0.0,0.59,0.0,-1.21,74.79,74.78,0.02,0.13,3
1665697119.92035508,400676511,0.0,0.59,0.0,-1.21,74.79,74.76,0.02,0.11,3
1665697120.02043200,400776588,0.0,0.59,0.0,-1.21,74.79,74.74,0.02,0.09,3
1665697120.12030005,400876456,0.0,0.59,0.0,-1.21,74.79,74.73,0.02,0.09,3
1665697120.22032905,400976485,0.0,0.59,0.0,-1.21,74.79,74.72,0.02,0.14,3
1665697120.32031393,401076470,0.0,0.59,0.0,-1.21,74.79,74.73,0.02,0.11,3
1665697120.42033410,401176490,0.0,0.6,0.0,-1.21,74.79,74.75,0.01,0.11,3
1665697120.52035308,401276509,0.0,0.6,0.0,-1.21,74.79,74.77,0.01,0.11,3
1665697120.62040496,401376561,0.0,0.6,0.0,-1.21,74.8,74.8,0.01,0.09,3
1665697120.72074294,401476899,0.0,0.61,0.0,-1.21,74.82000000000001,74.82000000000001,0.01,0.08,3
1665697120.82040691,401576563,0.0,0.61,0.0,-1.21,74.84,74.84,0.01,0.09,3
1665697120.92046499,401676621,0.0,0.61,0.0,-1.21,74.86,74.86,0.01,0.08,3
1665697121.02035308,401776509,0.0,0.61,0.0,-1.21,74.87,74.87,0.0,0.08,3
1665697121.12044001,401876596,0.0,0.61,0.0,-1.21,74.87,74.87,0.0,0.09,3
1665697121.22033811,401976494,0.0,0.61,0.0,-1.21,74.87,74.87,0.0,0.08,3
1665697121.32035494,402076511,0.0,0.61,0.0,-1.21,74.87,74.87,0.0,0.07,3
1665697121.42035103,402176507,0.0,0.61,0.0,-1.21,74.87,74.87,0.0,0.06,3
1665697121.52040410,402276560,0.0,0.61,0.0,-1.21,74.88,74.88,0.0,0.06,3
1665697121.62045908,402376615,0.0,0.62,0.0,-1.22,74.87,74.87,0.0,0.09,3
1665697121.72069597,402476852,0.0,0.62,0.0,-1.22,74.88,74.88,0.0,0.11,3
1665697121.82036209,402576518,0.0,0.62,0.0,-1.22,74.89,74.89,0.0,0.08,3
1665697121.92035913,402676515,0.0,0.62,0.0,-1.22,74.91,74.91,0.0,0.07,3
1665697122.02035308,402776509,0.0,0.62,0.0,-1.22,74.92,74.92,0.0,0.07,3
1665697122.12036610,402876522,0.0,0.62,0.0,-1.22,74.93,74.93,0.0,0.08,3
1665697122.22035193,402976508,0.0,0.63,0.0,-1.21,74.93,74.93,0.0,0.11,3
1665697122.32032514,403076481,0.0,0.63,0.0,-1.21,74.91,74.91,0.0,0.12,3
1665697122.42040801,403176564,0.0,0.64,0.0,-1.21,74.88,74.88,0.0,0.1,3
1665697122.52038813,403276544,0.0,0.64,0.0,-1.21,74.86,74.86,0.0,0.09,3
1665697122.62039399,403376550,0.0,0.65,0.0,-1.21,74.84,74.84,0.0,0.09,3
1665697122.72075009,403476906,0.0,0.65,0.0,-1.2,74.83,74.83,0.0,0.08,3
1665697122.82037711,403576533,0.0,0.65,0.0,-1.19,74.82000000000001,74.82000000000001,0.0,0.1,3
1665697122.92035794,403676514,0.0,0.65,0.0,-1.19,74.83,74.83,0.0,0.11,3
1665697123.02040601,403776562,0.0,0.66,0.0,-1.18,74.83,74.83,0.0,0.1,3
1665697123.12035394,403876510,0.0,0.66,0.0,-1.18,74.83,74.83,0.0,0.13,3
1665697123.22030401,403976460,0.0,0.66,0.0,-1.18,74.84,74.84,0.0,0.12,3
1665697123.32038093,404076537,0.0,0.66,0.0,-1.18,74.85000000000001,74.85000000000001,0.0,0.11,3
1665697123.42032409,404176480,0.0,0.66,0.0,-1.18,74.85000000000001,74.85000000000001,0.0,0.09,3
1665697123.52032709,404276483,0.0,0.66,0.0,-1.18,74.85000000000001,74.85000000000001,0.0,0.09,3
1665697123.62036109,404376517,0.0,0.66,0.0,-1.18,74.85000000000001,74.85000000000001,0.0,0.07,3
1665697123.72069001,404476846,0.0,0.66,0.0,-1.17,74.85000000000001,74.85000000000001,0.0,0.1,3
1665697123.82039714,404576553,0.0,0.67,0.0,-1.17,74.86,74.86,0.0,0.1,3
1665697123.92035794,404676514,0.0,0.67,0.0,-1.17,74.87,74.87,0.0,0.09,3
1665697124.02043509,404776591,0.0,0.67,0.0,-1.17,74.87,74.87,0.0,0.11,3
1665697124.12034702,404876503,0.0,0.67,0.0,-1.18,74.88,74.88,0.0,0.1,3
1665697124.22043395,404976590,0.0,0.67,0.0,-1.18,74.88,74.88,0.0,0.08,3
1665697124.32035708,405076513,0.0,0.67,0.0,-1.18,74.88,74.88,0.0,0.07,3
1665697124.42033696,405176493,0.0,0.67,0.0,-1.18,74.88,74.88,0.0,0.07,3
1665697124.52036595,405276522,0.0,0.67,0.0,-1.18,74.88,74.88,0.0,0.07,3
1665697124.62039208,405376548,0.0,0.67,0.0,-1.18,74.88,74.88,0.0,0.06,3
1665697124.72070312,405476859,0.0,0.67,0.0,-1.18,74.88,74.88,0.0,0.09,3
1665697124.82033014,405576486,0.0,0.67,0.0,-1.17,74.87,74.87,0.0,0.08,3
1665697124.92032909,405676485,0.0,0.67,0.0,-1.17,74.86,74.86,0.0,0.06,3
1665697125.02033901,405776495,0.0,0.67,0.0,-1.17,74.84,74.84,0.0,0.06,3
1665697125.12038493,405876541,0.0,0.67,0.0,-1.17,74.83,74.83,0.0,0.05,3
1665697125.22036695,405976523,0.0,0.67,0.0,-1.17,74.82000000000001,74.82000000000001,0.0,0.04,3
1665697125.32034397,406076500,0.0,0.67,0.0,-1.17,74.81,74.81,0.0,0.06,3
1665697125.42037511,406176531,0.0,0.67,0.0,-1.17,74.8,74.8,0.0,0.06,3
1665697125.52035594,406276512,0.0,0.67,0.0,-1.17,74.78,74.78,0.0,0.05,3
1665697125.62037396,406376530,0.0,0.67,0.0,-1.16,74.76,74.76,0.0,0.05,3
1665697125.72068810,406476844,0.0,0.67,0.0,-1.16,74.75,74.75,0.0,0.04,3
1665697125.82046294,406576619,0.0,0.67,0.0,-1.16,74.75,74.75,0.0,0.04,3
1665697125.92033315,406676489,0.0,0.67,0.0,-1.16,74.74,74.74,0.0,0.05,3
1665697126.02039814,406776554,0.0,0.67,0.0,-1.16,74.74,74.74,0.0,0.04,3
1665697126.12037206,406876528,0.0,0.67,0.0,-1.16,74.73,74.73,0.0,0.04,3
1665697126.22031808,406976474,0.0,0.67,0.0,-1.16,74.72,74.72,0.0,0.05,3
1665697126.32033515,407076491,0.0,0.67,0.0,-1.17,74.72,74.72,0.0,0.09,3
1665697126.42030406,407176460,0.0,0.67,0.0,-1.17,74.72,74.72,0.0,0.1,3
1665697126.52032399,407276480,0.0,0.67,0.0,-1.17,74.72,74.72,0.0,0.11,3
1665697126.62030005,407376456,0.0,0.66,0.0,-1.17,74.72,74.72,0.0,0.11,3
1665697126.72078013,407476936,0.0,0.66,0.0,-1.17,74.72,74.72,0.0,0.09,3
1665697126.82039499,407576551,0.0,0.66,0.0,-1.17,74.72,74.72,0.0,0.12,3
1665697126.92036104,407676517,0.0,0.66,0.0,-1.17,74.73,74.73,0.0,0.11,3
1665697127.02039909,407776555,0.0,0.66,0.0,-1.17,74.74,74.74,0.0,0.09,3
1665697127.12036800,407876524,0.0,0.66,0.0,-1.17,74.75,74.75,0.0,0.08,3
1665697127.22046208,407976618,0.0,0.66,0.0,-1.17,74.76,74.76,0.0,0.08,3
1665697127.32031012,408076466,0.0,0.66,0.0,-1.17,74.76,74.76,0.0,0.07,3
1665697127.42039013,408176546,0.0,0.66,0.0,-1.17,74.77,74.77,0.0,0.07,3
1665697127.52035403,408276510,0.0,0.65,0.0,-1.17,74.78,74.78,0.0,0.06,3
1665697127.62045002,408376606,0.0,0.65,0.0,-1.18,74.8,74.8,0.0,0.05,3
1665697127.72075415,408476910,0.0,0.65,0.0,-1.18,74.8,74.8,0.0,0.07,3
1665697127.82044697,408576603,0.0,0.65,0.0,-1.18,74.8,74.8,0.0,0.06,3
1665697127.92036510,408676521,0.0,0.65,0.0,-1.18,74.79,74.79,0.0,0.05,3
1665697128.02031803,408776474,0.0,0.65,0.0,-1.18,74.79,74.79,0.0,0.04,3
1665697128.12031198,408876468,0.0,0.65,0.0,-1.18,74.78,74.78,0.0,0.05,3
1665697128.22031593,408976472,0.0,0.65,0.0,-1.18,74.78,74.78,0.0,0.07,3
1665697128.32037807,409076534,0.0,0.65,0.0,-1.18,74.78,74.78,0.0,0.11,3
1665697128.42034101,409176497,0.0,0.65,0.0,-1.18,74.8,74.8,0.0,0.11,3
1665697128.52035713,409276513,0.0,0.65,0.0,-1.18,74.84,74.84,0.0,0.1,3
1665697128.62037015,409376526,0.0,0.65,0.0,-1.18,74.87,74.87,0.0,0.11,3
1665697128.72081399,409476970,0.0,0.65,0.0,-1.18,74.88,74.88,0.0,0.1,3
1665697128.82043314,409576589,0.0,0.64,0.0,-1.18,74.89,74.89,0.0,0.08,3
1665697128.92036915,409676525,0.0,0.65,0.0,-1.18,74.88,74.88,0.0,0.1,3
1665697129.02035904,409776515,0.0,0.65,0.0,-1.18,74.88,74.88,0.0,0.08,3
1665697129.12036800,409876524,0.0,0.65,0.0,-1.18,74.88,74.88,0.0,0.07,3
1665697129.22037601,409976532,0.0,0.65,0.0,-1.18,74.88,74.88,0.0,0.06,3
1665697129.32041311,410076569,0.0,0.65,0.0,-1.18,74.88,74.88,0.0,0.09,3
1665697129.42031193,410176468,0.0,0.65,0.0,-1.18,74.88,74.88,0.0,0.08,3
1665697129.52029705,410276453,0.0,0.65,0.0,-1.18,74.88,74.87,0.0,0.12,3
1665697129.62036395,410376520,0.0,0.66,0.0,-1.18,74.88,74.87,0.0,0.1,3
1665697129.72037506,410476531,0.0,0.66,0.0,-1.18,74.88,74.88,0.0,0.09,3
1665697129.82035708,410576513,0.0,0.66,0.0,-1.18,74.88,74.88,0.01,0.08,3
1665697129.92035294,410676509,0.0,0.66,0.0,-1.18,74.88,74.88,0.01,0.07,3
1665697130.02035213,410776508,0.0,0.66,0.0,-1.18,74.88,74.89,0.01,0.08,3
1665697130.12037396,410876530,0.0,0.66,0.0,-1.18,74.88,74.88,0.01,0.06,3
1665697130.22036409,410976520,0.0,0.66,0.0,-1.18,74.88,74.87,0.01,0.07,3
1665697130.32038713,411076543,0.0,0.66,0.0,-1.18,74.88,74.87,0.01,0.11,3
1665697130.42040610,411176562,0.0,0.66,0.0,-1.18,74.88,74.86,0.01,0.1,3
1665697130.52041912,411276575,0.0,0.65,0.0,-1.18,74.88,74.86,0.01,0.09,3
1665697130.62035704,411376513,0.0,0.65,0.0,-1.18,74.88,74.85000000000001,0.01,0.09,3
1665697130.72038794,411476544,0.0,0.65,0.0,-1.18,74.88,74.86,0.01,0.09,3
1665697130.82049108,411576647,0.0,0.65,0.0,-1.18,74.88,74.86,0.01,0.09,3
1665697130.92030501,411676461,0.0,0.65,0.0,-1.18,74.88,74.87,0.01,0.11,3
1665697131.02033710,411776493,0.0,0.65,0.0,-1.18,74.88,74.87,0.01,0.12,3
1665697131.12025714,411876413,0.0,0.64,0.0,-1.18,74.88,74.87,0.01,0.12,3
1665697131.22033405,411976490,0.0,0.64,0.0,-1.18,74.88,74.87,0.01,0.1,3
1665697131.32030606,412076462,0.0,0.64,0.0,-1.18,74.87,74.87,0.01,0.09,3
1665697131.42041302,412176569,0.0,0.63,0.0,-1.18,74.86,74.86,0.01,0.1,3
1665697131.52036715,412276523,0.0,0.63,0.0,-1.18,74.85000000000001,74.85000000000001,0.01,0.11,3
1665697131.62039208,412376548,0.0,0.63,0.0,-1.18,74.83,74.83,0.01,0.12,3
1665697131.72043204,412476588,0.0,0.63,0.0,-1.18,74.8,74.8,0.01,0.11,3
1665697131.82041907,412576575,0.0,0.63,0.0,-1.18,74.77,74.77,0.01,0.11,3
1665697131.92042804,412676584,0.0,0.63,0.0,-1.18,74.75,74.75,0.01,0.1,3
1665697132.02041006,412776566,0.0,0.63,0.0,-1.18,74.73,74.73,0.01,0.1,3
1665697132.12039900,412876555,0.0,0.64,0.0,-1.18,74.72,74.72,0.01,0.09,3
1665697132.22035909,412976515,0.0,0.64,0.0,-1.18,74.71000000000001,74.71000000000001,0.01,0.08,3
1665697132.32038713,413076543,0.0,0.64,0.0,-1.18,74.7,74.7,0.01,0.1,3
1665697132.42036295,413176519,0.0,0.64,0.0,-1.18,74.7,74.7,0.01,0.08,3
1665697132.52031398,413276470,0.0,0.64,0.0,-1.18,74.69,74.69,0.01,0.09,3
1665697132.62032294,413376479,0.0,0.64,0.0,-1.18,74.68,74.68,0.01,0.13,3
1665697132.72035098,413476507,0.0,0.64,0.0,-1.18,74.66,74.66,0.01,0.12,3
1665697132.82039809,413576554,0.0,0.64,0.0,-1.18,74.62,74.62,0.01,0.1,3
1665697132.92034698,413676503,0.0,0.64,0.0,-1.18,74.59,74.59,0.01,0.1,3
1665697133.02040315,413776559,0.0,0.64,0.0,-1.18,74.56,74.56,0.01,0.08,3
1665697133.12035894,413876515,0.0,0.64,0.0,-1.18,74.54,74.54,0.01,0.1,3
1665697133.22041702,413976573,0.0,0.64,0.0,-1.18,74.53,74.53,0.01,0.09,3
1665697133.32040405,414076560,0.0,0.63,0.0,-1.18,74.52,74.52,0.01,0.08,3
1665697133.42035294,414176509,0.0,0.64,0.0,-1.18,74.52,74.52,0.01,0.08,3
1665697133.52049208,414276648,0.0,0.64,0.0,-1.18,74.53,74.52,0.01,0.1,3
1665697133.62036896,414376525,0.0,0.64,0.0,-1.18,74.56,74.53,0.0,0.1,3
1665697133.72078395,414476940,0.0,0.64,0.0,-1.19,74.59,74.55,0.0,0.09,3
1665697133.82037115,414576527,0.0,0.63,0.0,-1.18,74.61,74.57000000000001,0.0,0.08,3
1665697133.92037606,414676532,0.0,0.63,0.0,-1.18,74.62,74.58,0.0,0.07,3
1665697134.02030802,414776464,0.0,0.63,0.0,-1.18,74.63,74.59,0.0,0.1,3
1665697134.12039304,414876549,0.0,0.64,0.0,-1.18,74.64,74.60000000000001,0.0,0.09,3
1665697134.22033906,414976495,0.0,0.64,0.0,-1.18,74.66,74.62,0.0,0.11,3
1665697134.32030296,415076459,0.0,0.64,0.0,-1.18,74.68,74.64,0.0,0.09,3
1665697134.42034292,415176499,0.0,0.64,0.0,-1.18,74.68,74.64,0.0,0.07,3
1665697134.52034402,415276500,0.0,0.64,0.0,-1.18,74.68,74.64,0.0,0.11,3
1665697134.62036514,415376521,0.0,0.64,0.0,-1.18,74.68,74.65,0.0,0.09,3
1665697134.72077107,415476927,0.0,0.64,0.0,-1.18,74.7,74.66,0.0,0.08,3
1665697134.82050109,415576657,0.0,0.64,0.0,-1.18,74.71000000000001,74.67,0.0,0.08,3
1665697134.92034507,415676501,0.0,0.64,0.0,-1.18,74.72,74.69,0.0,0.07,3
1665697135.02041793,415776574,0.0,0.64,0.0,-1.18,74.73,74.7,0.0,0.05,3
1665697135.12037992,415876536,0.0,0.64,0.0,-1.18,74.74,74.71000000000001,0.0,0.07,3
1665697135.22037101,415976527,0.0,0.64,0.0,-1.18,74.76,74.72,0.0,0.06,3
1665697135.32036805,416076524,0.0,0.64,0.0,-1.18,74.76,74.73,0.0,0.07,3
1665697135.42036009,416176516,0.0,0.64,0.0,-1.18,74.77,74.75,0.0,0.09,3
1665697135.52035809,416276514,0.0,0.64,0.0,-1.18,74.78,74.76,0.0,0.08,3
1665697135.62043905,416376595,0.0,0.63,0.0,-1.18,74.78,74.78,0.0,0.06,3
1665697135.72076011,416476916,0.0,0.63,0.0,-1.18,74.8,74.8,0.0,0.08,3
1665697135.82033396,416576490,0.0,0.63,0.0,-1.18,74.81,74.81,0.0,0.1,3
1665697135.92038298,416676539,0.0,0.63,0.0,-1.18,74.8,74.8,0.0,0.1,3
1665697136.02036095,416776517,0.0,0.63,0.0,-1.18,74.79,74.79,0.0,0.08,3
1665697136.12034011,416876496,0.0,0.63,0.0,-1.18,74.78,74.78,0.0,0.09,3
1665697136.22045708,416976613,0.0,0.63,0.0,-1.18,74.76,74.76,0.0,0.07,3
1665697136.32036400,417076520,0.0,0.63,0.0,-1.18,74.75,74.75,0.0,0.09,3
1665697136.42041993,417176576,0.0,0.63,0.0,-1.18,74.74,74.74,0.0,0.09,3
1665697136.52043104,417276587,0.0,0.63,0.0,-1.18,74.72,74.72,0.0,0.07,3
1665697136.62048292,417376639,0.0,0.63,0.0,-1.18,74.7,74.7,0.0,0.08,3
1665697136.72081900,417476975,0.0,0.64,0.0,-1.19,74.69,74.69,0.0,0.08,3
1665697136.82054806,417576704,0.0,0.64,0.0,-1.19,74.68,74.68,0.0,0.08,3
1665697136.92047215,417676628,0.0,0.64,0.0,-1.19,74.68,74.68,0.0,0.07,3
1665697137.02037597,417776532,0.0,0.64,0.0,-1.19,74.68,74.68,0.0,0.06,3
1665697137.12040305,417876559,0.0,0.63,0.0,-1.19,74.67,74.67,0.0,0.07,3
1665697137.22032404,417976480,0.0,0.64,0.0,-1.19,74.67,74.67,0.0,0.1,3
1665697137.32034492,418076501,0.0,0.63,0.0,-1.19,74.67,74.67,0.0,0.08,3
1665697137.42033696,418176493,0.0,0.63,0.0,-1.19,74.66,74.66,0.0,0.09,3
1665697137.52038693,418276543,0.0,0.63,0.0,-1.19,74.65,74.65,0.0,0.09,3
1665697137.62037396,418376530,0.0,0.63,0.0,-1.19,74.65,74.65,0.0,0.11,3
1665697137.72095609,418477112,0.0,0.63,0.0,-1.19,74.66,74.66,0.0,0.11,3
1665697137.82045293,418576609,0.0,0.63,0.0,-1.19,74.68,74.68,0.0,0.09,3
1665697137.92115712,418677313,0.0,0.62,0.0,-1.19,74.69,74.69,0.0,0.09,3
1665697138.02037501,418776531,0.0,0.63,0.0,-1.19,74.69,74.69,0.0,0.1,3
1665697138.12032199,418876478,0.0,0.63,0.0,-1.19,74.69,74.7,0.0,0.08,3
1665697138.22044206,418976598,0.0,0.63,0.0,-1.19,74.69,74.7,0.0,0.1,3
1665697138.32031107,419076467,0.0,0.63,0.0,-1.19,74.69,74.7,0.0,0.11,3
1665697138.42040014,419176556,0.0,0.63,0.0,-1.19,74.69,74.7,0.0,0.11,3
1665697138.52033615,419276492,0.0,0.63,0.0,-1.19,74.69,74.7,0.0,0.1,3
1665697138.62041306,419376569,0.0,0.63,0.0,-1.18,74.69,74.7,0.0,0.08,3
1665697138.72037911,419476535,0.0,0.63,0.0,-1.19,74.69,74.7,0.0,0.1,3
1665697138.82047510,419576631,0.0,0.63,0.0,-1.19,74.69,74.7,0.01,0.1,3
1665697138.92030811,419676464,0.0,0.64,0.0,-1.18,74.69,74.71000000000001,0.01,0.11,3
1665697139.02031207,419776468,0.0,0.64,0.0,-1.18,74.69,74.72,0.01,0.1,3
1665697139.12032294,419876479,0.0,0.64,0.0,-1.18,74.69,74.72,0.01,0.12,3
1665697139.22034812,419976504,0.0,0.64,0.0,-1.18,74.69,74.72,0.01,0.1,3
1665697139.32036495,420076521,0.0,0.64,0.0,-1.18,74.69,74.71000000000001,0.01,0.1,3
1665697139.42035294,420176509,0.0,0.64,0.0,-1.18,74.69,74.7,0.01,0.11,3
1665697139.52040410,420276560,0.0,0.63,0.0,-1.18,74.69,74.68,0.01,0.12,3
1665697139.62034011,420376496,0.0,0.63,0.0,-1.18,74.69,74.65,0.01,0.1,3
1665697139.72051811,420476674,0.0,0.63,0.0,-1.18,74.69,74.63,0.01,0.09,3
1665697139.82048702,420576643,0.0,0.63,0.0,-1.18,74.69,74.61,0.01,0.07,3
1665697139.92036605,420676522,0.0,0.63,0.0,-1.18,74.69,74.60000000000001,0.01,0.07,3
1665697140.02046394,420776620,0.0,0.63,0.0,-1.18,74.59,74.59,0.01,0.06,3
1665697140.12037802,420876534,0.0,0.62,0.0,-1.18,74.58,74.58,0.01,0.07,3
1665697140.22041202,420976568,0.0,0.63,0.0,-1.18,74.59,74.59,0.01,0.06,3
1665697140.32032108,421076477,0.0,0.63,0.0,-1.18,74.59,74.59,0.01,0.05,3
1665697140.42034698,421176503,0.0,0.63,0.0,-1.18,74.59,74.59,0.01,0.09,3
1665697140.52034998,421276506,0.0,0.63,0.0,-1.18,74.59,74.59,0.01,0.11,3
1665697140.62039995,421376556,0.0,0.63,0.0,-1.18,74.58,74.58,0.01,0.09,3
1665697140.72044992,421476606,0.0,0.63,0.0,-1.18,74.57000000000001,74.57000000000001,0.01,0.07,3
1665697140.82045007,421576606,0.0,0.63,0.0,-1.18,74.57000000000001,74.57000000000001,0.01,0.07,3
1665697140.92046094,421676617,0.0,0.63,0.0,-1.18,74.57000000000001,74.57000000000001,0.01,0.09,3
1665697141.02039695,421776553,0.0,0.63,0.0,-1.17,74.56,74.56,0.01,0.09,3
1665697141.12040901,421876565,0.0,0.62,0.0,-1.17,74.54,74.54,0.01,0.09,3
1665697141.22038412,421976540,0.0,0.62,0.0,-1.17,74.52,74.52,0.02,0.08,3
1665697141.32073712,422076893,0.0,0.62,0.0,-1.18,74.51,74.51,0.02,0.07,3
1665697141.42044711,422176603,0.0,0.62,0.0,-1.18,74.51,74.51,0.02,0.07,3
1665697141.52050710,422276663,0.0,0.62,0.0,-1.18,74.51,74.51,0.02,0.05,3
1665697141.62047195,422376628,0.0,0.62,0.0,-1.18,74.51,74.51,0.02,0.05,3
1665697141.72050810,422476664,0.0,0.63,0.0,-1.18,74.52,74.52,0.02,0.05,3
1665697141.82051301,422576669,0.0,0.63,0.0,-1.18,74.52,74.52,0.02,0.05,3
1665697141.92043495,422676591,0.0,0.63,0.0,-1.18,74.52,74.52,0.02,0.04,3
1665697142.02037597,422776532,0.0,0.62,0.0,-1.18,74.52,74.52,0.02,0.06,3
1665697142.12037706,422876533,0.0,0.63,0.0,-1.18,74.51,74.51,0.02,0.07,3
1665697142.22040009,422976556,0.0,0.63,0.0,-1.18,74.5,74.5,0.01,0.07,3
1665697142.32071114,423076867,0.0,0.63,0.0,-1.18,74.5,74.5,0.01,0.07,3
1665697142.42047906,423176635,0.0,0.63,0.0,-1.18,74.49,74.49,0.01,0.06,3
1665697142.52039099,423276547,0.0,0.63,0.0,-1.17,74.49,74.49,0.01,0.07,3
1665697142.62041211,423376568,0.0,0.63,0.0,-1.17,74.5,74.5,0.01,0.06,3
1665697142.72052097,423476677,0.0,0.63,0.0,-1.17,74.5,74.5,0.01,0.05,3
1665697142.82044792,423576604,0.0,0.63,0.0,-1.18,74.51,74.51,0.01,0.04,3
1665697142.92046595,423676622,0.0,0.63,0.0,-1.18,74.51,74.51,0.01,0.05,3
1665697143.02044010,423776596,0.0,0.63,0.0,-1.18,74.52,74.52,0.01,0.1,3
1665697143.12047005,423876626,0.0,0.63,0.0,-1.18,74.51,74.51,0.01,0.08,3
1665697143.22037196,423976528,0.0,0.63,0.0,-1.18,74.5,74.5,0.01,0.07,3
1665697143.32072306,424076879,0.0,0.63,0.0,-1.18,74.49,74.49,0.01,0.06,3
1665697143.42040801,424176564,0.0,0.62,0.0,-1.18,74.47,74.47,0.01,0.06,3
1665697143.52033401,424276490,0.0,0.62,0.0,-1.18,74.46000000000001,74.46000000000001,0.01,0.05,3
1665697143.62034297,424376499,0.0,0.62,0.0,-1.18,74.45,74.45,0.01,0.05,3
1665697143.72083712,424476993,0.0,0.62,0.0,-1.18,74.45,74.44,0.01,0.05,3
1665697143.82040906,424576565,0.0,0.62,0.0,-1.18,74.45,74.44,0.01,0.06,3
1665697143.92036104,424676517,0.0,0.62,0.0,-1.18,74.44,74.43,0.01,0.06,3
1665697144.02048612,424776642,0.0,0.62,0.0,-1.18,74.44,74.43,0.01,0.07,3
1665697144.12036896,424876525,0.0,0.62,0.0,-1.18,74.44,74.43,0.01,0.07,3
1665697144.22047806,424976634,0.0,0.62,0.0,-1.18,74.44,74.42,0.0,0.07,3
1665697144.32047105,425076627,0.0,0.62,0.0,-1.18,74.43,74.42,0.0,0.06,3
1665697144.42040706,425176563,0.0,0.62,0.0,-1.18,74.43,74.42,0.0,0.07,3
1665697144.52045798,425276614,0.0,0.62,0.0,-1.18,74.43,74.42,0.0,0.08,3
1665697144.62047315,425376629,0.0,0.62,0.0,-1.18,74.43,74.42,0.0,0.08,3
1665697144.72091413,425477070,0.0,0.62,0.0,-1.18,74.42,74.42,0.0,0.08,3
1665697144.82041311,425576569,0.0,0.62,0.0,-1.18,74.42,74.42,0.0,0.08,3
1665697144.92038298,425676539,0.0,0.63,0.0,-1.18,74.41,74.41,0.0,0.07,3
1665697145.02034497,425776501,0.0,0.63,0.0,-1.18,74.4,74.4,0.0,0.1,3
1665697145.12038994,425876546,0.0,0.63,0.0,-1.18,74.39,74.39,0.0,0.08,3
1665697145.22036004,425976516,0.0,0.63,0.0,-1.18,74.37,74.37,0.0,0.08,3
1665697145.32056904,426076725,0.0,0.63,0.0,-1.17,74.36,74.36,0.0,0.09,3
1665697145.42040896,426176565,0.0,0.63,0.0,-1.17,74.34,74.34,0.0,0.09,3
1665697145.52035809,426276514,0.0,0.63,0.0,-1.17,74.34,74.34,0.0,0.08,3
1665697145.62036014,426376516,0.0,0.62,0.0,-1.17,74.34,74.34,0.0,0.08,3
1665697145.72073102,426476887,0.0,0.62,0.0,-1.17,74.34,74.34,0.0,0.07,3
1665697145.82041311,426576569,0.0,0.63,0.0,-1.18,74.34,74.34,0.0,0.07,3
1665697145.92032409,426676480,0.0,0.63,0.0,-1.18,74.34,74.34,0.0,0.08,3
1665697146.02040315,426776559,0.0,0.63,0.0,-1.18,74.33,74.33,0.0,0.08,3
1665697146.12049699,426876653,0.0,0.63,0.0,-1.17,74.32000000000001,74.32000000000001,0.0,0.07,3
1665697146.22038913,426976545,0.0,0.63,0.0,-1.17,74.31,74.31,0.0,0.08,3
1665697146.32037902,427076535,0.0,0.63,0.0,-1.17,74.31,74.31,0.0,0.11,3
1665697146.42029595,427176452,0.0,0.63,0.0,-1.17,74.32000000000001,74.32000000000001,0.0,0.1,3
1665697146.52032709,427276483,0.0,0.62,0.0,-1.17,74.34,74.34,0.0,0.11,3
1665697146.62031507,427376471,0.0,0.62,0.0,-1.17,74.37,74.37,0.0,0.11,3
1665697146.72078514,427476941,0.0,0.62,0.0,-1.17,74.4,74.4,0.0,0.1,3
1665697146.82033992,427576496,0.0,0.62,0.0,-1.17,74.42,74.42,0.0,0.1,3
1665697146.92035699,427676513,0.0,0.62,0.0,-1.17,74.43,74.43,0.0,0.13,3
1665697147.02036405,427776520,0.0,0.61,0.0,-1.16,74.45,74.45,0.0,0.14,3
1665697147.12034607,427876502,0.0,0.61,0.0,-1.16,74.47,74.47,0.0,0.13,3
1665697147.22037005,427976526,0.0,0.61,0.0,-1.16,74.49,74.49,0.0,0.13,3
1665697147.32038999,428076546,0.0,0.61,0.0,-1.16,74.5,74.5,0.0,0.1,3
1665697147.42040515,428176561,0.0,0.61,0.0,-1.16,74.51,74.51,0.0,0.12,3
1665697147.52039814,428276554,0.0,0.61,0.0,-1.16,74.52,74.52,0.0,0.1,3
1665697147.62040615,428376562,0.0,0.61,0.0,-1.16,74.54,74.54,0.0,0.08,3
1665697147.72073793,428476894,0.0,0.61,0.0,-1.1500000000000001,74.55,74.55,0.0,0.08,3
1665697147.82051206,428576668,0.0,0.61,0.0,-1.1500000000000001,74.56,74.56,0.0,0.07,3
1665697147.92035794,428676514,0.0,0.61,0.0,-1.1500000000000001,74.57000000000001,74.57000000000001,0.0,0.06,3
1665697148.02031302,428776469,0.0,0.6,0.0,-1.16,74.58,74.58,0.0,0.07,3
1665697148.12029099,428876447,0.0,0.6,0.0,-1.16,74.59,74.59,0.0,0.06,3
1665697148.22039795,428976554,0.0,0.6,0.0,-1.16,74.59,74.59,0.0,0.06,3
1665697148.32033014,429076486,0.0,0.6,0.0,-1.16,74.58,74.58,0.0,0.05,3
1665697148.42025495,429176411,0.0,0.6,0.0,-1.16,74.58,74.58,0.0,0.05,3
1665697148.52037311,429276529,0.0,0.6,0.0,-1.16,74.58,74.58,0.0,0.07,3
1665697148.62037802,429376534,0.0,0.6,0.0,-1.16,74.58,74.58,0.0,0.06,3
1665697148.72081399,429476970,0.0,0.6,0.0,-1.16,74.58,74.58,0.0,0.06,3
1665697148.82038808,429576544,0.0,0.6,0.0,-1.16,74.59,74.59,0.0,0.06,3
1665697148.92036009,429676516,0.0,0.6,0.0,-1.1500000000000001,74.58,74.58,0.0,0.06,3
1665697149.02038097,429776537,0.0,0.6,0.0,-1.1500000000000001,74.58,74.58,0.0,0.09,3
1665697149.12040401,429876560,0.0,0.61,0.0,-1.1500000000000001,74.57000000000001,74.57000000000001,0.0,0.1,3
1665697149.22044206,429976598,0.0,0.61,0.0,-1.16,74.57000000000001,74.57000000000001,0.0,0.09,3
1665697149.32037497,430076531,0.0,0.61,0.0,-1.16,74.56,74.56,0.0,0.08,3
1665697149.42041302,430176569,0.0,0.62,0.0,-1.1500000000000001,74.56,74.56,0.0,0.07,3
1665697149.52034593,430276502,0.0,0.62,0.0,-1.1500000000000001,74.56,74.56,0.0,0.07,3
1665697149.62038207,430376538,0.0,0.62,0.0,-1.1500000000000001,74.56,74.56,0.0,0.06,3
1665697149.72073913,430476895,0.0,0.62,0.0,-1.1500000000000001,74.56,74.56,0.0,0.06,3
1665697149.82035494,430576511,0.0,0.62,0.0,-1.1500000000000001,74.56,74.56,0.0,0.05,3
1665697149.92032313,430676479,0.0,0.62,0.0,-1.1500000000000001,74.57000000000001,74.57000000000001,0.0,0.05,3
1665697150.02031302,430776469,0.0,0.62,0.0,-1.1500000000000001,74.57000000000001,74.57000000000001,0.0,0.04,3
1665697150.12035394,430876510,0.0,0.63,0.0,-1.1500000000000001,74.57000000000001,74.57000000000001,0.0,0.07,3
1665697150.22036695,430976523,0.0,0.62,0.0,-1.1400000000000001,74.58,74.58,0.0,0.06,3
1665697150.32043695,431076593,0.0,0.62,0.0,-1.1400000000000001,74.60000000000001,74.60000000000001,0.0,0.06,3
1665697150.42031813,431176474,0.0,0.62,0.0,-1.1400000000000001,74.61,74.61,0.0,0.04,3
1665697150.52042508,431276581,0.0,0.62,0.0,-1.1500000000000001,74.62,74.62,0.0,0.06,3
1665697150.62046695,431376623,0.0,0.62,0.0,-1.1500000000000001,74.64,74.64,0.0,0.05,3
1665697150.72070098,431476857,0.0,0.62,0.0,-1.1500000000000001,74.65,74.65,0.0,0.07,3
1665697150.82046008,431576616,0.0,0.62,0.0,-1.1500000000000001,74.66,74.66,0.0,0.07,3
1665697150.92028904,431676445,0.0,0.62,0.0,-1.1500000000000001,74.65,74.65,0.0,0.08,3
1665697151.02037597,431776532,0.0,0.62,0.0,-1.1500000000000001,74.65,74.65,0.0,0.07,3
1665697151.12034702,431876503,0.0,0.61,0.0,-1.1500000000000001,74.65,74.65,0.0,0.07,3
1665697151.22034097,431976497,0.0,0.61,0.0,-1.1500000000000001,74.65,74.65,0.0,0.07,3
1665697151.32030797,432076464,0.0,0.61,0.0,-1.1500000000000001,74.65,74.65,0.0,0.08,3
1665697151.42038202,432176538,0.0,0.61,0.0,-1.1400000000000001,74.64,74.64,0.0,0.09,3
1665697151.52032495,432276481,0.0,0.61,0.0,-1.1400000000000001,74.64,74.64,0.0,0.08,3
1665697151.62030602,432376462,0.0,0.61,0.0,-1.1400000000000001,74.64,74.64,0.0,0.07,3
1665697151.72078896,432476945,0.0,0.61,0.0,-1.1400000000000001,74.64,74.64,0.0,0.07,3
1665697151.82038307,432576539,0.0,0.61,0.0,-1.1400000000000001,74.65,74.65,0.0,0.06,3
1665697151.92037010,432676526,0.0,0.61,0.0,-1.1300000000000001,74.66,74.66,0.0,0.08,3
1665697152.02038002,432776536,0.0,0.61,0.0,-1.1400000000000001,74.68,74.68,0.0,0.08,3
1665697152.12036300,432876519,0.0,0.61,0.0,-1.1400000000000001,74.69,74.69,0.0,0.07,3
1665697152.22041893,432976575,0.0,0.61,0.0,-1.1400000000000001,74.69,74.69,0.0,0.07,3
1665697152.32046199,433076618,0.0,0.61,0.0,-1.1400000000000001,74.69,74.69,0.0,0.07,3
1665697152.42044902,433176605,0.0,0.61,0.0,-1.1400000000000001,74.69,74.69,0.0,0.1,3
1665697152.52030396,433276460,0.0,0.61,0.0,-1.1400000000000001,74.69,74.69,0.0,0.09,3
1665697152.62035203,433376508,0.0,0.61,0.0,-1.1400000000000001,74.7,74.7,0.0,0.14,3
1665697152.72075796,433476914,0.0,0.61,0.0,-1.1400000000000001,74.7,74.7,0.0,0.12,3
1665697152.82034612,433576502,0.0,0.61,0.0,-1.1400000000000001,74.69,74.69,0.0,0.1,3
1665697152.92030406,433676460,0.0,0.61,0.0,-1.1400000000000001,74.67,74.67,0.0,0.12,3
1665697153.02033114,433776487,0.0,0.61,0.0,-1.1300000000000001,74.64,74.64,0.0,0.1,3
1665697153.12033701,433876493,0.0,0.61,0.0,-1.1400000000000001,74.62,74.62,0.0,0.11,3
1665697153.22036815,433976524,0.0,0.61,0.0,-1.1400000000000001,74.60000000000001,74.60000000000001,0.0,0.09,3
1665697153.32037997,434076536,0.0,0.61,0.0,-1.1400000000000001,74.58,74.58,0.0,0.08,3
1665697153.42034602,434176502,0.0,0.61,0.0,-1.1400000000000001,74.58,74.58,0.0,0.07,3
1665697153.52037907,434276535,0.0,0.61,0.0,-1.1400000000000001,74.58,74.58,0.0,0.07,3
1665697153.62035799,434376514,0.0,0.61,0.0,-1.1400000000000001,74.58,74.58,0.0,0.06,3
1665697153.72079492,434476951,0.0,0.61,0.0,-1.1400000000000001,74.58,74.58,0.0,0.06,3
1665697153.82044101,434576597,0.0,0.61,0.0,-1.1400000000000001,74.58,74.58,0.0,0.06,3
1665697153.92040110,434676557,0.0,0.62,0.0,-1.1500000000000001,74.58,74.58,0.0,0.06,3
1665697154.02035213,434776508,0.0,0.62,0.0,-1.1500000000000001,74.58,74.58,0.0,0.05,3
1665697154.12039399,434876550,0.0,0.62,0.0,-1.1500000000000001,74.58,74.58,0.0,0.04,3
1665697154.22038102,434976537,0.0,0.62,0.0,-1.16,74.59,74.59,0.0,0.05,3
1665697154.32038808,435076544,0.0,0.62,0.0,-1.16,74.59,74.59,0.0,0.05,3
1665697154.42031503,435176471,0.0,0.62,0.0,-1.16,74.58,74.58,0.0,0.05,3
1665697154.52035809,435276514,0.0,0.62,0.0,-1.16,74.57000000000001,74.57000000000001,0.0,0.08,3
1665697154.62033010,435376486,0.0,0.61,0.0,-1.17,74.55,74.55,0.0,0.09,3
1665697154.72076607,435476922,0.0,0.61,0.0,-1.17,74.53,74.53,0.0,0.09,3
1665697154.82041812,435576574,0.0,0.61,0.0,-1.17,74.51,74.51,0.0,0.09,3
1665697154.92033505,435676491,0.0,0.61,0.0,-1.17,74.48,74.48,0.0,0.08,3
1665697155.02041793,435776574,0.0,0.61,0.0,-1.18,74.47,74.47,0.0,0.06,3
1665697155.12037015,435876526,0.0,0.61,0.0,-1.18,74.45,74.45,0.0,0.07,3
1665697155.22036409,435976520,0.0,0.61,0.0,-1.18,74.44,74.44,0.0,0.09,3
1665697155.32040501,436076561,0.0,0.61,0.0,-1.18,74.44,74.44,0.0,0.08,3
1665697155.42030406,436176460,0.0,0.61,0.0,-1.18,74.43,74.43,0.0,0.1,3
1665697155.52039099,436276547,0.0,0.61,0.0,-1.18,74.43,74.43,0.0,0.08,3
1665697155.62034702,436376503,0.0,0.61,0.0,-1.18,74.44,74.44,0.0,0.08,3
1665697155.72076201,436476918,0.0,0.61,0.0,-1.18,74.45,74.45,0.0,0.08,3
1665697155.82038403,436576540,0.0,0.61,0.0,-1.18,74.46000000000001,74.46000000000001,0.0,0.08,3
1665697155.92038894,436676545,0.0,0.61,0.0,-1.18,74.46000000000001,74.46000000000001,0.0,0.12,3
1665697156.02034092,436776497,0.0,0.61,0.0,-1.18,74.47,74.47,0.0,0.11,3
1665697156.12026596,436876422,0.0,0.61,0.0,-1.19,74.49,74.49,0.0,0.1,3
1665697156.22036815,436976524,0.0,0.61,0.0,-1.19,74.49,74.49,0.0,0.09,3
1665697156.32032204,437076478,0.0,0.6,0.0,-1.19,74.49,74.49,0.0,0.09,3
1665697156.42029905,437176455,0.0,0.6,0.0,-1.19,74.5,74.5,0.0,0.08,3
1665697156.52034903,437276505,0.0,0.61,0.0,-1.19,74.51,74.51,0.0,0.07,3
1665697156.62046695,437376623,0.0,0.61,0.0,-1.19,74.52,74.52,0.0,0.06,3
1665697156.72074699,437476903,0.0,0.61,0.0,-1.19,74.53,74.53,0.0,0.06,3
1665697156.82045507,437576611,0.0,0.61,0.0,-1.19,74.53,74.53,0.0,0.08,3
1665697156.92043495,437676591,0.0,0.61,0.0,-1.19,74.55,74.55,0.0,0.11,3
1665697157.02042294,437776579,0.0,0.61,0.0,-1.19,74.57000000000001,74.57000000000001,0.0,0.11,3
1665697157.12038994,437876546,0.0,0.61,0.0,-1.19,74.60000000000001,74.60000000000001,0.0,0.11,3
1665697157.22045207,437976608,0.0,0.61,0.0,-1.19,74.63,74.63,0.0,0.09,3
1665697157.32037210,438076528,0.0,0.61,0.0,-1.19,74.66,74.66,0.0,0.13,3
1665697157.42031097,438176467,0.0,0.61,0.0,-1.19,74.68,74.68,0.0,0.13,3
1665697157.52031398,438276470,0.0,0.61,0.0,-1.19,74.67,74.67,0.0,0.12,3
1665697157.62037611,438376532,0.0,0.61,0.0,-1.19,74.66,74.66,0.0,0.1,3
1665697157.72081113,438476967,0.0,0.61,0.0,-1.19,74.65,74.65,0.0,0.09,3
1665697157.82039595,438576552,0.0,0.61,0.0,-1.19,74.64,74.64,0.0,0.1,3
1665697157.92032194,438676478,0.0,0.61,0.0,-1.19,74.64,74.64,0.0,0.1,3
1665697158.02035403,438776510,0.0,0.61,0.0,-1.19,74.65,74.65,0.0,0.09,3
1665697158.12035108,438876507,0.0,0.61,0.0,-1.19,74.66,74.66,0.0,0.08,3
1665697158.22038913,438976545,0.0,0.61,0.0,-1.19,74.66,74.66,0.0,0.06,3
1665697158.32037592,439076532,0.0,0.61,0.0,-1.19,74.67,74.67,0.0,0.05,3
1665697158.42036200,439176518,0.0,0.61,0.0,-1.19,74.67,74.67,0.0,0.05,3
1665697158.52035499,439276511,0.0,0.61,0.0,-1.19,74.67,74.67,0.0,0.05,3
1665697158.62045002,439376606,0.0,0.61,0.0,-1.19,74.67,74.67,0.0,0.06,3
1665697203.92038798,484676544,0.0,0.62,0.0,-1.16,74.09,74.09,0.0,0.06,3
1665697204.02041292,484776569,0.0,0.62,0.0,-1.17,74.08,74.08,0.0,0.06,3
1665697204.12037206,484876528,0.0,0.62,0.0,-1.17,74.08,74.08,0.0,0.08,3
1665697204.22033310,484976489,0.0,0.62,0.0,-1.17,74.07000000000001,74.07000000000001,0.0,0.08,3
1665697204.32031393,485076470,0.0,0.61,0.0,-1.17,74.08,74.08,0.0,0.07,3
1665697204.42031002,485176466,0.0,0.61,0.0,-1.17,74.09,74.09,0.0,0.1,3
1665697204.52033710,485276493,0.0,0.61,0.0,-1.17,74.11,74.11,0.0,0.08,3
1665697204.62034893,485376505,0.0,0.61,0.0,-1.17,74.12,74.12,0.0,0.09,3
1665697204.72073913,485476895,0.0,0.6,0.0,-1.17,74.15,74.15,0.0,0.1,3
1665697204.82040691,485576563,0.0,0.6,0.0,-1.17,74.16,74.16,0.0,0.11,3
1665697204.92039800,485676554,0.0,0.6,0.0,-1.17,74.16,74.16,0.0,0.09,3
1665697205.02036405,485776520,0.0,0.6,0.0,-1.17,74.16,74.16,0.0,0.08,3
1665697205.12040496,485876561,0.0,0.6,0.0,-1.18,74.15,74.15,0.0,0.09,3
1665697205.22042704,485976583,0.0,0.6,0.0,-1.18,74.13,74.13,0.0,0.08,3
1665697205.32035494,486076511,0.0,0.6,0.0,-1.18,74.11,74.11,0.0,0.08,3
1665697205.42046309,486176619,0.0,0.6,0.0,-1.18,74.10000000000001,74.10000000000001,0.0,0.07,3
1665697205.52038407,486276540,0.0,0.6,0.0,-1.18,74.10000000000001,74.10000000000001,0.0,0.08,3
1665697205.62036300,486376519,0.0,0.6,0.0,-1.18,74.10000000000001,74.10000000000001,0.0,0.07,3
1665697205.72077203,486476928,0.0,0.59,0.0,-1.18,74.09,74.09,0.0,0.08,3
1665697205.82040310,486576559,0.0,0.59,0.0,-1.18,74.09,74.09,0.0,0.08,3
1665697205.92032504,486676481,0.0,0.6,0.0,-1.18,74.08,74.08,0.0,0.06,3
1665697206.02031207,486776468,0.0,0.6,0.0,-1.19,74.07000000000001,74.07000000000001,0.0,0.08,3
1665697206.12032008,486876476,0.0,0.6,0.0,-1.19,74.05,74.05,0.0,0.07,3
1665697206.22031713,486976473,0.0,0.6,0.0,-1.19,74.03,74.03,0.0,0.06,3
1665697206.32038808,487076544,0.0,0.6,0.0,-1.18,74.01,74.01,0.0,0.08,3
1665697206.42040896,487176565,0.0,0.61,0.0,-1.18,74.0,74.0,0.0,0.08,3
1665697206.52032113,487276477,0.0,0.6,0.0,-1.18,74.0,74.0,0.0,0.08,3
1665697206.62042499,487376581,0.0,0.6,0.0,-1.18,74.01,74.01,0.0,0.09,3
1665697206.72076702,487476923,0.0,0.6,0.0,-1.18,74.03,74.03,0.0,0.08,3
1665697206.82045603,487576612,0.0,0.6,0.0,-1.18,74.05,74.05,0.0,0.06,3
1665697206.92031693,487676473,0.0,0.6,0.0,-1.18,74.06,74.06,0.0,0.08,3
1665697207.02054906,487776705,0.0,0.6,0.0,-1.18,74.08,74.08,0.0,0.09,3
1665697207.12030101,487876457,0.0,0.6,0.0,-1.18,74.09,74.09,0.0,0.08,3
1665697207.22039509,487976551,0.0,0.6,0.0,-1.18,74.09,74.09,0.0,0.1,3
1665697207.32037306,488076529,0.0,0.6,0.0,-1.18,74.08,74.08,0.0,0.1,3
1665697207.42030907,488176465,0.0,0.6,0.0,-1.19,74.07000000000001,74.07000000000001,0.0,0.09,3
1665697207.52031708,488276473,0.0,0.6,0.0,-1.19,74.05,74.05,0.0,0.08,3
1665697207.62027597,488376432,0.0,0.6,0.0,-1.19,74.03,74.03,0.0,0.06,3
1665697207.72072911,488476885,0.0,0.6,0.0,-1.19,74.01,74.01,0.0,0.1,3
1665697207.82033706,488576493,0.0,0.6,0.0,-1.19,73.99,73.99,0.0,0.12,3
1665697209.92067194,490676828,0.0,0.61,0.0,-1.18,74.0,74.0,0.0,0.1,3
1665697210.02037811,490776534,0.0,0.61,0.0,-1.18,74.01,74.01,0.0,0.09,3
1665697210.12041497,490876571,0.0,0.61,0.0,-1.18,74.02,74.02,0.0,0.11,3
1665697210.22044802,490976604,0.0,0.61,0.0,-1.18,74.02,74.02,0.0,0.09,3
1665697210.32032800,491076484,0.0,0.61,0.0,-1.18,74.02,74.02,0.0,0.09,3
1665697210.42035413,491176510,0.0,0.61,0.0,-1.17,74.01,74.01,0.0,0.09,3
1665697210.52036810,491276524,0.0,0.61,0.0,-1.17,74.0,74.0,0.0,0.09,3
1665697210.62032795,491376484,0.0,0.61,0.0,-1.17,73.99,73.99,0.0,0.1,3
1665697210.72070408,491476860,0.0,0.61,0.0,-1.17,73.98,73.98,0.0,0.09,3
1665697210.82041097,491576567,0.0,0.61,0.0,-1.17,73.97,73.97,0.0,0.1,3
1665697210.92046404,491676620,0.0,0.61,0.0,-1.17,73.95,73.95,0.0,0.13,3
1665697211.02032900,491776485,0.0,0.61,0.0,-1.17,73.93,73.93,0.0,0.12,3
1665697211.12036610,491876522,0.0,0.61,0.0,-1.18,73.9,73.9,0.0,0.11,3
1665697211.22041607,491976572,0.0,0.61,0.0,-1.18,73.88,73.88,0.0,0.12,3
1665697211.32037401,492076530,0.0,0.61,0.0,-1.18,73.87,73.87,0.0,0.1,3
1665697211.42034292,492176499,0.0,0.61,0.0,-1.18,73.87,73.87,0.0,0.12,3
1665697211.52037597,492276532,0.0,0.61,0.0,-1.18,73.88,73.88,0.0,0.13,3
1665697211.62037897,492376535,0.0,0.61,0.0,-1.18,73.9,73.9,0.0,0.12,3
1665697211.72083092,492476987,0.0,0.61,0.0,-1.18,73.93,73.93,0.0,0.1,3
1665697211.82046604,492576622,0.0,0.61,0.0,-1.18,73.94,73.94,0.0,0.1,3
1665697211.92050505,492676661,0.0,0.61,0.0,-1.18,73.95,73.95,0.0,0.09,3
1665697212.02037001,492776526,0.0,0.61,0.0,-1.18,73.95,73.95,0.0,0.11,3
1665697212.12032104,492876477,0.0,0.61,0.0,-1.19,73.94,73.94,0.0,0.1,3
1665697212.22037101,492976527,0.0,0.61,0.0,-1.19,73.93,73.93,0.0,0.1,3
1665697212.32030702,493076463,0.0,0.61,0.0,-1.19,73.92,73.92,0.0,0.09,3
1665697212.42034101,493176497,0.0,0.61,0.0,-1.19,73.92,73.92,0.0,0.08,3
1665697212.52032399,493276480,0.0,0.61,0.0,-1.19,73.92,73.92,0.0,0.07,3
1665697212.62038803,493376544,0.0,0.61,0.0,-1.19,73.91,73.91,0.0,0.07,3
1665697212.72079611,493476952,0.0,0.61,0.0,-1.19,73.91,73.91,0.0,0.09,3
1665697212.82039404,493576550,0.0,0.61,0.0,-1.18,73.9,73.9,0.0,0.1,3
1665697212.92040610,493676562,0.0,0.61,0.0,-1.18,73.89,73.89,0.0,0.1,3
1665697213.02032495,493776481,0.0,0.61,0.0,-1.18,73.88,73.88,0.0,0.08,3
1665697213.12037110,493876527,0.0,0.61,0.0,-1.18,73.87,73.87,0.0,0.08,3
1665697213.22041297,493976569,0.0,0.6,0.0,-1.18,73.86,73.86,0.0,0.09,3
1665697213.32049298,494076649,0.0,0.6,0.0,-1.19,73.85000000000001,73.85000000000001,0.0,0.09,3
1665697213.42042994,494176586,0.0,0.6,0.0,-1.19,73.84,73.84,0.0,0.08,3
1665697213.52039099,494276547,0.0,0.6,0.0,-1.19,73.83,73.83,0.0,0.1,3
1665697213.62035298,494376509,0.0,0.6,0.0,-1.19,73.81,73.81,0.0,0.12,3
1665697213.72071815,494476874,0.0,0.6,0.0,-1.19,73.8,73.8,0.0,0.13,3
1665697213.82035112,494576507,0.0,0.61,0.0,-1.19,73.81,73.81,0.0,0.1,3
1665697213.92031002,494676466,0.0,0.61,0.0,-1.19,73.81,73.81,0.0,0.11,3
1665697214.02033210,494776488,0.0,0.61,0.0,-1.19,73.81,73.81,0.0,0.11,3
1665697214.12033415,494876490,0.0,0.61,0.0,-1.19,73.82000000000001,73.82000000000001,0.0,0.1,3
1665697214.22037506,494976531,0.0,0.61,0.0,-1.19,73.83,73.83,0.0,0.13,3
1665697214.32033801,495076494,0.0,0.61,0.0,-1.19,73.84,73.84,0.0,0.12,3
1665697214.42041898,495176575,0.0,0.61,0.0,-1.19,73.86,73.86,0.0,0.11,3
1665697214.52039003,495276546,0.0,0.61,0.0,-1.19,73.89,73.89,0.0,0.1,3
1665697214.62042809,495376584,0.0,0.61,0.0,-1.19,73.91,73.91,0.0,0.1,3
1665697214.72081804,495476974,0.0,0.61,0.0,-1.19,73.92,73.92,0.0,0.09,3
1665697214.82043505,495576591,0.0,0.61,0.0,-1.19,73.93,73.93,0.0,0.07,3
1665697214.92037296,495676529,0.0,0.61,0.0,-1.18,73.93,73.93,0.0,0.08,3
1665697215.02034807,495776504,0.0,0.61,0.0,-1.18,73.92,73.92,0.0,0.08,3
1665697215.12039709,495876553,0.0,0.6,0.0,-1.18,73.91,73.91,0.0,0.09,3
1665697215.22032905,495976485,0.0,0.6,0.0,-1.18,73.9,73.9,0.0,0.08,3
1665697215.32043600,496076592,0.0,0.6,0.0,-1.18,73.89,73.89,0.0,0.08,3
1665697215.42036295,496176519,0.0,0.6,0.0,-1.18,73.88,73.88,0.0,0.08,3
1665697215.52031112,496276467,0.0,0.6,0.0,-1.19,73.87,73.87,0.0,0.08,3
1665697215.62040710,496376563,0.0,0.6,0.0,-1.19,73.86,73.86,0.0,0.06,3
1665697215.72076702,496476923,0.0,0.61,0.0,-1.19,73.86,73.86,0.0,0.05,3
1665697215.82039714,496576553,0.0,0.61,0.0,-1.19,73.85000000000001,73.85000000000001,0.0,0.05,3
1665697215.92037511,496676531,0.0,0.61,0.0,-1.19,73.85000000000001,73.85000000000001,0.0,0.05,3
1665697216.02039099,496776547,0.0,0.61,0.0,-1.19,73.86,73.86,0.0,0.07,3
1665697219.12035513,499876511,0.0,0.59,0.0,-1.2,73.96000000000001,73.96000000000001,0.0,0.09,3
1665697219.22039294,499976549,0.0,0.59,0.0,-1.2,73.98,73.98,0.0,0.11,3
1665697219.32036901,500076525,0.0,0.59,0.0,-1.2,74.01,74.01,0.0,0.09,3
1665697219.42048192,500176638,0.0,0.59,0.0,-1.2,74.03,74.03,0.0,0.09,3
1665697219.52036214,500276518,0.0,0.59,0.0,-1.19,74.06,74.06,0.0,0.1,3
1665697219.62056899,500376725,0.0,0.59,0.0,-1.2,74.07000000000001,74.07000000000001,0.0,0.1,3
1665697219.72076106,500476917,0.0,0.59,0.0,-1.19,74.08,74.08,0.0,0.09,3
1665697219.82050014,500576656,0.0,0.59,0.0,-1.19,74.08,74.08,0.0,0.09,3
1665697219.92034101,500676497,0.0,0.59,0.0,-1.19,74.08,74.08,0.0,0.09,3
1665697220.02030110,500776457,0.0,0.59,0.0,-1.19,74.06,74.06,0.0,0.07,3
1665697220.12033010,500876486,0.0,0.59,0.0,-1.19,74.05,74.05,0.0,0.08,3
1665697220.22029901,500976455,0.0,0.59,0.0,-1.19,74.04,74.04,0.0,0.09,3
1665697220.32031798,501076474,0.0,0.59,0.0,-1.19,74.04,74.04,0.0,0.07,3
1665697220.42034411,501176500,0.0,0.59,0.0,-1.19,74.05,74.05,0.0,0.06,3
1665697220.52037597,501276532,0.0,0.59,0.0,-1.19,74.06,74.06,0.0,0.09,3
1665697220.62039113,501376547,0.0,0.59,0.0,-1.2,74.07000000000001,74.07000000000001,0.0,0.09,3
1665697220.72082806,501476984,0.0,0.59,0.0,-1.2,74.09,74.09,0.0,0.09,3
1665697223.82092214,504577078,0.0,0.58,0.0,-1.2,74.12,74.12,0.0,0.04,3
1665697223.92041612,504676572,0.0,0.58,0.0,-1.2,74.13,74.13,0.0,0.05,3
1665697224.02036500,504776521,0.0,0.58,0.0,-1.2,74.14,74.14,0.0,0.06,3
1665697224.12039995,504876556,0.0,0.58,0.0,-1.2,74.14,74.14,0.0,0.06,3
1665697224.22037005,504976526,0.0,0.58,0.0,-1.2,74.15,74.15,0.0,0.07,3
1665697224.32047009,505076626,0.0,0.58,0.0,-1.2,74.16,74.16,0.0,0.06,3
1665697224.42035294,505176509,0.0,0.58,0.0,-1.2,74.16,74.16,0.0,0.07,3
1665697224.52029109,505276447,0.0,0.58,0.0,-1.2,74.17,74.17,0.0,0.06,3
1665697224.62030911,505376465,0.0,0.58,0.0,-1.2,74.18,74.18,0.0,0.05,3
1665697224.72067714,505476833,0.0,0.58,0.0,-1.2,74.19,74.19,0.0,0.05,3
1665697224.82040596,505576562,0.0,0.5700000000000001,0.0,-1.2,74.2,74.2,0.0,0.04,3
1665697224.92031097,505676467,0.0,0.5700000000000001,0.0,-1.2,74.2,74.2,0.0,0.05,3
1665697225.02031803,505776474,0.0,0.5700000000000001,0.0,-1.2,74.2,74.2,0.0,0.05,3
1665697225.12032914,505876485,0.0,0.5700000000000001,0.0,-1.2,74.21000000000001,74.21000000000001,0.0,0.04,3
1665697225.22040105,505976557,0.0,0.5700000000000001,0.0,-1.2,74.21000000000001,74.21000000000001,0.0,0.05,3
1665697225.32035804,506076514,0.0,0.5700000000000001,0.0,-1.2,74.22,74.22,0.0,0.04,3
1665697225.42030597,506176462,0.0,0.5700000000000001,0.0,-1.2,74.22,74.22,0.0,0.04,3
1665697225.52036715,506276523,0.0,0.5700000000000001,0.0,-1.2,74.23,74.23,0.0,0.05,3
1665697225.62040615,506376562,0.0,0.5700000000000001,0.0,-1.2,74.23,74.23,0.0,0.05,3
1665697225.72074413,506476900,0.0,0.5700000000000001,0.0,-1.2,74.23,74.23,0.0,0.07,3
1665697225.82045293,506576609,0.0,0.5700000000000001,0.0,-1.2,74.22,74.22,0.0,0.07,3
1665697225.92046309,506676619,0.0,0.5700000000000001,0.0,-1.2,74.21000000000001,74.21000000000001,0.0,0.06,3
1665697226.02038312,506776539,0.0,0.58,0.0,-1.2,74.2,74.2,0.0,0.06,3
1665697226.12037992,506876536,0.0,0.58,0.0,-1.2,74.19,74.19,0.0,0.05,3
1665697226.22032094,506976477,0.0,0.58,0.0,-1.2,74.19,74.19,0.0,0.04,3
1665697226.32030797,507076464,0.0,0.58,0.0,-1.2,74.19,74.19,0.0,0.07,3
1665697226.42031813,507176474,0.0,0.58,0.0,-1.2,74.2,74.2,0.0,0.07,3
1665697226.52030301,507276459,0.0,0.58,0.0,-1.2,74.21000000000001,74.21000000000001,0.0,0.08,3
1665697226.62039995,507376556,0.0,0.58,0.0,-1.2,74.21000000000001,74.21000000000001,0.0,0.07,3
1665697226.72078204,507476938,0.0,0.58,0.0,-1.2,74.21000000000001,74.21000000000001,0.0,0.05,3
1665697226.82043004,507576586,0.0,0.58,0.0,-1.2,74.2,74.2,0.0,0.07,3
1665697226.92037201,507676528,0.0,0.5700000000000001,0.0,-1.2,74.2,74.2,0.0,0.07,3
1665697227.02044511,507776601,0.0,0.5700000000000001,0.0,-1.2,74.21000000000001,74.21000000000001,0.0,0.07,3
1665697227.12038398,507876540,0.0,0.58,0.0,-1.2,74.22,74.22,0.0,0.08,3
1665697227.22041297,507976569,0.0,0.58,0.0,-1.2,74.22,74.22,0.0,0.07,3
1665697227.32039905,508076555,0.0,0.58,0.0,-1.2,74.22,74.22,0.0,0.08,3
1665697227.42033696,508176493,0.0,0.58,0.0,-1.2,74.22,74.22,0.0,0.09,3
1665697230.52034903,511276505,0.0,0.6,0.0,-1.19,74.35000000000001,74.35000000000001,0.0,0.07,3
1665697230.62050605,511376662,0.0,0.6,0.0,-1.19,74.35000000000001,74.35000000000001,0.0,0.06,3
1665697230.72076702,511476923,0.0,0.6,0.0,-1.19,74.34,74.34,0.0,0.06,3
1665697230.82031512,511576471,0.0,0.6,0.0,-1.19,74.34,74.34,0.0,0.09,3
1665697230.92035604,511676512,0.0,0.6,0.0,-1.19,74.33,74.33,0.0,0.09,3
1665697231.02030396,511776460,0.0,0.6,0.0,-1.2,74.32000000000001,74.32000000000001,0.0,0.11,3
1665697231.12031293,511876469,0.0,0.6,0.0,-1.2,74.32000000000001,74.32000000000001,0.0,0.11,3
1665697231.22031403,511976470,0.0,0.6,0.0,-1.2,74.32000000000001,74.32000000000001,0.0,0.11,3
1665697231.32036614,512076522,0.0,0.6,0.0,-1.2,74.33,74.33,0.0,0.11,3
1665697231.42033792,512176494,0.0,0.6,0.0,-1.2,74.33,74.33,0.0,0.09,3
1665697231.52039504,512276551,0.0,0.6,0.0,-1.2,74.33,74.33,0.0,0.09,3
1665697231.62042904,512376585,0.0,0.6,0.0,-1.2,74.33,74.33,0.0,0.07,3
1665697231.72076392,512476920,0.0,0.6,0.0,-1.2,74.34,74.34,0.0,0.07,3
1665697231.82049608,512576652,0.0,0.6,0.0,-1.2,74.35000000000001,74.35000000000001,0.0,0.07,3
