timestamp,TimeUS,I,Status,GMS,GWk,NSats,HDop,Lat,Lng,Alt,Spd,GCrs,VZ,Yaw,U
1665697096.40000010,377156156,0,3,423514400,2231,13,0.81,42.6900206,-84.4886065,273.66,0.002828427357599139,135.0,0.020000001415610313,0.0,1
1665697096.57997012,377336126,0,3,423514600,2231,13,0.81,42.6900206,-84.4886066,273.67,0.008544004522264004,200.55606079101562,-0.06100000441074371,0.0,1
1665697096.78007102,377536227,0,3,423514800,2231,13,0.81,42.690020399999995,-84.4886068,273.71,0.009899495169520378,315.0,0.05100000277161598,0.0,1
1665697096.98009205,377736248,0,3,423515000,2231,13,0.81,42.6900203,-84.4886069,273.72,0.0360138900578022,91.59113311767578,0.036000002175569534,0.0,1
1665697097.18008399,377936240,0,3,423515200,2231,13,0.81,42.6900202,-84.488607,273.76,0.01486606989055872,317.726318359375,0.05100000277161598,0.0,1
1665697097.38006496,378136221,0,3,423515400,2231,13,0.81,42.6900201,-84.4886071,273.79,0.022561030462384224,347.19573974609375,0.010000000707805157,0.0,1
1665697097.58006501,378336221,0,3,423515600,2231,13,0.81,42.690019899999996,-84.4886073,273.83,0.050803545862436295,216.19322204589844,0.004000000189989805,0.0,1
1665697097.78004909,378536205,0,3,423515800,2231,13,0.81,42.690019799999995,-84.48860739999999,273.86,0.017492856830358505,59.03623962402344,0.006000000052154064,0.0,1
1665697098.00037408,378756530,0,3,423516000,2231,13,0.81,42.6900197,-84.4886075,273.88,0.025317978113889694,80.90972137451172,-0.03700000047683716,0.0,1
1665697098.20040894,378956565,0,3,423516200,2231,13,0.81,42.6900197,-84.4886077,273.89,0.009219544939696789,139.39869689941406,0.017000000923871994,0.0,1
1665697098.38005710,379136213,0,3,423516400,2231,13,0.81,42.6900196,-84.4886078,273.92,0.0255538672208786,149.42076110839844,-0.027000000700354576,0.0,1
1665697098.58008504,379336241,0,3,423516600,2231,13,0.81,42.6900195,-84.48860789999999,273.95,0.028017854318022728,55.175506591796875,0.004000000189989805,0.0,1
1665697098.78010511,379536261,0,3,423516800,2231,13,0.81,42.6900194,-84.488608,273.99,0.028600702062249184,216.46923828125,-0.04700000211596489,0.0,1
1665697098.98007393,379736230,0,3,423517000,2231,13,0.81,42.690019299999996,-84.4886082,274.01,0.0213775597512722,169.21568298339844,-0.039000000804662704,0.0,1
1665697099.18008113,379936237,0,3,423517200,2231,13,0.81,42.690019199999995,-84.4886083,274.04,0.03505709767341614,86.72950744628906,-0.03500000014901161,0.0,1
1665697099.38008809,380136244,0,3,423517400,2231,13,0.81,42.6900191,-84.48860839999999,274.08,0.018027758225798607,93.17982482910156,-0.027000000700354576,0.0,1
1665697099.58005500,380336211,0,3,423517600,2231,13,0.81,42.690019,-84.48860859999999,274.11,0.014142136089503765,8.13010311126709,-0.015000000596046448,0.0,1
1665697099.78002596,380536182,0,3,423517800,2231,13,0.81,42.6900189,-84.4886088,274.15000000000003,0.004000000189989805,0.0,0.010000000707805157,0.0,1
1665697099.98005915,380736215,0,3,423518000,2231,13,0.81,42.6900188,-84.4886089,274.18,0.02024845778942108,110.22484588623047,-0.03500000014901161,0.0,1
1665697100.18005395,380936210,0,3,423518200,2231,13,0.81,42.690018699999996,-84.488609,274.22,0.004472136031836271,296.5650634765625,0.039000000804662704,0.0,1
1665697100.38007307,381136229,0,3,423518400,2231,13,0.81,42.690018599999995,-84.4886092,274.25,0.0255538672208786,59.420772552490234,-0.03700000047683716,0.0,1
1665697100.58007693,381336233,0,3,423518600,2231,13,0.81,42.6900185,-84.4886094,274.28000000000003,0.03679674118757248,227.20260620117188,-0.0860000029206276,0.0,1
1665697100.78011012,381536266,0,3,423518800,2231,13,0.81,42.6900184,-84.48860959999999,274.3,0.010630146600306034,228.8140869140625,0.03100000135600567,0.0,1
1665697100.98004794,381736204,0,3,423519000,2231,13,0.81,42.6900183,-84.4886097,274.32,0.03452535346150398,79.99201202392578,0.024000000208616257,0.0,1
1665697101.18010402,381936260,0,3,423519200,2231,13,0.81,42.6900182,-84.48860979999999,274.36,0.04876474291086197,15.461216926574707,0.02200000174343586,0.0,1
1665697101.38002992,382136186,0,3,423519400,2231,13,0.81,42.6900182,-84.48861,274.38,0.01303840521723032,184.39871215820312,-0.010000000707805157,0.0,1
1665697101.58000302,382336159,0,3,423519600,2231,13,0.81,42.690017999999995,-84.4886102,274.40000000000003,0.028301943093538284,237.99462890625,0.024000000208616257,0.0,1
1665697101.78003192,382536188,0,3,423519800,2231,13,0.81,42.6900179,-84.4886104,274.44,0.0020000000949949026,90.0,-0.005000000353902578,0.0,1
1665697101.98005509,382736211,0,3,423520000,2231,13,0.81,42.6900178,-84.4886106,274.46,0.052630793303251266,194.30029296875,-0.10500000417232513,0.0,1
1665697102.18007898,382936235,0,3,423520200,2231,13,0.81,42.6900177,-84.48861079999999,274.48,0.007000000216066837,90.0,0.03500000014901161,0.0,1
1665697102.38011503,383136271,0,3,423520400,2231,13,0.81,42.6900177,-84.4886109,274.49,0.03801315650343895,1.50743567943573,-0.006000000052154064,0.0,1
1665697102.60038400,383356540,0,3,423520600,2231,13,0.81,42.6900176,-84.4886111,274.52,0.024041632190346718,135.0,-0.09000000357627869,0.0,1
1665697102.78007197,383536228,0,3,423520800,2231,13,0.81,42.690017499999996,-84.4886112,274.56,0.027294687926769257,81.57302856445312,-0.01600000075995922,0.0,1
1665697102.98006606,383736222,0,3,423521000,2231,13,0.81,42.690017499999996,-84.4886113,274.58,0.03023243322968483,34.215702056884766,-0.03400000184774399,0.0,1
1665697103.17999506,383936151,0,3,423521200,2231,13,0.81,42.690017399999995,-84.4886114,274.6,0.012000000104308128,0.0,-0.02200000174343586,0.0,1
1665697103.38006592,384136222,0,3,423521400,2231,13,0.81,42.6900173,-84.4886116,274.61,0.024738634005188942,194.0362548828125,-0.04400000348687172,0.0,1
1665697103.58005595,384336212,0,3,423521600,2231,13,0.81,42.6900172,-84.4886118,274.64,0.01100000087171793,0.0,-0.023000001907348633,0.0,1
1665697103.78007603,384536232,0,3,423521800,2231,13,0.81,42.6900172,-84.48861199999999,274.66,0.01649242267012596,14.036242485046387,-0.003000000026077032,0.0,1
1665697104.00036311,384756519,0,3,423522000,2231,13,0.81,42.6900171,-84.4886121,274.68,0.01702938787639141,93.366455078125,-0.06700000166893005,0.0,1
1665697104.18008208,384936238,0,3,423522200,2231,13,0.81,42.690017,-84.4886123,274.71,0.021260293200612068,138.81407165527344,-0.06300000101327896,0.0,1
1665697104.38000798,385136164,0,3,423522400,2231,13,0.81,42.690016899999996,-84.4886125,274.73,0.005099019967019558,258.6900634765625,0.058000002056360245,0.0,1
1665697104.58006310,385336219,0,3,423522600,2231,13,0.81,42.690016799999995,-84.48861269999999,274.74,0.02200000174343586,270.0,0.02200000174343586,0.0,1
1665697104.78007698,385536233,0,3,423522800,2231,13,0.81,42.6900167,-84.4886128,274.76,0.02024845778942108,147.09475708007812,0.032999999821186066,0.0,1
1665697104.97998214,385736138,0,3,423523000,2231,13,0.81,42.6900166,-84.488613,274.79,0.018601076677441597,216.25384521484375,-0.05400000140070915,0.0,1
1665697105.18001199,385936168,0,3,423523200,2231,13,0.81,42.6900165,-84.4886131,274.82,0.02154066041111946,68.1985855102539,0.027000000700354576,0.0,1
1665697105.38006902,386136225,0,3,423523400,2231,13,0.81,42.6900165,-84.4886133,274.84000000000003,0.009219544939696789,347.47119140625,0.004000000189989805,0.0,1
1665697105.58003211,386336188,0,3,423523600,2231,13,0.81,42.6900164,-84.48861339999999,274.86,0.014764823019504547,208.30076599121094,0.02800000086426735,0.0,1
1665697105.78006196,386536218,0,3,423523800,2231,13,0.81,42.690016299999996,-84.4886135,274.90000000000003,0.015132746659219265,262.4053649902344,0.007000000216066837,0.0,1
1665697105.98007298,386736229,0,3,423524000,2231,13,0.81,42.690016199999995,-84.4886137,274.93,0.0020000000949949026,0.0,-0.006000000052154064,0.0,1
1665697106.18008399,386936240,0,3,423524200,2231,13,0.81,42.6900161,-84.4886138,274.97,0.017464250326156616,23.629375457763672,0.08500000089406967,0.0,1
1665697106.38002896,387136185,0,3,423524400,2231,13,0.81,42.690016,-84.4886138,274.99,0.021189620718359947,340.7099609375,0.05900000408291817,0.0,1
1665697106.58004594,387336202,0,3,423524600,2231,13,0.81,42.6900159,-84.488614,275.0,0.039115216583013535,212.47120666503906,-0.026000000536441803,0.0,1
1665697106.78000808,387536164,0,3,423524800,2231,13,0.81,42.6900158,-84.48861409999999,275.03000000000003,0.023345237597823143,80.13418579101562,0.046000003814697266,0.0,1
1665697107.00032496,387756481,0,3,423525000,2231,13,0.81,42.6900158,-84.4886142,275.05,0.004472136031836271,243.43496704101562,-0.0650000050663948,0.0,1
1665697107.18000793,387936164,0,3,423525200,2231,13,0.81,42.6900157,-84.4886143,275.09000000000003,0.012083047069609165,24.443952560424805,0.014000000432133675,0.0,1
1665697107.37995410,388136110,0,3,423525400,2231,13,0.81,42.690015599999995,-84.4886144,275.11,0.018439089879393578,12.528807640075684,0.007000000216066837,0.0,1
1665697107.58008814,388336244,0,3,423525600,2231,13,0.81,42.690015599999995,-84.4886144,275.14,0.011401754803955555,37.87498092651367,0.06100000441074371,0.0,1
1665697107.78007007,388536226,0,3,423525800,2231,13,0.81,42.6900155,-84.4886145,275.17,0.005099019967019558,101.30992126464844,-0.023000001907348633,0.0,1
1665697108.00038314,388756539,0,3,423526000,2231,13,0.81,42.6900154,-84.48861459999999,275.21,0.04904080182313919,20.28255844116211,0.012000000104308128,0.0,1
1665697108.18007898,388936235,0,3,423526200,2231,13,0.81,42.6900154,-84.48861459999999,275.22,0.006403124425560236,128.65980529785156,0.006000000052154064,0.0,1
1665697108.38006711,389136223,0,3,423526400,2231,13,0.81,42.6900153,-84.4886148,275.25,0.030528675764799118,238.3925018310547,0.06000000238418579,0.0,1
1665697108.58002901,389336185,0,3,423526600,2231,13,0.81,42.6900152,-84.4886149,275.27,0.022627418860793114,315.0,0.007000000216066837,0.0,1
1665697108.77996206,389536118,0,3,423526800,2231,13,0.81,42.6900151,-84.488615,275.28000000000003,0.025495098903775215,101.30992889404297,-0.01900000125169754,0.0,1
1665697108.97996497,389736121,0,3,423527000,2231,13,0.81,42.690014999999995,-84.488615,275.3,0.016763055697083473,162.64596557617188,0.046000003814697266,0.0,1
1665697109.18002701,389936183,0,3,423527200,2231,13,0.81,42.690014999999995,-84.48861509999999,275.3,0.04687216877937317,146.30992126464844,-0.02500000037252903,0.0,1
1665697109.38005114,390136207,0,3,423527400,2231,13,0.81,42.6900149,-84.48861509999999,275.33,0.033837851136922836,18.970407485961914,0.03700000047683716,0.0,1
1665697109.58007312,390336229,0,3,423527600,2231,13,0.81,42.6900149,-84.48861529999999,275.34000000000003,0.03275667876005173,347.6609191894531,0.013000000268220901,0.0,1
1665697109.78006411,390536220,0,3,423527800,2231,13,0.81,42.6900149,-84.4886154,275.37,0.01603122055530548,176.4236602783203,-0.012000000104308128,0.0,1
1665697109.98008800,390736244,0,3,423528000,2231,13,0.81,42.6900148,-84.4886155,275.39,0.0292061660438776,141.95294189453125,0.06599999964237213,0.0,1
1665697110.18004799,390936204,0,3,423528200,2231,13,0.81,42.6900148,-84.4886156,275.41,0.018384777009487152,292.380126953125,-0.005000000353902578,0.0,1
1665697110.38004398,391136200,0,3,423528400,2231,13,0.81,42.6900148,-84.4886157,275.44,0.03361547365784645,30.379125595092773,0.07300000637769699,0.0,1
1665697110.58002806,391336184,0,3,423528600,2231,13,0.81,42.6900148,-84.48861579999999,275.44,0.030413813889026642,80.53767395019531,0.04700000211596489,0.0,1
1665697110.78005409,391536210,0,3,423528800,2231,13,0.81,42.6900148,-84.48861579999999,275.47,0.0573149211704731,47.121097564697266,0.010000000707805157,0.0,1
1665697110.97997212,391736128,0,3,423529000,2231,13,0.81,42.6900148,-84.4886159,275.47,0.021840332075953484,254.0546112060547,0.02200000174343586,0.0,1
1665697111.18006015,391936216,0,3,423529200,2231,13,0.81,42.6900148,-84.4886161,275.49,0.014142136089503765,188.13011169433594,0.08900000154972076,0.0,1
1665697111.38006401,392136220,0,3,423529400,2231,13,0.81,42.6900147,-84.4886162,275.51,0.024041632190346718,45.0,0.13500000536441803,0.0,1
1665697111.58000612,392336162,0,3,423529600,2231,13,0.81,42.6900147,-84.48861629999999,275.51,0.013892443850636482,329.7435607910156,0.0,0.0,1
1665697111.78007793,392536234,0,3,423529800,2231,13,0.81,42.6900148,-84.4886164,275.52,0.027166156098246574,83.65980529785156,0.029000001028180122,0.0,1
1665697111.98005009,392736206,0,3,423530000,2231,13,0.81,42.6900148,-84.4886164,275.54,0.03689173609018326,32.82854080200195,0.09600000083446503,0.0,1
1665697112.18005300,392936209,0,3,423530200,2231,13,0.81,42.6900148,-84.48861649999999,275.53000000000003,0.046572525054216385,75.06857299804688,0.04000000283122063,0.0,1
1665697112.38004112,393136197,0,3,423530400,2231,13,0.81,42.6900148,-84.48861649999999,275.55,0.04901020601391792,358.83087158203125,0.09600000083446503,0.0,1
1665697112.57997012,393336126,0,3,423530600,2231,13,0.81,42.6900149,-84.4886166,275.56,0.012041594833135605,228.36647033691406,0.020000001415610313,0.0,1
1665697112.78002906,393536185,0,3,423530800,2231,13,0.81,42.6900149,-84.4886168,275.58,0.018681542947888374,15.524110794067383,0.052000001072883606,0.0,1
1665697113.00027204,393756428,0,3,423531000,2231,13,0.81,42.6900149,-84.4886169,275.59000000000003,0.022671569138765335,48.57632827758789,0.04200000315904617,0.0,1
1665697113.18007708,393936233,0,3,423531200,2231,13,0.81,42.6900149,-84.48861699999999,275.63,0.012806248851120472,231.34019470214844,0.02200000174343586,0.0,1
1665697113.38006115,394136217,0,3,423531400,2231,13,0.81,42.6900149,-84.4886171,275.64,0.00824621133506298,14.036242485046387,0.007000000216066837,0.0,1
1665697113.58004403,394336200,0,3,423531600,2231,13,0.81,42.6900149,-84.4886172,275.65000000000003,0.024839486926794052,40.10090637207031,0.017000000923871994,0.0,1
1665697113.78009105,394536247,0,3,423531800,2231,13,0.81,42.690014999999995,-84.4886172,275.67,0.035227831453084946,96.5197982788086,-0.04800000041723251,0.0,1
1665697113.98003292,394736189,0,3,423532000,2231,13,0.81,42.6900151,-84.4886173,275.69,0.03178049996495247,24.145540237426758,0.052000001072883606,0.0,1
1665697114.20050192,394956658,0,3,423532200,2231,13,0.81,42.6900151,-84.4886174,275.7,0.01612451672554016,187.12503051757812,-0.07800000160932541,0.0,1
1665697114.38005996,395136216,0,3,423532400,2231,13,0.81,42.6900152,-84.48861749999999,275.73,0.05069516971707344,14.858613014221191,0.07700000703334808,0.0,1
1665697114.58002710,395336183,0,3,423532600,2231,13,0.81,42.6900152,-84.4886176,275.76,0.0213775597512722,259.2156982421875,0.02200000174343586,0.0,1
1665697114.78006291,395536219,0,3,423532800,2231,13,0.81,42.6900153,-84.48861769999999,275.77,0.017691805958747864,137.2906036376953,-0.029000001028180122,0.0,1
1665697114.98007202,395736228,0,3,423533000,2231,13,0.81,42.6900153,-84.48861769999999,275.79,0.012041594833135605,94.76364135742188,0.07800000160932541,0.0,1
1665697115.18007207,395936228,0,3,423533200,2231,13,0.81,42.6900153,-84.4886178,275.8,0.029546573758125305,23.962488174438477,0.052000001072883606,0.0,1
1665697115.38007903,396136235,0,3,423533400,2231,13,0.81,42.6900153,-84.4886179,275.81,0.01702938787639141,273.366455078125,0.014000000432133675,0.0,1
1665697115.60039496,396356551,0,3,423533600,2231,13,0.81,42.6900154,-84.488618,275.82,0.031144823879003525,5.5275397300720215,0.02500000037252903,0.0,1
1665697115.78007197,396536228,0,3,423533800,2231,13,0.81,42.6900155,-84.4886181,275.82,0.014764823019504547,28.300756454467773,0.013000000268220901,0.0,1
1665697116.00032210,396756478,0,3,423534000,2231,13,0.81,42.6900155,-84.4886181,275.85,0.010295630432665348,60.94539260864258,0.05700000375509262,0.0,1
1665697116.18007898,396936235,0,3,423534200,2231,13,0.81,42.6900157,-84.48861819999999,275.82,0.03400000184774399,28.072486877441406,0.02800000086426735,0.0,1
1665697116.38005900,397136215,0,3,423534400,2231,13,0.81,42.6900158,-84.4886183,275.8,0.004000000189989805,90.0,0.02800000086426735,0.0,1
1665697116.58007002,397336226,0,3,423534600,2231,13,0.81,42.6900159,-84.4886184,275.77,0.014035669155418873,265.9143981933594,0.009000000543892384,0.0,1
1665697116.78007698,397536233,0,3,423534800,2231,13,0.81,42.690016,-84.4886185,275.75,0.021189620718359947,289.2900390625,0.05400000140070915,0.0,1
1665697116.98008800,397736244,0,3,423535000,2231,13,0.81,42.690016,-84.4886186,275.74,0.03780211880803108,52.52381896972656,0.017000000923871994,0.0,1
1665697117.18008709,397936243,0,3,423535200,2231,13,0.81,42.6900161,-84.48861869999999,275.72,0.03220248594880104,216.15818786621094,-0.010000000707805157,0.0,1
1665697117.38003898,398136195,0,3,423535400,2231,13,0.81,42.690016199999995,-84.4886188,275.71,0.002828427357599139,45.0,0.006000000052154064,0.0,1
1665697117.58005810,398336214,0,3,423535600,2231,13,0.81,42.690016199999995,-84.48861889999999,275.69,0.010816654190421104,303.6900634765625,0.052000001072883606,0.0,1
1665697117.78003812,398536194,0,3,423535800,2231,13,0.81,42.6900164,-84.48861889999999,275.67,0.031827662140131,46.27302551269531,-0.049000002443790436,0.0,1
1665697117.98007703,398736233,0,3,423536000,2231,13,0.81,42.6900165,-84.48861889999999,275.65000000000003,0.036055512726306915,56.309932708740234,-0.03400000184774399,0.0,1
1665697118.18004298,398936199,0,3,423536200,2231,13,0.81,42.6900166,-84.488619,275.63,0.02745906077325344,259.508544921875,0.007000000216066837,0.0,1
1665697118.38000607,399136162,0,3,423536400,2231,13,0.81,42.6900167,-84.4886191,275.62,0.05508176237344742,356.87786865234375,0.03100000135600567,0.0,1
1665697118.58012605,399336282,0,3,423536600,2231,13,0.81,42.690016799999995,-84.4886192,275.59000000000003,0.008544004522264004,249.4439697265625,-0.05000000074505806,0.0,1
1665697118.78009892,399536255,0,3,423536800,2231,13,0.81,42.690016899999996,-84.4886193,275.57,0.006000000052154064,270.0,-0.003000000026077032,0.0,1
1665697118.98007894,399736235,0,3,423537000,2231,13,0.81,42.690017,-84.48861939999999,275.56,0.014422205276787281,56.309932708740234,-0.07000000029802322,0.0,1
1665697119.18008208,399936238,0,3,423537200,2231,13,0.81,42.6900171,-84.48861939999999,275.53000000000003,0.013601470738649368,162.8972625732422,-0.10900000482797623,0.0,1
1665697119.38006210,400136218,0,3,423537400,2231,13,0.81,42.6900172,-84.48861939999999,275.5,0.01044030673801899,343.3007507324219,-0.018000001087784767,0.0,1
1665697119.58005810,400336214,0,3,423537600,2231,13,0.81,42.6900173,-84.48861939999999,275.48,0.07789736986160278,48.122127532958984,0.01900000125169754,0.0,1
1665697119.78004694,400536203,0,3,423537800,2231,13,0.81,42.690017399999995,-84.48861939999999,275.46,0.009055385366082191,173.65980529785156,0.08400000631809235,0.0,1
1665697119.97998595,400736142,0,3,423538000,2231,13,0.81,42.690017499999996,-84.48861939999999,275.43,0.027202943339943886,323.9726257324219,0.029000001028180122,0.0,1
1665697120.18011999,400936276,0,3,423538200,2231,13,0.81,42.6900176,-84.4886195,275.41,0.012165524996817112,80.53767395019531,-0.03200000151991844,0.0,1
1665697120.38005304,401136209,0,3,423538400,2231,13,0.81,42.6900176,-84.4886195,275.41,0.018439089879393578,139.39869689941406,0.0,0.0,1
1665697120.58002901,401336185,0,3,423538600,2231,13,0.81,42.6900177,-84.4886195,275.38,0.0070710680447518826,351.8699035644531,-0.02200000174343586,0.0,1
1665697120.78005409,401536210,0,3,423538800,2231,13,0.81,42.6900178,-84.4886195,275.34000000000003,0.01615549437701702,68.1985855102539,-0.04200000315904617,0.0,1
1665697120.98004699,401736203,0,3,423539000,2231,13,0.81,42.6900179,-84.4886195,275.32,0.03280244022607803,37.5685920715332,0.026000000536441803,0.0,1
1665697121.18004608,401936202,0,3,423539200,2231,13,0.81,42.690017999999995,-84.4886195,275.29,0.00806225836277008,29.74488067626953,-0.01100000087171793,0.0,1
1665697121.38004804,402136204,0,3,423539400,2231,13,0.81,42.6900182,-84.4886195,275.25,0.02745906263589859,56.88865661621094,-0.010000000707805157,0.0,1
1665697121.58001304,402336169,0,3,423539600,2231,13,0.81,42.6900183,-84.4886195,275.22,0.03944616764783859,30.465545654296875,0.03100000135600567,0.0,1
1665697121.78006196,402536218,0,3,423539800,2231,13,0.81,42.6900184,-84.4886195,275.2,0.015231546945869923,113.1985855102539,-0.049000002443790436,0.0,1
1665697122.00036407,402756520,0,3,423540000,2231,13,0.81,42.6900184,-84.4886195,275.18,0.01303840521723032,184.39871215820312,0.009000000543892384,0.0,1
1665697122.18008900,402936245,0,3,423540200,2231,13,0.81,42.6900185,-84.4886195,275.15000000000003,0.041725292801856995,135.97100830078125,-0.015000000596046448,0.0,1
1665697122.38006496,403136221,0,3,423540400,2231,13,0.81,42.690018599999995,-84.4886195,275.12,0.025079872459173203,265.42608642578125,-0.02500000037252903,0.0,1
1665697122.58004498,403336201,0,3,423540600,2231,13,0.81,42.690018599999995,-84.48861959999999,275.08,0.0611882358789444,258.6900634765625,-0.027000000700354576,0.0,1
1665697122.78006506,403536221,0,3,423540800,2231,13,0.81,42.690018699999996,-84.4886197,275.03000000000003,0.030413813889026642,189.4623260498047,-0.003000000026077032,0.0,1
1665697122.98004603,403736202,0,3,423541000,2231,13,0.81,42.6900188,-84.4886197,275.0,0.019235385581851006,81.0273666381836,0.006000000052154064,0.0,1
1665697123.18001699,403936173,0,3,423541200,2231,13,0.81,42.6900189,-84.4886198,274.97,0.010198039934039116,258.6900634765625,0.015000000596046448,0.0,1
1665697123.37997103,404136127,0,3,423541400,2231,13,0.81,42.6900189,-84.4886198,274.93,0.026248810812830925,252.25534057617188,0.03100000135600567,0.0,1
1665697123.58000207,404336158,0,3,423541600,2231,13,0.81,42.690019,-84.48861989999999,274.89,0.018384777009487152,112.380126953125,-0.06700000166893005,0.0,1
1665697123.78003693,404536193,0,3,423541800,2231,13,0.81,42.6900191,-84.48861989999999,274.85,0.026419691741466522,150.52410888671875,-0.04400000348687172,0.0,1
1665697123.98006105,404736217,0,3,423542000,2231,13,0.81,42.690019199999995,-84.48861989999999,274.83,0.0344093032181263,35.53767776489258,-0.018000001087784767,0.0,1
1665697124.18005013,404936206,0,3,423542200,2231,13,0.81,42.690019299999996,-84.48861989999999,274.79,0.015556350350379944,45.0,-0.046000003814697266,0.0,1
1665697124.38006115,405136217,0,3,423542400,2231,13,0.81,42.6900194,-84.48861989999999,274.76,0.042047593742609024,182.726318359375,0.01900000125169754,0.0,1
1665697124.58002901,405336185,0,3,423542600,2231,13,0.81,42.6900194,-84.48862,274.73,0.020518286153674126,226.97494506835938,0.0430000014603138,0.0,1
1665697124.78002715,405536183,0,3,423542800,2231,13,0.81,42.6900195,-84.48862009999999,274.7,0.009486833587288857,251.5650634765625,-0.003000000026077032,0.0,1
1665697124.97996306,405736119,0,3,423543000,2231,13,0.81,42.6900195,-84.48862009999999,274.67,0.009055385366082191,83.65980529785156,-0.009000000543892384,0.0,1
1665697125.18001008,405936166,0,3,423543200,2231,13,0.81,42.6900196,-84.4886202,274.64,0.014422205276787281,213.69007873535156,0.015000000596046448,0.0,1
1665697125.38004708,406136203,0,3,423543400,2231,13,0.81,42.6900197,-84.4886202,274.6,0.013416407629847527,206.56504821777344,-0.07300000637769699,0.0,1
1665697125.58002114,406336177,0,3,423543600,2231,13,0.81,42.690019799999995,-84.4886202,274.55,0.011045361869037151,84.8055648803711,0.03800000250339508,0.0,1
1665697125.78005910,406536215,0,3,423543800,2231,13,0.81,42.690019799999995,-84.4886202,274.51,0.023430749773979187,219.8055877685547,0.0010000000474974513,0.0,1
1665697125.98007107,406736227,0,3,423544000,2231,13,0.81,42.690019899999996,-84.4886203,274.47,0.018439089879393578,102.52880096435547,-0.012000000104308128,0.0,1
1665697126.18005610,406936212,0,3,423544200,2231,13,0.81,42.69002,-84.4886202,274.44,0.01969771645963192,23.962488174438477,0.046000003814697266,0.0,1
1665697126.38003993,407136196,0,3,423544400,2231,13,0.81,42.6900201,-84.4886202,274.40000000000003,0.01603122055530548,3.576334238052368,-0.04400000348687172,0.0,1
1665697126.57997108,407336127,0,3,423544600,2231,13,0.81,42.6900201,-84.4886203,274.37,0.02617250569164753,226.5481719970703,0.03700000047683716,0.0,1
1665697126.78002810,407536184,0,3,423544800,2231,13,0.81,42.6900202,-84.4886203,274.32,0.009433981962502003,122.00537109375,0.04500000178813934,0.0,1
1665697126.98004794,407736204,0,3,423545000,2231,13,0.81,42.6900203,-84.4886203,274.28000000000003,0.02280350960791111,15.255117416381836,0.058000002056360245,0.0,1
1665697127.17998600,407936142,0,3,423545200,2231,13,0.81,42.6900203,-84.4886203,274.25,0.0187882948666811,25.201122283935547,0.06800000369548798,0.0,1
1665697127.38005495,408136211,0,3,423545400,2231,13,0.81,42.690020499999996,-84.4886203,274.19,0.03047950379550457,41.00908660888672,0.10500000417232513,0.0,1
1665697127.58010602,408336262,0,3,423545600,2231,13,0.81,42.690020499999996,-84.4886203,274.14,0.028600702062249184,36.469234466552734,0.058000002056360245,0.0,1
1665697127.77999210,408536148,0,3,423545800,2231,13,0.81,42.6900206,-84.4886203,274.09000000000003,0.013152946718037128,188.7461700439453,-0.0020000000949949026,0.0,1
1665697127.98006296,408736219,0,3,423546000,2231,13,0.81,42.6900207,-84.4886202,274.05,0.01664331741631031,147.2647705078125,0.09000000357627869,0.0,1
1665697128.17999411,408936150,0,3,423546200,2231,13,0.81,42.6900207,-84.4886202,274.0,0.029966648668050766,334.2900390625,0.02200000174343586,0.0,1
1665697128.38003898,409136195,0,3,423546400,2231,13,0.81,42.6900208,-84.4886203,273.96,0.008602325804531574,305.5376892089844,0.10300000756978989,0.0,1
1665697128.58000398,409336160,0,3,423546600,2231,13,0.81,42.6900209,-84.4886203,273.91,0.027073973789811134,355.76361083984375,0.07600000500679016,0.0,1
1665697128.77999496,409536151,0,3,423546800,2231,12,0.81,42.690021,-84.4886203,273.88,0.009219544939696789,130.60128784179688,-0.049000002443790436,0.0,1
1665697128.96056199,409716718,0,3,423547000,2231,12,0.81,42.690021,-84.4886203,273.84000000000003,0.020223749801516533,188.53077697753906,-0.007000000216066837,0.0,1
1665697129.18006301,409936219,0,3,423547200,2231,12,0.85,42.690021099999996,-84.4886204,273.81,0.009433981962502003,327.99462890625,0.018000001087784767,0.0,1
1665697129.38007307,410136229,0,3,423547400,2231,12,0.85,42.690021099999996,-84.4886203,273.77,0.053907327353954315,139.51397705078125,-0.06700000166893005,0.0,1
1665697129.58007908,410336235,0,3,423547600,2231,12,0.85,42.690021099999996,-84.4886203,273.76,0.03420526161789894,195.25514221191406,-0.06000000238418579,0.0,1
1665697129.78008604,410536242,0,3,423547800,2231,12,0.85,42.6900212,-84.4886204,273.72,0.03162277862429619,341.5650634765625,0.005000000353902578,0.0,1
1665697129.98006105,410736217,0,3,423548000,2231,12,0.85,42.6900213,-84.4886204,273.68,0.011045361869037151,5.194427967071533,0.0430000014603138,0.0,1
1665697130.18005800,410936214,0,3,423548200,2231,12,0.85,42.6900214,-84.4886204,273.65000000000003,0.025495098903775215,115.55996704101562,0.0690000057220459,0.0,1
1665697130.38003993,411136196,0,3,423548400,2231,12,0.85,42.6900214,-84.4886204,273.61,0.01345362514257431,228.01278686523438,0.04800000041723251,0.0,1
1665697130.58006907,411336225,0,3,423548600,2231,12,0.85,42.6900215,-84.4886204,273.56,0.008602325804531574,324.4623107910156,0.02200000174343586,0.0,1
1665697130.78003693,411536193,0,3,423548800,2231,12,0.85,42.6900216,-84.4886205,273.54,0.045705582946538925,10.080597877502441,0.06599999964237213,0.0,1
1665697130.98007607,411736232,0,3,423549000,2231,12,0.85,42.690021699999996,-84.4886204,273.51,0.0434165894985199,28.926424026489258,0.029000001028180122,0.0,1
1665697131.18008113,411936237,0,3,423549200,2231,12,0.85,42.6900218,-84.4886204,273.49,0.020099753513932228,5.710592269897461,0.03700000047683716,0.0,1
1665697131.38009501,412136251,0,3,423549400,2231,12,0.85,42.6900218,-84.4886204,273.45,0.004472136031836271,206.56504821777344,0.03400000184774399,0.0,1
1665697131.58009410,412336250,0,3,423549600,2231,12,0.85,42.6900219,-84.4886205,273.43,0.02024845778942108,290.224853515625,0.04200000315904617,0.0,1
1665697131.78004408,412536200,0,3,423549800,2231,12,0.85,42.6900219,-84.4886205,273.38,0.018110770732164383,186.34019470214844,0.009000000543892384,0.0,1
1665697131.98004508,412736201,0,3,423550000,2231,12,0.85,42.6900219,-84.48862059999999,273.35,0.020000001415610313,180.0,-0.010000000707805157,0.0,1
1665697132.18006992,412936226,0,3,423550200,2231,12,0.85,42.690022,-84.48862059999999,273.32,0.019416488707065582,325.4914855957031,0.08000000566244125,0.0,1
1665697132.37997103,413136127,0,3,423550400,2231,12,0.85,42.6900221,-84.48862059999999,273.27,0.009219544939696789,192.52880859375,-0.004000000189989805,0.0,1
1665697132.58008695,413336243,0,3,423550600,2231,12,0.85,42.6900221,-84.48862059999999,273.24,0.014317821711301804,114.7751235961914,-0.026000000536441803,0.0,1
1665697132.78007698,413536233,0,3,423550800,2231,12,0.85,42.6900222,-84.48862059999999,273.22,0.008602325804531574,324.4623107910156,0.005000000353902578,0.0,1
1665697132.98006511,413736221,0,3,423551000,2231,12,0.85,42.6900222,-84.48862059999999,273.19,0.018439089879393578,40.60129165649414,0.0820000022649765,0.0,1
1665697133.18007398,413936230,0,3,423551200,2231,12,0.85,42.690022299999995,-84.48862059999999,273.14,0.01603122055530548,93.57632446289062,-0.036000002175569534,0.0,1
1665697133.38009906,414136255,0,3,423551400,2231,12,0.85,42.6900224,-84.48862059999999,273.11,0.029529646039009094,151.69923400878906,-0.029000001028180122,0.0,1
1665697133.58003902,414336195,0,3,423551600,2231,12,0.85,42.6900224,-84.48862059999999,273.08,0.03736308589577675,344.47589111328125,0.07500000298023224,0.0,1
1665697133.77996397,414536120,0,3,423551800,2231,12,0.85,42.6900225,-84.48862059999999,273.02,0.015264337882399559,211.60751342773438,-0.012000000104308128,0.0,1
1665697133.97996306,414736119,0,3,423552000,2231,12,0.85,42.6900226,-84.48862059999999,272.99,0.017464250326156616,193.2405242919922,-0.06700000166893005,0.0,1
1665697134.18002892,414936185,0,3,423552200,2231,12,0.85,42.6900226,-84.48862059999999,272.95,0.013601471669971943,233.97262573242188,-0.0010000000474974513,0.0,1
1665697134.37999010,415136146,0,3,423552400,2231,12,0.85,42.6900227,-84.4886207,272.9,0.03448187932372093,196.85841369628906,0.01600000075995922,0.0,1
1665697134.58002496,415336181,0,3,423552600,2231,12,0.85,42.6900228,-84.4886207,272.83,0.011401754803955555,164.744873046875,-0.013000000268220901,0.0,1
1665697134.78008103,415536237,0,3,423552800,2231,12,0.85,42.6900228,-84.4886207,272.81,0.03280244022607803,322.431396484375,0.14000000059604645,0.0,1
1665697134.98004913,415736205,0,3,423553000,2231,12,0.85,42.690022899999995,-84.4886207,272.74,0.028600702062249184,126.46922302246094,-0.04500000178813934,0.0,1
1665697135.18004298,415936199,0,3,423553200,2231,12,0.85,42.690023,-84.4886207,272.73,0.007280109915882349,285.9454040527344,0.03500000014901161,0.0,1
1665697135.38005495,416136211,0,3,423553400,2231,12,0.85,42.690023,-84.4886207,272.68,0.02284732088446617,336.8014221191406,0.04500000178813934,0.0,1
1665697135.58003592,416336192,0,3,423553600,2231,12,0.85,42.6900231,-84.48862079999999,272.65,0.014317821711301804,347.9052429199219,0.046000003814697266,0.0,1
1665697135.78003407,416536190,0,3,423553800,2231,12,0.85,42.6900232,-84.48862079999999,272.61,0.017804494127631187,321.8427734375,-0.0020000000949949026,0.0,1
1665697135.97997713,416736133,0,3,423554000,2231,13,0.85,42.6900233,-84.48862079999999,272.57,0.024515300989151,101.76828002929688,-0.03200000151991844,0.0,1
1665697136.18005395,416936210,0,3,423554200,2231,13,0.81,42.6900234,-84.48862079999999,272.52,0.0020000000949949026,90.0,0.04500000178813934,0.0,1
1665697136.38007808,417136234,0,3,423554400,2231,13,0.81,42.6900234,-84.48862079999999,272.49,0.03201562166213989,165.52969360351562,-0.04400000348687172,0.0,1
1665697136.58008814,417336244,0,3,423554600,2231,13,0.81,42.6900234,-84.4886207,272.46,0.018681542947888374,74.47588348388672,0.021000001579523087,0.0,1
1665697136.78008199,417536238,0,3,423554800,2231,13,0.81,42.690023499999995,-84.4886207,272.43,0.011401754803955555,37.87498092651367,-0.05400000140070915,0.0,1
1665697136.98008895,417736245,0,3,423555000,2231,13,0.81,42.690023599999996,-84.4886207,272.4,0.014035669155418873,94.08560943603516,-0.046000003814697266,0.0,1
1665697137.18011308,417936269,0,3,423555200,2231,13,0.81,42.6900237,-84.4886207,272.35,0.008602325804531574,324.4623107910156,0.03500000014901161,0.0,1
1665697137.38006806,418136224,0,3,423555400,2231,13,0.81,42.6900238,-84.4886207,272.31,0.029154760763049126,300.9637451171875,-0.02500000037252903,0.0,1
1665697137.57999301,418336149,0,3,423555600,2231,13,0.81,42.6900238,-84.4886207,272.29,0.015132746659219265,97.59463500976562,0.08100000023841858,0.0,1
1665697137.78006291,418536219,0,3,423555800,2231,13,0.81,42.6900239,-84.4886207,272.24,0.006082762498408556,99.46231842041016,-0.017000000923871994,0.0,1
1665697137.98005295,418736209,0,3,423556000,2231,13,0.81,42.690024,-84.4886207,272.22,0.012529964558780193,298.6104736328125,-0.03500000014901161,0.0,1
1665697138.18005204,418936208,0,3,423556200,2231,13,0.81,42.690024,-84.4886207,272.19,0.017691805958747864,132.70938110351562,0.024000000208616257,0.0,1
1665697138.38006210,419136218,0,3,423556400,2231,13,0.81,42.690024099999995,-84.4886207,272.15,0.017720045521855354,253.6104736328125,0.02800000086426735,0.0,1
1665697138.58007002,419336226,0,3,423556600,2231,13,0.81,42.690024099999995,-84.4886207,272.11,0.010000000707805157,0.0,-0.007000000216066837,0.0,1
1665697138.78004003,419536196,0,3,423556800,2231,13,0.81,42.690024199999996,-84.48862059999999,272.05,0.048270076513290405,166.8274383544922,-0.046000003814697266,0.0,1
1665697138.98014212,419736298,0,3,423557000,2231,13,0.81,42.6900243,-84.48862059999999,272.02,0.010630146600306034,311.1859130859375,0.02500000037252903,0.0,1
1665697139.18000197,419936158,0,3,423557200,2231,13,0.81,42.6900244,-84.48862059999999,271.98,0.026019224897027016,2.2025983333587646,-0.014000000432133675,0.0,1
1665697139.38004494,420136201,0,3,423557400,2231,13,0.81,42.6900244,-84.48862059999999,271.97,0.02801785245537758,2.0454084873199463,0.02800000086426735,0.0,1
1665697139.58003712,420336193,0,3,423557600,2231,13,0.81,42.6900245,-84.4886207,271.95,0.04386342689394951,245.7722625732422,0.005000000353902578,0.0,1
1665697139.78005195,420536208,0,3,423557800,2231,13,0.81,42.6900245,-84.4886207,271.92,0.027586231008172035,46.46879959106445,0.08500000089406967,0.0,1
1665697140.00043797,420756594,0,3,423558000,2231,13,0.81,42.6900246,-84.4886207,271.87,0.010198039934039116,11.309930801391602,-0.026000000536441803,0.0,1
1665697140.18011904,420936275,0,3,423558200,2231,13,0.81,42.690024699999995,-84.48862059999999,271.82,0.014764823019504547,208.30076599121094,0.06300000101327896,0.0,1
1665697140.38016105,421136317,0,3,423558400,2231,13,0.81,42.690024799999996,-84.4886207,271.79,0.02024845778942108,339.775146484375,0.11500000208616257,0.0,1
1665697140.58011198,421336268,0,3,423558600,2231,13,0.81,42.690024799999996,-84.4886207,271.75,0.018601076677441597,306.25384521484375,0.06400000303983688,0.0,1
1665697140.78013706,421536293,0,3,423558800,2231,13,0.81,42.6900249,-84.4886207,271.72,0.021954499185085297,329.9314270019531,0.049000002443790436,0.0,1
1665697140.98010612,421736262,0,3,423559000,2231,13,0.81,42.690025,-84.4886207,271.7,0.07912016659975052,16.144338607788086,0.125,0.0,1
1665697141.18008494,421936241,0,3,423559200,2231,13,0.81,42.6900251,-84.48862059999999,271.65,0.02147091180086136,207.758544921875,0.02800000086426735,0.0,1
1665697141.38013101,422136287,0,3,423559400,2231,14,0.81,42.6900251,-84.48862059999999,271.61,0.01615549437701702,338.1986083984375,0.09000000357627869,0.0,1
1665697141.58007312,422336229,0,3,423559600,2231,14,0.81,42.6900252,-84.48862059999999,271.57,0.04123105853796005,67.16634368896484,0.020000001415610313,0.0,1
1665697141.78007197,422536228,0,3,423559800,2231,14,0.81,42.690025299999995,-84.4886205,271.54,0.03157530725002289,10.954062461853027,0.02800000086426735,0.0,1
1665697141.98012996,422736286,0,3,423560000,2231,14,0.81,42.690025299999995,-84.4886204,271.51,0.028425343334674835,230.71058654785156,0.08900000154972076,0.0,1
1665697142.18012714,422936283,0,3,423560200,2231,14,0.81,42.690025399999996,-84.4886204,271.45,0.010049876756966114,275.7106018066406,0.07200000435113907,0.0,1
1665697142.38013196,423136288,0,3,423560400,2231,14,0.81,42.690025399999996,-84.4886204,271.4,0.00412310566753149,284.0362548828125,-0.015000000596046448,0.0,1
1665697142.58010697,423336263,0,3,423560600,2231,14,0.81,42.6900255,-84.4886204,271.37,0.03324154019355774,46.218868255615234,0.015000000596046448,0.0,1
1665697142.78008413,423536240,0,3,423560800,2231,14,0.81,42.6900256,-84.4886203,271.33,0.02690725028514862,48.01278305053711,0.03200000151991844,0.0,1
1665697142.98010111,423736257,0,3,423561000,2231,14,0.81,42.6900256,-84.4886202,271.3,0.008944272063672543,296.5650634765625,-0.029000001028180122,0.0,1
1665697143.18008900,423936245,0,3,423561200,2231,14,0.77,42.6900257,-84.48862009999999,271.27,0.04242640733718872,45.0,0.030000001192092896,0.0,1
1665697143.38006711,424136223,0,3,423561400,2231,14,0.77,42.6900258,-84.48862,271.22,0.017464250326156616,166.7594757080078,-0.02500000037252903,0.0,1
1665697143.58007503,424336231,0,3,423561600,2231,14,0.77,42.690025899999995,-84.48862,271.17,0.023194829002022743,7.4314069747924805,-0.09300000220537186,0.0,1
1665697143.78011107,424536267,0,3,423561800,2231,14,0.77,42.690025999999996,-84.48861989999999,271.15,0.02080865204334259,54.782405853271484,0.029000001028180122,0.0,1
1665697143.98007894,424736235,0,3,423562000,2231,14,0.77,42.690025999999996,-84.4886198,271.11,0.037336308509111404,159.62356567382812,-0.03500000014901161,0.0,1
1665697144.18011308,424936269,0,3,423562200,2231,14,0.77,42.690025999999996,-84.4886198,271.09000000000003,0.020223749801516533,8.53076457977295,0.026000000536441803,0.0,1
1665697144.38008404,425136240,0,3,423562400,2231,14,0.77,42.6900261,-84.4886197,271.05,0.0072111026383936405,123.6900634765625,-0.01900000125169754,0.0,1
1665697144.58007812,425336234,0,3,423562600,2231,14,0.77,42.6900261,-84.4886197,271.01,0.006082762498408556,80.53767395019531,-0.026000000536441803,0.0,1
1665697144.78009415,425536250,0,3,423562800,2231,14,0.77,42.6900262,-84.48861959999999,270.98,0.017888544127345085,206.56504821777344,-0.030000001192092896,0.0,1
1665697144.98010993,425736266,0,3,423563000,2231,14,0.77,42.6900262,-84.48861959999999,270.93,0.021095024421811104,148.5704345703125,0.020000001415610313,0.0,1
1665697145.18013096,425936287,0,3,423563200,2231,14,0.77,42.6900262,-84.4886195,270.91,0.023600848391652107,53.61564636230469,-0.02500000037252903,0.0,1
1665697145.38000894,426136165,0,3,423563400,2231,14,0.77,42.6900263,-84.48861939999999,270.9,0.0353553406894207,28.739795684814453,0.07500000298023224,0.0,1
1665697145.58002210,426336178,0,3,423563600,2231,14,0.77,42.6900263,-84.4886193,270.87,0.031240999698638916,140.1944122314453,0.02800000086426735,0.0,1
1665697145.78006196,426536218,0,3,423563800,2231,14,0.77,42.6900263,-84.4886192,270.84000000000003,0.010000000707805157,90.0,-0.052000001072883606,0.0,1
1665697145.98009109,426736247,0,3,423564000,2231,14,0.77,42.6900264,-84.4886192,270.81,0.017000000923871994,28.072486877441406,-0.02800000086426735,0.0,1
1665697146.18004298,426936199,0,3,423564200,2231,14,0.77,42.6900264,-84.4886191,270.79,0.01603122055530548,86.42366027832031,0.04800000041723251,0.0,1
1665697146.38005114,427136207,0,3,423564400,2231,14,0.77,42.690026499999995,-84.4886191,270.75,0.04332435876131058,18.853158950805664,0.03800000250339508,0.0,1
1665697146.57997894,427336135,0,3,423564600,2231,14,0.77,42.690026599999996,-84.488619,270.72,0.01486606989055872,222.27369689941406,0.06000000238418579,0.0,1
1665697146.77997899,427536135,0,3,423564800,2231,14,0.77,42.690026599999996,-84.488619,270.7,0.01726267673075199,349.9920349121094,0.07700000703334808,0.0,1
1665697146.97999597,427736152,0,3,423565000,2231,14,0.77,42.690026599999996,-84.488619,270.66,0.0010000000474974513,270.0,0.046000003814697266,0.0,1
1665697147.18004894,427936205,0,3,423565200,2231,14,0.77,42.6900267,-84.48861889999999,270.64,0.017888544127345085,63.4349479675293,0.013000000268220901,0.0,1
1665697147.38007712,428136233,0,3,423565400,2231,14,0.77,42.6900267,-84.48861889999999,270.61,0.014317821711301804,257.9052734375,-0.03400000184774399,0.0,1
1665697147.58005404,428336210,0,3,423565600,2231,14,0.77,42.6900268,-84.4886188,270.58,0.0213775597512722,10.784296989440918,0.08300000429153442,0.0,1
1665697147.78005815,428536214,0,3,423565800,2231,14,0.77,42.6900269,-84.48861869999999,270.55,0.06313478201627731,29.40718650817871,0.06000000238418579,0.0,1
1665697147.98005509,428736211,0,3,423566000,2231,14,0.77,42.690027,-84.4886186,270.53000000000003,0.028301943093538284,32.00537872314453,0.00800000037997961,0.0,1
1665697148.17996597,428936122,0,3,423566200,2231,14,0.77,42.690027,-84.4886186,270.51,0.026476405560970306,280.8855285644531,0.0560000017285347,0.0,1
1665697148.37998104,429136137,0,3,423566400,2231,14,0.77,42.690027,-84.4886186,270.5,0.011180340312421322,79.69514465332031,0.03800000250339508,0.0,1
1665697148.57998109,429336137,0,3,423566600,2231,14,0.77,42.690027099999995,-84.4886185,270.48,0.011180340312421322,100.30484008789062,0.0,0.0,1
1665697148.78004098,429536197,0,3,423566800,2231,14,0.77,42.690027099999995,-84.4886185,270.46,0.017117243260145187,186.7098388671875,-0.03100000135600567,0.0,1
1665697148.98000503,429736161,0,3,423567000,2231,14,0.77,42.690027099999995,-84.4886185,270.45,0.031112700700759888,135.0,-0.06400000303983688,0.0,1
1665697149.18009496,429936251,0,3,423567200,2231,14,0.77,42.690027099999995,-84.4886184,270.43,0.01664331741631031,212.7352294921875,-0.04100000113248825,0.0,1
1665697149.38004899,430136205,0,3,423567400,2231,14,0.77,42.690027199999996,-84.4886184,270.42,0.008944272063672543,116.5650405883789,0.006000000052154064,0.0,1
1665697149.58000112,430336157,0,3,423567600,2231,14,0.77,42.690027199999996,-84.4886184,270.39,0.021095024421811104,211.4295654296875,0.09600000083446503,0.0,1
1665697149.78011799,430536274,0,3,423567800,2231,14,0.77,42.690027199999996,-84.4886184,270.38,0.011704700998961926,250.01690673828125,0.024000000208616257,0.0,1
1665697149.98005295,430736209,0,3,423568000,2231,14,0.77,42.690027199999996,-84.4886185,270.38,0.044181447476148605,275.1944274902344,0.12700000405311584,0.0,1
1665697150.18000913,430936165,0,3,423568200,2231,14,0.77,42.690027199999996,-84.4886185,270.38,0.03023243322968483,34.215702056884766,0.024000000208616257,0.0,1
1665697150.38002300,431136179,0,3,423568400,2231,14,0.77,42.690027199999996,-84.4886184,270.36,0.027018513530492783,51.009002685546875,0.03500000014901161,0.0,1
1665697150.57998204,431336138,0,3,423568600,2231,14,0.77,42.690027199999996,-84.4886184,270.36,0.019209373742341995,321.3402099609375,0.0690000057220459,0.0,1
1665697150.78003311,431536189,0,3,423568800,2231,14,0.77,42.6900273,-84.4886185,270.35,0.03959798067808151,315.0,0.07800000160932541,0.0,1
1665697150.98006010,431736216,0,3,423569000,2231,14,0.77,42.6900273,-84.4886186,270.34000000000003,0.008602325804531574,305.5376892089844,0.004000000189989805,0.0,1
1665697151.17999911,431936155,0,3,423569200,2231,14,0.77,42.6900273,-84.4886186,270.34000000000003,0.019235385581851006,8.972625732421875,0.052000001072883606,0.0,1
1665697151.38003302,432136189,0,3,423569400,2231,14,0.77,42.6900273,-84.4886186,270.32,0.029120439663529396,254.0546112060547,0.14500001072883606,0.0,1
1665697151.58007598,432336232,0,3,423569600,2231,14,0.77,42.6900273,-84.48861869999999,270.3,0.044654227793216705,214.0459442138672,0.004000000189989805,0.0,1
1665697151.78003001,432536186,0,3,423569800,2231,14,0.77,42.690027199999996,-84.4886188,270.3,0.020000001415610313,90.0,0.10200000554323196,0.0,1
1665697151.98003912,432736195,0,3,423570000,2231,14,0.77,42.6900273,-84.4886188,270.28000000000003,0.027730850502848625,334.3590087890625,-0.00800000037997961,0.0,1
1665697152.18003011,432936186,0,3,423570200,2231,13,0.81,42.6900273,-84.4886188,270.27,0.010295630432665348,209.05459594726562,0.06700000166893005,0.0,1
1665697152.38002396,433136180,0,3,423570400,2231,13,0.81,42.6900273,-84.48861889999999,270.25,0.0298328697681427,219.55967712402344,-0.010000000707805157,0.0,1
1665697152.58002710,433336183,0,3,423570600,2231,13,0.81,42.6900273,-84.488619,270.25,0.0360138900578022,358.40887451171875,0.10200000554323196,0.0,1
1665697152.78009701,433536253,0,3,423570800,2231,12,0.81,42.6900273,-84.488619,270.21,0.02408318966627121,274.7636413574219,0.09300000220537186,0.0,1
1665697152.98006606,433736222,0,3,423571000,2231,12,0.81,42.6900273,-84.488619,270.18,0.010816654190421104,146.30992126464844,-0.017000000923871994,0.0,1
1665697153.18006015,433936216,0,3,423571200,2231,12,0.85,42.6900273,-84.488619,270.16,0.003162277629598975,341.5650634765625,-0.0020000000949949026,0.0,1
1665697153.38001513,434136171,0,3,423571400,2231,12,0.85,42.690027199999996,-84.488619,270.14,0.029698487371206284,225.0,0.04400000348687172,0.0,1
1665697153.58004808,434336204,0,3,423571600,2231,13,0.85,42.690027199999996,-84.4886191,270.12,0.015264337882399559,121.60749816894531,-0.036000002175569534,0.0,1
1665697153.77999401,434536150,0,3,423571800,2231,12,0.85,42.690027199999996,-84.48861889999999,270.1,0.06545991450548172,108.71173095703125,0.021000001579523087,0.0,1
1665697153.98003912,434736195,0,3,423572000,2231,12,0.85,42.6900273,-84.48861889999999,270.02,0.042438190430402756,325.5610046386719,0.00800000037997961,0.0,1
1665697154.17997909,434936135,0,3,423572200,2231,12,0.85,42.6900274,-84.48861889999999,269.97,0.029154760763049126,22.166345596313477,0.09600000083446503,0.0,1
1665697154.38000703,435136163,0,3,423572400,2231,12,0.85,42.6900274,-84.4886188,269.95,0.0292061660438776,128.0470428466797,0.05400000140070915,0.0,1
1665697154.58006501,435336221,0,3,423572600,2231,12,0.85,42.6900274,-84.4886188,269.91,0.039849720895290375,342.47442626953125,-0.055000003427267075,0.0,1
1665697154.76063013,435516786,0,3,423572800,2231,13,0.85,42.6900275,-84.4886188,269.89,0.051739733666181564,41.081748962402344,0.08100000023841858,0.0,1
1665697154.98006797,435736224,0,3,423573000,2231,13,0.85,42.6900274,-84.4886188,269.88,0.05433231219649315,186.34019470214844,0.030000001192092896,0.0,1
1665697155.18005300,435936209,0,3,423573200,2231,13,0.85,42.6900273,-84.4886188,269.87,0.03275667876005173,31.263731002807617,0.15600000321865082,0.0,1
1665697155.38003898,436136195,0,3,423573400,2231,13,0.85,42.6900274,-84.4886188,269.84000000000003,0.029966648668050766,295.7099609375,-0.00800000037997961,0.0,1
1665697155.58001614,436336172,0,3,423573600,2231,13,0.85,42.6900275,-84.48861889999999,269.82,0.01077033020555973,68.1985855102539,0.007000000216066837,0.0,1
1665697155.77998114,436536137,0,3,423573800,2231,13,0.85,42.6900275,-84.4886188,269.8,0.027730850502848625,64.35899353027344,0.06700000166893005,0.0,1
1665697155.98000503,436736161,0,3,423574000,2231,14,0.85,42.6900275,-84.48861869999999,269.77,0.021587034687399864,13.392497062683105,0.017000000923871994,0.0,1
1665697156.17998910,436936145,0,3,423574200,2231,14,0.77,42.6900276,-84.48861869999999,269.76,0.022360680624842644,333.4349365234375,0.0430000014603138,0.0,1
1665697156.38008714,437136243,0,3,423574400,2231,14,0.77,42.6900276,-84.48861869999999,269.75,0.01900000125169754,180.0,-0.02500000037252903,0.0,1
1665697156.58006096,437336217,0,3,423574600,2231,14,0.77,42.6900276,-84.48861869999999,269.72,0.009219544939696789,220.60130310058594,-0.023000001907348633,0.0,1
1665697156.78004503,437536201,0,3,423574800,2231,14,0.77,42.690027699999995,-84.4886186,269.7,0.01486606989055872,47.72631072998047,0.0010000000474974513,0.0,1
1665697156.98006392,437736220,0,3,423575000,2231,14,0.77,42.690027699999995,-84.4886186,269.69,0.018027756363153458,340.5599670410156,0.05300000309944153,0.0,1
1665697157.18006301,437936219,0,3,423575200,2231,14,0.77,42.690027699999995,-84.4886186,269.68,0.006000000052154064,270.0,0.0650000050663948,0.0,1
1665697157.37996912,438136125,0,3,423575400,2231,14,0.77,42.690027699999995,-84.4886186,269.65,0.007615773472934961,66.80140686035156,0.0020000000949949026,0.0,1
1665697157.58001399,438336170,0,3,423575600,2231,14,0.77,42.690027699999995,-84.4886186,269.65,0.018384777009487152,315.0,0.04200000315904617,0.0,1
1665697157.77998304,438536139,0,3,423575800,2231,14,0.77,42.690027799999996,-84.4886185,269.63,0.019209373742341995,51.34019088745117,-0.07800000160932541,0.0,1
1665697158.00037503,438756531,0,3,423576000,2231,14,0.77,42.690027799999996,-84.4886185,269.63,0.029681645333766937,32.61924362182617,0.036000002175569534,0.0,1
1665697158.18003201,438936188,0,3,423576200,2231,14,0.77,42.690027799999996,-84.4886185,269.59000000000003,0.04001250118017197,178.56790161132812,-0.027000000700354576,0.0,1
1665697158.38001704,439136173,0,3,423576400,2231,14,0.77,42.690027799999996,-84.4886185,269.58,0.02202271670103073,320.52752685546875,0.012000000104308128,0.0,1
1665697158.58006215,439336218,0,3,423576600,2231,14,0.77,42.6900279,-84.4886185,269.55,0.032388269901275635,8.880658149719238,0.0430000014603138,0.0,1
1665697203.98004103,484736197,0,3,423622000,2231,14,0.75,42.690031399999995,-84.4886207,267.04,0.037947334349155426,288.4349365234375,-0.013000000268220901,0.0,1
1665697204.17997313,484936129,0,3,423622200,2231,14,0.75,42.690031399999995,-84.48862079999999,267.06,0.026248810812830925,319.6354675292969,-0.026000000536441803,0.0,1
1665697204.40037012,485156526,0,3,423622400,2231,14,0.75,42.690031499999996,-84.4886209,267.08,0.038639359176158905,10.437474250793457,0.08000000566244125,0.0,1
1665697204.57996798,485336124,0,3,423622600,2231,14,0.75,42.690031499999996,-84.4886209,267.1,0.024186773225665092,352.8749694824219,0.009000000543892384,0.0,1
1665697204.78005314,485536209,0,3,423622800,2231,14,0.75,42.690031499999996,-84.4886209,267.12,0.02846049889922142,71.56504821777344,0.04800000041723251,0.0,1
1665697204.98005795,485736214,0,3,423623000,2231,14,0.75,42.690031499999996,-84.4886209,267.13,0.01969771645963192,336.0375061035156,0.04100000113248825,0.0,1
1665697205.18006802,485936224,0,3,423623200,2231,14,0.75,42.690031499999996,-84.488621,267.15,0.018110770732164383,173.65980529785156,-0.01100000087171793,0.0,1
1665697205.38005114,486136207,0,3,423623400,2231,14,0.75,42.690031499999996,-84.488621,267.18,0.03827532008290291,19.855213165283203,0.023000001907348633,0.0,1
1665697205.58005214,486336208,0,3,423623600,2231,14,0.75,42.690031499999996,-84.488621,267.21,0.008544004522264004,20.55604362487793,-0.003000000026077032,0.0,1
1665697205.78006792,486536224,0,3,423623800,2231,14,0.75,42.690031499999996,-84.4886211,267.25,0.014000000432133675,90.0,0.0430000014603138,0.0,1
1665697206.00038910,486756545,0,3,423624000,2231,14,0.75,42.690031499999996,-84.4886211,267.26,0.009055385366082191,173.65980529785156,-0.04200000315904617,0.0,1
1665697206.17998815,486936144,0,3,423624200,2231,14,0.75,42.690031499999996,-84.4886212,267.29,0.00806225836277008,209.74488830566406,-0.012000000104308128,0.0,1
1665697206.38001108,487136167,0,3,423624400,2231,14,0.75,42.690031499999996,-84.4886212,267.3,0.01303840521723032,57.52880859375,-0.05700000375509262,0.0,1
1665697206.58002710,487336183,0,3,423624600,2231,14,0.75,42.690031499999996,-84.4886212,267.34000000000003,0.02500000037252903,0.0,0.026000000536441803,0.0,1
1665697206.78005314,487536209,0,3,423624800,2231,14,0.75,42.690031499999996,-84.48862129999999,267.35,0.014000000432133675,180.0,-0.11600000411272049,0.0,1
1665697206.98003101,487736187,0,3,423625000,2231,14,0.75,42.690031499999996,-84.48862129999999,267.38,0.02024845778942108,69.77513885498047,0.015000000596046448,0.0,1
1665697207.18007994,487936236,0,3,423625200,2231,14,0.75,42.690031499999996,-84.48862129999999,267.39,0.02865309827029705,60.75116729736328,0.039000000804662704,0.0,1
1665697207.38004804,488136204,0,3,423625400,2231,14,0.75,42.690031499999996,-84.48862129999999,267.4,0.017492856830358505,30.963756561279297,0.032999999821186066,0.0,1
1665697207.58001304,488336169,0,3,423625600,2231,14,0.75,42.690031499999996,-84.48862129999999,267.43,0.0010000000474974513,90.0,0.0560000017285347,0.0,1
1665697207.77998304,488536139,0,3,423625800,2231,14,0.75,42.690031499999996,-84.4886214,267.45,0.02692582458257675,15.068487167358398,0.0560000017285347,0.0,1
1665697209.98003411,490736190,0,3,423628000,2231,14,0.75,42.6900312,-84.4886219,267.62,0.018439089879393578,167.47119140625,0.027000000700354576,0.0,1
1665697210.18003011,490936186,0,3,423628200,2231,14,0.75,42.6900312,-84.48862199999999,267.62,0.036769554018974304,247.619873046875,-0.046000003814697266,0.0,1
1665697210.38006711,491136223,0,3,423628400,2231,14,0.75,42.6900311,-84.4886221,267.63,0.011661904864013195,300.9637451171875,0.07200000435113907,0.0,1
1665697210.58002496,491336181,0,3,423628600,2231,14,0.75,42.6900311,-84.4886222,267.64,0.004000000189989805,270.0,-0.012000000104308128,0.0,1
1665697210.78002095,491536177,0,3,423628800,2231,14,0.75,42.6900311,-84.4886222,267.66,0.03700000047683716,90.0,-0.03400000184774399,0.0,1
1665697210.98005009,491736206,0,3,423629000,2231,14,0.75,42.690031,-84.4886222,267.67,0.022671569138765335,41.42366409301758,-0.005000000353902578,0.0,1
1665697211.18005300,491936209,0,3,423629200,2231,14,0.75,42.690031,-84.4886222,267.68,0.027018513530492783,128.99098205566406,0.0560000017285347,0.0,1
1665697211.38005900,492136215,0,3,423629400,2231,14,0.75,42.6900309,-84.4886222,267.69,0.02121320553123951,261.8699035644531,0.030000001192092896,0.0,1
1665697211.58004713,492336203,0,3,423629600,2231,14,0.75,42.6900309,-84.4886223,267.69,0.005656854715198278,135.0,-0.0430000014603138,0.0,1
1665697211.78001308,492536169,0,3,423629800,2231,14,0.75,42.690030799999995,-84.4886223,267.71,0.031400639563798904,52.76516342163086,0.14600001275539398,0.0,1
1665697212.00041199,492756568,0,3,423630000,2231,14,0.75,42.690030799999995,-84.4886223,267.72,0.011401754803955555,52.1250114440918,-0.055000003427267075,0.0,1
1665697212.18004298,492936199,0,3,423630200,2231,14,0.75,42.690030799999995,-84.4886223,267.74,0.04114608094096184,154.0576934814453,-0.0990000069141388,0.0,1
1665697212.37999201,493136148,0,3,423630400,2231,14,0.75,42.6900307,-84.4886223,267.75,0.01702938787639141,93.366455078125,-0.009000000543892384,0.0,1
1665697212.58004999,493336206,0,3,423630600,2231,14,0.75,42.6900307,-84.4886224,267.76,0.035468295216560364,248.49856567382812,-0.10300000756978989,0.0,1
1665697212.78006697,493536223,0,3,423630800,2231,14,0.75,42.6900306,-84.48862249999999,267.77,0.01702938787639141,266.633544921875,-0.004000000189989805,0.0,1
1665697212.98002005,493736176,0,3,423631000,2231,14,0.75,42.6900306,-84.4886226,267.76,0.0344383530318737,25.82098960876465,-0.03800000250339508,0.0,1
1665697213.20035195,493956508,0,3,423631200,2231,14,0.75,42.6900306,-84.4886226,267.78000000000003,0.01612451672554016,82.8749771118164,0.07300000637769699,0.0,1
1665697213.40036702,494156523,0,3,423631400,2231,14,0.75,42.6900305,-84.4886226,267.78000000000003,0.027166156098246574,173.65980529785156,-0.021000001579523087,0.0,1
1665697213.60037398,494356530,0,3,423631600,2231,14,0.75,42.6900304,-84.4886226,267.79,0.014212671667337418,50.71059036254883,-0.03100000135600567,0.0,1
1665697213.80040598,494556562,0,3,423631800,2231,14,0.75,42.6900304,-84.4886226,267.8,0.02640075981616974,52.696048736572266,0.09600000083446503,0.0,1
1665697213.98007393,494736230,0,3,423632000,2231,14,0.75,42.6900304,-84.4886227,267.79,0.017492856830358505,210.96376037597656,-0.07000000029802322,0.0,1
1665697214.18009114,494936247,0,3,423632200,2231,14,0.75,42.6900303,-84.4886227,267.79,0.01720465160906315,234.46234130859375,0.032999999821186066,0.0,1
1665697214.40033102,495156487,0,3,423632400,2231,14,0.75,42.690030199999995,-84.4886228,267.79,0.019924860447645187,252.4744415283203,0.021000001579523087,0.0,1
1665697214.58008909,495336245,0,3,423632600,2231,14,0.75,42.690030199999995,-84.4886229,267.8,0.005000000353902578,0.0,0.029000001028180122,0.0,1
1665697214.80035901,495556515,0,3,423632800,2231,14,0.75,42.6900301,-84.4886229,267.81,0.02147091180086136,332.241455078125,0.026000000536441803,0.0,1
1665697215.00043106,495756587,0,3,423633000,2231,14,0.75,42.6900301,-84.4886229,267.82,0.005099019967019558,168.6900634765625,-0.05900000408291817,0.0,1
1665697215.18000007,495936156,0,3,423633200,2231,14,0.75,42.69003,-84.48862299999999,267.83,0.01603122055530548,86.42366027832031,0.013000000268220901,0.0,1
1665697215.37998796,496136144,0,3,423633400,2231,14,0.75,42.69003,-84.48862299999999,267.84000000000003,0.006708203814923763,206.56504821777344,0.09600000083446503,0.0,1
1665697215.60039210,496356548,0,3,423633600,2231,14,0.75,42.6900299,-84.48862299999999,267.84000000000003,0.02607681043446064,94.39869689941406,-0.014000000432133675,0.0,1
1665697215.78003001,496536186,0,3,423633800,2231,14,0.75,42.6900299,-84.48862299999999,267.85,0.01910497434437275,42.878902435302734,0.05400000140070915,0.0,1
1665697215.98002410,496736180,0,3,423634000,2231,14,0.75,42.6900298,-84.4886231,267.86,0.010816654190421104,303.6900634765625,0.10000000149011612,0.0,1
1665697219.18004107,499936197,0,3,423637200,2231,14,0.75,42.6900293,-84.48862369999999,268.01,0.024596748873591423,243.43496704101562,-0.013000000268220901,0.0,1
1665697219.38005400,500136210,0,3,423637400,2231,14,0.75,42.6900293,-84.4886238,268.04,0.003162277629598975,251.5650634765625,0.024000000208616257,0.0,1
1665697219.58006597,500336222,0,3,423637600,2231,14,0.75,42.6900292,-84.4886238,268.05,0.0150332972407341,266.1859130859375,0.05100000277161598,0.0,1
1665697219.78005195,500536208,0,3,423637800,2231,14,0.75,42.6900292,-84.4886239,268.05,0.02828427404165268,225.0,0.006000000052154064,0.0,1
1665697219.98003411,500736190,0,3,423638000,2231,14,0.75,42.6900292,-84.488624,268.07,0.020396079868078232,258.6900634765625,-0.010000000707805157,0.0,1
1665697220.18007112,500936227,0,3,423638200,2231,14,0.75,42.6900291,-84.4886241,268.08,0.008544004522264004,339.4439697265625,0.058000002056360245,0.0,1
1665697220.37998700,501136143,0,3,423638400,2231,14,0.75,42.6900291,-84.4886241,268.09000000000003,0.029017237946391106,88.02506256103516,-0.0020000000949949026,0.0,1
1665697220.58002806,501336184,0,3,423638600,2231,14,0.75,42.6900291,-84.488624,268.09000000000003,0.006403124425560236,51.34019088745117,-0.039000000804662704,0.0,1
1665697220.78000498,501536161,0,3,423638800,2231,13,0.75,42.6900291,-84.488624,268.1,0.03807886689901352,76.32868194580078,0.012000000104308128,0.0,1
1665697223.98003602,504736192,0,3,423642000,2231,12,0.85,42.690028999999996,-84.48862419999999,268.19,0.016552945598959923,115.01688385009766,-0.020000001415610313,0.0,1
1665697224.18003798,504936194,0,3,423642200,2231,12,0.85,42.690028999999996,-84.48862419999999,268.2,0.013928388245403767,338.9624938964844,0.020000001415610313,0.0,1
1665697224.37994814,505136104,0,3,423642400,2231,12,0.85,42.690028999999996,-84.48862419999999,268.2,0.027730850502848625,244.3590087890625,0.012000000104308128,0.0,1
1665697224.58004212,505336198,0,3,423642600,2231,12,0.85,42.6900291,-84.4886243,268.2,0.0430116280913353,1.3322198390960693,-0.03100000135600567,0.0,1
1665697224.78007507,505536231,0,3,423642800,2231,12,0.85,42.6900291,-84.4886243,268.22,0.021931713446974754,43.15238952636719,0.039000000804662704,0.0,1
1665697224.97999406,505736150,0,3,423643000,2231,13,0.85,42.6900291,-84.4886243,268.21,0.0126491105183959,198.43495178222656,-0.04200000315904617,0.0,1
1665697225.18007112,505936227,0,3,423643200,2231,13,0.85,42.6900291,-84.4886243,268.21,0.009055385366082191,263.6598205566406,0.0,0.0,1
1665697225.38006115,506136217,0,3,423643400,2231,13,0.85,42.6900291,-84.4886243,268.22,0.010000000707805157,0.0,-0.018000001087784767,0.0,1
1665697225.58004904,506336205,0,3,423643600,2231,13,0.85,42.6900291,-84.4886243,268.22,0.0351140983402729,70.01688385009766,0.03100000135600567,0.0,1
1665697225.78003907,506536195,0,3,423643800,2231,13,0.85,42.690028999999996,-84.48862439999999,268.23,0.03801315650343895,206.56504821777344,0.018000001087784767,0.0,1
1665697225.97997594,506736132,0,3,423644000,2231,13,0.85,42.690028999999996,-84.48862439999999,268.22,0.015811389312148094,108.43494415283203,-0.03700000047683716,0.0,1
