timestamp,TimeUS,Lat,Lng,Alt,RelHomeAlt,RelOriginAlt
1665697096.42062807,377176784,42.690022,-84.48860429999999,278.7799987792969,0.005137486383318901,0.09513748437166214
1665697096.52053905,377276695,42.6900219,-84.48860429999999,278.7900085449219,0.01199558936059475,0.10199558734893799
1665697096.62059999,377376756,42.6900219,-84.48860429999999,278.7900085449219,0.01870322786271572,0.10870322585105896
1665697096.72062397,377476780,42.6900218,-84.4886044,278.79998779296875,0.024868113920092583,0.11486811190843582
1665697096.82060814,377576764,42.690021699999996,-84.4886044,278.79998779296875,0.02868160419166088,0.11868160218000412
1665697096.92054415,377676700,42.690021699999996,-84.4886045,278.80999755859375,0.030728628858923912,0.12072862684726715
1665697097.02066708,377776823,42.6900216,-84.4886045,278.80999755859375,0.03205329179763794,0.12205328792333603
1665697097.12050295,377876659,42.6900216,-84.4886045,278.80999755859375,0.03227785974740982,0.12227785587310791
1665697097.22063494,377976791,42.6900215,-84.4886046,278.80999755859375,0.031684793531894684,0.12168478965759277
1665697097.32052207,378076678,42.6900215,-84.4886046,278.79998779296875,0.029697878286242485,0.11969787627458572
1665697097.42054796,378176704,42.6900214,-84.4886046,278.79998779296875,0.02830704115331173,0.11830703914165497
1665697097.52054095,378276697,42.6900214,-84.4886047,278.79998779296875,0.027243485674262047,0.11724348366260529
1665697097.62055397,378376710,42.6900214,-84.4886047,278.79998779296875,0.02670404128730297,0.11670403927564621
1665697097.72061992,378476776,42.6900213,-84.48860479999999,278.79998779296875,0.026324806734919548,0.11632480472326279
1665697097.82071400,378576870,42.6900213,-84.48860479999999,278.79998779296875,0.026113657280802727,0.11611365526914597
1665697097.92062712,378676783,42.6900212,-84.4886049,278.79998779296875,0.02587766759097576,0.115877665579319
1665697098.02054310,378776699,42.6900212,-84.4886049,278.79998779296875,0.026433324441313744,0.11643332242965698
1665697098.12064910,378876805,42.690021099999996,-84.4886049,278.79998779296875,0.027939630672335625,0.11793962866067886
1665697098.22058392,378976740,42.690021099999996,-84.48860499999999,278.79998779296875,0.0295648705214262,0.11956486850976944
1665697098.32049799,379076654,42.690021,-84.48860499999999,278.79998779296875,0.02948368899524212,0.11948368698358536
1665697098.42060399,379176760,42.690021,-84.48860499999999,278.80999755859375,0.030456623062491417,0.12045662105083466
1665697098.52051401,379276670,42.6900209,-84.4886051,278.80999755859375,0.031889304518699646,0.12188930064439774
1665697098.62061214,379376768,42.6900208,-84.4886051,278.80999755859375,0.03237708657979965,0.12237708270549774
1665697098.72063804,379476794,42.6900208,-84.4886052,278.80999755859375,0.032116107642650604,0.1221161037683487
1665697098.82065606,379576812,42.6900207,-84.4886052,278.80999755859375,0.032854095101356506,0.1228540912270546
1665697098.92052412,379676680,42.6900207,-84.4886052,278.80999755859375,0.034342966973781586,0.12434296309947968
1665697099.02061701,379776773,42.6900206,-84.4886053,278.80999755859375,0.036565713584423065,0.12656570971012115
1665697099.12063408,379876790,42.690020499999996,-84.4886053,278.80999755859375,0.03947494179010391,0.129474937915802
1665697099.22056913,379976725,42.690020499999996,-84.4886054,278.82000732421875,0.04295230656862259,0.13295230269432068
1665697099.32060003,380076756,42.690020399999995,-84.4886054,278.82000732421875,0.04625778645277023,0.13625778257846832
1665697099.42056012,380176716,42.690020399999995,-84.48860549999999,278.82000732421875,0.0492139533162117,0.1392139494419098
1665697099.52058911,380276745,42.6900203,-84.48860549999999,278.8299865722656,0.05185151845216751,0.1418515145778656
1665697099.62055707,380376713,42.6900203,-84.4886056,278.8299865722656,0.0541219487786293,0.1441219449043274
1665697099.72068906,380476845,42.6900202,-84.4886057,278.8299865722656,0.05634742230176926,0.14634741842746735
1665697099.82059598,380576752,42.6900202,-84.4886057,278.8299865722656,0.05859678238630295,0.14859677851200104
1665697099.92071199,380676868,42.6900201,-84.4886057,278.8399963378906,0.06110247224569321,0.1511024683713913
1665697100.02055001,380776706,42.6900201,-84.4886058,278.8399963378906,0.0640973225235939,0.154097318649292
1665697100.12054706,380876703,42.69002,-84.4886059,278.8399963378906,0.06701735407114029,0.15701735019683838
1665697100.22061801,380976774,42.69002,-84.4886059,278.8399963378906,0.06791434437036514,0.15791434049606323
1665697100.32051110,381076667,42.690019899999996,-84.48860599999999,278.8399963378906,0.06708075851202011,0.1570807546377182
1665697100.42056513,381176721,42.690019899999996,-84.4886061,278.8399963378906,0.06758887320756912,0.1575888693332672
1665697100.52053404,381276690,42.690019799999995,-84.4886061,278.8399963378906,0.06868337839841843,0.15868337452411652
1665697100.62057114,381376727,42.690019799999995,-84.48860619999999,278.8500061035156,0.0714387372136116,0.1614387333393097
1665697100.72064805,381476804,42.6900197,-84.4886064,278.8500061035156,0.07637517899274826,0.16637517511844635
1665697100.82067108,381576827,42.6900197,-84.4886064,278.8500061035156,0.07890003174543381,0.1689000278711319
1665697100.92067695,381676833,42.6900196,-84.4886065,278.8500061035156,0.07945797592401505,0.16945797204971313
1665697101.02056408,381776720,42.6900195,-84.4886066,278.8500061035156,0.07924554497003555,0.16924554109573364
1665697101.12059808,381876754,42.6900195,-84.4886066,278.8500061035156,0.07816598564386368,0.16816598176956177
1665697101.22057915,381976735,42.6900194,-84.48860669999999,278.8500061035156,0.07705434411764145,0.16705434024333954
1665697101.32058501,382076741,42.6900194,-84.4886068,278.8500061035156,0.07566865533590317,0.16566865146160126
1665697101.42057109,382176727,42.6900194,-84.4886068,278.8500061035156,0.07519098371267319,0.16519097983837128
1665697101.52059102,382276747,42.690019299999996,-84.4886069,278.8500061035156,0.07460658997297287,0.16460658609867096
1665697101.62057304,382376729,42.690019299999996,-84.488607,278.8500061035156,0.07246702164411545,0.16246701776981354
1665697101.72077394,382476930,42.690019199999995,-84.4886071,278.8500061035156,0.07017847150564194,0.16017846763134003
1665697101.82061791,382576774,42.690019199999995,-84.48860719999999,278.8399963378906,0.0684351846575737,0.1584351807832718
1665697101.92055202,382676708,42.6900191,-84.4886073,278.8399963378906,0.06684619933366776,0.15684619545936584
1665697102.02076793,382776924,42.6900191,-84.48860739999999,278.8399963378906,0.06816018372774124,0.15816017985343933
1665697102.12054110,382876697,42.690019,-84.4886075,278.8500061035156,0.07215743511915207,0.16215743124485016
1665697102.22059107,382976747,42.6900189,-84.4886076,278.8500061035156,0.07356289774179459,0.16356289386749268
1665697102.32054114,383076697,42.6900188,-84.4886077,278.8500061035156,0.07346146553754807,0.16346146166324615
1665697102.42061114,383176767,42.6900188,-84.4886078,278.8500061035156,0.0721694603562355,0.1621694564819336
1665697102.52056003,383276716,42.690018699999996,-84.4886078,278.8500061035156,0.07078564912080765,0.16078564524650574
1665697102.62065601,383376812,42.690018699999996,-84.48860789999999,278.8500061035156,0.07072838395833969,0.16072838008403778
1665697102.72067904,383476835,42.690018699999996,-84.488608,278.8500061035156,0.07435684651136398,0.16435684263706207
1665697102.82057095,383576727,42.690018599999995,-84.4886081,278.8500061035156,0.07655834406614304,0.16655834019184113
1665697102.92059493,383676751,42.690018599999995,-84.4886081,278.8500061035156,0.07736685127019882,0.1673668473958969
1665697103.02058196,383776738,42.6900185,-84.4886082,278.8500061035156,0.0779452845454216,0.1679452806711197
1665697103.12055802,383876714,42.6900185,-84.4886083,278.8500061035156,0.07967371493577957,0.16967371106147766
1665697103.22057605,383976732,42.6900184,-84.4886083,278.8599853515625,0.08216860145330429,0.17216859757900238
1665697103.32058811,384076744,42.6900184,-84.48860839999999,278.8599853515625,0.08430447429418564,0.17430447041988373
1665697103.42053103,384176687,42.6900184,-84.4886085,278.8599853515625,0.08615193516016006,0.17615193128585815
1665697103.52056599,384276722,42.6900183,-84.48860859999999,278.8599853515625,0.08861371129751205,0.17861370742321014
1665697103.62059808,384376754,42.6900183,-84.4886087,278.8699951171875,0.09116529673337936,0.18116529285907745
1665697103.72065306,384476809,42.6900182,-84.4886087,278.8699951171875,0.0938839390873909,0.183883935213089
1665697103.82060814,384576764,42.6900182,-84.4886088,278.8699951171875,0.09618321806192398,0.18618321418762207
1665697103.92057610,384676732,42.6900182,-84.4886089,278.8699951171875,0.09774567931890488,0.18774567544460297
1665697104.02056193,384776718,42.690018099999996,-84.488609,278.8699951171875,0.09871756285429001,0.1887175589799881
1665697104.12072015,384876876,42.690018099999996,-84.48860909999999,278.8800048828125,0.10125602036714554,0.19125601649284363
1665697104.22060895,384976765,42.690017999999995,-84.48860909999999,278.8800048828125,0.10405366867780685,0.19405366480350494
1665697104.32053399,385076690,42.690017999999995,-84.4886092,278.8800048828125,0.10867578536272049,0.19867578148841858
1665697104.42062593,385176782,42.690017999999995,-84.4886093,278.8800048828125,0.10918811708688736,0.19918811321258545
1665697104.52052498,385276681,42.6900179,-84.4886094,278.8800048828125,0.1049235537648201,0.1949235498905182
1665697104.62050104,385376657,42.6900179,-84.4886095,278.8699951171875,0.0970541313290596,0.1870541274547577
1665697104.72101903,385477175,42.6900178,-84.48860959999999,278.8599853515625,0.08960554748773575,0.17960554361343384
1665697104.82059407,385576750,42.6900178,-84.4886097,278.8599853515625,0.08287530392408371,0.1728753000497818
1665697104.92064595,385676802,42.6900177,-84.4886097,278.8500061035156,0.07724223285913467,0.16724222898483276
1665697105.02054811,385776704,42.6900177,-84.48860979999999,278.8500061035156,0.07606720179319382,0.1660671979188919
1665697105.12054205,385876698,42.6900176,-84.4886099,278.8500061035156,0.07771296054124832,0.1677129566669464
1665697105.22054195,385976698,42.6900176,-84.48861,278.8500061035156,0.07769612222909927,0.16769611835479736
1665697105.32055807,386076714,42.690017499999996,-84.4886101,278.8500061035156,0.0795312151312828,0.1695312112569809
1665697105.42062092,386176777,42.690017499999996,-84.4886102,278.8599853515625,0.08247119933366776,0.17247119545936584
1665697105.52054000,386276696,42.690017399999995,-84.4886102,278.8599853515625,0.08337201923131943,0.17337201535701752
1665697105.62061405,386376770,42.690017399999995,-84.48861029999999,278.8599853515625,0.08123771101236343,0.17123770713806152
1665697105.72104096,386477197,42.6900173,-84.4886104,278.8500061035156,0.07854440063238144,0.16854439675807953
1665697105.82064009,386576796,42.6900173,-84.4886105,278.8500061035156,0.07588372379541397,0.16588371992111206
1665697105.92062593,386676782,42.6900173,-84.4886106,278.8500061035156,0.07230643182992935,0.16230642795562744
1665697106.02058411,386776740,42.6900172,-84.4886106,278.8399963378906,0.0680936798453331,0.1580936759710312
1665697106.12057614,386876732,42.6900172,-84.4886107,278.8399963378906,0.06390277296304703,0.15390276908874512
1665697106.22072792,386976884,42.6900171,-84.48861079999999,278.8299865722656,0.05908080190420151,0.1490807980298996
1665697106.32056999,387076726,42.6900171,-84.4886109,278.8299865722656,0.05405319482088089,0.14405319094657898
1665697106.42056394,387176720,42.6900171,-84.4886109,278.8299865722656,0.05045408755540848,0.14045408368110657
1665697106.52058792,387276744,42.6900171,-84.48861099999999,278.82000732421875,0.04778458923101425,0.13778458535671234
1665697106.62052894,387376685,42.690017,-84.4886111,278.82000732421875,0.04590519517660141,0.1359051913022995
1665697106.72101092,387477167,42.690017,-84.4886112,278.82000732421875,0.04367732256650925,0.13367731869220734
1665697106.82057905,387576735,42.690016899999996,-84.4886112,278.80999755859375,0.039969660341739655,0.12996965646743774
1665697106.92060113,387676757,42.690016899999996,-84.4886113,278.80999755859375,0.03621497005224228,0.12621496617794037
1665697107.02054214,387776698,42.690016799999995,-84.4886113,278.80999755859375,0.03359469026327133,0.12359468638896942
1665697107.12063193,387876788,42.690016799999995,-84.4886114,278.80999755859375,0.03457900881767273,0.12457900494337082
1665697107.22063708,387976793,42.690016799999995,-84.48861149999999,278.80999755859375,0.03483147919178009,0.12483147531747818
1665697107.32054305,388076699,42.6900167,-84.48861149999999,278.80999755859375,0.03534800559282303,0.12534800171852112
1665697107.42059708,388176753,42.6900167,-84.4886116,278.80999755859375,0.03489706665277481,0.1248970627784729
1665697107.52052593,388276682,42.6900167,-84.48861169999999,278.80999755859375,0.034451425075531006,0.1244514212012291
1665697107.62060714,388376763,42.6900166,-84.48861169999999,278.80999755859375,0.032975561916828156,0.12297555804252625
1665697107.72091293,388477069,42.6900166,-84.4886118,278.80999755859375,0.030615461990237236,0.12061545997858047
1665697107.82067204,388576828,42.6900166,-84.4886118,278.79998779296875,0.029021425172686577,0.11902142316102982
1665697107.92057896,388676735,42.6900165,-84.4886119,278.79998779296875,0.027350565418601036,0.11735056340694427
1665697108.02094793,388777104,42.6900165,-84.4886119,278.79998779296875,0.024484051391482353,0.11448404937982559
1665697108.12059712,388876753,42.6900165,-84.4886119,278.79998779296875,0.023708900436758995,0.11370889842510223
1665697108.22052407,388976680,42.6900165,-84.48861199999999,278.79998779296875,0.023179372772574425,0.11317937076091766
1665697108.32070994,389076866,42.6900164,-84.48861199999999,278.79998779296875,0.021306296810507774,0.11130629479885101
1665697108.42057014,389176726,42.6900164,-84.4886121,278.7900085449219,0.019503405317664146,0.10950340330600739
1665697108.52056503,389276721,42.6900164,-84.4886121,278.7900085449219,0.017006350681185722,0.10700634866952896
1665697108.62053895,389376695,42.690016299999996,-84.48861219999999,278.7900085449219,0.01527024619281292,0.10527024418115616
1665697108.72102094,389477177,42.690016299999996,-84.4886123,278.7900085449219,0.01438177190721035,0.10438176989555359
1665697108.82067299,389576829,42.690016199999995,-84.4886123,278.7900085449219,0.014127125963568687,0.10412712395191193
1665697108.92063093,389676787,42.690016199999995,-84.4886124,278.7900085449219,0.014657793566584587,0.10465779155492783
1665697109.02079201,389776948,42.690016199999995,-84.4886124,278.7900085449219,0.013578338548541069,0.10357833653688431
1665697109.12054014,389876696,42.6900161,-84.4886125,278.7900085449219,0.011555736884474754,0.101555734872818
1665697109.22060299,389976759,42.690016,-84.4886125,278.7799987792969,0.008747292682528496,0.09874729067087173
1665697109.32052994,390076686,42.690016,-84.4886125,278.7799987792969,0.005645057186484337,0.09564505517482758
1665697109.42056012,390176716,42.6900159,-84.4886126,278.7799987792969,0.001022113487124443,0.09102211147546768
1665697109.52057505,390276731,42.6900159,-84.4886126,278.7699890136719,-0.004928978160023689,0.08507101982831955
1665697109.62053800,390376694,42.6900159,-84.48861269999999,278.7599792480469,-0.011100301519036293,0.07889969646930695
1665697109.72097301,390477129,42.6900158,-84.48861269999999,278.7599792480469,-0.017733553424477577,0.07226644456386566
1665697109.82067609,390576832,42.6900158,-84.48861269999999,278.75,-0.02472067065536976,0.06527932733297348
1665697109.92059112,390676747,42.6900158,-84.4886128,278.75,-0.029495825991034508,0.06050417199730873
1665697110.02078700,390776943,42.6900157,-84.4886128,278.739990234375,-0.03420339524745941,0.055796604603528976
1665697110.12057996,390876736,42.6900157,-84.48861289999999,278.739990234375,-0.03954441100358963,0.05045558512210846
1665697110.22055697,390976713,42.690015599999995,-84.48861289999999,278.72998046875,-0.04373110085725784,0.04626889526844025
1665697110.32059813,391076754,42.690015599999995,-84.488613,278.72998046875,-0.045534051954746246,0.04446594417095184
1665697110.42075300,391176909,42.690015599999995,-84.488613,278.72998046875,-0.046829380095005035,0.04317061975598335
1665697110.52062392,391276780,42.690015599999995,-84.4886131,278.72998046875,-0.049160704016685486,0.040839292109012604
1665697110.62053704,391376693,42.6900155,-84.4886131,278.7200012207031,-0.05193939805030823,0.03806060180068016
1665697110.72105503,391477211,42.6900155,-84.4886132,278.7200012207031,-0.05382055789232254,0.03617943823337555
1665697110.82063699,391576793,42.6900155,-84.4886132,278.7200012207031,-0.05464440584182739,0.0353555902838707
1665697110.92053509,391676691,42.6900155,-84.4886132,278.7200012207031,-0.056075483560562134,0.033924512565135956
1665697111.02076602,391776922,42.6900155,-84.4886132,278.7200012207031,-0.058374613523483276,0.03162538260221481
1665697111.12057614,391876732,42.6900155,-84.4886133,278.7200012207031,-0.05950697511434555,0.03049302101135254
1665697111.22061014,391976766,42.6900155,-84.4886133,278.7099914550781,-0.06129433959722519,0.0287056602537632
1665697111.32051492,392076671,42.6900154,-84.48861339999999,278.7099914550781,-0.06283007562160492,0.02716992236673832
1665697111.42057204,392176728,42.6900154,-84.48861339999999,278.7099914550781,-0.06361705809831619,0.026382941752672195
1665697111.52053499,392276691,42.6900154,-84.4886135,278.7099914550781,-0.06527630239725113,0.02472369559109211
1665697111.62071705,392376873,42.6900154,-84.4886135,278.7099914550781,-0.06610698997974396,0.02389300800859928
1665697111.72105813,392477214,42.6900154,-84.4886136,278.7099914550781,-0.065914086997509,0.024085912853479385
1665697111.82064700,392576803,42.6900154,-84.4886136,278.7099914550781,-0.06787261366844177,0.022127386182546616
1665697111.92060494,392676761,42.6900154,-84.4886137,278.6999816894531,-0.07062877714633942,0.01937122456729412
1665697112.02067304,392776829,42.6900153,-84.4886137,278.6999816894531,-0.07463417947292328,0.015365821309387684
1665697112.12061214,392876768,42.6900153,-84.4886137,278.6999816894531,-0.07908915728330612,0.010910837911069393
1665697112.22057414,392976730,42.6900153,-84.4886138,278.69000244140625,-0.08299072831869125,0.0070092687383294106
1665697112.32058096,393076737,42.6900153,-84.4886138,278.69000244140625,-0.08612097054719925,0.003879025112837553
1665697112.42053795,393176694,42.6900154,-84.4886138,278.69000244140625,-0.08862663805484772,0.0013733567902818322
1665697112.52071095,393276867,42.6900154,-84.4886138,278.69000244140625,-0.08948326855897903,0.0005167265189811587
1665697112.62055612,393376712,42.6900154,-84.48861389999999,278.67999267578125,-0.09037395566701889,-0.00037395645631477237
1665697112.72096109,393477117,42.6900154,-84.488614,278.67999267578125,-0.09211353212594986,-0.0021135329734534025
1665697112.82064009,393576796,42.6900154,-84.488614,278.67999267578125,-0.09310804307460785,-0.003108043223619461
1665697112.92051411,393676670,42.6900154,-84.488614,278.67999267578125,-0.09219280630350113,-0.0021928069181740284
1665697113.02056694,393776723,42.6900154,-84.48861409999999,278.67999267578125,-0.09125035256147385,-0.001250356319360435
1665697113.12056208,393876718,42.6900154,-84.48861409999999,278.67999267578125,-0.09075095504522324,-0.0007509554270654917
1665697113.22061300,393976769,42.6900154,-84.4886142,278.67999267578125,-0.09208012372255325,-0.0020801241043955088
1665697113.32056403,394076720,42.6900154,-84.4886142,278.67999267578125,-0.09374749660491943,-0.0037474962882697582
1665697113.42068505,394176841,42.6900154,-84.4886143,278.67999267578125,-0.0943732038140297,-0.004373209085315466
1665697113.52056003,394276716,42.6900154,-84.4886143,278.67999267578125,-0.09600920230150223,-0.006009207572788
1665697113.62061405,394376770,42.6900154,-84.4886144,278.67999267578125,-0.09830072522163391,-0.008300724439322948
1665697113.72064614,394476802,42.6900154,-84.4886145,278.67999267578125,0.00017799530178308487,-0.009822004474699497
1665697113.82059503,394576751,42.6900154,-84.4886145,278.66998291015625,-0.0006409985944628716,-0.010640998370945454
1665697113.92058492,394676741,42.6900154,-84.4886145,278.66998291015625,-0.0008494695648550987,-0.01084946934133768
1665697114.02054095,394776697,42.6900154,-84.48861459999999,278.66998291015625,-0.0024063820019364357,-0.012406381778419018
1665697114.12055492,394876711,42.6900154,-84.48861459999999,278.66998291015625,-0.0047047678381204605,-0.014704767614603043
1665697114.22056007,394976716,42.6900154,-84.48861459999999,278.66998291015625,-0.006946254521608353,-0.016946254298090935
1665697114.32064414,395076800,42.6900154,-84.4886147,278.66998291015625,-0.006165726110339165,-0.016165725886821747
1665697114.42057800,395176734,42.6900154,-84.4886147,278.66998291015625,-0.006890801712870598,-0.01689080148935318
1665697114.52051806,395276674,42.6900154,-84.4886148,278.66998291015625,-0.009195463731884956,-0.01919546350836754
1665697114.62083697,395376993,42.6900154,-84.4886148,278.6600036621094,-0.011568596586585045,-0.021568596363067627
1665697114.72062302,395476779,42.6900154,-84.4886149,278.6600036621094,-0.013766609132289886,-0.02376660890877247
1665697114.82062793,395576784,42.6900154,-84.488615,278.6600036621094,-0.015488052740693092,-0.025488052517175674
1665697114.92055106,395676707,42.6900154,-84.488615,278.6600036621094,-0.016389500349760056,-0.026389500126242638
1665697115.02061200,395776768,42.6900154,-84.48861509999999,278.6600036621094,-0.01859038695693016,-0.028590386733412743
1665697115.12054300,395876699,42.6900154,-84.48861509999999,278.6499938964844,-0.021970504894852638,-0.03197050467133522
1665697115.22063899,395976795,42.6900154,-84.4886152,278.6499938964844,-0.025620700791478157,-0.03562070056796074
1665697115.32058597,396076742,42.6900154,-84.4886152,278.6499938964844,-0.029872963204979897,-0.03987296298146248
1665697115.42057896,396176735,42.6900154,-84.4886152,278.6399841308594,-0.033898040652275085,-0.04389803856611252
1665697115.52057600,396276732,42.6900154,-84.48861529999999,278.6399841308594,-0.037124477326869965,-0.0471244752407074
1665697115.62054110,396376697,42.6900155,-84.4886154,278.6300048828125,-0.04038175195455551,-0.050381749868392944
1665697115.72068000,396476836,42.6900155,-84.4886154,278.6300048828125,-0.0429135262966156,-0.05291352421045303
1665697115.82060504,396576761,42.6900155,-84.4886155,278.6300048828125,-0.04505384713411331,-0.05505384877324104
1665697115.92059493,396676751,42.6900155,-84.4886155,278.6300048828125,-0.046670593321323395,-0.056670594960451126
1665697116.02051902,396776675,42.6900155,-84.4886156,278.6300048828125,-0.048764221370220184,-0.058764223009347916
1665697116.12068796,396876844,42.690015599999995,-84.4886156,278.6199951171875,-0.05168859660625458,-0.06168859452009201
1665697116.22056699,396976723,42.690015599999995,-84.4886157,278.6199951171875,-0.05455416440963745,-0.06455416232347488
1665697116.32057095,397076727,42.690015599999995,-84.4886157,278.6199951171875,-0.05725801736116409,-0.06725801527500153
1665697116.42060709,397176763,42.690015599999995,-84.4886157,278.6099853515625,-0.06011078506708145,-0.07011078298091888
1665697116.52058601,397276742,42.6900157,-84.48861579999999,278.6099853515625,-0.06319660693407059,-0.07319660484790802
1665697116.62060905,397376765,42.6900157,-84.48861579999999,278.6099853515625,-0.06624139100313187,-0.0762413889169693
1665697116.72079611,397476952,42.6900157,-84.4886159,278.6099853515625,-0.0684441551566124,-0.07844415307044983
1665697116.82064104,397576797,42.6900157,-84.4886159,278.6000061035156,-0.07127170264720917,-0.0812717005610466
1665697116.92048407,397676640,42.6900158,-84.488616,278.6000061035156,-0.07498534023761749,-0.08498533815145493
1665697117.02061510,397776771,42.6900158,-84.488616,278.6000061035156,-0.07858750969171524,-0.08858750760555267
1665697117.12058902,397876745,42.6900158,-84.4886161,278.5899963378906,-0.0816323384642601,-0.09163233637809753
1665697117.22053409,397976690,42.6900158,-84.4886161,278.5899963378906,-0.08383744955062866,-0.0938374474644661
1665697117.32055902,398076715,42.6900159,-84.4886162,278.5899963378906,-0.08515378832817078,-0.09515378624200821
1665697117.42055392,398176710,42.6900159,-84.4886162,278.5899963378906,-0.08649137616157532,-0.09649137407541275
1665697117.52054310,398276699,42.6900159,-84.48861629999999,278.5899963378906,-0.08734829723834991,-0.09734829515218735
1665697117.62051797,398376674,42.6900159,-84.4886164,278.5899963378906,-0.08906321227550507,-0.0990632101893425
1665697117.72070003,398476856,42.6900159,-84.4886164,278.5799865722656,-0.09114136546850204,-0.10114136338233948
1665697117.82060003,398576756,42.690016,-84.48861649999999,278.5799865722656,-0.09197720885276794,-0.10197720676660538
1665697117.92062593,398676782,42.690016,-84.48861649999999,278.5799865722656,-0.0909990519285202,-0.10099904984235764
1665697118.02059913,398776755,42.6900161,-84.48861649999999,278.5899963378906,-0.08950880914926529,-0.09950880706310272
1665697118.12061310,398876769,42.6900161,-84.4886166,278.5899963378906,-0.08781105279922485,-0.09781105071306229
1665697118.22063494,398976791,42.6900161,-84.4886166,278.5899963378906,-0.08760521560907364,-0.09760521352291107
1665697118.32054710,399076703,42.690016199999995,-84.4886166,278.5899963378906,-0.08787024021148682,-0.09787023812532425
1665697118.42059207,399176748,42.690016199999995,-84.4886167,278.5899963378906,-0.0889853835105896,-0.09898538142442703
1665697118.52049494,399276651,42.690016299999996,-84.4886167,278.5799865722656,-0.090317502617836,-0.10031750053167343
1665697118.62062407,399376780,42.690016299999996,-84.4886168,278.5799865722656,-0.09026437997817993,-0.10026437789201736
1665697118.72064900,399476805,42.6900164,-84.4886168,278.5899963378906,-0.0894923061132431,-0.09949230402708054
1665697118.82073808,399576894,42.6900164,-84.4886169,278.5899963378906,-0.0889265313744545,-0.09892652928829193
1665697118.92061210,399676768,42.6900165,-84.4886169,278.5899963378906,-0.08743640035390854,-0.09743639826774597
1665697119.02052999,399776686,42.6900165,-84.48861699999999,278.5899963378906,-0.08578962087631226,-0.09578961879014969
1665697119.12053514,399876691,42.6900166,-84.48861699999999,278.5899963378906,-0.08287901431322098,-0.09287901222705841
1665697119.22054505,399976701,42.6900166,-84.4886171,278.6000061035156,-0.07885973900556564,-0.08885973691940308
1665697119.32055306,400076709,42.6900166,-84.4886171,278.6000061035156,-0.07288236171007156,-0.082882359623909
1665697119.42057514,400176731,42.6900167,-84.4886171,278.6099853515625,-0.06822685897350311,-0.07822685688734055
1665697119.52060008,400276756,42.6900167,-84.4886172,278.6099853515625,-0.06427514553070068,-0.07427514344453812
1665697119.62056994,400376726,42.690016799999995,-84.4886172,278.6099853515625,-0.06211376190185547,-0.0721137598156929
1665697119.72073102,400476887,42.690016799999995,-84.4886172,278.6099853515625,-0.06052887439727783,-0.07052887231111526
1665697119.82064414,400576800,42.690016899999996,-84.4886172,278.6099853515625,-0.06070893257856369,-0.07070893049240112
1665697119.92056799,400676724,42.690016899999996,-84.4886172,278.6099853515625,-0.06365824490785599,-0.07365824282169342
1665697120.02063012,400776786,42.690017,-84.4886172,278.6099853515625,-0.06735193729400635,-0.07735193520784378
1665697120.12054896,400876705,42.690017,-84.4886173,278.6000061035156,-0.07091615349054337,-0.0809161514043808
1665697120.22060513,400976761,42.6900171,-84.4886173,278.6000061035156,-0.07245248556137085,-0.08245248347520828
1665697120.32050610,401076662,42.6900171,-84.4886173,278.6000061035156,-0.07235566526651382,-0.08235566318035126
1665697120.42057705,401176733,42.6900172,-84.4886173,278.6000061035156,-0.07264011353254318,-0.08264011144638062
1665697120.52051592,401276672,42.6900172,-84.4886174,278.6000061035156,-0.0721154734492302,-0.08211547136306763
1665697120.62066197,401376818,42.6900172,-84.4886174,278.6000061035156,-0.0711713582277298,-0.08117135614156723
1665697120.72101998,401477176,42.6900173,-84.4886174,278.6099853515625,-0.06975831091403961,-0.07975830882787704
1665697120.82063198,401576788,42.6900173,-84.4886174,278.6099853515625,-0.06493566185235977,-0.0749356597661972
1665697120.92076397,401676920,42.6900173,-84.4886174,278.6199951171875,-0.0578061118721962,-0.06780610978603363
1665697121.02059507,401776751,42.690017399999995,-84.4886174,278.6199951171875,-0.05355419963598251,-0.06355419754981995
1665697121.12063098,401876787,42.690017399999995,-84.4886174,278.6199951171875,-0.0512041300535202,-0.061204131692647934
1665697121.22061205,401976768,42.690017499999996,-84.48861749999999,278.6300048828125,-0.04997815191745758,-0.05997814983129501
1665697121.32061791,402076774,42.690017499999996,-84.48861749999999,278.6300048828125,-0.048108480870723724,-0.05810847878456116
1665697121.42061710,402176773,42.6900176,-84.48861749999999,278.6300048828125,-0.04282896965742111,-0.05282897129654884
1665697121.52065992,402276816,42.6900176,-84.48861749999999,278.6399841308594,-0.03735373914241791,-0.04735373705625534
1665697121.62072110,402376877,42.6900177,-84.48861749999999,278.6399841308594,-0.03179246187210083,-0.04179245978593826
1665697121.72093892,402477095,42.6900177,-84.48861749999999,278.6499938964844,-0.023364940658211708,-0.03336494043469429
1665697121.82067108,402576827,42.6900178,-84.48861749999999,278.6600036621094,-0.016618914902210236,-0.026618914678692818
1665697121.92068005,402676836,42.6900178,-84.48861749999999,278.6600036621094,-0.011772427707910538,-0.02177242748439312
1665697122.02060509,402776761,42.6900179,-84.48861749999999,278.66998291015625,-0.008980587124824524,-0.018980586901307106
1665697122.12063098,402876787,42.6900179,-84.48861749999999,278.66998291015625,-0.005017104558646679,-0.015017104335129261
1665697122.22061801,402976774,42.6900179,-84.48861749999999,278.66998291015625,-0.0010544024407863617,-0.011054402217268944
1665697122.32055902,403076715,42.690017999999995,-84.48861749999999,278.67999267578125,0.0018809475004673004,-0.008119052276015282
1665697122.42069197,403176848,42.690017999999995,-84.48861749999999,278.67999267578125,0.002523185219615698,-0.007476814556866884
1665697122.52057600,403276732,42.690017999999995,-84.48861749999999,278.67999267578125,0.001999431289732456,-0.008000568486750126
1665697122.62059402,403376750,42.690017999999995,-84.48861749999999,278.67999267578125,0.0026069041341543198,-0.007393095642328262
1665697122.72104192,403477198,42.690018099999996,-84.48861769999999,278.67999267578125,0.004474050365388393,-0.005525949411094189
1665697122.82063413,403576790,42.690018099999996,-84.48861769999999,278.67999267578125,0.005471568554639816,-0.004528431221842766
1665697122.92063808,403676794,42.690018099999996,-84.48861769999999,278.67999267578125,0.007554045412689447,-0.0024459543637931347
1665697123.02068901,403776845,42.690018099999996,-84.48861769999999,278.69000244140625,0.011813867837190628,0.0018138678278774023
1665697123.12063813,403876794,42.690018099999996,-84.48861769999999,278.69000244140625,0.016396235674619675,0.006396235898137093
1665697123.22059798,403976754,42.6900182,-84.4886178,278.6999816894531,0.020294547080993652,0.01029454730451107
1665697123.32066798,404076824,42.6900182,-84.4886178,278.6999816894531,0.02395065501332283,0.013950656168162823
1665697123.42058015,404176736,42.6900182,-84.4886178,278.6999816894531,0.02651495486497879,0.016514955088496208
1665697123.52058005,404276736,42.6900182,-84.4886179,278.6999816894531,0.028409775346517563,0.01840977557003498
1665697123.62061596,404376772,42.6900183,-84.4886179,278.7099914550781,0.03017696738243103,0.020176967605948448
1665697123.72096801,404477124,42.6900183,-84.4886179,278.7099914550781,0.03229432553052902,0.02229432575404644
1665697123.82064795,404576804,42.6900183,-84.4886179,278.7099914550781,0.03293847292661667,0.022938475012779236
1665697123.92055607,404676712,42.6900183,-84.4886179,278.7099914550781,0.03234105557203293,0.022341055795550346
1665697124.02065706,404776813,42.6900184,-84.488618,278.7099914550781,0.03205418959259987,0.022054189816117287
1665697124.12057710,404876733,42.6900184,-84.488618,278.7099914550781,0.03265370428562164,0.022653702646493912
1665697124.22066712,404976823,42.6900185,-84.488618,278.7099914550781,0.03404337540268898,0.024043375626206398
1665697124.32065296,405076809,42.6900185,-84.488618,278.7099914550781,0.03538207709789276,0.02538207732141018
1665697124.42065406,405176810,42.690018599999995,-84.488618,278.7099914550781,0.035108622163534164,0.025108622387051582
1665697124.52061105,405276767,42.690018599999995,-84.488618,278.7099914550781,0.03436729684472084,0.02436729706823826
1665697124.62065697,405376813,42.690018599999995,-84.488618,278.7099914550781,0.03358851373195648,0.02358851581811905
1665697124.72096014,405477116,42.690018599999995,-84.488618,278.7099914550781,0.033356428146362305,0.023356426507234573
1665697124.82061696,405576773,42.690018699999996,-84.488618,278.7099914550781,0.03281932324171066,0.02281932532787323
1665697124.92062807,405676784,42.690018699999996,-84.4886181,278.7099914550781,0.032308660447597504,0.02230866253376007
1665697125.02060199,405776758,42.690018699999996,-84.4886181,278.7099914550781,0.03179670125246048,0.021796701475977898
1665697125.12074900,405876905,42.6900188,-84.4886181,278.7099914550781,0.03180687874555588,0.021806880831718445
1665697125.22063303,405976789,42.6900188,-84.4886181,278.7099914550781,0.03218657523393631,0.022186577320098877
1665697125.32061315,406076769,42.6900188,-84.4886181,278.7099914550781,0.03356026113033295,0.023560263216495514
1665697125.42062092,406176777,42.6900189,-84.48861819999999,278.7099914550781,0.03563135862350464,0.025631356984376907
1665697125.52055502,406276711,42.6900189,-84.48861819999999,278.7099914550781,0.039683058857917786,0.029683060944080353
1665697125.62060213,406376758,42.6900189,-84.48861819999999,278.7200012207031,0.04271645098924637,0.032716453075408936
1665697125.72101903,406477175,42.690019,-84.48861819999999,278.7200012207031,0.04556875675916672,0.035568758845329285
1665697125.82069397,406576850,42.690019,-84.4886183,278.7200012207031,0.047973841428756714,0.03797384351491928
1665697125.92060399,406676760,42.690019,-84.4886183,278.7200012207031,0.04989154636859894,0.03989154472947121
1665697126.02068114,406776837,42.6900191,-84.4886183,278.72998046875,0.051426902413368225,0.04142690449953079
1665697126.12061715,406876773,42.6900191,-84.4886183,278.72998046875,0.05174190551042557,0.041741907596588135
1665697126.22060299,406976759,42.6900191,-84.4886183,278.72998046875,0.050461798906326294,0.04046179726719856
1665697126.32061410,407076770,42.690019199999995,-84.4886183,278.7200012207031,0.04752681404352188,0.03752681612968445
1665697126.42060614,407176762,42.690019199999995,-84.4886184,278.7200012207031,0.045929595828056335,0.035929594188928604
1665697126.52057004,407276726,42.690019299999996,-84.4886184,278.7200012207031,0.044570498168468475,0.034570496529340744
1665697126.62055612,407376712,42.690019299999996,-84.4886184,278.7200012207031,0.04244980961084366,0.03244980797171593
1665697126.72101808,407477174,42.6900194,-84.4886184,278.7200012207031,0.04069223999977112,0.030692240223288536
1665697126.82064009,407576796,42.6900194,-84.4886184,278.7099914550781,0.039658039808273315,0.029658041894435883
1665697126.92067194,407676828,42.6900194,-84.4886184,278.7099914550781,0.03917685151100159,0.029176851734519005
1665697127.02066803,407776824,42.6900195,-84.4886185,278.7099914550781,0.03918331488966942,0.029183315113186836
1665697127.12055492,407876711,42.6900195,-84.4886185,278.7099914550781,0.03803418576717377,0.028034185990691185
1665697127.22077012,407976926,42.6900196,-84.4886185,278.7099914550781,0.034954942762851715,0.024954944849014282
1665697127.32058501,408076741,42.6900196,-84.4886185,278.7099914550781,0.030266055837273598,0.020266056060791016
1665697127.42063498,408176791,42.6900197,-84.4886185,278.6999816894531,0.024291105568408966,0.014291105791926384
1665697127.52061200,408276768,42.6900197,-84.4886185,278.69000244140625,0.01814563386142254,0.008145634084939957
1665697127.62073112,408376887,42.690019799999995,-84.4886185,278.69000244140625,0.013403554446995258,0.0034035544376820326
1665697127.72103810,408477194,42.690019799999995,-84.4886185,278.67999267578125,0.009369070641696453,-0.0006309294840320945
1665697127.82072115,408576877,42.690019899999996,-84.4886185,278.67999267578125,0.008005316369235516,-0.00199468364007771
1665697127.92068100,408676837,42.690019899999996,-84.4886185,278.67999267578125,0.007040908560156822,-0.0029590909834951162
1665697128.02059793,408776754,42.69002,-84.4886185,278.67999267578125,0.0048093958757817745,-0.005190603900700808
1665697128.12057900,408876735,42.69002,-84.4886185,278.67999267578125,0.0016878442838788033,-0.008312155492603779
1665697128.22058702,408976743,42.69002,-84.4886185,278.66998291015625,-0.0003226054832339287,-0.01032260525971651
1665697128.32062507,409076781,42.6900201,-84.4886185,278.66998291015625,-0.0018093530088663101,-0.011809352785348892
1665697128.42054605,409176702,42.6900201,-84.4886185,278.66998291015625,-0.005198841914534569,-0.015198841691017151
1665697128.52054405,409276700,42.6900202,-84.4886185,278.66998291015625,-0.007216362282633781,-0.017216362059116364
1665697128.62055993,409376716,42.6900202,-84.4886185,278.66998291015625,-0.009043950587511063,-0.019043950363993645
1665697128.72107506,409477231,42.6900203,-84.4886185,278.6600036621094,-0.01105373352766037,-0.021053733304142952
1665697128.82067800,409576834,42.6900203,-84.4886185,278.6600036621094,-0.010435730218887329,-0.02043572999536991
1665697128.92061114,409676767,42.6900203,-84.4886185,278.66998291015625,-0.0095024723559618,-0.01950247213244438
1665697129.02062201,409776778,42.690020399999995,-84.4886186,278.66998291015625,-0.00836423970758915,-0.01836423948407173
1665697129.12064004,409876796,42.690020399999995,-84.4886186,278.66998291015625,-0.006130769848823547,-0.01613076962530613
1665697129.22064495,409976801,42.690020399999995,-84.4886186,278.66998291015625,-0.004397040233016014,-0.014397040009498596
1665697129.32068205,410076838,42.690020499999996,-84.4886186,278.66998291015625,0.0064940424636006355,-0.013505957089364529
1665697129.42058110,410176737,42.690020499999996,-84.4886186,278.66998291015625,0.007406874559819698,-0.012593124993145466
1665697129.52056599,410276722,42.690020499999996,-84.4886186,278.66998291015625,0.009188840165734291,-0.010811159387230873
1665697129.62062693,410376783,42.690020499999996,-84.4886186,278.67999267578125,0.01101388968527317,-0.008986109867691994
1665697129.72069192,410476848,42.690020499999996,-84.4886186,278.67999267578125,0.01278559397906065,-0.007214405573904514
1665697129.82058001,410576736,42.6900206,-84.4886186,278.67999267578125,0.01334761455655098,-0.006652384996414185
1665697129.92058897,410676745,42.6900206,-84.4886186,278.67999267578125,0.013403776101768017,-0.006596223451197147
1665697130.02051902,410776675,42.6900206,-84.4886186,278.67999267578125,0.01236014999449253,-0.007639850024133921
1665697130.12055802,410876714,42.6900206,-84.4886186,278.67999267578125,0.010438916273415089,-0.009561083279550076
1665697130.22052693,410976683,42.6900207,-84.4886186,278.66998291015625,0.007841345854103565,-0.012158653698861599
1665697130.32055306,411076709,42.6900207,-84.4886186,278.66998291015625,0.004535682499408722,-0.015464317053556442
1665697130.42057800,411176734,42.6900207,-84.4886186,278.66998291015625,0.0012618862092494965,-0.018738113343715668
1665697130.52059793,411276754,42.6900208,-84.4886186,278.6600036621094,-0.002055993303656578,-0.022055992856621742
1665697130.62056398,411376720,42.6900208,-84.4886186,278.6600036621094,-0.004676325246691704,-0.024676324799656868
1665697130.72062707,411476783,42.6900208,-84.4886186,278.6600036621094,-0.006778022274374962,-0.026778021827340126
1665697130.82065892,411576815,42.6900209,-84.4886186,278.6600036621094,-0.008990371599793434,-0.0289903711527586
1665697130.92057014,411676726,42.6900209,-84.4886186,278.6499938964844,-0.011993572115898132,-0.031993571668863297
1665697131.02058601,411776742,42.690021,-84.4886186,278.6499938964844,-0.01449974998831749,-0.034499749541282654
1665697131.12049508,411876651,42.690021099999996,-84.4886186,278.6499938964844,-0.016331270337104797,-0.03633126989006996
1665697131.22055793,411976714,42.690021099999996,-84.4886186,278.6499938964844,-0.018656473606824875,-0.03865647315979004
1665697131.32047105,412076627,42.6900212,-84.4886186,278.6399841308594,-0.021315667778253555,-0.04131566733121872
1665697131.42076206,412176918,42.6900212,-84.4886186,278.6399841308594,-0.02405710145831108,-0.044057101011276245
1665697131.52053499,412276691,42.6900213,-84.4886186,278.6399841308594,-0.0268455371260643,-0.046845536679029465
1665697131.62058401,412376740,42.6900213,-84.48861869999999,278.6399841308594,-0.0297699011862278,-0.04976990073919296
1665697131.72067499,412476831,42.6900214,-84.48861869999999,278.6300048828125,-0.032942336052656174,-0.05294233560562134
1665697131.82058501,412576741,42.6900214,-84.48861869999999,278.6300048828125,-0.035908423364162445,-0.05590842291712761
1665697131.92059803,412676754,42.6900214,-84.48861869999999,278.6300048828125,-0.03739751875400543,-0.057397518306970596
1665697132.02055192,412776708,42.6900214,-84.48861869999999,278.6300048828125,-0.03792376071214676,-0.05792376026511192
1665697132.12061000,412876766,42.6900215,-84.48861869999999,278.6300048828125,-0.037374235689640045,-0.05737423524260521
1665697132.22056103,412976717,42.6900215,-84.4886188,278.6300048828125,-0.038477640599012375,-0.05847764015197754
1665697132.32059693,413076753,42.6900215,-84.4886188,278.6199951171875,-0.04137403517961502,-0.061374034732580185
1665697132.42058015,413176736,42.6900215,-84.4886188,278.6199951171875,-0.043581265956163406,-0.06358126550912857
1665697132.52057099,413276727,42.6900216,-84.4886188,278.6199951171875,-0.04445404186844826,-0.06445404142141342
1665697132.62051105,413376667,42.6900216,-84.4886188,278.6199951171875,-0.04538401588797569,-0.06538401544094086
1665697132.72062302,413476779,42.6900216,-84.4886188,278.6199951171875,-0.04598839953541756,-0.06598839908838272
1665697132.82059097,413576747,42.6900216,-84.4886188,278.6199951171875,-0.04648450389504433,-0.06648450344800949
1665697132.92057514,413676731,42.690021699999996,-84.48861889999999,278.6199951171875,-0.04672105237841606,-0.06672105193138123
1665697133.02063799,413776794,42.690021699999996,-84.48861889999999,278.6199951171875,-0.04797469452023506,-0.06797469407320023
1665697133.12052107,413876677,42.690021699999996,-84.48861889999999,278.6099853515625,-0.05093064531683922,-0.07093064486980438
1665697133.22065806,413976814,42.6900218,-84.48861889999999,278.6099853515625,-0.0529593862593174,-0.07295938581228256
1665697133.32056713,414076723,42.6900218,-84.48861889999999,278.6099853515625,-0.0533316396176815,-0.07333163917064667
1665697133.42053604,414176692,42.6900218,-84.4886188,278.6099853515625,-0.05303110554814339,-0.07303110510110855
1665697133.52070594,414276862,42.6900218,-84.4886188,278.6099853515625,-0.05164417251944542,-0.07164417207241058
1665697133.62056494,414376721,42.6900219,-84.4886188,278.6199951171875,-0.049113836139440536,-0.0691138356924057
1665697133.72106814,414477224,42.6900219,-84.4886188,278.6199951171875,-0.04764578118920326,-0.06764578074216843
1665697133.82064605,414576802,42.6900219,-84.4886188,278.6199951171875,-0.046007756143808365,-0.06600775569677353
1665697133.92065096,414676807,42.690022,-84.48861889999999,278.6199951171875,-0.04226359724998474,-0.062263596802949905
1665697134.02060509,414776761,42.690022,-84.48861889999999,278.6300048828125,-0.0334920808672905,-0.05349208042025566
1665697134.12065697,414876813,42.690022,-84.48861889999999,278.6399841308594,-0.022437885403633118,-0.04243788495659828
1665697134.22061801,414976774,42.690022,-84.48861889999999,278.6499938964844,-0.011377017945051193,-0.03137701749801636
1665697134.32055211,415076708,42.690022,-84.48861889999999,278.6600036621094,-0.0036134663969278336,-0.023613465949892998
1665697134.42064309,415176799,42.6900221,-84.48861889999999,278.66998291015625,0.003229983150959015,-0.01677001640200615
1665697134.52059698,415276753,42.6900221,-84.48861889999999,278.66998291015625,0.009087213315069675,-0.010912786237895489
1665697134.62061906,415376775,42.6900221,-84.488619,278.67999267578125,0.01433055754750967,-0.005669442005455494
1665697134.72100711,415477163,42.6900221,-84.488619,278.69000244140625,0.020501388236880302,0.000501388858538121
1665697134.82078600,415576942,42.6900221,-84.488619,278.69000244140625,0.02448076754808426,0.00448076706379652
1665697134.92059612,415676752,42.6900222,-84.488619,278.69000244140625,0.024925783276557922,0.0049257841892540455
1665697135.02064896,415776805,42.6900222,-84.488619,278.69000244140625,0.025912392884492874,0.005912394262850285
1665697135.12058210,415876738,42.6900222,-84.488619,278.69000244140625,0.026585156098008156,0.006585156079381704
1665697135.22060513,415976761,42.690022299999995,-84.488619,278.69000244140625,0.026338692754507065,0.006338692270219326
1665697135.32063103,416076787,42.690022299999995,-84.488619,278.69000244140625,0.027242165058851242,0.007242165971547365
1665697135.42062998,416176786,42.690022299999995,-84.488619,278.69000244140625,0.028612297028303146,0.008612296544015408
1665697135.52062011,416276776,42.6900224,-84.488619,278.6999816894531,0.030048515647649765,0.010048515163362026
1665697135.62073898,416376895,42.6900224,-84.4886191,278.6999816894531,0.03120291605591774,0.01120291743427515
1665697135.72110891,416477265,42.6900225,-84.4886191,278.6999816894531,0.03196082264184952,0.011960822157561779
1665697135.82065511,416576811,42.6900225,-84.4886191,278.6999816894531,0.03163910284638405,0.011639104224741459
1665697135.92068195,416676838,42.6900225,-84.4886191,278.6999816894531,0.03050282970070839,0.01050282921642065
1665697136.02059007,416776746,42.6900226,-84.4886191,278.6999816894531,0.030165597796440125,0.010165599174797535
1665697136.12058902,416876745,42.6900226,-84.4886191,278.6999816894531,0.03126249089837074,0.011262490414083004
1665697136.22076011,416976916,42.6900227,-84.4886191,278.6999816894531,0.0320763997733593,0.01207640115171671
1665697136.32061100,417076767,42.6900227,-84.4886191,278.6999816894531,0.03194423019886017,0.011944230645895004
1665697136.42070198,417176858,42.6900227,-84.4886191,278.6999816894531,0.03260407969355583,0.012604080140590668
1665697136.52066994,417276826,42.6900228,-84.4886191,278.6999816894531,0.036238450556993484,0.01623845100402832
1665697136.62075210,417376908,42.6900228,-84.4886191,278.7099914550781,0.041324153542518616,0.021324152126908302
1665697136.72111702,417477273,42.6900228,-84.4886191,278.7099914550781,0.046757474541664124,0.02675747685134411
1665697136.82083511,417576991,42.6900228,-84.4886191,278.7200012207031,0.05146028473973274,0.03146028518676758
1665697136.92073298,417676889,42.690022899999995,-84.4886191,278.7200012207031,0.05604727566242218,0.036047276109457016
1665697137.02066708,417776823,42.690022899999995,-84.4886191,278.72998046875,0.06137159466743469,0.04137159511446953
1665697137.12071300,417876869,42.690022899999995,-84.4886191,278.72998046875,0.0662446916103363,0.04624469205737114
1665697137.22062612,417976782,42.690023,-84.4886191,278.72998046875,0.06934977322816849,0.04934977367520332
1665697137.32066607,418076822,42.690023,-84.4886191,278.739990234375,0.07234135270118713,0.05234135314822197
1665697137.42064214,418176798,42.6900231,-84.4886191,278.739990234375,0.07569336146116257,0.0556933619081974
1665697137.52068210,418276838,42.6900231,-84.4886191,278.739990234375,0.07796832174062729,0.057968322187662125
1665697137.62063193,418376788,42.6900231,-84.4886191,278.739990234375,0.07865333557128906,0.0586533397436142
1665697137.72135711,418477513,42.6900232,-84.4886191,278.739990234375,0.07609374076128006,0.056093741208314896
1665697137.82074594,418576902,42.6900232,-84.4886191,278.739990234375,0.07207177579402924,0.05207177624106407
1665697137.92150903,418677665,42.6900233,-84.4886191,278.72998046875,0.00730741024017334,0.04730740934610367
1665697138.02055907,418776715,42.6900233,-84.4886191,278.72998046875,0.002924315631389618,0.042924314737319946
1665697138.12051797,418876674,42.6900233,-84.4886191,278.7200012207031,-0.00016367807984352112,0.03983632102608681
1665697138.22061300,418976769,42.6900234,-84.4886191,278.7200012207031,-0.0029463954269886017,0.03705360367894173
1665697138.32053494,419076691,42.6900234,-84.4886191,278.7200012207031,-0.0056369975209236145,0.034363001585006714
1665697138.42061901,419176775,42.6900234,-84.4886191,278.7200012207031,-0.008374471217393875,0.03162552788853645
1665697138.52054906,419276705,42.690023499999995,-84.4886191,278.7099914550781,-0.01198391243815422,0.028016086667776108
1665697138.62068295,419376839,42.690023499999995,-84.4886191,278.7099914550781,-0.01556827500462532,0.024431724101305008
1665697138.72063112,419476787,42.690023499999995,-84.4886191,278.7099914550781,-0.018608951941132545,0.021391047164797783
1665697138.82069612,419576852,42.690023499999995,-84.4886191,278.6999816894531,-0.020691292360424995,0.019308706745505333
1665697138.92058802,419676744,42.690023599999996,-84.4886191,278.6999816894531,-0.02173572964966297,0.018264269456267357
1665697139.02055407,419776710,42.690023599999996,-84.4886191,278.6999816894531,-0.02355102263391018,0.01644897647202015
1665697139.12055397,419876710,42.690023599999996,-84.4886191,278.6999816894531,-0.026093740016222,0.013906260021030903
1665697139.22058511,419976741,42.690023599999996,-84.4886191,278.6999816894531,-0.028682131320238113,0.01131786871701479
1665697139.32060814,420076764,42.6900237,-84.4886191,278.69000244140625,-0.031209532171487808,0.008790466003119946
1665697139.42053103,420176687,42.6900237,-84.4886191,278.69000244140625,-0.0345936045050621,0.005406395997852087
1665697139.52061296,420276769,42.6900238,-84.4886191,278.69000244140625,-0.03789127990603447,0.0021087201312184334
1665697139.62055802,420376714,42.6900238,-84.4886191,278.67999267578125,-0.04052461311221123,-0.0005246124928817153
1665697139.72069192,420476848,42.6900238,-84.4886191,278.67999267578125,-0.0431295707821846,-0.0031295702792704105
1665697139.82073212,420576888,42.6900239,-84.4886191,278.67999267578125,-0.04679333418607712,-0.00679333321750164
1665697139.92055202,420676708,42.6900239,-84.4886191,278.66998291015625,-0.05114203691482544,-0.011142036877572536
1665697140.02065897,420776815,42.690024,-84.4886191,278.66998291015625,-0.05436309799551964,-0.01436309888958931
1665697140.12061501,420876771,42.690024,-84.4886191,278.66998291015625,-0.05514656379818916,-0.015146564692258835
1665697140.22065902,420976815,42.690024,-84.4886191,278.66998291015625,-0.05709552392363548,-0.017095524817705154
1665697140.32058001,421076736,42.690024099999995,-84.4886191,278.6600036621094,-0.060175586491823196,-0.020175587385892868
1665697140.42066097,421176817,42.690024099999995,-84.4886191,278.6600036621094,-0.06431311368942261,-0.024313118308782578
1665697140.52065396,421276810,42.690024199999996,-84.4886191,278.6499938964844,-0.07035866379737854,-0.030358660966157913
1665697140.62069607,421376852,42.690024199999996,-84.4886191,278.6499938964844,-0.07656837999820709,-0.03656838461756706
1665697140.72072601,421476882,42.690024199999996,-84.4886192,278.6399841308594,-0.08295337855815887,-0.04295337572693825
1665697140.82066894,421576825,42.6900243,-84.4886192,278.6399841308594,-0.0888296440243721,-0.04882964491844177
1665697140.92075014,421676906,42.6900243,-84.4886192,278.6300048828125,-0.09480074048042297,-0.054800741374492645
1665697141.02060294,421776759,42.6900244,-84.4886192,278.6199951171875,-0.10185641050338745,-0.061856407672166824
1665697141.12062311,421876779,42.6900245,-84.4886192,278.6099853515625,-0.11028387397527695,-0.07028387486934662
1665697141.22059703,421976753,42.6900245,-84.4886192,278.6099853515625,-0.11773120611906052,-0.07773120701313019
1665697141.32099104,422077147,42.6900246,-84.4886192,278.6000061035156,-0.12361466884613037,-0.08361466974020004
1665697141.42062306,422176779,42.6900246,-84.4886192,278.6000061035156,-0.12859788537025452,-0.08859787881374359
1665697141.52071810,422276874,42.6900246,-84.4886192,278.5899963378906,-0.13374082744121552,-0.09374082833528519
1665697141.62064505,422376801,42.690024699999995,-84.4886192,278.5899963378906,-0.13829004764556885,-0.09829005599021912
1665697141.72068810,422476844,42.690024699999995,-84.4886192,278.5799865722656,-0.14236146211624146,-0.10236146301031113
1665697141.82073498,422576891,42.690024799999996,-84.4886192,278.5799865722656,-0.14599846303462982,-0.1059984639286995
1665697141.92071795,422676874,42.690024799999996,-84.4886192,278.5799865722656,-0.14882653951644897,-0.10882654786109924
1665697142.02064896,422776805,42.6900249,-84.4886192,278.57000732421875,-0.15186521410942078,-0.11186521500349045
1665697142.12065411,422876810,42.6900249,-84.4886192,278.57000732421875,-0.1555943489074707,-0.11559434980154037
1665697142.22068095,422976837,42.6900249,-84.4886192,278.57000732421875,-0.15978136658668518,-0.11978136003017426
1665697142.32090092,423077057,42.690025,-84.4886192,278.55999755859375,-0.16435827314853668,-0.12435827404260635
1665697142.42075014,423176906,42.690025,-84.4886192,278.55999755859375,-0.16775766015052795,-0.12775765359401703
1665697142.52062798,423276784,42.690025,-84.4886192,278.54998779296875,-0.17022669315338135,-0.13022670149803162
1665697142.62058496,423376741,42.690025,-84.4886192,278.54998779296875,-0.173016756772995,-0.13301675021648407
1665697142.72076392,423476920,42.6900251,-84.4886191,278.54998779296875,-0.1757035255432129,-0.13570353388786316
1665697142.82062602,423576782,42.6900251,-84.4886191,278.54998779296875,-0.17775696516036987,-0.13775697350502014
1665697142.92065597,423676812,42.6900251,-84.4886191,278.54998779296875,-0.17966440320014954,-0.1396644115447998
1665697143.02061510,423776771,42.6900252,-84.4886191,278.5400085449219,-0.18071061372756958,-0.14071062207221985
1665697143.12067294,423876829,42.6900252,-84.4886191,278.5400085449219,-0.18038079142570496,-0.14038078486919403
1665697143.22059608,423976752,42.6900252,-84.488619,278.5400085449219,-0.1807163953781128,-0.14071638882160187
1665697143.32092714,424077083,42.690025299999995,-84.488619,278.5400085449219,-0.18098774552345276,-0.14098773896694183
1665697143.42064714,424176803,42.690025299999995,-84.488619,278.5400085449219,-0.1808907687664032,-0.14089076220989227
1665697143.52060008,424276756,42.690025399999996,-84.48861889999999,278.54998779296875,-0.17960315942764282,-0.1396031677722931
1665697143.62061405,424376770,42.690025399999996,-84.48861889999999,278.54998779296875,-0.17788594961166382,-0.1378859579563141
1665697143.72111201,424477268,42.690025399999996,-84.48861889999999,278.54998779296875,-0.1741039752960205,-0.13410396873950958
1665697143.82070899,424576865,42.6900255,-84.4886188,278.54998779296875,-0.17069551348686218,-0.13069550693035126
1665697143.92063999,424676796,42.6900255,-84.4886188,278.55999755859375,-0.1633526235818863,-0.12335262447595596
1665697144.02083206,424776988,42.6900256,-84.4886188,278.57000732421875,-0.15356191992759705,-0.11356192082166672
1665697144.12063193,424876788,42.6900256,-84.48861869999999,278.5799865722656,-0.1429259181022644,-0.10292591154575348
1665697144.22073913,424976895,42.6900256,-84.48861869999999,278.5899963378906,-0.13489925861358643,-0.0948992595076561
1665697144.32076311,425076919,42.6900256,-84.48861869999999,278.6000061035156,-0.12855800986289978,-0.08855801820755005
1665697144.42069507,425176851,42.6900257,-84.4886186,278.6000061035156,-0.12409155070781708,-0.08409155160188675
1665697144.52065992,425276816,42.6900257,-84.4886186,278.6099853515625,-0.11986211687326431,-0.07986211776733398
1665697144.62069798,425376854,42.6900257,-84.4886186,278.6099853515625,-0.1148184984922409,-0.07481849938631058
1665697144.72119904,425477355,42.6900257,-84.4886186,278.6199951171875,-0.10978570580482483,-0.0697857066988945
1665697144.82069111,425576847,42.6900258,-84.4886185,278.6199951171875,-0.10708373039960861,-0.06708373129367828
1665697144.92065811,425676814,42.6900258,-84.4886185,278.6199951171875,-0.10449990630149841,-0.06449990719556808
1665697145.02063894,425776795,42.6900258,-84.4886185,278.6199951171875,-0.10326313972473145,-0.06326314061880112
1665697145.12068200,425876838,42.6900258,-84.4886185,278.6199951171875,-0.1028796061873436,-0.06287960708141327
1665697145.22069311,425976849,42.6900258,-84.4886184,278.6199951171875,-0.10055460035800934,-0.06055460497736931
1665697145.32084298,426076999,42.690025899999995,-84.4886184,278.6300048828125,-0.09729628264904022,-0.057296279817819595
1665697145.42072892,426176885,42.690025899999995,-84.4886184,278.6300048828125,-0.09675201028585434,-0.05675201117992401
1665697145.52062201,426276778,42.690025899999995,-84.4886183,278.6300048828125,-0.09842593967914581,-0.058425940573215485
1665697145.62056899,426376725,42.690025999999996,-84.4886183,278.6300048828125,-0.0998915433883667,-0.05989154055714607
1665697145.72099996,426477156,42.690025999999996,-84.4886183,278.6300048828125,-0.09808985888957977,-0.05808986350893974
1665697145.82064104,426576797,42.690025999999996,-84.48861819999999,278.6300048828125,-0.09539320319890976,-0.05539320409297943
1665697145.92057014,426676726,42.690025999999996,-84.48861819999999,278.6300048828125,-0.09186263382434845,-0.05186263099312782
1665697146.02064610,426776802,42.690025999999996,-84.4886181,278.6399841308594,-0.0894349068403244,-0.04943491145968437
1665697146.12080693,426876963,42.6900261,-84.4886181,278.6399841308594,-0.08779388666152954,-0.04779388755559921
1665697146.22060800,426976764,42.6900261,-84.4886181,278.6399841308594,-0.08743210881948471,-0.04743210971355438
1665697146.32065606,427076812,42.6900261,-84.488618,278.6399841308594,-0.08746357262134552,-0.04746357724070549
1665697146.42058301,427176739,42.6900262,-84.488618,278.6399841308594,-0.08779288083314896,-0.04779288172721863
1665697146.52059793,427276754,42.6900262,-84.488618,278.6399841308594,-0.08936002850532532,-0.04936002939939499
1665697146.62060094,427376757,42.6900262,-84.4886179,278.6300048828125,-0.09136886894702911,-0.051368873566389084
1665697146.72104192,427477198,42.6900263,-84.4886179,278.6300048828125,-0.09241004288196564,-0.05241004377603531
1665697146.82065201,427576808,42.6900263,-84.4886179,278.6300048828125,-0.09282663464546204,-0.052826639264822006
1665697146.92068005,427676836,42.6900263,-84.4886179,278.6300048828125,-0.09502933919429779,-0.05502934381365776
1665697147.02062511,427776781,42.6900264,-84.4886179,278.6300048828125,-0.09750962257385254,-0.05750962346792221
1665697147.12053514,427876691,42.6900264,-84.4886178,278.6300048828125,-0.09857378900051117,-0.05857379361987114
1665697147.22062802,427976784,42.6900264,-84.4886178,278.6300048828125,-0.09765017777681351,-0.05765017867088318
1665697147.32058001,428076736,42.6900264,-84.4886178,278.6300048828125,-0.097380131483078,-0.057380132377147675
1665697147.42065001,428176806,42.6900264,-84.4886178,278.6300048828125,-0.09786562621593475,-0.05786562338471413
1665697147.52063298,428276789,42.690026499999995,-84.4886178,278.6300048828125,-0.0967540442943573,-0.05675404891371727
1665697147.62060213,428376758,42.690026499999995,-84.4886178,278.6300048828125,-0.09740714728832245,-0.05740714445710182
1665697147.72103405,428477190,42.690026499999995,-84.4886178,278.6199951171875,-0.10091817378997803,-0.060918178409338
1665697147.82071900,428576875,42.690026599999996,-84.48861769999999,278.6199951171875,-0.1042996272444725,-0.06429962813854218
1665697147.92064309,428676799,42.690026599999996,-84.48861769999999,278.6199951171875,-0.10683465003967285,-0.06683465093374252
