timestamp,TimeUS,C,Q1,Q2,Q3,Q4
1665697096.41964912,377175805,1,0.7902246713638306,0.011110443621873856,-0.006427884567528963,0.6126827597618103
1665697096.51964903,377275805,1,0.7903094291687012,0.011129521764814854,-0.006417958531528711,0.6125732064247131
1665697096.61965513,377375811,1,0.7903772592544556,0.011129243299365044,-0.00640356820076704,0.6124858856201172
1665697096.71965098,377475807,1,0.7904157042503357,0.011132919229567051,-0.00638666283339262,0.6124362945556641
1665697096.81966114,377575817,1,0.7904308438301086,0.01114478800445795,-0.0064034112729132175,0.6124164462089539
1665697096.91964793,377675804,1,0.7904968857765198,0.011158096604049206,-0.00642485311254859,0.6123306751251221
1665697097.01967001,377775826,1,0.7905890941619873,0.011179947294294834,-0.006450333166867495,0.6122109293937683
1665697097.11969304,377875849,1,0.790669858455658,0.011164304800331593,-0.006422819569706917,0.6121072173118591
1665697097.21967793,377975834,1,0.7907058596611023,0.01120371650904417,-0.006432901136577129,0.6120598912239075
1665697097.31965995,378075816,1,0.7907202839851379,0.011191770434379578,-0.006410893984138966,0.6120417714118958
1665697097.41966105,378175817,1,0.7907615303993225,0.011186537332832813,-0.0063772681169211864,0.61198890209198
1665697097.51967406,378275830,1,0.7907969355583191,0.011176605708897114,-0.006369038950651884,0.6119434237480164
1665697097.61968303,378375839,1,0.7908808588981628,0.01116239931434393,-0.006367234978824854,0.611835241317749
1665697097.71968412,378475840,1,0.7910040616989136,0.011178512126207352,-0.006328039802610874,0.6116759777069092
1665697097.81962395,378575780,1,0.7911792993545532,0.01115110982209444,-0.006327832117676735,0.6114498376846313
1665697097.91965604,378675812,1,0.791323721408844,0.01115474198013544,-0.006326902192085981,0.611262857913971
1665697098.01965308,378775809,1,0.791428804397583,0.011157135479152203,-0.006282406393438578,0.6111272573471069
1665697098.11964798,378875804,1,0.7914547324180603,0.0111443642526865,-0.006276230327785015,0.6110939383506775
1665697098.21964812,378975804,1,0.7915083765983582,0.011154058389365673,-0.006290882360190153,0.6110241413116455
1665697098.31965399,379075810,1,0.7915436029434204,0.011133303865790367,-0.006306094117462635,0.6109787225723267
1665697098.41965413,379175810,1,0.7915711402893066,0.011144669726490974,-0.006246472243219614,0.6109434962272644
1665697098.51965809,379275814,1,0.7915290594100952,0.011157151311635971,-0.0062331524677574635,0.6109979152679443
1665697098.61968994,379375846,1,0.7914739847183228,0.011159987188875675,-0.00623071426525712,0.6110692024230957
1665697098.71969104,379475847,1,0.7913944721221924,0.011117935180664062,-0.006182357668876648,0.6111734509468079
1665697098.81968093,379575837,1,0.7913731336593628,0.01108880341053009,-0.006166914477944374,0.6112017631530762
1665697098.91967297,379675829,1,0.7914186716079712,0.011109389364719391,-0.006145149935036898,0.611142635345459
1665697099.01969409,379775850,1,0.7914285659790039,0.01112424861639738,-0.006146127358078957,0.6111295223236084
1665697099.11969304,379875849,1,0.7914502024650574,0.011115122586488724,-0.006122591905295849,0.6111018657684326
1665697099.21969104,379975847,1,0.7914643287658691,0.011127508245408535,-0.006079559214413166,0.6110838055610657
1665697099.31969714,380075853,1,0.7914543151855469,0.011108660139143467,-0.006068896967917681,0.6110972166061401
1665697099.41964793,380175804,1,0.7914368510246277,0.011091643013060093,-0.006038852035999298,0.6111204028129578
1665697099.51966214,380275818,1,0.7914091348648071,0.011075831949710846,-0.006022857502102852,0.6111568212509155
1665697099.61965513,380375811,1,0.7913985252380371,0.011066188104450703,-0.006023486610502005,0.6111707091331482
1665697099.71966600,380475822,1,0.7913098335266113,0.011079668067395687,-0.006000353489071131,0.6112855672836304
1665697099.81965804,380575814,1,0.7912229299545288,0.011096395552158356,-0.005977293476462364,0.6113978624343872
1665697099.91965413,380675810,1,0.7911652326583862,0.01112248282879591,-0.005956997163593769,0.6114722490310669
1665697100.01964211,380775798,1,0.7911170125007629,0.011145394295454025,-0.005930562503635883,0.6115345358848572
1665697100.11965704,380875813,1,0.7911211848258972,0.011138863861560822,-0.005917790345847607,0.6115294098854065
1665697100.21969008,380975846,1,0.7911532521247864,0.011146544478833675,-0.005889292806386948,0.6114880442619324
1665697100.31969500,381075851,1,0.7912256121635437,0.011121394112706184,-0.005864966195076704,0.6113951206207275
1665697100.41969013,381175846,1,0.7913134694099426,0.011140662245452404,-0.005883804056793451,0.6112807989120483
1665697100.51968312,381275839,1,0.7913570404052734,0.011165057308971882,-0.005865788087248802,0.6112241744995117
1665697100.61966991,381375826,1,0.7913669943809509,0.011172061786055565,-0.005829558242112398,0.6112114787101746
1665697100.71970797,381475864,1,0.7913841009140015,0.01122705452144146,-0.005825208965688944,0.6111884117126465
1665697100.81969213,381575848,1,0.7914265990257263,0.011180555447936058,-0.005822376348078251,0.6111341714859009
1665697100.91967297,381675829,1,0.7915125489234924,0.01117717381566763,-0.005798164755105972,0.6110231876373291
1665697101.01965499,381775811,1,0.791601300239563,0.011184684932231903,-0.005755131598562002,0.6109085083007812
1665697101.11965609,381875812,1,0.791572093963623,0.011175102554261684,-0.005732408259063959,0.6109467148780823
1665697101.21965313,381975809,1,0.7914344072341919,0.01119033619761467,-0.005669998005032539,0.6111253499984741
1665697101.31965399,382075810,1,0.7912778854370117,0.011205695569515228,-0.005670896731317043,0.6113277077674866
1665697101.41965508,382175811,1,0.7911591529846191,0.011224063113331795,-0.005623106844723225,0.6114814877510071
1665697101.51965809,382275814,1,0.7911026477813721,0.011240547522902489,-0.005599003750830889,0.6115545034408569
1665697101.61965394,382375810,1,0.7911105751991272,0.01123561430722475,-0.005583187565207481,0.6115444302558899
1665697101.71969700,382475853,1,0.7912017107009888,0.011270111426711082,-0.0055602798238396645,0.6114261150360107
1665697101.81967998,382575836,1,0.7913806438446045,0.011279502883553505,-0.00556907057762146,0.6111943125724792
1665697101.91968894,382675845,1,0.7915671467781067,0.011302509345114231,-0.005540014710277319,0.6109525561332703
1665697102.01970315,382775859,1,0.79176265001297,0.011301165446639061,-0.005500964354723692,0.6106995344161987
1665697102.11967611,382875832,1,0.7919005751609802,0.011323416605591774,-0.0054488335736095905,0.6105207204818726
1665697102.21967602,382975832,1,0.7919726371765137,0.01133812591433525,-0.005423734895884991,0.61042720079422
1665697102.31968904,383075845,1,0.7919653654098511,0.0113340113312006,-0.005377751775085926,0.6104371547698975
1665697102.41969514,383175851,1,0.7918790578842163,0.011355980299413204,-0.005338955670595169,0.6105490326881409
1665697102.51963592,383275792,1,0.7917602062225342,0.011362017132341862,-0.005313508678227663,0.6107032299041748
1665697102.61965203,383375808,1,0.7916745543479919,0.011403068900108337,-0.0053102015517652035,0.610813558101654
1665697102.71965313,383475809,1,0.7916257381439209,0.011427057906985283,-0.0053300098516047,0.610876202583313
1665697102.81965303,383575809,1,0.7915963530540466,0.011450188234448433,-0.005275324918329716,0.6109142899513245
1665697102.91965103,383675807,1,0.7915763854980469,0.011489560827612877,-0.005256155971437693,0.610939621925354
1665697103.01965094,383775807,1,0.791504442691803,0.01147339679300785,-0.005236025899648666,0.6110332608222961
1665697103.11967397,383875830,1,0.7914651036262512,0.011486008763313293,-0.0051763663068413734,0.611084520816803
1665697103.21969295,383975849,1,0.7914619445800781,0.011476230807602406,-0.00516439788043499,0.6110888719558716
1665697103.31968594,384075842,1,0.7914177179336548,0.011480455286800861,-0.005176591221243143,0.6111459732055664
1665697103.41969395,384175850,1,0.7913679480552673,0.011482235975563526,-0.005138769745826721,0.6112107038497925
1665697103.51968193,384275838,1,0.7912505865097046,0.011485942639410496,-0.0051522329449653625,0.6113624572753906
1665697103.61967707,384375833,1,0.7911030054092407,0.0115059157833457,-0.005113380029797554,0.6115533709526062
1665697103.71968508,384475841,1,0.7909863591194153,0.011510067619383335,-0.00508281122893095,0.6117043495178223
1665697103.81968713,384575843,1,0.7908922433853149,0.011502107605338097,-0.00510454224422574,0.6118260622024536
1665697103.91969800,384675854,1,0.7908473610877991,0.011486360803246498,-0.005088981706649065,0.6118845343589783
1665697104.01968694,384775843,1,0.7908573746681213,0.011479964479804039,-0.00510241137817502,0.6118715405464172
1665697104.11965108,384875807,1,0.7909113168716431,0.011500448919832706,-0.005089315120130777,0.6118015646934509
1665697104.21965408,384975810,1,0.7909643650054932,0.011514508165419102,-0.005100893788039684,0.6117326021194458
1665697104.31965113,385075807,1,0.790949821472168,0.011503943242132664,-0.0051486617885529995,0.6117512583732605
1665697104.41964412,385175800,1,0.7909088134765625,0.011493893340229988,-0.005146791692823172,0.6118044257164001
1665697104.51964498,385275801,1,0.7908929586410522,0.01143400464206934,-0.005149302538484335,0.6118260622024536
1665697104.61964798,385375804,1,0.7908596992492676,0.011441054753959179,-0.00516556017100811,0.6118687391281128
1665697104.71965098,385475807,1,0.7908245921134949,0.011457881890237331,-0.005195407662540674,0.6119135022163391
1665697104.81967497,385575831,1,0.7908499836921692,0.011442950926721096,-0.005170081742107868,0.6118812561035156
1665697104.91969514,385675851,1,0.7908797264099121,0.011478769592940807,-0.00517191831022501,0.6118420958518982
1665697105.01968098,385775837,1,0.7909191250801086,0.011476084589958191,-0.005209545139223337,0.6117908954620361
1665697105.11967993,385875836,1,0.7909239530563354,0.011497894302010536,-0.0052320403046905994,0.611784040927887
1665697105.21967196,385975828,1,0.7909049391746521,0.011512084864079952,-0.005234736017882824,0.6118083596229553
1665697105.31968403,386075840,1,0.7908688187599182,0.011506990529596806,-0.005271580535918474,0.6118547916412354
1665697105.41968799,386175844,1,0.7908412218093872,0.011527638882398605,-0.005288806278258562,0.6118899583816528
1665697105.51968002,386275836,1,0.7908423542976379,0.011585284024477005,-0.005338250193744898,0.6118869185447693
1665697105.61970210,386375858,1,0.7908143997192383,0.011582598090171814,-0.005353753454983234,0.6119229793548584
1665697105.71965408,386475810,1,0.7907934188842773,0.01156009454280138,-0.005388230551034212,0.6119502186775208
1665697105.81964612,386575802,1,0.7907971143722534,0.011526673100888729,-0.005419694818556309,0.6119458675384521
1665697105.91965103,386675807,1,0.790838360786438,0.011557845398783684,-0.005427579861134291,0.6118918657302856
1665697106.01964903,386775805,1,0.7909373641014099,0.011526359245181084,-0.00539098447188735,0.6117647886276245
1665697106.11964607,386875802,1,0.7910606265068054,0.011528928764164448,-0.005404489580541849,0.6116052269935608
1665697106.21965003,386975806,1,0.7911669611930847,0.01151710469275713,-0.0054369582794606686,0.6114675998687744
1665697106.31964803,387075804,1,0.7912477850914001,0.01153886504471302,-0.005487639456987381,0.6113621592521667
1665697106.41967297,387175829,1,0.7913818359375,0.011533485725522041,-0.005470143631100655,0.6111888885498047
1665697106.51969910,387275855,1,0.7915032505989075,0.011548303067684174,-0.005495928227901459,0.6110311150550842
1665697106.61968899,387375845,1,0.7915207743644714,0.011550500988960266,-0.005502397660166025,0.6110082864761353
1665697106.71965909,387475815,1,0.7914338111877441,0.0115286223590374,-0.0054674469865858555,0.6111217141151428
1665697106.81967592,387575832,1,0.7913156151771545,0.011492560617625713,-0.005462922155857086,0.6112754940986633
1665697106.91967893,387675835,1,0.7912805676460266,0.011552299372851849,-0.005453712772578001,0.6113197207450867
1665697107.01967907,387775835,1,0.7913151383399963,0.011567450128495693,-0.005468950141221285,0.6112746000289917
1665697107.11969709,387875853,1,0.7913627624511719,0.011591164395213127,-0.005489138886332512,0.6112122535705566
1665697107.21963692,387975793,1,0.7914021015167236,0.011615867726504803,-0.005522853694856167,0.6111605763435364
1665697107.31964612,388075802,1,0.7914296388626099,0.01158774085342884,-0.005529874004423618,0.6111254096031189
1665697107.41965103,388175807,1,0.79140704870224,0.011578211560845375,-0.005514959804713726,0.6111549735069275
1665697107.51964402,388275800,1,0.7913272976875305,0.011567010544240475,-0.005525482352823019,0.611258327960968
1665697107.61964798,388375804,1,0.7912912368774414,0.011556431651115417,-0.005545232445001602,0.6113050580024719
1665697107.71965003,388475806,1,0.7912542819976807,0.011555980890989304,-0.0055274940095841885,0.6113530993461609
1665697107.81964493,388575801,1,0.7912544012069702,0.01155759859830141,-0.005551574286073446,0.6113526225090027
1665697107.91965103,388675807,1,0.7913036346435547,0.011556877754628658,-0.005508740898221731,0.6112893223762512
1665697108.01968193,388775838,1,0.7913901209831238,0.011552265845239162,-0.005495799705386162,0.6111775636672974
1665697108.11969113,388875847,1,0.7915332317352295,0.011564143933355808,-0.005548079032450914,0.6109915375709534
1665697108.21969795,388975854,1,0.7917232513427734,0.011571338400244713,-0.005580078344792128,0.6107448935508728
1665697108.31967211,389075828,1,0.791908323764801,0.01153134647756815,-0.005589992739260197,0.6105055212974548
1665697108.41965795,389175814,1,0.792015790939331,0.011546676978468895,-0.005597634706646204,0.6103656888008118
1665697108.51967907,389275835,1,0.79208904504776,0.011541658081114292,-0.005591703578829765,0.6102707982063293
1665697108.61968493,389375841,1,0.7921659350395203,0.011515500955283642,-0.005570818204432726,0.6101716756820679
1665697108.71964312,389475799,1,0.7922398447990417,0.011479268781840801,-0.005538064055144787,0.6100767254829407
1665697108.81964993,389575806,1,0.7922863960266113,0.011446893215179443,-0.005526601802557707,0.610016942024231
1665697108.91964793,389675804,1,0.7923049330711365,0.011462158523499966,-0.005487032234668732,0.6099929809570312
1665697109.01964903,389775805,1,0.7922860980033875,0.01146034337580204,-0.005484677851200104,0.6100174188613892
1665697109.11964703,389875803,1,0.7922390699386597,0.011441548354923725,-0.0054929424077272415,0.6100788712501526
1665697109.21964693,389975803,1,0.7922085523605347,0.011482869274914265,-0.0054777623154222965,0.6101177930831909
1665697109.31964993,390075806,1,0.7921513915061951,0.011560654267668724,-0.005470551084727049,0.6101906299591064
1665697109.41964793,390175804,1,0.792106568813324,0.01158131007105112,-0.005437946412712336,0.6102486848831177
1665697109.51967001,390275826,1,0.7920427322387695,0.011606660671532154,-0.005397530738264322,0.6103314161300659
1665697109.61968803,390375844,1,0.7919681668281555,0.011585022322833538,-0.005383067764341831,0.6104287505149841
1665697109.71969104,390475847,1,0.7919332981109619,0.011560981161892414,-0.005387198179960251,0.6104744076728821
1665697109.81965208,390575808,1,0.7918903827667236,0.011534362100064754,-0.005405162461102009,0.610530436038971
1665697109.91967010,390675826,1,0.7917928099632263,0.011534042656421661,-0.005389598198235035,0.6106570363044739
1665697110.01966906,390775825,1,0.7917388677597046,0.011537482962012291,-0.0053459033370018005,0.6107273101806641
1665697110.11967707,390875833,1,0.7917064428329468,0.011544950306415558,-0.005351189523935318,0.6107691526412964
1665697110.21967912,390975835,1,0.7917189002037048,0.011557523161172867,-0.005356218665838242,0.6107527613639832
1665697110.31962705,391075783,1,0.7917439937591553,0.01156818587332964,-0.005398923996835947,0.6107196807861328
1665697110.41965413,391175810,1,0.7918428182601929,0.011572080664336681,-0.005406161770224571,0.6105913519859314
1665697110.51964712,391275803,1,0.7919808030128479,0.01155084278434515,-0.005419132299721241,0.6104126572608948
1665697110.61964512,391375801,1,0.7921075224876404,0.011526822112500668,-0.005446959286928177,0.6102483868598938
1665697110.71965814,391475814,1,0.7922258973121643,0.011552083306014538,-0.005488237831741571,0.6100939512252808
1665697110.81964993,391575806,1,0.7922964096069336,0.011544068343937397,-0.005454253870993853,0.6100028157234192
1665697110.91964698,391675803,1,0.7923245429992676,0.011520409025251865,-0.00547174783423543,0.609966516494751
1665697111.01965213,391775808,1,0.7923035025596619,0.011507047340273857,-0.005496417172253132,0.6099938750267029
1665697111.11968803,391875844,1,0.7922315001487732,0.011479171924293041,-0.005497162230312824,0.6100879311561584
1665697111.21968508,391975841,1,0.7921580076217651,0.011446385644376278,-0.005458726081997156,0.6101843118667603
1665697111.31968212,392075838,1,0.792086660861969,0.011428341269493103,-0.005419991910457611,0.610277533531189
1665697111.41966701,392175823,1,0.7920310497283936,0.011434138752520084,-0.0053690760396420956,0.6103500723838806
1665697111.51968408,392275840,1,0.7919659614562988,0.011392571032047272,-0.005301108583807945,0.610435962677002
1665697111.61968303,392375839,1,0.7919116616249084,0.011367131024599075,-0.005291919223964214,0.6105068922042847
1665697111.71968603,392475842,1,0.7918869853019714,0.011396094225347042,-0.005304111633449793,0.6105382442474365
1665697111.81972694,392575883,1,0.7918956875801086,0.011353902518749237,-0.005329769104719162,0.6105275750160217
1665697111.91964102,392675797,1,0.7919192314147949,0.011371578089892864,-0.005310532171279192,0.6104968786239624
1665697112.01964808,392775804,1,0.7919611930847168,0.01134075690060854,-0.0053021046333014965,0.610443115234375
1665697112.11965013,392875806,1,0.7919890284538269,0.011335465125739574,-0.00531354732811451,0.6104069352149963
1665697112.21964598,392975802,1,0.7920360565185547,0.011368420906364918,-0.005322703160345554,0.6103452444076538
1665697112.31964612,393075802,1,0.7920898795127869,0.01136333029717207,-0.005356268957257271,0.610275149345398
1665697112.41966009,393175816,1,0.7921175956726074,0.011340484023094177,-0.005379521753638983,0.6102394461631775
1665697112.51964593,393275802,1,0.7921372652053833,0.011353968642652035,-0.0054099359549582005,0.6102133989334106
1665697112.61965203,393375808,1,0.7921432852745056,0.011327855288982391,-0.005437059327960014,0.6102058291435242
1665697112.71968913,393475845,1,0.7921190857887268,0.011312230490148067,-0.005459463223814964,0.6102373600006104
1665697112.81969309,393575849,1,0.7921401858329773,0.011318488977849483,-0.00550156319513917,0.6102094650268555
1665697112.91965199,393675808,1,0.7921730279922485,0.011302698403596878,-0.005489897448569536,0.6101671457290649
1665697113.01967406,393775830,1,0.7922044992446899,0.011319143697619438,-0.005473586730659008,0.6101261973381042
1665697113.11968613,393875842,1,0.7922636866569519,0.01130263227969408,-0.005464363843202591,0.6100497245788574
1665697113.21967912,393975835,1,0.7923007607460022,0.011334109120070934,-0.005445698741823435,0.6100011467933655
1665697113.31968713,394075843,1,0.7923280000686646,0.011300111189484596,-0.005436183884739876,0.609966516494751
1665697113.41965008,394175806,1,0.7923380732536316,0.011297868564724922,-0.0053991335444152355,0.609953761100769
1665697113.51964593,394275802,1,0.7923332452774048,0.011293130926787853,-0.005401703529059887,0.6099600791931152
1665697113.61964607,394375802,1,0.7923033833503723,0.0113020408898592,-0.005371233448386192,0.6099990010261536
1665697113.71965408,394475810,1,0.7922418713569641,0.011292648501694202,-0.005368613637983799,0.6100790500640869
1665697113.81965613,394575812,1,0.7921561002731323,0.011273507960140705,-0.005349138751626015,0.6101909279823303
1665697113.91964793,394675804,1,0.7920244336128235,0.011294957250356674,-0.005348316393792629,0.6103615164756775
1665697114.01964903,394775805,1,0.7918493151664734,0.011281908489763737,-0.0053296503610908985,0.6105890870094299
1665697114.11965609,394875812,1,0.7917082905769348,0.011285584419965744,-0.0053652930073440075,0.6107714772224426
1665697114.21967196,394975828,1,0.791633665561676,0.011327266693115234,-0.005389755591750145,0.6108672022819519
1665697114.31969595,395075852,1,0.7916093468666077,0.011343815363943577,-0.0054183839820325375,0.6108981966972351
1665697114.41969109,395175847,1,0.7915985584259033,0.011374524794518948,-0.005376691929996014,0.6109119653701782
1665697114.51967502,395275831,1,0.7915714979171753,0.011364083737134933,-0.00540206441655755,0.6109469532966614
1665697114.61967397,395375830,1,0.7916115522384644,0.011397096328437328,-0.005390827544033527,0.6108945608139038
1665697114.71968794,395475844,1,0.7917027473449707,0.011376626789569855,-0.005400412250310183,0.6107767224311829
1665697114.81968498,395575841,1,0.7917662858963013,0.011366900987923145,-0.005392021965235472,0.6106945872306824
1665697114.91969800,395675854,1,0.791839063167572,0.011374995112419128,-0.005383350420743227,0.6106001138687134
1665697115.01963592,395775792,1,0.7919232249259949,0.011364486068487167,-0.005388930905610323,0.610491156578064
1665697115.11965394,395875810,1,0.7920154929161072,0.01136432308703661,-0.0054117534309625626,0.6103712320327759
1665697115.21965194,395975808,1,0.7921093702316284,0.011387710459530354,-0.005385547410696745,0.6102492213249207
1665697115.31964707,396075803,1,0.7921750545501709,0.011345499195158482,-0.005393107887357473,0.6101645827293396
1665697115.41965199,396175808,1,0.7921750545501709,0.011343549005687237,-0.005402895621955395,0.6101645827293396
1665697115.51965094,396275807,1,0.7921426892280579,0.011315873824059963,-0.005403236020356417,0.6102071404457092
1665697115.61965299,396375809,1,0.7921339869499207,0.011307368986308575,-0.005399795714765787,0.6102185845375061
1665697115.71968293,396475839,1,0.7921379804611206,0.011303381994366646,-0.005401878152042627,0.6102135181427002
1665697115.81969213,396575848,1,0.7921112179756165,0.011263798922300339,-0.00538566242903471,0.6102491021156311
1665697115.91968012,396675836,1,0.7921395897865295,0.011268656700849533,-0.005403801798820496,0.6102120280265808
1665697116.01968908,396775845,1,0.7922015190124512,0.011248752474784851,-0.005429078359156847,0.6101318001747131
1665697116.11968613,396875842,1,0.7922521233558655,0.011265644803643227,-0.005433285608887672,0.6100656986236572
1665697116.21969509,396975851,1,0.7923074960708618,0.01124081201851368,-0.00537457037717104,0.6099947690963745
1665697116.31968498,397075841,1,0.7923696637153625,0.01123080588877201,-0.005369784310460091,0.609914243221283
1665697116.41970015,397175856,1,0.7924120426177979,0.011277787387371063,-0.005354691296815872,0.6098584532737732
1665697116.51971292,397275869,1,0.7923941612243652,0.011261401697993279,-0.005331005901098251,0.6098821759223938
1665697116.61964893,397375805,1,0.7923327088356018,0.01127095241099596,-0.0053382073529064655,0.6099618077278137
1665697116.71965909,397475815,1,0.7922477722167969,0.011270820163190365,-0.005347465630620718,0.6100720167160034
1665697116.81965709,397575813,1,0.7922046184539795,0.011251742020249367,-0.005366560537368059,0.6101281642913818
1665697116.91965008,397675806,1,0.7922589778900146,0.011231904849410057,-0.0053053973242640495,0.6100585460662842
1665697117.01965594,397775812,1,0.7923265695571899,0.011246711015701294,-0.0053062825463712215,0.6099704504013062
1665697117.11965799,397875814,1,0.7924363017082214,0.011272931471467018,-0.0052961185574531555,0.60982745885849
1665697117.21965504,397975811,1,0.7925784587860107,0.011254744604229927,-0.005282548256218433,0.6096431612968445
1665697117.31968093,398075837,1,0.7927401065826416,0.011239486746490002,-0.0052801454439759254,0.6094332933425903
1665697117.41969395,398175850,1,0.7928588390350342,0.011246135458350182,-0.005261548329144716,0.6092787981033325
1665697117.51968098,398275837,1,0.7929202318191528,0.011192718520760536,-0.005215986166149378,0.6092003583908081
1665697117.61966395,398375820,1,0.7929208278656006,0.01121267955750227,-0.005206450819969177,0.6091992259025574
1665697117.71969104,398475847,1,0.7928850054740906,0.011219611391425133,-0.0051909987814724445,0.6092458367347717
1665697117.81966901,398575825,1,0.7928576469421387,0.01124054566025734,-0.005225423723459244,0.6092808246612549
1665697117.91969013,398675846,1,0.7928590178489685,0.01124099176377058,-0.005222794599831104,0.6092790365219116
1665697118.01969194,398775848,1,0.7929186224937439,0.011231464333832264,-0.005220247898250818,0.6092016100883484
1665697118.11965203,398875808,1,0.792962908744812,0.011224964633584023,-0.005216262768954039,0.6091442108154297
1665697118.21966505,398975821,1,0.7929579019546509,0.011261616833508015,-0.005190743133425713,0.609150230884552
1665697118.31965494,399075811,1,0.7928794026374817,0.011254466138780117,-0.005202495958656073,0.6092524528503418
1665697118.41965294,399175809,1,0.7928069233894348,0.011281798593699932,-0.005176995415240526,0.6093464493751526
1665697118.51965809,399275814,1,0.792748212814331,0.011283054947853088,-0.005190158262848854,0.6094227433204651
1665697118.61965394,399375810,1,0.7927460074424744,0.011256791651248932,-0.005200888495892286,0.609425961971283
1665697118.71965909,399475815,1,0.7927564978599548,0.011270985938608646,-0.005186855792999268,0.6094121336936951
1665697118.81965899,399575815,1,0.7927852869033813,0.011259172111749649,-0.005210567731410265,0.6093747019767761
1665697118.91970205,399675858,1,0.7928457856178284,0.011270908638834953,-0.005189939867705107,0.6092959642410278
1665697119.01969600,399775852,1,0.7929316163063049,0.011304253712296486,-0.005203873850405216,0.6091835498809814
1665697119.11968899,399875845,1,0.792970597743988,0.011309205554425716,-0.005199955776333809,0.609132707118988
1665697119.21967602,399975832,1,0.7929967641830444,0.01127255242317915,-0.005156905855983496,0.6090996861457825
1665697119.31968093,400075837,1,0.7929909825325012,0.011243844404816628,-0.005130603443831205,0.6091079711914062
1665697119.41969800,400175854,1,0.7929331064224243,0.011267037130892277,-0.005122893024235964,0.6091830134391785
1665697119.51969409,400275850,1,0.7928916811943054,0.01129517424851656,-0.0050912536680698395,0.6092365980148315
1665697119.61968613,400375842,1,0.7928644418716431,0.011287309229373932,-0.005070219747722149,0.6092724204063416
1665697119.71965194,400475808,1,0.792857825756073,0.011305873282253742,-0.005100228823721409,0.6092804074287415
1665697119.81965804,400575814,1,0.7929245233535767,0.011303122155368328,-0.0050918832421302795,0.609193742275238
1665697119.91965604,400675812,1,0.7930353879928589,0.011331862770020962,-0.005098559428006411,0.6090487837791443
1665697120.01965594,400775812,1,0.793121874332428,0.011343802325427532,-0.005135066341608763,0.6089356541633606
1665697120.11965394,400875810,1,0.7931770086288452,0.011376597918570042,-0.005145107861608267,0.6088631749153137
1665697120.21965694,400975813,1,0.7932212948799133,0.01137690432369709,-0.005119518376886845,0.6088056564331055
1665697120.31965399,401075810,1,0.7931694388389587,0.011364675126969814,-0.005113709252327681,0.6088734865188599
1665697120.41965413,401175810,1,0.7930520176887512,0.011385631747543812,-0.005113636143505573,0.6090260744094849
1665697120.51969814,401275854,1,0.7929350733757019,0.011434618383646011,-0.0051007806323468685,0.6091774702072144
1665697120.61968207,401375838,1,0.7927767634391785,0.011476611718535423,-0.005064398981630802,0.6093829870223999
1665697120.71968699,401475843,1,0.7926539778709412,0.01152984332293272,-0.005076916888356209,0.6095415949821472
1665697120.81968307,401575839,1,0.7925555109977722,0.01153646968305111,-0.005061602219939232,0.6096696257591248
1665697120.91966796,401675824,1,0.7924628853797913,0.011572183109819889,-0.005032583139836788,0.6097895503044128
1665697121.01967311,401775829,1,0.7924131155014038,0.011561804451048374,-0.005022781435400248,0.609854519367218
1665697121.11968613,401875842,1,0.7924030423164368,0.011572138406336308,-0.005030270200222731,0.6098673939704895
1665697121.21965814,401975814,1,0.792422890663147,0.011553828604519367,-0.005008453503251076,0.6098421216011047
1665697121.31965399,402075810,1,0.7924231886863708,0.011556101962924004,-0.00498887849971652,0.6098418235778809
1665697121.41965508,402175811,1,0.7924246788024902,0.011573918163776398,-0.004970187786966562,0.6098397374153137
1665697121.51964998,402275806,1,0.7924026250839233,0.0115508446469903,-0.00494210422039032,0.6098690032958984
1665697121.61964297,402375799,1,0.7924204468727112,0.011553280986845493,-0.004914699122309685,0.6098460555076599
1665697121.71965003,402475806,1,0.7924143671989441,0.011536524631083012,-0.004938870668411255,0.6098541021347046
1665697121.81964612,402575802,1,0.7923443913459778,0.011578647419810295,-0.004950361791998148,0.6099441051483154
1665697121.91964507,402675801,1,0.7922478318214417,0.011608052998781204,-0.004959258250892162,0.6100689172744751
1665697122.01968503,402775841,1,0.7921791076660156,0.011611715890467167,-0.004947196692228317,0.6101580858230591
1665697122.11968207,402875838,1,0.7921660542488098,0.011630462482571602,-0.004882693290710449,0.6101752519607544
1665697122.21968293,402975839,1,0.7921964526176453,0.011685336008667946,-0.004878678359091282,0.6101347208023071
1665697122.31965494,403075811,1,0.7922633290290833,0.011716402135789394,-0.0048478273674845695,0.6100475788116455
1665697122.41967893,403175835,1,0.7924187183380127,0.01173107698559761,-0.0048186033964157104,0.6098456978797913
1665697122.51967502,403275831,1,0.7925828099250793,0.011728353798389435,-0.004789180122315884,0.6096327304840088
1665697122.61967897,403375835,1,0.7926555871963501,0.011720958165824413,-0.004718563053756952,0.609538733959198
1665697122.71968603,403475842,1,0.7927151322364807,0.01171149779111147,-0.004706698004156351,0.6094615459442139
1665697122.81963301,403575789,1,0.7927396893501282,0.011690018698573112,-0.004636194556951523,0.6094305515289307
1665697122.91964912,403675805,1,0.7927183508872986,0.01168754044920206,-0.004556700121611357,0.6094590425491333
1665697123.01964903,403775805,1,0.792697548866272,0.011674439534544945,-0.004499348811805248,0.6094866991043091
1665697123.11964798,403875804,1,0.7927126288414001,0.011703958734869957,-0.004477569833397865,0.6094667315483093
1665697123.21964598,403975802,1,0.7926861643791199,0.011722711846232414,-0.004445676226168871,0.6095010042190552
1665697123.31965899,404075815,1,0.7926374077796936,0.011744163930416107,-0.004381054546684027,0.609564483165741
1665697123.41965103,404175807,1,0.7926106452941895,0.011717675253748894,-0.004356397781521082,0.6095999479293823
1665697123.51966810,404275824,1,0.7926241159439087,0.011700503528118134,-0.004300078842788935,0.6095831990242004
1665697123.61968303,404375839,1,0.7926253080368042,0.011706742458045483,-0.004304609261453152,0.609581470489502
1665697123.71968508,404475841,1,0.7926208972930908,0.011733160354197025,-0.004296902101486921,0.6095867156982422
1665697123.81968498,404575841,1,0.7925904989242554,0.011728214100003242,-0.0043296292424201965,0.6096261143684387
1665697123.91967106,404675827,1,0.792525589466095,0.011734575033187866,-0.004315018653869629,0.6097104549407959
1665697124.01966405,404775820,1,0.7924991250038147,0.011722873896360397,-0.004308775067329407,0.6097451448440552
1665697124.11967611,404875832,1,0.7924955487251282,0.011735251173377037,-0.004343162290751934,0.6097493171691895
1665697124.21969104,404975847,1,0.7925022840499878,0.011740049347281456,-0.004377483390271664,0.6097401976585388
1665697124.31966400,405075820,1,0.7925152778625488,0.011744135059416294,-0.0043695829808712006,0.6097232699394226
1665697124.41965103,405175807,1,0.7925297021865845,0.011706406250596046,-0.004343742039054632,0.6097055077552795
1665697124.51965308,405275809,1,0.7925130724906921,0.011706915684044361,-0.004352457355707884,0.6097270250320435
1665697124.61965203,405375808,1,0.7924939393997192,0.011694995686411858,-0.004331568721681833,0.6097522974014282
1665697124.71964502,405475801,1,0.7924966216087341,0.011643920093774796,-0.004321596119552851,0.6097498536109924
1665697124.81964803,405575804,1,0.7925167679786682,0.011660859920084476,-0.004300410859286785,0.6097235083580017
1665697124.91965413,405675810,1,0.792608380317688,0.011639262549579144,-0.0043096221052110195,0.6096047759056091
1665697125.01966596,405775822,1,0.7926965355873108,0.011615212075412273,-0.004303834866732359,0.6094905734062195
1665697125.11967611,405875832,1,0.792782187461853,0.01156738493591547,-0.004310775548219681,0.6093800663948059
1665697125.21968007,405975836,1,0.7928413152694702,0.011562551371753216,-0.0043150875717401505,0.6093031167984009
1665697125.31968093,406075837,1,0.792901873588562,0.01154503133147955,-0.004297048319131136,0.609224796295166
1665697125.41969395,406175850,1,0.7929428219795227,0.01152876578271389,-0.004286596551537514,0.6091718673706055
1665697125.51967311,406275829,1,0.7930207848548889,0.011501064524054527,-0.004288701806217432,0.6090709567070007
1665697125.61966801,406375824,1,0.7930936813354492,0.011487211100757122,-0.004315902478992939,0.6089760065078735
1665697125.71968293,406475839,1,0.7931495308876038,0.011453757993876934,-0.004313869867473841,0.6089040040969849
1665697125.81968093,406575837,1,0.7931726574897766,0.011420107446610928,-0.004282487090677023,0.6088747382164001
1665697125.91962194,406675778,1,0.7932083010673523,0.011393286287784576,-0.004298598971217871,0.6088286638259888
1665697126.01966000,406775816,1,0.7932383418083191,0.011352598667144775,-0.004265693482011557,0.6087905168533325
1665697126.11964607,406875802,1,0.7932829856872559,0.01136773731559515,-0.004262594971805811,0.6087321043014526
1665697126.21964598,406975802,1,0.793312132358551,0.011386505328118801,-0.004275493323802948,0.6086936593055725
1665697126.31964898,407075805,1,0.7933295369148254,0.011376987211406231,-0.00431320583447814,0.6086708307266235
1665697126.41964698,407175803,1,0.7933195233345032,0.01139176543802023,-0.004352410789579153,0.6086833477020264
1665697126.51964998,407275806,1,0.7933014035224915,0.011386582627892494,-0.004384445957839489,0.6087068319320679
1665697126.61964607,407375802,1,0.793302595615387,0.011375464498996735,-0.0044055818580091,0.6087053418159485
1665697126.71967912,407475835,1,0.7932830452919006,0.011364713311195374,-0.004438747651875019,0.6087307929992676
1665697126.81968808,407575844,1,0.7932931184768677,0.011347558349370956,-0.004408577457070351,0.60871821641922
1665697126.91969514,407675851,1,0.7932654023170471,0.011348305270075798,-0.004407453816384077,0.6087542772293091
1665697127.01965809,407775814,1,0.7932092547416687,0.0113573232665658,-0.004405047744512558,0.6088273525238037
1665697127.11967993,407875836,1,0.7931891679763794,0.011365743353962898,-0.0044119153171777725,0.6088532209396362
1665697127.21968102,407975837,1,0.7931410670280457,0.011366608552634716,-0.004410001914948225,0.6089159846305847
1665697127.31968093,408075837,1,0.7930956482887268,0.01139975804835558,-0.004404869861900806,0.6089745163917542
1665697127.41969109,408175847,1,0.7930610775947571,0.011386014521121979,-0.00443996861577034,0.6090195178985596
1665697127.51964092,408275797,1,0.7930048108100891,0.01139291562139988,-0.004455850925296545,0.6090925335884094
1665697127.61967111,408375827,1,0.7929461002349854,0.011387410573661327,-0.004510647151619196,0.6091687083244324
1665697127.71965909,408475815,1,0.7928999662399292,0.011356666684150696,-0.004499716684222221,0.609229326248169
1665697127.81964397,408575800,1,0.7929346561431885,0.01138259842991829,-0.004531583283096552,0.6091834902763367
1665697127.91964602,408675802,1,0.7929914593696594,0.011381503194570541,-0.004514629021286964,0.60910964012146
1665697128.01964808,408775804,1,0.7930226922035217,0.01136330608278513,-0.0044730044901371,0.6090697050094604
1665697128.11963296,408875789,1,0.7930594682693481,0.011351910419762135,-0.004472824279218912,0.6090220212936401
1665697128.21964502,408975801,1,0.7930994033813477,0.011372145265340805,-0.00446443073451519,0.6089696884155273
1665697128.31969309,409075849,1,0.7930759191513062,0.011377609334886074,-0.0044422573409974575,0.6090003848075867
1665697128.41968298,409175839,1,0.7929660081863403,0.011351468972861767,-0.004425471182912588,0.6091440320014954
1665697128.51968193,409275838,1,0.7927894592285156,0.011346532963216305,-0.004468634724617004,0.6093735694885254
1665697128.61967301,409375829,1,0.7926487326622009,0.011325370520353317,-0.004471571184694767,0.6095569729804993
1665697128.71967006,409475826,1,0.7925698161125183,0.011331606656312943,-0.004483405500650406,0.6096593737602234
1665697128.81969714,409575853,1,0.7925564050674438,0.011345925740897655,-0.004467547405511141,0.609676718711853
1665697128.91967702,409675833,1,0.792584240436554,0.011328567750751972,-0.004429855849593878,0.6096410751342773
1665697129.01966906,409775825,1,0.7926092743873596,0.011319820769131184,-0.004444539546966553,0.6096085906028748
1665697129.11966205,409875818,1,0.7926055788993835,0.011334381997585297,-0.004433508031070232,0.6096132397651672
1665697129.21964812,409975804,1,0.7925902605056763,0.011345596052706242,-0.004427399951964617,0.6096329689025879
1665697129.31964993,410075806,1,0.7925753593444824,0.011382833123207092,-0.004395599942654371,0.6096518635749817
1665697129.41965508,410175811,1,0.7926035523414612,0.011418667621910572,-0.0043621058575809,0.6096147894859314
1665697129.51964903,410275805,1,0.7926480174064636,0.011454020626842976,-0.004363026469945908,0.6095563173294067
1665697129.61965799,410375814,1,0.7926726937294006,0.011452184058725834,-0.004354158416390419,0.6095243096351624
1665697129.71965194,410475808,1,0.7926326990127563,0.011492989026010036,-0.004350796341896057,0.6095755696296692
1665697129.81968093,410575837,1,0.7926207780838013,0.011520731262862682,-0.004359587095677853,0.609590470790863
1665697129.91968703,410675843,1,0.7926137447357178,0.011516045778989792,-0.00439097685739398,0.6095994710922241
1665697130.01968694,410775843,1,0.792600691318512,0.011512589640915394,-0.0044045038521289825,0.6096164584159851
1665697130.11965704,410875813,1,0.7926075458526611,0.011472596786916256,-0.00441380962729454,0.6096081733703613
1665697130.21968412,410975840,1,0.7926384210586548,0.011501854285597801,-0.004413016140460968,0.6095675230026245
1665697130.31967497,411075831,1,0.7926638722419739,0.011500224471092224,-0.0044243247248232365,0.6095343232154846
1665697130.41969109,411175847,1,0.7926931977272034,0.011491728946566582,-0.004420704673975706,0.6094964146614075
1665697130.51969004,411275846,1,0.792725682258606,0.011516383849084377,-0.004390731919556856,0.6094538569450378
1665697130.61963010,411375786,1,0.7927471399307251,0.011531873606145382,-0.004372166004031897,0.6094258427619934
1665697130.71966100,411475817,1,0.7927350401878357,0.011506388895213604,-0.004390453454107046,0.6094419956207275
1665697130.81965399,411575810,1,0.7927423119544983,0.011498668231070042,-0.0043867602944374084,0.6094326376914978
1665697130.91965008,411675806,1,0.7926992774009705,0.011491060256958008,-0.004408034961670637,0.6094886064529419
1665697131.01965809,411775814,1,0.7927030324935913,0.011497484520077705,-0.004429575055837631,0.6094834804534912
1665697131.11965299,411875809,1,0.7926860451698303,0.011489295400679111,-0.004433983005583286,0.6095057129859924
1665697131.21965909,411975815,1,0.7926685810089111,0.01146716345101595,-0.00447157584130764,0.6095285415649414
1665697131.31964993,412075806,1,0.792692244052887,0.011462622322142124,-0.004531092010438442,0.6094974279403687
1665697131.41968799,412175844,1,0.7927494645118713,0.011458787135779858,-0.004542445298284292,0.6094229221343994
1665697131.51969194,412275848,1,0.7928053140640259,0.011449525132775307,-0.00449164304882288,0.6093509197235107
1665697131.61968803,412375844,1,0.792900800704956,0.011424957774579525,-0.004440618678927422,0.6092274785041809
1665697131.71967411,412475830,1,0.7930362820625305,0.011413883417844772,-0.0044089690782129765,0.6090514659881592
1665697131.81968403,412575840,1,0.7931984663009644,0.011413968168199062,-0.004402905702590942,0.6088403463363647
1665697131.91969299,412675849,1,0.7933415174484253,0.011408341117203236,-0.004392833914607763,0.6086540818214417
1665697132.01969600,412775852,1,0.7934398651123047,0.01138876099139452,-0.0043970802798867226,0.6085261702537537
1665697132.11968803,412875844,1,0.7935337424278259,0.01140983123332262,-0.004357999190688133,0.6084036827087402
1665697132.21964812,412975804,1,0.7935871481895447,0.011391500942409039,-0.004353218711912632,0.6083344221115112
1665697132.31965208,413075808,1,0.7936199903488159,0.011406971141695976,-0.004351614508777857,0.6082912683486938
1665697132.41965199,413175808,1,0.7936316132545471,0.011368924751877785,-0.004372097086161375,0.6082767248153687
1665697132.51965809,413275814,1,0.7936554551124573,0.011355210095643997,-0.00437541538849473,0.6082457304000854
1665697132.61966109,413375817,1,0.7937057018280029,0.011312347836792469,-0.00439812894910574,0.6081808805465698
1665697132.71965313,413475809,1,0.7938246130943298,0.011324074119329453,-0.004411089699715376,0.608025312423706
1665697132.81966710,413575823,1,0.7940226793289185,0.011282249353826046,-0.0043790461495518684,0.6077677011489868
1665697132.91968608,413675842,1,0.7941843271255493,0.011294104158878326,-0.004401914309710264,0.6075560450553894
1665697133.01968193,413775838,1,0.7943397164344788,0.011321752332150936,-0.004409607965499163,0.6073522567749023
1665697133.11969614,413875852,1,0.7944607138633728,0.011323163285851479,-0.004429962020367384,0.6071937680244446
1665697133.21970701,413975863,1,0.794509768486023,0.01131407730281353,-0.0044072349555790424,0.6071299314498901
1665697133.31968212,414075838,1,0.7945421934127808,0.011356103233993053,-0.004405927378684282,0.6070867776870728
1665697133.41966915,414175825,1,0.7945449352264404,0.011366213671863079,-0.004409489221870899,0.6070829629898071
1665697133.51968193,414275838,1,0.79451984167099,0.01136523112654686,-0.004396524745970964,0.6071159243583679
1665697133.61967993,414375836,1,0.7944825887680054,0.011382609605789185,-0.0043897428549826145,0.6071643829345703
1665697133.71965909,414475815,1,0.7943863272666931,0.011382709257304668,-0.004404895473271608,0.6072902083396912
1665697133.81964707,414575803,1,0.794306218624115,0.01139291375875473,-0.004413274582475424,0.6073947548866272
1665697133.91965699,414675813,1,0.7942255735397339,0.011370204389095306,-0.004386684857308865,0.6075007915496826
1665697134.01965308,414775809,1,0.7941539883613586,0.011366993188858032,-0.004389224573969841,0.6075944304466248
1665697134.11964703,414875803,1,0.7940723896026611,0.011365114711225033,-0.004391136113554239,0.6077010631561279
1665697134.21964693,414975803,1,0.793964147567749,0.011382123455405235,-0.004405130632221699,0.6078420877456665
1665697134.31964898,415075805,1,0.7939025163650513,0.011419395916163921,-0.004396622069180012,0.6079219579696655
1665697134.41966605,415175822,1,0.7938958406448364,0.011396470479667187,-0.004385156091302633,0.6079311370849609
1665697134.51968002,415275836,1,0.7938860654830933,0.011373575776815414,-0.004377130884677172,0.6079443693161011
1665697134.61968303,415375839,1,0.7938642501831055,0.011410659179091454,-0.004421452526003122,0.6079718470573425
1665697134.71967912,415475835,1,0.7938110828399658,0.011408588849008083,-0.004427958745509386,0.6080412864685059
1665697134.81966615,415575822,1,0.7937318086624146,0.011409387923777103,-0.004427697975188494,0.6081447601318359
1665697134.91965508,415675811,1,0.7936557531356812,0.011395866982638836,-0.004442424979060888,0.6082441210746765
1665697135.01967192,415775828,1,0.7935644388198853,0.011377088725566864,-0.004433429334312677,0.608363687992096
1665697135.11969113,415875847,1,0.7935248613357544,0.011380944401025772,-0.004439392127096653,0.6084151864051819
1665697135.21968007,415975836,1,0.7934837341308594,0.011373131535947323,-0.004434979986399412,0.6084690093994141
1665697135.31963611,416075792,1,0.7934339046478271,0.011356813833117485,-0.0044162399135529995,0.6085344552993774
1665697135.41965199,416175808,1,0.7933701276779175,0.011342675425112247,-0.004391759634017944,0.6086180210113525
1665697135.51964712,416275803,1,0.7932692170143127,0.01134420931339264,-0.004408210050314665,0.6087494492530823
1665697135.61964393,416375800,1,0.7931853532791138,0.011316982097923756,-0.004413480870425701,0.608859121799469
1665697135.71965694,416475813,1,0.7931102514266968,0.011295340955257416,-0.004452706780284643,0.6089571118354797
1665697135.81964707,416575803,1,0.793078601360321,0.011318827979266644,-0.004486047197133303,0.608997642993927
1665697135.91965008,416675806,1,0.7931228280067444,0.011255097575485706,-0.004484681878238916,0.6089411973953247
1665697136.01967096,416775827,1,0.7931827306747437,0.011239590123295784,-0.004530332051217556,0.608863115310669
1665697136.11969304,416875849,1,0.7932267785072327,0.011239686980843544,-0.004512975458055735,0.6088058352470398
1665697136.21968603,416975842,1,0.7932865619659424,0.011239632032811642,-0.004520988091826439,0.6087279319763184
1665697136.31966209,417075818,1,0.7933490872383118,0.011251662857830524,-0.00454889889806509,0.6086459755897522
1665697136.41966915,417175825,1,0.7934386730194092,0.011263199150562286,-0.004547263495624065,0.6085289716720581
1665697136.51968098,417275837,1,0.7935459017753601,0.01124811451882124,-0.0045381090603768826,0.6083894968032837
1665697136.61966991,417375826,1,0.793655276298523,0.011268445290625095,-0.004536123480647802,0.6082464456558228
1665697136.71968007,417475836,1,0.7937257885932922,0.011293652467429638,-0.004497740417718887,0.6081542372703552
1665697136.81964707,417575803,1,0.7937781810760498,0.011311073787510395,-0.004539066459983587,0.6080852150917053
1665697136.91964698,417675803,1,0.7938199043273926,0.011300352402031422,-0.004544565454125404,0.6080309748649597
1665697137.01965308,417775809,1,0.7938187122344971,0.011301578022539616,-0.004542769398540258,0.6080324649810791
1665697137.11965394,417875810,1,0.7938079237937927,0.011286182329058647,-0.004546801559627056,0.60804682970047
1665697137.21964598,417975802,1,0.7938000559806824,0.01125894021242857,-0.004572226665914059,0.60805743932724
1665697137.31964612,418075802,1,0.7938200831413269,0.01125702541321516,-0.004602241795510054,0.6080310344696045
1665697137.41964793,418175804,1,0.7938759922981262,0.011232462711632252,-0.004605732858181,0.6079584956169128
1665697137.51964498,418275801,1,0.7939130663871765,0.011204327456653118,-0.004615803249180317,0.6079105138778687
1665697137.61966991,418375826,1,0.7939032316207886,0.011152843944728374,-0.004640887025743723,0.6079241633415222
1665697137.71968603,418475842,1,0.7938668727874756,0.011135722510516644,-0.0046491618268191814,0.6079718470573425
1665697137.81967592,418575832,1,0.793813169002533,0.01116105169057846,-0.004635537043213844,0.6080416440963745
1665697137.91965199,418675808,1,0.7937459945678711,0.011140411719679832,-0.004627020098268986,0.6081296801567078
1665697138.01968098,418775837,1,0.7937018275260925,0.011137032881379128,-0.0046277130022645,0.6081874370574951
1665697138.11968708,418875843,1,0.7936906814575195,0.011127178557217121,-0.004607779905200005,0.6082022786140442
1665697138.21968603,418975842,1,0.7936974167823792,0.011115788482129574,-0.004572170786559582,0.6081939935684204
1665697138.31968713,419075843,1,0.7936694025993347,0.01112757995724678,-0.004529662895947695,0.608230710029602
1665697138.41963005,419175786,1,0.7936486601829529,0.011157774366438389,-0.004545909818261862,0.608256995677948
1665697138.51965308,419275809,1,0.7936583161354065,0.011170664802193642,-0.004531518090516329,0.6082443594932556
1665697138.61965108,419375807,1,0.7936943173408508,0.01118308212608099,-0.00449714157730341,0.6081973910331726
1665697138.71965814,419475814,1,0.7937237620353699,0.011159582994878292,-0.00446306774392724,0.6081596612930298
1665697138.81965399,419575810,1,0.793716549873352,0.011175806634128094,-0.004449486266821623,0.6081688404083252
1665697138.91964793,419675804,1,0.7936696410179138,0.01116626150906086,-0.004445621278136969,0.6082302927970886
1665697139.01964808,419775804,1,0.793633222579956,0.011191789992153645,-0.004437528550624847,0.6082773208618164
1665697139.11965108,419875807,1,0.793602466583252,0.011205310933291912,-0.0044339909218251705,0.6083172559738159
1665697139.21969295,419975849,1,0.7936411499977112,0.011203157715499401,-0.004391056019812822,0.6082671284675598
1665697139.31969714,420075853,1,0.7936811447143555,0.011173048056662083,-0.004400495905429125,0.6082153916358948
1665697139.41968894,420175845,1,0.7937699556350708,0.011163651943206787,-0.00438144663348794,0.6080998182296753
1665697139.51966596,420275822,1,0.7938772439956665,0.01117026712745428,-0.004403178580105305,0.607959508895874
1665697139.61968613,420375842,1,0.7940329909324646,0.011148952879011631,-0.004397687502205372,0.607756495475769
1665697139.71968699,420475843,1,0.7941787242889404,0.01115765143185854,-0.004384747240692377,0.6075660586357117
1665697139.81967807,420575834,1,0.7942888140678406,0.011160613968968391,-0.004367915913462639,0.6074221134185791
1665697139.91969395,420675850,1,0.7943442463874817,0.011123391799628735,-0.004366695415228605,0.6073503494262695
1665697140.01964498,420775801,1,0.7943934202194214,0.011119446717202663,-0.004346509464085102,0.6072862148284912
1665697140.11965108,420875807,1,0.7944225668907166,0.011112520471215248,-0.004334294702857733,0.6072483062744141
1665697140.21965313,420975809,1,0.7944061756134033,0.01112437341362238,-0.0043277139775455,0.6072695851325989
1665697140.31965113,421075807,1,0.7943854331970215,0.01114017702639103,-0.00429582642391324,0.6072966456413269
1665697140.41965199,421175808,1,0.7943783402442932,0.011156332679092884,-0.004260343033820391,0.6073058843612671
1665697140.51965499,421275811,1,0.7944105863571167,0.011164744384586811,-0.0042655738070607185,0.6072635054588318
1665697140.61965299,421375809,1,0.7944609522819519,0.011143798008561134,-0.004264601971954107,0.6071980595588684
1665697140.71965814,421475814,1,0.7944939136505127,0.011124021373689175,-0.004267012234777212,0.6071552634239197
1665697140.81969500,421575851,1,0.7944938540458679,0.011123101226985455,-0.004231824539601803,0.6071555614471436
1665697140.91970015,421675856,1,0.7945218086242676,0.011095044203102589,-0.004225874785333872,0.6071195602416992
1665697141.01968813,421775844,1,0.7945681214332581,0.011055311188101768,-0.0042050848715007305,0.6070598363876343
1665697141.11968303,421875839,1,0.7946784496307373,0.011005427688360214,-0.004191256128251553,0.6069163680076599
1665697141.21966505,421975821,1,0.7947577834129333,0.011025571264326572,-0.004200212191790342,0.606812059879303
1665697141.31968498,422075841,1,0.7948148846626282,0.011015335097908974,-0.004202775191515684,0.6067374348640442
1665697141.41969395,422175850,1,0.794836699962616,0.011011376045644283,-0.004189702216535807,0.6067090034484863
1665697141.51965594,422275812,1,0.7948427200317383,0.010988421738147736,-0.004209800623357296,0.6067014336585999
1665697141.61965394,422375810,1,0.7948333621025085,0.011000429280102253,-0.004188496619462967,0.606713593006134
1665697141.71965814,422475814,1,0.7948169112205505,0.011013103649020195,-0.004211848136037588,0.6067347526550293
1665697141.81965303,422575809,1,0.794810950756073,0.011078423820436,-0.004213562700897455,0.6067413687705994
1665697141.91965103,422675807,1,0.794800877571106,0.011082577519118786,-0.004234785214066505,0.6067543029785156
1665697142.01965809,422775814,1,0.7948154807090759,0.01108770351856947,-0.004224298056215048,0.6067351698875427
1665697142.11965203,422875808,1,0.7948363423347473,0.011104164645075798,-0.004194123670458794,0.606707751750946
1665697142.21966696,422975823,1,0.7948803305625916,0.011086462065577507,-0.004173992667347193,0.6066505908966064
1665697142.31968498,423075841,1,0.7949012517929077,0.011094233021140099,-0.004155813716351986,0.6066231727600098
1665697142.41969609,423175852,1,0.7949151396751404,0.011130847036838531,-0.004125129897147417,0.6066044569015503
1665697142.51968908,423275845,1,0.7949509024620056,0.011163439601659775,-0.00410842290148139,0.6065571308135986
1665697142.61965895,423375815,1,0.7949559092521667,0.011160359717905521,-0.004103453829884529,0.6065506339073181
1665697142.71967602,423475832,1,0.7949383854866028,0.011171943508088589,-0.004106082487851381,0.6065734028816223
1665697142.81968498,423575841,1,0.7949139475822449,0.011198331601917744,-0.004116587806493044,0.6066048741340637
1665697142.91967702,423675833,1,0.7949085235595703,0.011224783957004547,-0.0041109598241746426,0.6066115498542786
1665697143.01968312,423775839,1,0.794884979724884,0.011236225254833698,-0.004128435160964727,0.6066420674324036
1665697143.11964202,423875798,1,0.7949119210243225,0.0112502695992589,-0.004137047100812197,0.6066064238548279
1665697143.21965313,423975809,1,0.7949878573417664,0.011301987804472446,-0.0041307974606752396,0.6065059304237366
1665697143.31965208,424075808,1,0.7950648665428162,0.011311991140246391,-0.0041989777237176895,0.6064044237136841
1665697143.41965294,424175809,1,0.7951139807701111,0.011345325969159603,-0.004221866372972727,0.606339156627655
1665697143.51965094,424275807,1,0.7951645851135254,0.011353668756783009,-0.004222810734063387,0.6062726378440857
1665697143.61965108,424375807,1,0.795216977596283,0.011360661126673222,-0.0042148432694375515,0.6062038540840149
1665697143.71967411,424475830,1,0.7952486276626587,0.01140575297176838,-0.004199502523988485,0.6061615943908691
1665697143.81964707,424575803,1,0.7953009009361267,0.011411597020924091,-0.004200178198516369,0.6060929298400879
1665697143.91967607,424675832,1,0.7953447699546814,0.011407848447561264,-0.004202024079859257,0.6060354113578796
1665697144.01967812,424775834,1,0.7953490614891052,0.011448796838521957,-0.004179956391453743,0.6060291528701782
1665697144.11968207,424875838,1,0.7953658699989319,0.011476969346404076,-0.004166869446635246,0.6060066819190979
1665697144.21967292,424975829,1,0.7953947186470032,0.011498716659843922,-0.004184185527265072,0.6059682369232178
1665697144.31968093,425075837,1,0.7954210042953491,0.011463205330073833,-0.004174910020083189,0.6059344410896301
1665697144.41967106,425175827,1,0.7954420447349548,0.01146971620619297,-0.004188671708106995,0.6059066653251648
1665697144.51968098,425275837,1,0.795439600944519,0.011466613970696926,-0.004162956494837999,0.605910062789917
1665697144.61970115,425375857,1,0.7954545617103577,0.011461695656180382,-0.004175219219177961,0.6058904528617859
1665697144.71974802,425475904,1,0.795464813709259,0.01141455490142107,-0.0041944668628275394,0.6058777570724487
1665697144.81965208,425575808,1,0.7955094575881958,0.011399341747164726,-0.004179710987955332,0.6058195233345032
1665697144.91964793,425675804,1,0.7955500483512878,0.011392303742468357,-0.004156789742410183,0.6057665348052979
1665697145.01964593,425775802,1,0.7955811619758606,0.0114035215228796,-0.004180047661066055,0.6057252287864685
1665697145.11965013,425875806,1,0.7956535220146179,0.011417717672884464,-0.004164175130426884,0.6056300401687622
1665697145.21964693,425975803,1,0.7957584261894226,0.01142328605055809,-0.004158047493547201,0.605492115020752
1665697145.31967402,426075830,1,0.7958472371101379,0.011411843821406364,-0.004174388945102692,0.6053755283355713
1665697145.41966701,426175823,1,0.7959092259407043,0.011406813748180866,-0.0041711111553013325,0.6052941679954529
1665697145.51967001,426275826,1,0.795930802822113,0.011386147700250149,-0.004197846166789532,0.6052659153938293
1665697145.61967802,426375834,1,0.7959303259849548,0.01140367891639471,-0.004215180408209562,0.6052661538124084
1665697145.71965504,426475811,1,0.7959292531013489,0.011410145089030266,-0.0042494917288422585,0.6052672266960144
1665697145.81967211,426575828,1,0.7959240674972534,0.011403237469494343,-0.004258126951754093,0.6052740812301636
1665697145.91967511,426675831,1,0.7959239482879639,0.01140147540718317,-0.004250292666256428,0.6052743196487427
1665697146.01967907,426775835,1,0.7959652543067932,0.01139669306576252,-0.004245258867740631,0.6052201390266418
1665697146.11968398,426875840,1,0.7960163950920105,0.01138390600681305,-0.004235727712512016,0.6051532030105591
1665697146.21962714,426975783,1,0.7960798740386963,0.011346861720085144,-0.004226264078170061,0.6050704121589661
1665697146.31965113,427075807,1,0.7960861325263977,0.011341182515025139,-0.004240925423800945,0.6050621867179871
1665697146.41964793,427175804,1,0.7960201501846313,0.011331119574606419,-0.004235576838254929,0.6051492094993591
1665697146.51965094,427275807,1,0.7959146499633789,0.01131768524646759,-0.0042757997289299965,0.6052879095077515
1665697146.61965013,427375806,1,0.7957605719566345,0.011306372471153736,-0.004273912403732538,0.6054907441139221
1665697146.71966314,427475819,1,0.7955857515335083,0.011273707263171673,-0.004250629339367151,0.6057211756706238
1665697146.81964993,427575806,1,0.7954521775245667,0.011239700019359589,-0.004241946619004011,0.6058973073959351
1665697146.91965008,427675806,1,0.7953714728355408,0.011225705966353416,-0.00423129927366972,0.6060035228729248
1665697147.01968598,427775842,1,0.795289158821106,0.011212877929210663,-0.004227058030664921,0.6061118841171265
1665697147.11968398,427875840,1,0.7952033281326294,0.011169319972395897,-0.004232129082083702,0.6062251925468445
1665697147.21968913,427975845,1,0.795137345790863,0.011192845180630684,-0.0042288657277822495,0.6063113808631897
1665697147.31966305,428075819,1,0.7950729727745056,0.011162242852151394,-0.00421978859230876,0.6063963770866394
1665697147.41966796,428175824,1,0.795023500919342,0.011181561276316643,-0.004199647344648838,0.6064609885215759
1665697147.51969814,428275854,1,0.7949441075325012,0.01114541944116354,-0.004198038950562477,0.6065657138824463
1665697147.61967611,428375832,1,0.7948712706565857,0.011154228821396828,-0.004190461244434118,0.6066611409187317
1665697147.71968508,428475841,1,0.7948073744773865,0.011151744984090328,-0.0041895764879882336,0.6067448258399963
1665697147.81963801,428575794,1,0.79477459192276,0.011142096482217312,-0.00420741131529212,0.6067878603935242
1665697147.91965508,428675811,1,0.7947096228599548,0.011125028133392334,-0.004227279219776392,0.606873095035553
1665697148.01964808,428775804,1,0.7946744561195374,0.011118927039206028,-0.004296023864299059,0.6069188117980957
1665697148.11964607,428875802,1,0.7946906685829163,0.011083235964179039,-0.004315038211643696,0.6068981289863586
1665697148.21965694,428975813,1,0.7947092056274414,0.011092106811702251,-0.004332904238253832,0.6068735718727112
1665697148.31964898,429075805,1,0.7947387099266052,0.011111347004771233,-0.0043428754433989525,0.6068344712257385
1665697148.41962695,429175783,1,0.7947533130645752,0.011095896363258362,-0.0043547614477574825,0.6068155169487
1665697148.51969314,429275849,1,0.7947655916213989,0.011109760031104088,-0.0043469928205013275,0.6067991852760315
1665697148.61969304,429375849,1,0.7947720885276794,0.011123986914753914,-0.004348622635006905,0.6067904829978943
1665697148.71968412,429475840,1,0.7947647571563721,0.011160532012581825,-0.00433307932689786,0.6067994832992554
1665697148.81967998,429575836,1,0.7947514057159424,0.011152239516377449,-0.004287631716579199,0.6068174839019775
1665697148.91967106,429675827,1,0.7947757244110107,0.011160069145262241,-0.004271065816283226,0.6067855358123779
1665697149.01965594,429775812,1,0.7948027849197388,0.011159742251038551,-0.004250706173479557,0.6067502498626709
1665697149.11967897,429875835,1,0.7948330640792847,0.01119321957230568,-0.004229429177939892,0.6067101955413818
1665697149.21965814,429975814,1,0.794858455657959,0.011184231378138065,-0.004211244639009237,0.606677234172821
1665697149.31965995,430075816,1,0.794880747795105,0.011199429631233215,-0.004193776752799749,0.6066478490829468
1665697149.41964912,430175805,1,0.7949020266532898,0.01122317835688591,-0.00421425374224782,0.6066194176673889
1665697149.51964712,430275803,1,0.7949309349060059,0.011258670128881931,-0.004219469148665667,0.6065807938575745
