timestamp,TimeUS,C,Roll,Pitch,Yaw,VN,VE,VD,dPD,PN,PE,PD,GX,GY,GZ,OH
1665697096.41964912,377175805,1,0.55,-1.36,75.56,-0.04010161757469177,-0.020633338019251823,-0.057870395481586456,-0.06912389397621155,1.852022409439087,-0.20729473233222961,-0.09488563984632492,0.61,-0.24,-0.19,278.63
1665697096.51964903,377275805,1,0.55,-1.36,75.55,-0.04061794653534889,-0.022010259330272675,-0.05828233063220978,-0.06839022785425186,1.84342360496521,-0.21098461747169495,-0.10215185582637787,0.61,-0.24,-0.19,278.63
1665697096.61965513,377375811,1,0.55,-1.36,75.53,-0.03997263312339783,-0.023257741704583168,-0.05902114138007164,-0.06974636018276215,1.8354820013046265,-0.21468037366867065,-0.10926921665668488,0.61,-0.24,-0.19,278.63
1665697096.71965098,377475807,1,0.56,-1.35,75.53,-0.039796244353055954,-0.023094719275832176,-0.05949106439948082,-0.06632943451404572,1.8276439905166626,-0.2185145616531372,-0.11582990735769272,0.61,-0.24,-0.19,278.63
1665697096.81966114,377575817,1,0.56,-1.36,75.52,-0.03926445543766022,-0.02387116476893425,-0.058457594364881516,-0.04567619785666466,1.820427656173706,-0.22242777049541473,-0.11998073011636734,0.61,-0.24,-0.19,278.63
1665697096.91964793,377675804,1,0.56,-1.36,75.51,-0.036842115223407745,-0.024059725925326347,-0.056551944464445114,-0.014567729085683823,1.813602328300476,-0.22659847140312195,-0.12228251993656158,0.61,-0.24,-0.19,278.63
1665697097.01967001,377775826,1,0.56,-1.36,75.49,-0.03447657451033592,-0.022135760635137558,-0.05523718520998955,-0.009195351973176003,1.8072649240493774,-0.22984983026981354,-0.12385793030261993,0.61,-0.24,-0.19,278.63
1665697097.11969304,377875849,1,0.56,-1.36,75.48,-0.031129904091358185,-0.017946215346455574,-0.052902672439813614,0.006308344192802906,1.8010873794555664,-0.23181870579719543,-0.1242312490940094,0.61,-0.24,-0.19,278.63
1665697097.21967793,377975834,1,0.56,-1.36,75.47,-0.027402101084589958,-0.014371585100889206,-0.05085000395774841,0.00809473730623722,1.795724630355835,-0.23388999700546265,-0.12381690740585327,0.61,-0.24,-0.19,278.63
1665697097.31965995,378075816,1,0.56,-1.36,75.47,-0.023113850504159927,-0.012230164371430874,-0.0485607348382473,0.026204906404018402,1.790871024131775,-0.23642240464687347,-0.12201999127864838,0.62,-0.24,-0.19,278.63
1665697097.41966105,378175817,1,0.56,-1.36,75.46000000000001,-0.017405938357114792,-0.010814875364303589,-0.04653361812233925,0.01920630969107151,1.786912202835083,-0.23892273008823395,-0.12084396928548813,0.62,-0.24,-0.19,278.63
1665697097.51967406,378275830,1,0.56,-1.36,75.46000000000001,-0.011719916015863419,-0.009108052588999271,-0.04504895210266113,0.013825123198330402,1.783601999282837,-0.24180901050567627,-0.12006086856126785,0.62,-0.24,-0.19,278.63
1665697097.61968303,378375839,1,0.56,-1.35,75.44,-0.007933445274829865,-0.008935874328017235,-0.04305320233106613,0.0023344506043940783,1.7795474529266357,-0.24531090259552002,-0.11976321786642075,0.62,-0.24,-0.19,278.63
1665697097.71968412,378475840,1,0.56,-1.35,75.42,-0.007869805209338665,-0.011065796948969364,-0.0415625162422657,0.0015324980486184359,1.773356556892395,-0.2502474784851074,-0.11960948258638382,0.62,-0.24,-0.19,278.63
1665697097.81962395,378575780,1,0.56,-1.35,75.38,-0.007166867144405842,-0.011056077666580677,-0.04003719612956047,-0.0035499061923474073,1.7676063776016235,-0.2546344995498657,-0.11965734511613846,0.62,-0.24,-0.19,278.63
1665697097.91965604,378675812,1,0.56,-1.35,75.36,-0.004650485701858997,-0.009751449339091778,-0.038167450577020645,0.0007150048622861505,1.7619168758392334,-0.25841057300567627,-0.11961622536182404,0.62,-0.24,-0.19,278.63
1665697098.01965308,378775809,1,0.5700000000000001,-1.35,75.34,-0.0024608569219708443,-0.007973025552928448,-0.03647301718592644,-0.007081541232764721,1.757582664489746,-0.2612277865409851,-0.12041482329368591,0.62,-0.24,-0.19,278.63
1665697098.11964798,378875804,1,0.5700000000000001,-1.34,75.33,-0.0007532067247666419,-0.004336587619036436,-0.036140911281108856,-0.017289217561483383,1.7518404722213745,-0.2634741961956024,-0.12201790511608124,0.62,-0.24,-0.19,278.63
1665697098.21964812,378975804,1,0.5700000000000001,-1.35,75.32000000000001,0.000546604220289737,-0.0013046660460531712,-0.034363750368356705,-0.02350584603846073,1.7474613189697266,-0.2649693787097931,-0.12386278808116913,0.62,-0.24,-0.19,278.63
1665697098.31965399,379075810,1,0.56,-1.35,75.32000000000001,0.0009107380174100399,0.0008186593768186867,-0.03242417797446251,-0.004909851588308811,1.7411658763885498,-0.2676822543144226,-0.1238347589969635,0.62,-0.24,-0.19,278.63
1665697098.41965413,379175810,1,0.5700000000000001,-1.34,75.31,0.0009048903011716902,0.002889994066208601,-0.030705390498042107,-0.005961703136563301,1.734939455986023,-0.2701166272163391,-0.1248413473367691,0.62,-0.24,-0.19,278.63
1665697098.51965809,379275814,1,0.5700000000000001,-1.34,75.32000000000001,-0.0010884478688240051,0.004891481250524521,-0.02925930544734001,-0.013219269923865795,1.7276767492294312,-0.27268341183662415,-0.12624119222164154,0.62,-0.24,-0.19,278.63
1665697098.61968994,379375846,1,0.5700000000000001,-1.34,75.33,-0.0015039090067148209,0.006318895611912012,-0.02769029326736927,-0.008623641915619373,1.7213373184204102,-0.27487948536872864,-0.12666748464107513,0.62,-0.24,-0.19,278.63
1665697098.71969104,379475847,1,0.5700000000000001,-1.33,75.34,-0.0015317706856876612,0.00791268702596426,-0.025081899017095566,0.006132299546152353,1.7154661417007446,-0.2770809531211853,-0.12628458440303802,0.62,-0.24,-0.19,278.63
1665697098.81968093,379575837,1,0.5700000000000001,-1.33,75.35000000000001,-0.002416620496660471,0.008546032942831516,-0.024225084111094475,-0.0003958734741900116,1.7093673944473267,-0.27993345260620117,-0.12689946591854095,0.62,-0.24,-0.19,278.63
1665697098.91967297,379675829,1,0.5700000000000001,-1.33,75.34,-0.004247098695486784,0.006419757846742868,-0.023259678855538368,-0.013431304134428501,1.7021135091781616,-0.2843742370605469,-0.12827752530574799,0.62,-0.24,-0.19,278.63
1665697099.01969409,379775850,1,0.5700000000000001,-1.33,75.34,-0.005785543937236071,0.00517437607049942,-0.02254777029156685,-0.02224515751004219,1.695015549659729,-0.28884467482566833,-0.13040907680988312,0.62,-0.24,-0.19,278.63
1665697099.11969304,379875849,1,0.5700000000000001,-1.33,75.33,-0.007753419224172831,0.0036407634615898132,-0.021549347788095474,-0.03163963556289673,1.6871412992477417,-0.2939010262489319,-0.13318824768066406,0.62,-0.24,-0.19,278.63
1665697099.21969104,379975847,1,0.58,-1.33,75.33,-0.009065642952919006,0.0037409374490380287,-0.02147197723388672,-0.03708880767226219,1.6800304651260376,-0.2980956733226776,-0.13655994832515717,0.62,-0.24,-0.19,278.63
1665697099.31969714,380075853,1,0.58,-1.32,75.33,-0.008769046515226364,0.004401753190904856,-0.02178988792002201,-0.03860780969262123,1.6731680631637573,-0.3015936017036438,-0.13983601331710815,0.62,-0.24,-0.19,278.63
1665697099.41964793,380175804,1,0.58,-1.32,75.34,-0.008343953639268875,0.00556418439373374,-0.022301826626062393,-0.03307609632611275,1.6669559478759766,-0.304816871881485,-0.14284400641918182,0.62,-0.24,-0.19,278.63
1665697099.51966214,380275818,1,0.58,-1.32,75.34,-0.009524733759462833,0.006498328410089016,-0.022593408823013306,-0.02931085228919983,1.6607029438018799,-0.30818483233451843,-0.145648792386055,0.62,-0.24,-0.19,278.63
1665697099.61965513,380375811,1,0.58,-1.32,75.34,-0.008847774937748909,0.006972707342356443,-0.022534873336553574,-0.024732915684580803,1.6552178859710693,-0.3117624819278717,-0.14810161292552948,0.62,-0.24,-0.19,278.63
1665697099.71966600,380475822,1,0.58,-1.32,75.36,-0.007469030562788248,0.006187544669955969,-0.022115902975201607,-0.02221081405878067,1.650093674659729,-0.31627097725868225,-0.15052412450313568,0.62,-0.24,-0.19,278.63
1665697099.81965804,380575814,1,0.58,-1.31,75.38,-0.006323177833110094,0.006023281253874302,-0.021871868520975113,-0.024438371881842613,1.6453547477722168,-0.32093337178230286,-0.15297257900238037,0.62,-0.24,-0.19,278.63
1665697099.91965413,380675810,1,0.59,-1.31,75.39,-0.005530861206352711,0.004469861276447773,-0.02108762599527836,-0.024367330595850945,1.640416145324707,-0.32649534940719604,-0.15560761094093323,0.62,-0.24,-0.19,278.63
1665697100.01964211,380775798,1,0.59,-1.31,75.4,-0.005036927293986082,0.004471209365874529,-0.02109183557331562,-0.031633585691452026,1.635536551475525,-0.33155757188796997,-0.15876702964305878,0.62,-0.24,-0.19,278.63
1665697100.11965704,380875813,1,0.59,-1.31,75.4,-0.004765957593917847,0.0042844428680837154,-0.02082664519548416,-0.03303653746843338,1.6300151348114014,-0.33660411834716797,-0.16184045374393463,0.62,-0.24,-0.19,278.63
1665697100.21969008,380975846,1,0.59,-1.31,75.39,-0.004255811218172312,0.003924562130123377,-0.01990796998143196,-0.017145756632089615,1.624849796295166,-0.3416830599308014,-0.1628885716199875,0.62,-0.24,-0.19,278.63
1665697100.31969500,381075851,1,0.59,-1.31,75.38,-0.005060726311057806,0.0033162704203277826,-0.018626991659402847,0.012064714916050434,1.6193286180496216,-0.34752291440963745,-0.16214565932750702,0.62,-0.24,-0.19,278.63
1665697100.41969013,381175846,1,0.59,-1.31,75.36,-0.004897939506918192,0.0023928785230964422,-0.01787666790187359,0.005755809135735035,1.6143171787261963,-0.35275763273239136,-0.162749782204628,0.62,-0.24,-0.19,278.63
1665697100.51968312,381275839,1,0.6,-1.31,75.35000000000001,-0.004855009261518717,0.0016686479793861508,-0.01676897145807743,-0.008706881664693356,1.6092876195907593,-0.3579838275909424,-0.1639188975095749,0.62,-0.24,-0.19,278.63
1665697100.61966991,381375826,1,0.6,-1.31,75.35000000000001,-0.00534947169944644,0.00027999436133541167,-0.016566714271903038,-0.02351231686770916,1.603859782218933,-0.36388975381851196,-0.16674259305000305,0.62,-0.24,-0.19,278.63
1665697100.71970797,381475864,1,0.61,-1.31,75.35000000000001,-0.006818610709160566,-0.002695947652682662,-0.016799919307231903,-0.05435233190655708,1.597140908241272,-0.3714996576309204,-0.1716737449169159,0.62,-0.24,-0.19,278.63
1665697100.81969213,381575848,1,0.6,-1.31,75.34,-0.008118776604533195,-0.004605241119861603,-0.016475282609462738,-0.041834235191345215,1.5907200574874878,-0.37891897559165955,-0.1741815060377121,0.62,-0.24,-0.19,278.63
1665697100.91967297,381675829,1,0.6,-1.3,75.32000000000001,-0.010199274867773056,-0.006842669099569321,-0.015725117176771164,-0.006783104967325926,1.5838695764541626,-0.3869684636592865,-0.17469044029712677,0.62,-0.24,-0.19,278.63
1665697101.01965499,381775811,1,0.61,-1.3,75.31,-0.01148834079504013,-0.00755200395360589,-0.014691222459077835,0.006090343929827213,1.5775724649429321,-0.39373862743377686,-0.1744389683008194,0.62,-0.24,-0.19,278.63
1665697101.11965609,381875812,1,0.61,-1.3,75.31,-0.012003916315734386,-0.00820231158286333,-0.013305853120982647,0.019111333414912224,1.571274995803833,-0.3997107744216919,-0.17330557107925415,0.62,-0.24,-0.19,278.63
1665697101.21965313,381975809,1,0.61,-1.29,75.34,-0.012040463276207447,-0.00920733343809843,-0.011944590136408806,0.01710054837167263,1.5663135051727295,-0.4053202271461487,-0.1721964180469513,0.62,-0.24,-0.19,278.63
1665697101.31965399,382075810,1,0.61,-1.29,75.37,-0.011847562156617641,-0.009698987938463688,-0.010316386818885803,0.019458195194602013,1.5623811483383179,-0.4111253023147583,-0.1707790046930313,0.62,-0.24,-0.19,278.63
1665697101.41965508,382175811,1,0.62,-1.29,75.39,-0.011895415373146534,-0.010672969743609428,-0.008921182714402676,0.009761114604771137,1.5580819845199585,-0.41695335507392883,-0.1702485978603363,0.62,-0.24,-0.19,278.63
1665697101.51965809,382275814,1,0.62,-1.29,75.4,-0.012170380912721157,-0.011837873607873917,-0.007667622063308954,0.005930288229137659,1.5527946949005127,-0.4235093295574188,-0.16954466700553894,0.62,-0.24,-0.19,278.63
1665697101.61965394,382375810,1,0.62,-1.29,75.4,-0.011685089208185673,-0.013669425621628761,-0.006060237530618906,0.018579907715320587,1.5473484992980957,-0.4304334819316864,-0.1672794073820114,0.62,-0.24,-0.19,278.63
1665697101.71969700,382475853,1,0.63,-1.29,75.38,-0.013386419042944908,-0.01508280262351036,-0.004530668258666992,0.030190803110599518,1.540976643562317,-0.4385685920715332,-0.16481374204158783,0.62,-0.24,-0.19,278.63
1665697101.81967998,382575836,1,0.63,-1.29,75.35000000000001,-0.014277209527790546,-0.016517018899321556,-0.0037560996133834124,0.022370480000972748,1.5348906517028809,-0.44619449973106384,-0.1629677414894104,0.62,-0.24,-0.19,278.63
1665697101.91968894,382675845,1,0.63,-1.29,75.31,-0.015478386543691158,-0.017496056854724884,-0.0029402761720120907,0.0178103968501091,1.5285167694091797,-0.454027384519577,-0.16128291189670563,0.62,-0.24,-0.19,278.63
1665697102.01970315,382775859,1,0.64,-1.29,75.27,-0.017990566790103912,-0.019441066309809685,-0.002998495940119028,-0.004558976739645004,1.5214087963104248,-0.46173912286758423,-0.16254697740077972,0.62,-0.24,-0.19,278.63
1665697102.11967611,382875832,1,0.64,-1.28,75.25,-0.021328529343008995,-0.022136855870485306,-0.0033110622316598892,-0.047174107283353806,1.512611746788025,-0.470215767621994,-0.16646914184093475,0.62,-0.24,-0.19,278.63
1665697102.21967602,382975832,1,0.64,-1.28,75.24,-0.022762414067983627,-0.02337709255516529,-0.00336415134370327,-0.03295831009745598,1.5046541690826416,-0.47812536358833313,-0.16782134771347046,0.62,-0.24,-0.19,278.63
1665697102.31968904,383075845,1,0.65,-1.28,75.24,-0.0243418850004673,-0.025013579055666924,-0.002492673695087433,-0.0012856452958658338,1.4969964027404785,-0.486113041639328,-0.16765475273132324,0.62,-0.24,-0.19,278.63
1665697102.41969514,383175851,1,0.65,-1.27,75.25,-0.025659671053290367,-0.025776853784918785,-0.0016531622968614101,0.015316125005483627,1.4907898902893066,-0.49364960193634033,-0.1662871092557907,0.62,-0.24,-0.19,278.63
1665697102.51963592,383275792,1,0.65,-1.27,75.28,-0.0256551094353199,-0.02652467042207718,-0.0013208268210291862,0.02214188314974308,1.4857972860336304,-0.5013359189033508,-0.1648920327425003,0.62,-0.24,-0.19,278.63
1665697102.61965203,383375808,1,0.66,-1.27,75.29,-0.024759940803050995,-0.026808155700564384,-0.0006264083203859627,0.011185254901647568,1.481461763381958,-0.5076950192451477,-0.16485008597373962,0.62,-0.24,-0.19,278.63
1665697102.71965313,383475809,1,0.66,-1.28,75.3,-0.02561362273991108,-0.027060510590672493,-0.001281473902054131,-0.03325047343969345,1.475387692451477,-0.5147507786750793,-0.16845963895320892,0.62,-0.24,-0.19,278.63
1665697102.81965303,383575809,1,0.66,-1.28,75.31,-0.026667125523090363,-0.026379497721791267,-0.0017004654509946704,-0.03420845791697502,1.4697550535202026,-0.5209430456161499,-0.17068085074424744,0.62,-0.24,-0.19,278.63
1665697102.91965103,383675807,1,0.67,-1.28,75.31,-0.026951048523187637,-0.026438584551215172,-0.0012301037786528468,-0.015548759140074253,1.46412992477417,-0.5267863869667053,-0.17149052023887634,0.62,-0.24,-0.19,278.63
1665697103.01965094,383775807,1,0.67,-1.27,75.32000000000001,-0.027745794504880905,-0.025585975497961044,-0.0017494888743385673,-0.0030182760674506426,1.459289312362671,-0.5322710275650024,-0.172077476978302,0.62,-0.24,-0.19,278.63
1665697103.11967397,383875830,1,0.67,-1.27,75.33,-0.027858663350343704,-0.025071578100323677,-0.0012788858730345964,-0.012863969430327415,1.4549734592437744,-0.5378170609474182,-0.17378821969032288,0.62,-0.24,-0.19,278.63
1665697103.21969295,383975849,1,0.67,-1.27,75.33,-0.028263237327337265,-0.025329044088721275,-0.001614001695998013,-0.023737700656056404,1.450864315032959,-0.5433616042137146,-0.17624486982822418,0.62,-0.24,-0.19,278.63
1665697103.31968594,384075842,1,0.67,-1.27,75.34,-0.027852702885866165,-0.026074538007378578,-0.00183022185228765,-0.02638850547373295,1.4466480016708374,-0.5495040416717529,-0.1783294975757599,0.62,-0.24,-0.19,278.63
1665697103.41969395,384175850,1,0.68,-1.27,75.35000000000001,-0.02856607921421528,-0.026143645867705345,-0.0019008663948625326,-0.0186053067445755,1.4419457912445068,-0.5557303428649902,-0.18016813695430756,0.62,-0.24,-0.19,278.63
1665697103.51968193,384275838,1,0.68,-1.27,75.37,-0.03004600666463375,-0.026972487568855286,-0.0016048745019361377,-0.024228377267718315,1.43614661693573,-0.5626187324523926,-0.1826055496931076,0.62,-0.24,-0.19,278.63
1665697103.61967707,384375833,1,0.68,-1.26,75.4,-0.031192082911729813,-0.027502434328198433,-0.002181821968406439,-0.02558717504143715,1.4307514429092407,-0.5693305134773254,-0.18510597944259644,0.62,-0.24,-0.19,278.63
1665697103.71968508,384475841,1,0.68,-1.26,75.42,-0.03270837664604187,-0.028339076787233353,-0.0020716453436762094,-0.02879396453499794,1.4254465103149414,-0.5764384269714355,-0.18778882920742035,0.62,-0.24,-0.19,278.63
1665697103.81968713,384575843,1,0.68,-1.26,75.44,-0.032948318868875504,-0.028813665732741356,-0.001788429100997746,-0.02483622543513775,1.4205437898635864,-0.5833102464675903,-0.1900593787431717,0.62,-0.24,-0.19,278.63
1665697103.91969800,384675854,1,0.68,-1.26,75.45,-0.033329933881759644,-0.028869502246379852,-0.001844058046117425,-0.017055893316864967,1.4159777164459229,-0.5904260277748108,-0.1916016936302185,0.62,-0.24,-0.19,278.63
1665697104.01968694,384775843,1,0.68,-1.26,75.44,-0.033773746341466904,-0.02942599728703499,-0.0018256219336763024,-0.006581522524356842,1.411784291267395,-0.5964226126670837,-0.19262710213661194,0.62,-0.24,-0.19,278.63
1665697104.11965108,384875807,1,0.68,-1.26,75.43,-0.03387530520558357,-0.029565811157226562,-0.001655349275097251,-0.020695524290204048,1.4068303108215332,-0.6030147671699524,-0.19519832730293274,0.62,-0.24,-0.19,278.63
1665697104.21965408,384975810,1,0.68,-1.26,75.42,-0.03437424451112747,-0.028361082077026367,-0.0021663287188857794,-0.025578917935490608,1.4016692638397217,-0.6092298030853271,-0.1979963630437851,0.62,-0.24,-0.19,278.63
1665697104.31965113,385075807,1,0.68,-1.27,75.43,-0.03425557538866997,-0.02830437570810318,-0.003593496745452285,-0.04866894707083702,1.3959864377975464,-0.6154800653457642,-0.20263102650642395,0.62,-0.24,-0.19,278.63
1665697104.41964412,385175800,1,0.68,-1.27,75.43,-0.0343906432390213,-0.02810228429734707,-0.004025470465421677,-0.02338598296046257,1.3906383514404297,-0.6217789649963379,-0.20320363342761993,0.62,-0.24,-0.19,278.63
1665697104.51964498,385275801,1,0.67,-1.26,75.44,-0.035034794360399246,-0.02829126827418804,-0.0034912603441625834,0.04268105700612068,1.385230302810669,-0.6287446618080139,-0.19901017844676971,0.62,-0.24,-0.19,278.63
1665697104.61964798,385375804,1,0.67,-1.27,75.44,-0.03459293022751808,-0.02917877398431301,-0.0026275382842868567,0.08971405029296875,1.3800081014633179,-0.6359790563583374,-0.1912873089313507,0.62,-0.24,-0.19,278.63
1665697104.71965098,385475807,1,0.67,-1.27,75.45,-0.03337320685386658,-0.030484652146697044,-0.0014098251704126596,0.10079126805067062,1.3748165369033813,-0.6441909670829773,-0.184037446975708,0.62,-0.24,-0.19,278.63
1665697104.81967497,385575831,1,0.67,-1.27,75.45,-0.03350105509161949,-0.031075473874807358,-0.0006832748185843229,0.07868689298629761,1.3695590496063232,-0.6517605781555176,-0.17756043374538422,0.62,-0.24,-0.19,278.63
1665697104.91969514,385675851,1,0.67,-1.27,75.44,-0.03314150124788284,-0.030740035697817802,0.00040822141454555094,0.06203208863735199,1.3638560771942139,-0.6591479778289795,-0.17227554321289062,0.62,-0.24,-0.19,278.63
1665697105.01968098,385775837,1,0.67,-1.27,75.43,-0.03323153033852577,-0.03072405606508255,0.0011723078787326813,0.016275471076369286,1.3581937551498413,-0.666392982006073,-0.1714296191930771,0.62,-0.24,-0.19,278.63
1665697105.11967993,385875836,1,0.67,-1.28,75.43,-0.033727746456861496,-0.0307328961789608,0.0002614302793517709,-0.0320202000439167,1.3522436618804932,-0.674079418182373,-0.1733824610710144,0.62,-0.24,-0.19,278.63
1665697105.21967196,385975828,1,0.67,-1.28,75.44,-0.03368581086397171,-0.029763590544462204,-0.0003553511342033744,-0.026400316506624222,1.3467755317687988,-0.6809155344963074,-0.173740953207016,0.62,-0.24,-0.19,278.63
1665697105.31968403,386075840,1,0.67,-1.28,75.44,-0.033491019159555435,-0.02940809540450573,-0.0001372069527860731,-0.024484334513545036,1.3415850400924683,-0.6872894763946533,-0.17595146596431732,0.62,-0.24,-0.19,278.63
1665697105.41968799,386175844,1,0.67,-1.28,75.45,-0.03240476921200752,-0.028226571157574654,-0.0002995328395627439,-0.04104100167751312,1.3369354009628296,-0.6934749484062195,-0.1792433261871338,0.62,-0.24,-0.19,278.63
1665697105.51968002,386275836,1,0.67,-1.29,75.45,-0.03117452748119831,-0.027447419241070747,2.8337464755168185e-05,-0.02370062656700611,1.332646131515503,-0.7000253796577454,-0.18045146763324738,0.62,-0.24,-0.19,278.63
1665697105.61970210,386375858,1,0.67,-1.29,75.45,-0.030652116984128952,-0.02642172761261463,0.0003308223676867783,0.013083933852612972,1.3283076286315918,-0.7063272595405579,-0.17864827811717987,0.62,-0.24,-0.19,278.63
1665697105.71965408,386475810,1,0.66,-1.29,75.46000000000001,-0.030244408175349236,-0.026415729895234108,0.001295766793191433,0.03543487563729286,1.3235632181167603,-0.7130348086357117,-0.17623849213123322,0.62,-0.24,-0.19,278.63
1665697105.81964612,386575802,1,0.66,-1.29,75.46000000000001,-0.02944406494498253,-0.026198886334896088,0.001422993140295148,0.032285887748003006,1.3190176486968994,-0.7195999026298523,-0.1739073246717453,0.62,-0.24,-0.19,278.63
1665697105.91965103,386675807,1,0.66,-1.3,75.45,-0.028025390580296516,-0.026428690180182457,0.002233739010989666,0.03695271536707878,1.3145127296447754,-0.7266650199890137,-0.17064101994037628,0.62,-0.24,-0.19,278.63
1665697106.01964903,386775805,1,0.66,-1.29,75.43,-0.026708949357271194,-0.02672330103814602,0.0034493848215788603,0.044439125806093216,1.31028151512146,-0.7333337068557739,-0.16672714054584503,0.62,-0.24,-0.19,278.63
1665697106.11964607,386875802,1,0.66,-1.29,75.41,-0.025685464963316917,-0.02621838077902794,0.004474309738725424,0.045201659202575684,1.306115746498108,-0.7401196956634521,-0.16276293992996216,0.62,-0.24,-0.19,278.63
1665697106.21965003,386975806,1,0.66,-1.3,75.39,-0.02477957122027874,-0.025202831253409386,0.005422939546406269,0.046321213245391846,1.302410364151001,-0.746268630027771,-0.1581936925649643,0.62,-0.24,-0.19,278.63
1665697106.31964803,387075804,1,0.66,-1.3,75.37,-0.023965036496520042,-0.02568545751273632,0.006920144893229008,0.053018633276224136,1.298913836479187,-0.7523521780967712,-0.15338380634784698,0.62,-0.24,-0.19,278.63
1665697106.41967297,387175829,1,0.66,-1.3,75.35000000000001,-0.022846827283501625,-0.025229379534721375,0.008852431550621986,0.03781970962882042,1.2956844568252563,-0.758206307888031,-0.1500127613544464,0.62,-0.24,-0.19,278.63
1665697106.51969910,387275855,1,0.66,-1.3,75.32000000000001,-0.0207718126475811,-0.02427431382238865,0.010380951687693596,0.024834126234054565,1.2926617860794067,-0.7642479538917542,-0.14752154052257538,0.62,-0.24,-0.19,278.63
1665697106.61968899,387375845,1,0.66,-1.3,75.32000000000001,-0.020337507128715515,-0.02405652590095997,0.010877341963350773,0.012943574227392673,1.2888731956481934,-0.7703035473823547,-0.14585356414318085,0.62,-0.24,-0.19,278.63
1665697106.71965909,387475815,1,0.66,-1.3,75.34,-0.020829174667596817,-0.024377312511205673,0.010839593596756458,0.012530853040516376,1.2836482524871826,-0.7770277261734009,-0.1438903510570526,0.62,-0.24,-0.19,278.63
1665697106.81967592,387575832,1,0.65,-1.3,75.36,-0.021044358611106873,-0.02425541914999485,0.011783828027546406,0.02880226820707321,1.2787078619003296,-0.7827947735786438,-0.14050832390785217,0.62,-0.24,-0.19,278.63
1665697106.91967893,387675835,1,0.66,-1.3,75.36,-0.020646264776587486,-0.022998271510004997,0.012285511940717697,0.03812042623758316,1.2737882137298584,-0.7878206968307495,-0.13709807395935059,0.62,-0.24,-0.19,278.63
1665697107.01967907,387775835,1,0.66,-1.3,75.36,-0.021122826263308525,-0.02149881422519684,0.012870839796960354,0.028322681784629822,1.2695173025131226,-0.7919872999191284,-0.13488270342350006,0.62,-0.24,-0.19,278.63
1665697107.11969709,387875853,1,0.66,-1.3,75.35000000000001,-0.021145889535546303,-0.021313544362783432,0.013016771525144577,-0.008049376308918,1.2645742893218994,-0.7973363995552063,-0.1360917091369629,0.62,-0.24,-0.19,278.63
1665697107.21963692,387975793,1,0.66,-1.31,75.34,-0.021141884848475456,-0.0206834077835083,0.013129346072673798,-0.01694585010409355,1.2601127624511719,-0.8022904396057129,-0.13655884563922882,0.62,-0.24,-0.19,278.63
1665697107.31964612,388075802,1,0.66,-1.31,75.34,-0.020921850576996803,-0.01979515142738819,0.013049491681158543,-0.011960717849433422,1.2558698654174805,-0.8072472810745239,-0.13722503185272217,0.62,-0.24,-0.19,278.63
1665697107.41965103,388175807,1,0.66,-1.31,75.34,-0.02002905122935772,-0.019534729421138763,0.013315768912434578,-0.00311811501160264,1.2520561218261719,-0.8119096755981445,-0.13691312074661255,0.62,-0.24,-0.19,278.63
1665697107.51964402,388275800,1,0.66,-1.31,75.36,-0.019726578146219254,-0.018302015960216522,0.014208545908331871,0.0057688429951667786,1.2485021352767944,-0.8166555762290955,-0.13652090728282928,0.62,-0.24,-0.19,278.63
1665697107.61964798,388375804,1,0.65,-1.31,75.36,-0.018497712910175323,-0.017962632700800896,0.014615785330533981,0.012220474891364574,1.2451444864273071,-0.8209699988365173,-0.13505874574184418,0.62,-0.24,-0.19,278.63
1665697107.71965003,388475806,1,0.66,-1.31,75.37,-0.018077710643410683,-0.016724662855267525,0.016173051670193672,0.02801908738911152,1.2418004274368286,-0.8252049088478088,-0.13266238570213318,0.62,-0.24,-0.19,278.63
1665697107.81964493,388575801,1,0.65,-1.31,75.37,-0.018766524270176888,-0.015627888962626457,0.01707492396235466,0.0240192711353302,1.2382851839065552,-0.8291382789611816,-0.1309691071510315,0.62,-0.24,-0.19,278.63
1665697107.91965103,388675807,1,0.66,-1.3,75.36,-0.018153147771954536,-0.015485755167901516,0.017657846212387085,0.01803133264183998,1.2342926263809204,-0.8331924080848694,-0.12918005883693695,0.62,-0.24,-0.19,278.63
1665697108.01968193,388775838,1,0.66,-1.3,75.34,-0.018560316413640976,-0.014853020198643208,0.01851055398583412,0.02814464457333088,1.2311187982559204,-0.8364487886428833,-0.1262844204902649,0.62,-0.24,-0.19,278.63
1665697108.11969113,388875847,1,0.66,-1.31,75.32000000000001,-0.017408130690455437,-0.014244225807487965,0.019422709941864014,0.01690908893942833,1.2288638353347778,-0.8400889039039612,-0.12535899877548218,0.62,-0.24,-0.19,278.63
1665697108.21969795,388975854,1,0.65,-1.31,75.28,-0.016534747555851936,-0.013813823461532593,0.0193929485976696,0.0022569065913558006,1.2261896133422852,-0.8435676693916321,-0.12470488250255585,0.62,-0.24,-0.19,278.63
1665697108.31967211,389075828,1,0.65,-1.31,75.25,-0.01623889058828354,-0.013094590045511723,0.020513005554676056,0.01456244383007288,1.2227706909179688,-0.8472217321395874,-0.1226544976234436,0.62,-0.24,-0.19,278.63
1665697108.41965795,389175814,1,0.65,-1.31,75.23,-0.01679515466094017,-0.014450851827859879,0.0216048751026392,0.021916313096880913,1.2189010381698608,-0.8514711856842041,-0.12063047289848328,0.62,-0.24,-0.19,278.63
1665697108.51967907,389275835,1,0.65,-1.31,75.21000000000001,-0.018364761024713516,-0.015681207180023193,0.022679368034005165,0.027873527258634567,1.2140607833862305,-0.8569671511650085,-0.1178884208202362,0.62,-0.24,-0.19,278.63
1665697108.61968493,389375841,1,0.65,-1.31,75.2,-0.01772991754114628,-0.016782011836767197,0.023222172632813454,0.024873502552509308,1.209622859954834,-0.8624627590179443,-0.11588429659605026,0.62,-0.24,-0.19,278.63
1665697108.71964312,389475799,1,0.65,-1.3,75.18,-0.017635244876146317,-0.01716036908328533,0.023377539590001106,0.012044538743793964,1.2054507732391357,-0.8684265613555908,-0.11471367627382278,0.62,-0.24,-0.19,278.63
1665697108.81964993,389575806,1,0.65,-1.3,75.18,-0.017314089462161064,-0.016753975301980972,0.022765686735510826,0.002727789804339409,1.2011662721633911,-0.8733506202697754,-0.11431139707565308,0.62,-0.24,-0.19,278.63
1665697108.91964793,389675804,1,0.65,-1.29,75.17,-0.01693466491997242,-0.015804776921868324,0.021996913477778435,-0.008863883092999458,1.1964350938796997,-0.8774518966674805,-0.114793561398983,0.62,-0.24,-0.19,278.63
1665697109.01964903,389775805,1,0.65,-1.29,75.18,-0.017963659018278122,-0.01434237603098154,0.021920321509242058,0.001423975103534758,1.1914830207824707,-0.8811803460121155,-0.11374074965715408,0.62,-0.24,-0.19,278.63
1665697109.11964703,389875803,1,0.65,-1.29,75.19,-0.019397281110286713,-0.014454676769673824,0.022055581212043762,0.01967989280819893,1.1858144998550415,-0.8848656415939331,-0.11178947240114212,0.62,-0.24,-0.19,278.63
1665697109.21964693,389975803,1,0.65,-1.3,75.19,-0.020895451307296753,-0.01369615737348795,0.022485842928290367,0.030233798548579216,1.1797285079956055,-0.8879759907722473,-0.10906698554754257,0.62,-0.24,-0.19,278.63
1665697109.31964993,390075806,1,0.66,-1.3,75.2,-0.02285858616232872,-0.012982052750885487,0.022442638874053955,0.034453000873327255,1.1726242303848267,-0.8907195329666138,-0.1060371845960617,0.62,-0.24,-0.19,278.63
1665697109.41964793,390175804,1,0.67,-1.3,75.21000000000001,-0.024020414799451828,-0.010758613236248493,0.02274402603507042,0.046183954924345016,1.1668299436569214,-0.8932571411132812,-0.10155250877141953,0.62,-0.24,-0.19,278.63
1665697109.51967001,390275826,1,0.67,-1.3,75.22,-0.025076303631067276,-0.010015943087637424,0.024189643561840057,0.06383944302797318,1.1621923446655273,-0.8958208560943604,-0.09572277218103409,0.62,-0.24,-0.19,278.63
1665697109.61968803,390375844,1,0.67,-1.29,75.24,-0.02459160052239895,-0.010408954694867134,0.025693196803331375,0.06996788084506989,1.1583216190338135,-0.8987613916397095,-0.08962024003267288,0.62,-0.24,-0.19,278.63
1665697109.71969104,390475847,1,0.67,-1.29,75.24,-0.023974765092134476,-0.01065097190439701,0.026696953922510147,0.0713031068444252,1.1553000211715698,-0.9025312066078186,-0.08302337676286697,0.62,-0.24,-0.19,278.63
1665697109.81965208,390575808,1,0.66,-1.29,75.25,-0.02393518202006817,-0.011118625290691853,0.028174707666039467,0.07570237666368484,1.1518968343734741,-0.9063146114349365,-0.07602576911449432,0.62,-0.24,-0.19,278.63
1665697109.91967010,390675826,1,0.66,-1.29,75.27,-0.023532265797257423,-0.011139851063489914,0.028705840930342674,0.05597684532403946,1.1478685140609741,-0.9104434251785278,-0.07121054828166962,0.62,-0.24,-0.19,278.63
1665697110.01966906,390775825,1,0.67,-1.29,75.28,-0.02437639981508255,-0.011434756219387054,0.029498286545276642,0.04227377846837044,1.1435261964797974,-0.9141860604286194,-0.06645134836435318,0.62,-0.24,-0.19,278.63
1665697110.11967707,390875833,1,0.67,-1.29,75.28,-0.024537624791264534,-0.010835874825716019,0.03043508529663086,0.05019418150186539,1.1384780406951904,-0.9177467226982117,-0.06103188917040825,0.62,-0.24,-0.19,278.63
1665697110.21967912,390975835,1,0.67,-1.29,75.28,-0.024881290271878242,-0.011050968430936337,0.03123755380511284,0.044517286121845245,1.1340916156768799,-0.921627402305603,-0.05683964118361473,0.62,-0.24,-0.19,278.63
1665697110.31962705,391075783,1,0.67,-1.29,75.28,-0.02501508593559265,-0.012009859085083008,0.03182118386030197,0.019448015838861465,1.1300848722457886,-0.9264066219329834,-0.054951127618551254,0.62,-0.24,-0.19,278.63
1665697110.41965413,391175810,1,0.67,-1.3,75.26,-0.024298004806041718,-0.011564581654965878,0.03191860765218735,0.004131687805056572,1.1269454956054688,-0.9306166172027588,-0.05359591171145439,0.62,-0.24,-0.19,278.63
1665697110.51964712,391275803,1,0.66,-1.29,75.23,-0.023361165076494217,-0.011083480902016163,0.03272257745265961,0.014844880439341068,1.12467622756958,-0.9345250725746155,-0.051177479326725006,0.62,-0.24,-0.19,278.63
1665697110.61964512,391375801,1,0.66,-1.3,75.21000000000001,-0.022647464647889137,-0.010147597640752792,0.03372858464717865,0.02573402039706707,1.1224725246429443,-0.9377390742301941,-0.048322148621082306,0.62,-0.24,-0.19,278.63
1665697110.71965814,391475814,1,0.66,-1.3,75.19,-0.022122254595160484,-0.009032216854393482,0.03442215174436569,0.023152071982622147,1.120261549949646,-0.940502405166626,-0.04630332812666893,0.62,-0.24,-0.19,278.63
1665697110.81964993,391575806,1,0.66,-1.3,75.17,-0.02104811929166317,-0.007456922437995672,0.03405974432826042,0.008658329024910927,1.1187806129455566,-0.9425402283668518,-0.04542817175388336,0.62,-0.24,-0.19,278.63
1665697110.91964698,391675803,1,0.66,-1.3,75.17,-0.01894710585474968,-0.005663575604557991,0.034237850457429886,0.008190532214939594,1.1181769371032715,-0.9439826011657715,-0.043979182839393616,0.62,-0.24,-0.19,278.63
1665697111.01965213,391775808,1,0.66,-1.3,75.17,-0.01740962266921997,-0.005045761354267597,0.03346534073352814,0.019851701334118843,1.1171735525131226,-0.9462103247642517,-0.041712693870067596,0.62,-0.24,-0.19,278.63
1665697111.11968803,391875844,1,0.65,-1.3,75.19,-0.016585350036621094,-0.005284306593239307,0.033299606293439865,0.014239674434065819,1.115656852722168,-0.9498445987701416,-0.04069022834300995,0.62,-0.24,-0.19,278.63
1665697111.21968508,391975841,1,0.65,-1.29,75.2,-0.016459567472338676,-0.005576553288847208,0.03404143452644348,0.0122535927221179,1.1137996912002563,-0.9535852670669556,-0.0390080027282238,0.62,-0.24,-0.19,278.63
1665697111.31968212,392075838,1,0.65,-1.29,75.21000000000001,-0.01672464795410633,-0.006364220753312111,0.03398023918271065,0.016395319253206253,1.1113733053207397,-0.9579572081565857,-0.03756164759397507,0.62,-0.24,-0.19,278.63
1665697111.41966701,392175823,1,0.66,-1.28,75.22,-0.01572125218808651,-0.007363446056842804,0.034693047404289246,0.0045067244209349155,1.109321117401123,-0.9619948267936707,-0.036908380687236786,0.62,-0.24,-0.19,278.63
1665697111.51968408,392275840,1,0.66,-1.27,75.24,-0.015797995030879974,-0.007882678881287575,0.03542710840702057,0.012800744734704494,1.1075448989868164,-0.9660685062408447,-0.035324577242136,0.62,-0.24,-0.19,278.63
1665697111.61968303,392375839,1,0.66,-1.27,75.25,-0.015073011629283428,-0.008608452044427395,0.034866053611040115,0.008138340897858143,1.1058759689331055,-0.9702713489532471,-0.03469056636095047,0.62,-0.24,-0.19,278.63
1665697111.71968603,392475842,1,0.66,-1.27,75.25,-0.014585624448955059,-0.009600468911230564,0.03495389223098755,-0.004646588582545519,1.1043322086334229,-0.9751661419868469,-0.035084761679172516,0.62,-0.24,-0.19,278.63
1665697111.81972694,392575883,1,0.65,-1.27,75.25,-0.013981572352349758,-0.010506794787943363,0.035319142043590546,0.00898011401295662,1.102898120880127,-0.9794275760650635,-0.03330913931131363,0.62,-0.24,-0.19,278.63
1665697111.91964102,392675797,1,0.66,-1.27,75.25,-0.013705285266041756,-0.010213861241936684,0.035493966192007065,0.02867722511291504,1.101564884185791,-0.9833139777183533,-0.03071697987616062,0.62,-0.24,-0.19,278.63
1665697112.01964808,392775804,1,0.65,-1.27,75.24,-0.01383337564766407,-0.009705371223390102,0.036017850041389465,0.03933258354663849,1.1007483005523682,-0.9867430925369263,-0.026904547587037086,0.62,-0.24,-0.19,278.63
1665697112.11965013,392875806,1,0.65,-1.27,75.23,-0.012506493367254734,-0.009398255497217178,0.036248963326215744,0.04994843155145645,1.1006219387054443,-0.9900269508361816,-0.022645892575383186,0.62,-0.24,-0.19,278.63
1665697112.21964598,392975802,1,0.65,-1.27,75.22,-0.011779793538153172,-0.00863957591354847,0.0368068553507328,0.04215705767273903,1.1004546880722046,-0.9925745725631714,-0.019031114876270294,0.62,-0.24,-0.19,278.63
1665697112.31964612,393075802,1,0.65,-1.28,75.21000000000001,-0.010464811697602272,-0.006885109003633261,0.03781180456280708,0.03245745599269867,1.1003183126449585,-0.9945042133331299,-0.016118157655000687,0.62,-0.24,-0.19,278.63
1665697112.41966009,393175816,1,0.65,-1.28,75.21000000000001,-0.008948888629674911,-0.0069804685190320015,0.038723621517419815,0.02112680859863758,1.1008611917495728,-0.9967584013938904,-0.01380103174597025,0.62,-0.24,-0.19,278.63
1665697112.51964593,393275802,1,0.65,-1.28,75.2,-0.006535491440445185,-0.007638080976903439,0.0392145961523056,0.007485540583729744,1.1023597717285156,-0.9998286962509155,-0.013113819062709808,0.62,-0.24,-0.19,278.63
1665697112.61965203,393375808,1,0.64,-1.28,75.2,-0.005084547214210033,-0.008235619403421879,0.03966144099831581,-0.001394646824337542,1.103274941444397,-1.0032566785812378,-0.012418259866535664,0.62,-0.24,-0.19,278.63
1665697112.71968913,393475845,1,0.64,-1.28,75.21000000000001,-0.0038543827831745148,-0.008690712973475456,0.03992447629570961,0.009927378036081791,1.103575348854065,-1.007466435432434,-0.01079409010708332,0.62,-0.24,-0.19,278.63
1665697112.81969309,393575849,1,0.64,-1.29,75.2,-0.002948372159153223,-0.00888348650187254,0.0396248884499073,0.009431375190615654,1.1039917469024658,-1.011559247970581,-0.009927459061145782,0.62,-0.24,-0.19,278.63
1665697112.91965199,393675808,1,0.64,-1.28,75.2,-0.001747124013490975,-0.009486313909292221,0.03981687128543854,-0.00890436116605997,1.1046634912490845,-1.0159422159194946,-0.010984213091433048,0.62,-0.24,-0.19,278.63
1665697113.01967406,393775830,1,0.64,-1.28,75.19,-0.0013435701839625835,-0.009944794699549675,0.04011694714426994,-0.018617410212755203,1.1052017211914062,-1.0195316076278687,-0.012100282125175,0.62,-0.24,-0.19,278.63
1665697113.11968613,393875842,1,0.64,-1.28,75.18,-3.967156771977898e-06,-0.010417788289487362,0.04007549211382866,-0.011334128677845001,1.1059107780456543,-1.0237056016921997,-0.012628830969333649,0.62,-0.24,-0.19,278.63
1665697113.21967912,393975835,1,0.64,-1.28,75.17,0.0004940658691339195,-0.010641918517649174,0.04009155184030533,0.007630681619048119,1.1061924695968628,-1.0280344486236572,-0.011318164877593517,0.62,-0.24,-0.19,278.63
1665697113.31968713,394075843,1,0.64,-1.28,75.17,0.0007651755004189909,-0.011349574662744999,0.04015388339757919,0.02163855917751789,1.1059068441390991,-1.0330173969268799,-0.009627632796764374,0.62,-0.24,-0.19,278.63
1665697113.41965008,394175806,1,0.64,-1.27,75.17,0.0008750833221711218,-0.012005241587758064,0.03975154832005501,0.013037611730396748,1.105698585510254,-1.0377463102340698,-0.009034231305122375,0.62,-0.24,-0.19,278.63
1665697113.51964593,394275802,1,0.64,-1.27,75.17,0.0008888968150131404,-0.012861955910921097,0.03961918503046036,0.013098779134452343,1.105505108833313,-1.0426678657531738,-0.007379363290965557,0.62,-0.24,-0.19,278.63
1665697113.61964607,394375802,1,0.65,-1.27,75.17,0.0018688846612349153,-0.014157738536596298,0.03948308527469635,0.025176197290420532,1.1055629253387451,-1.0471653938293457,-0.005074009764939547,0.62,-0.24,-0.19,278.63
1665697113.71965408,394475810,1,0.65,-1.27,75.19,0.002905138535425067,-0.014760338701307774,0.039388563483953476,0.01937027834355831,1.10597562789917,-1.0515888929367065,-0.0035617914982140064,0.62,-0.24,-0.19,278.63
1665697113.81965613,394575812,1,0.64,-1.27,75.2,0.0029708719812333584,-0.014702307060360909,0.039032742381095886,0.010471456684172153,1.1062346696853638,-1.0552335977554321,-0.0027963039465248585,0.62,-0.24,-0.19,278.63
1665697113.91964793,394675804,1,0.65,-1.27,75.23,0.002993071684613824,-0.014386346563696861,0.038493141531944275,-0.0019516407046467066,1.1062583923339844,-1.058298945426941,-0.002645870205014944,0.62,-0.24,-0.19,278.63
1665697114.01964903,394775805,1,0.65,-1.27,75.26,0.003355361521244049,-0.014930850826203823,0.03790952265262604,0.007326231338083744,1.1069040298461914,-1.061340093612671,-0.0012781593250110745,0.62,-0.23,-0.19,278.63
1665697114.11965609,394875812,1,0.64,-1.27,75.29,0.00476705702021718,-0.014267472550272942,0.0379696860909462,0.020639147609472275,1.1083778142929077,-1.0646131038665771,0.0007932751905173063,0.62,-0.23,-0.19,278.63
1665697114.21967196,394975828,1,0.65,-1.28,75.3,0.005009307060390711,-0.013408605009317398,0.038136061280965805,0.025271562859416008,1.1095328330993652,-1.0674023628234863,0.0027523129247128963,0.62,-0.24,-0.19,278.63
1665697114.31969595,395075852,1,0.64,-1.28,75.3,0.005092729814350605,-0.014319338835775852,0.03683558478951454,-0.004618673585355282,1.1097657680511475,-1.071539282798767,0.0017463810509070754,0.62,-0.24,-0.19,278.63
1665697114.41969109,395175847,1,0.65,-1.28,75.31,0.005404913332313299,-0.014554399065673351,0.03678841516375542,-0.004660641774535179,1.111014485359192,-1.0754324197769165,0.00222601811401546,0.62,-0.23,-0.19,278.63
1665697114.51967502,395275831,1,0.65,-1.28,75.31,0.0071147470735013485,-0.013988818041980267,0.03613903000950813,0.01629786007106304,1.1135786771774292,-1.079289197921753,0.004279293119907379,0.62,-0.23,-0.19,278.63
1665697114.61967397,395375830,1,0.65,-1.28,75.3,0.008236776106059551,-0.013647262006998062,0.03594370186328888,0.024312658235430717,1.1156752109527588,-1.083472490310669,0.006322202738374472,0.62,-0.24,-0.19,278.63
1665697114.71968794,395475844,1,0.65,-1.28,75.29,0.008522679097950459,-0.014341444708406925,0.035364579409360886,0.02155132405459881,1.1172807216644287,-1.0885072946548462,0.008159372955560684,0.62,-0.23,-0.19,278.63
1665697114.81968498,395575841,1,0.65,-1.28,75.27,0.008596436120569706,-0.013825704343616962,0.03531079739332199,0.01784171722829342,1.1185375452041626,-1.0929778814315796,0.009554213844239712,0.62,-0.23,-0.19,278.63
1665697114.91969800,395675854,1,0.65,-1.28,75.26,0.007586206309497356,-0.014100504107773304,0.035004112869501114,0.005343591328710318,1.1193243265151978,-1.0972189903259277,0.010177996940910816,0.62,-0.23,-0.19,278.63
1665697115.01963592,395775792,1,0.65,-1.28,75.24,0.006032133940607309,-0.014322170987725258,0.035246774554252625,0.013388657942414284,1.1199396848678589,-1.10106360912323,0.01216039340943098,0.62,-0.23,-0.19,278.63
1665697115.11965394,395875810,1,0.65,-1.28,75.23,0.005518525373190641,-0.013694779016077518,0.03566309064626694,0.0323285348713398,1.1204755306243896,-1.1047180891036987,0.015361442230641842,0.62,-0.23,-0.19,278.63
1665697115.21965194,395975808,1,0.65,-1.28,75.21000000000001,0.00612565316259861,-0.012540552765130997,0.0360797718167305,0.03783847391605377,1.12154221534729,-1.1080154180526733,0.018744589760899544,0.62,-0.23,-0.19,278.63
1665697115.31964707,396075803,1,0.65,-1.28,75.2,0.007036437746137381,-0.011511305347084999,0.03725609555840492,0.04403819143772125,1.12337064743042,-1.1111952066421509,0.02278614044189453,0.62,-0.23,-0.19,278.63
1665697115.41965199,396175808,1,0.65,-1.28,75.2,0.007656736299395561,-0.011069050058722496,0.037410080432891846,0.04282879829406738,1.1249854564666748,-1.1146650314331055,0.026557214558124542,0.62,-0.23,-0.19,278.63
1665697115.51965094,396275807,1,0.64,-1.28,75.2,0.007472135126590729,-0.011794064193964005,0.03756855055689812,0.03200887516140938,1.1263238191604614,-1.1189641952514648,0.029500281438231468,0.62,-0.23,-0.19,278.63
1665697115.61965299,396375809,1,0.64,-1.28,75.21000000000001,0.007961391471326351,-0.01229150127619505,0.03820594772696495,0.02793828211724758,1.1277263164520264,-1.1225883960723877,0.032409559935331345,0.62,-0.23,-0.19,278.63
1665697115.71968293,396475839,1,0.64,-1.28,75.2,0.009153003804385662,-0.012608515098690987,0.03843148052692413,0.022660337388515472,1.1304854154586792,-1.1269298791885376,0.034764617681503296,0.62,-0.23,-0.19,278.63
1665697115.81969213,396575848,1,0.64,-1.27,75.21000000000001,0.011015862226486206,-0.012410194613039494,0.038175344467163086,0.01732673868536949,1.1332165002822876,-1.1309103965759277,0.03665879741311073,0.62,-0.23,-0.19,278.63
1665697115.91968012,396675836,1,0.64,-1.27,75.2,0.012066449970006943,-0.012648002244532108,0.038285885006189346,0.011436223052442074,1.1361408233642578,-1.1348496675491333,0.038117289543151855,0.62,-0.23,-0.19,278.63
1665697116.01968908,396775845,1,0.64,-1.27,75.19,0.012468574568629265,-0.012272867374122143,0.03845861926674843,0.013985526748001575,1.1387016773223877,-1.1380308866500854,0.03993534296751022,0.62,-0.23,-0.19,278.63
1665697116.11968613,396875842,1,0.64,-1.28,75.18,0.013056091032922268,-0.010607951320707798,0.03892092779278755,0.025764869526028633,1.1410826444625854,-1.1414929628372192,0.042759694159030914,0.62,-0.23,-0.19,278.63
1665697116.21969509,396975851,1,0.64,-1.27,75.17,0.013146094977855682,-0.010148386470973492,0.039723657071590424,0.030297957360744476,1.1439343690872192,-1.1444555521011353,0.04551975056529045,0.62,-0.23,-0.19,278.63
1665697116.31968498,397075841,1,0.64,-1.27,75.16,0.01425771415233612,-0.009086981415748596,0.040003202855587006,0.02821926772594452,1.1475220918655396,-1.147194743156433,0.048145584762096405,0.62,-0.23,-0.19,278.63
1665697116.41970015,397175856,1,0.65,-1.27,75.15,0.014901669695973396,-0.008630739524960518,0.03988754749298096,0.027978403493762016,1.1507607698440552,-1.1498783826828003,0.05091038718819618,0.62,-0.23,-0.19,278.63
1665697116.51971292,397275869,1,0.65,-1.27,75.16,0.01507844403386116,-0.008024533279240131,0.04078710451722145,0.03033570572733879,1.1537621021270752,-1.1528819799423218,0.053956858813762665,0.62,-0.23,-0.19,278.63
1665697116.61964893,397375805,1,0.65,-1.27,75.17,0.015303533524274826,-0.008493809960782528,0.04120056703686714,0.03199557214975357,1.1565808057785034,-1.156203269958496,0.056932125240564346,0.62,-0.23,-0.19,278.63
1665697116.71965909,397475815,1,0.64,-1.27,75.18,0.014857768081128597,-0.009040705859661102,0.041419196873903275,0.02326003462076187,1.1593077182769775,-1.160339593887329,0.05913173779845238,0.62,-0.23,-0.19,278.63
1665697116.81965709,397575813,1,0.64,-1.27,75.19,0.015381015837192535,-0.010398590005934238,0.041443370282649994,0.024163587018847466,1.16208815574646,-1.1647038459777832,0.061946894973516464,0.62,-0.23,-0.19,278.63
1665697116.91965008,397675806,1,0.64,-1.26,75.18,0.015891650691628456,-0.011792507953941822,0.04123210161924362,0.03468404337763786,1.1651932001113892,-1.1698533296585083,0.06558172404766083,0.62,-0.23,-0.19,278.63
1665697117.01965594,397775812,1,0.65,-1.26,75.17,0.01607844978570938,-0.011604970321059227,0.04089704155921936,0.037665434181690216,1.168518304824829,-1.174003005027771,0.06903902441263199,0.63,-0.23,-0.19,278.63
1665697117.11965799,397875814,1,0.65,-1.26,75.15,0.017098281532526016,-0.010437210090458393,0.04114103317260742,0.030843151733279228,1.17243492603302,-1.1772538423538208,0.07190816849470139,0.62,-0.23,-0.19,278.63
1665697117.21965504,397975811,1,0.65,-1.26,75.12,0.017285143956542015,-0.010740170255303383,0.04090715944766998,0.02263929322361946,1.1755001544952393,-1.1808162927627563,0.07396683841943741,0.62,-0.23,-0.19,278.63
1665697117.31968093,398075837,1,0.65,-1.26,75.09,0.016085144132375717,-0.011594927869737148,0.04006711766123772,0.007868370041251183,1.177631139755249,-1.1852706670761108,0.07512509822845459,0.62,-0.23,-0.19,278.63
1665697117.41969395,398175850,1,0.65,-1.26,75.07000000000001,0.014969155192375183,-0.011990801431238651,0.04014505445957184,0.008254733867943287,1.1798394918441772,-1.1894309520721436,0.07630067318677902,0.62,-0.23,-0.19,278.63
1665697117.51968098,398275837,1,0.65,-1.25,75.06,0.014507385902106762,-0.012606839649379253,0.04029802978038788,0.004859142936766148,1.1822794675827026,-1.1936911344528198,0.07711159437894821,0.62,-0.23,-0.19,278.63
1665697117.61966395,398375820,1,0.65,-1.25,75.06,0.014315355569124222,-0.012686571106314659,0.04024035111069679,0.011815137229859829,1.1847866773605347,-1.197885274887085,0.07876720279455185,0.63,-0.23,-0.19,278.63
1665697117.71969104,398475847,1,0.65,-1.25,75.06,0.014359243214130402,-0.01331261359155178,0.04007469862699509,0.020953195169568062,1.1875656843185425,-1.2024561166763306,0.08085959404706955,0.62,-0.23,-0.19,278.63
1665697117.81966901,398575825,1,0.65,-1.25,75.07000000000001,0.015505841933190823,-0.013125689700245857,0.03894772008061409,0.013775390572845936,1.1908987760543823,-1.206173062324524,0.08161592483520508,0.62,-0.23,-0.19,278.63
1665697117.91969013,398675846,1,0.65,-1.25,75.07000000000001,0.016154304146766663,-0.012448853813111782,0.038030318915843964,-0.012800226919353008,1.1951594352722168,-1.2092173099517822,0.08049381524324417,0.62,-0.23,-0.19,278.63
1665697118.01969194,398775848,1,0.65,-1.25,75.06,0.017287541180849075,-0.011428426951169968,0.03670758754014969,-0.02057236060500145,1.1995960474014282,-1.2115263938903809,0.07885081321001053,0.62,-0.23,-0.19,278.63
1665697118.11965203,398875808,1,0.65,-1.25,75.05,0.01867767609655857,-0.009684571996331215,0.03536025434732437,-0.02795667201280594,1.2046202421188354,-1.2131670713424683,0.07695654034614563,0.62,-0.23,-0.19,278.63
1665697118.21966505,398975821,1,0.66,-1.25,75.05,0.019373014569282532,-0.00883956253528595,0.03404492512345314,-0.01103189866989851,1.2092102766036987,-1.2155202627182007,0.07646908611059189,0.62,-0.23,-0.19,278.63
1665697118.31965494,399075811,1,0.65,-1.25,75.07000000000001,0.019946753978729248,-0.009173738770186901,0.03361426666378975,0.0002262350608361885,1.2135379314422607,-1.2190821170806885,0.07649724185466766,0.62,-0.23,-0.19,278.63
1665697118.41965294,399175809,1,0.66,-1.25,75.08,0.020953873172402382,-0.009959143586456776,0.03247946500778198,0.009505991823971272,1.218752384185791,-1.2225501537322998,0.07729935646057129,0.62,-0.23,-0.19,278.63
1665697118.51965809,399275814,1,0.66,-1.25,75.09,0.02288181148469448,-0.010699688456952572,0.032470449805259705,0.014543379656970501,1.2254706621170044,-1.2263320684432983,0.07834492623806,0.62,-0.23,-0.19,278.63
1665697118.61965394,399375810,1,0.65,-1.25,75.09,0.02430986799299717,-0.010968361981213093,0.031657349318265915,0.004414911847561598,1.2313827276229858,-1.230090856552124,0.07795625925064087,0.63,-0.23,-0.19,278.63
1665697118.71965909,399475815,1,0.66,-1.25,75.09,0.025471094995737076,-0.011224433779716492,0.029841158539056778,-0.015120936557650566,1.236814260482788,-1.2341821193695068,0.0768614411354065,0.63,-0.23,-0.19,278.63
1665697118.81965899,399575815,1,0.65,-1.25,75.08,0.026239018887281418,-0.011170051991939545,0.02866852656006813,-0.011994942091405392,1.2418354749679565,-1.2380890846252441,0.07590460032224655,0.62,-0.23,-0.19,278.63
1665697118.91970205,399675858,1,0.66,-1.25,75.07000000000001,0.026517048478126526,-0.011993047781288624,0.02736184373497963,-0.020969470962882042,1.2466633319854736,-1.242205262184143,0.07406295090913773,0.62,-0.23,-0.19,278.63
1665697119.01969600,399775852,1,0.66,-1.26,75.06,0.02720339596271515,-0.011789118871092796,0.0256962850689888,-0.02227097749710083,1.2513467073440552,-1.2458343505859375,0.07196096330881119,0.62,-0.23,-0.19,278.63
1665697119.11968899,399875845,1,0.66,-1.26,75.05,0.027653386816382408,-0.011327425017952919,0.023862823843955994,-0.03723325952887535,1.256225347518921,-1.2491824626922607,0.06865348666906357,0.63,-0.23,-0.19,278.63
1665697119.21967602,399975832,1,0.66,-1.25,75.04,0.02734915167093277,-0.011290926486253738,0.02193031646311283,-0.04420512914657593,1.260570764541626,-1.252275824546814,0.064163938164711,0.62,-0.23,-0.19,278.63
1665697119.31968093,400075837,1,0.66,-1.25,75.04,0.026920653879642487,-0.011810907162725925,0.019814880564808846,-0.07159171998500824,1.2645127773284912,-1.25539231300354,0.05775073543190956,0.62,-0.23,-0.19,278.63
1665697119.41969800,400175854,1,0.66,-1.25,75.06,0.02644841931760311,-0.011741929687559605,0.018011165782809258,-0.06195727363228798,1.2685937881469727,-1.2584197521209717,0.05262138321995735,0.62,-0.23,-0.19,278.63
1665697119.51969409,400275850,1,0.67,-1.25,75.06,0.02579154632985592,-0.011253788135945797,0.01670343056321144,-0.049107637256383896,1.2730159759521484,-1.2615785598754883,0.04825364798307419,0.62,-0.23,-0.19,278.63
1665697119.61968613,400375842,1,0.67,-1.24,75.07000000000001,0.026363736018538475,-0.010242863558232784,0.01535643171519041,-0.028502315282821655,1.2782560586929321,-1.2633622884750366,0.045621708035469055,0.62,-0.23,-0.19,278.63
1665697119.71965194,400475808,1,0.67,-1.25,75.07000000000001,0.02734540030360222,-0.007399185094982386,0.014777612872421741,-0.014858689159154892,1.2848619222640991,-1.2635594606399536,0.043590154498815536,0.62,-0.23,-0.19,278.63
1665697119.81965804,400575814,1,0.67,-1.25,75.06,0.02861330471932888,-0.0051971436478197575,0.014216644689440727,-0.002915401477366686,1.2906792163848877,-1.2639906406402588,0.04325899854302406,0.62,-0.23,-0.19,278.63
1665697119.91965604,400675812,1,0.67,-1.25,75.04,0.029156897217035294,-0.004992532543838024,0.014260521158576012,0.029848912730813026,1.2959723472595215,-1.2649632692337036,0.045724574476480484,0.62,-0.23,-0.19,278.63
1665697120.01965594,400775812,1,0.67,-1.25,75.02,0.03019225224852562,-0.004706505686044693,0.01406151708215475,0.042417511343955994,1.301401138305664,-1.2664722204208374,0.04881151393055916,0.62,-0.23,-0.19,278.63
1665697120.11965394,400875810,1,0.67,-1.26,75.01,0.030382387340068817,-0.004541374277323484,0.014743845909833908,0.042057812213897705,1.3073244094848633,-1.2687902450561523,0.05185730382800102,0.62,-0.23,-0.19,278.63
1665697120.21965694,400975813,1,0.67,-1.25,75.0,0.029889769852161407,-0.004963044077157974,0.015086939558386803,0.021255305036902428,1.3127282857894897,-1.27084219455719,0.05285551771521568,0.62,-0.23,-0.19,278.63
1665697120.31965399,401075810,1,0.67,-1.25,75.01,0.028984887525439262,-0.0047846301458776,0.015549987554550171,-0.006135843228548765,1.317851185798645,-1.2727835178375244,0.05243414267897606,0.62,-0.23,-0.19,278.63
1665697120.41965413,401175810,1,0.67,-1.25,75.03,0.02795489877462387,-0.00508416211232543,0.015595809556543827,-0.0073303962126374245,1.3222233057022095,-1.2745325565338135,0.05240718647837639,0.62,-0.23,-0.19,278.63
1665697120.51969814,401275854,1,0.68,-1.26,75.05,0.026177547872066498,-0.003718650434166193,0.014937194995582104,-0.011127025820314884,1.3258838653564453,-1.2761763334274292,0.0516270250082016,0.62,-0.23,-0.19,278.63
1665697120.61968207,401375838,1,0.68,-1.26,75.08,0.02531392127275467,-0.0038864740636199713,0.013918966054916382,-0.01455604750663042,1.3295238018035889,-1.277835726737976,0.050535477697849274,0.62,-0.23,-0.19,278.63
1665697120.71968699,401475843,1,0.6900000000000001,-1.26,75.11,0.02483939193189144,-0.0034669232554733753,0.01308704074472189,-0.017446419224143028,1.3334295749664307,-1.2797480821609497,0.04920444265007973,0.62,-0.23,-0.19,278.63
1665697120.81968307,401575839,1,0.6900000000000001,-1.26,75.13,0.023873725906014442,-0.0023464928381145,0.011341145262122154,-0.04211997613310814,1.337298035621643,-1.2812026739120483,0.04445364326238632,0.62,-0.23,-0.19,278.63
1665697120.91966796,401675824,1,0.6900000000000001,-1.26,75.14,0.0230497345328331,-0.0011779245687648654,0.010141626000404358,-0.07979816198348999,1.341413140296936,-1.2823636531829834,0.037529245018959045,0.62,-0.23,-0.19,278.63
1665697121.01967311,401775829,1,0.6900000000000001,-1.26,75.15,0.02288784459233284,-0.00027568580117076635,0.008963025175035,-0.061722591519355774,1.345832109451294,-1.2831449508666992,0.0334029421210289,0.62,-0.23,-0.19,278.63
1665697121.11968613,401875842,1,0.6900000000000001,-1.26,75.15,0.02266891673207283,0.0014525078004226089,0.008687174879014492,-0.025527557358145714,1.350965976715088,-1.2836101055145264,0.03125256299972534,0.62,-0.23,-0.19,278.63
1665697121.21965814,401975814,1,0.6900000000000001,-1.26,75.15,0.02234814688563347,0.0033611387480050325,0.009042116813361645,-0.005714270751923323,1.3557976484298706,-1.2840418815612793,0.030150078237056732,0.62,-0.23,-0.19,278.63
1665697121.31965399,402075810,1,0.7000000000000001,-1.26,75.15,0.022389503195881844,0.004128003492951393,0.008645796217024326,-0.007101085968315601,1.360689401626587,-1.284650444984436,0.028492117300629616,0.62,-0.23,-0.19,278.63
1665697121.41965508,402175811,1,0.7000000000000001,-1.26,75.15,0.02224874496459961,0.005137480795383453,0.007901741191744804,-0.041639186441898346,1.3656631708145142,-1.2849335670471191,0.023296358063817024,0.62,-0.23,-0.19,278.63
1665697121.51964998,402275806,1,0.7000000000000001,-1.25,75.15,0.021738441661000252,0.006101041566580534,0.00729061383754015,-0.06432145833969116,1.3710663318634033,-1.284933090209961,0.01793798990547657,0.62,-0.23,-0.19,278.63
1665697121.61964297,402375799,1,0.7000000000000001,-1.25,75.15,0.022050241008400917,0.006656486541032791,0.006608871277421713,-0.06278370320796967,1.376724123954773,-1.284781575202942,0.012382261455059052,0.62,-0.23,-0.19,278.63
1665697121.71965003,402475806,1,0.7000000000000001,-1.25,75.15,0.021941231563687325,0.007670185994356871,0.0054947384633123875,-0.08473280072212219,1.3831712007522583,-1.2845971584320068,0.0040069324895739555,0.62,-0.23,-0.19,278.63
1665697121.81964612,402575802,1,0.7000000000000001,-1.25,75.17,0.022069131955504417,0.008111164905130863,0.004322411958128214,-0.08407989889383316,1.3888436555862427,-1.2844083309173584,-0.0028223947156220675,0.62,-0.23,-0.19,278.63
1665697121.91964507,402675801,1,0.7000000000000001,-1.26,75.18,0.021635811775922775,0.009141242131590843,0.002949685091152787,-0.05650213733315468,1.3941066265106201,-1.2843811511993408,-0.0077889603562653065,0.62,-0.23,-0.19,278.63
1665697122.01968503,402775841,1,0.7000000000000001,-1.26,75.2,0.020381605252623558,0.009663397446274757,0.002397398464381695,-0.030960459262132645,1.3983817100524902,-1.284138798713684,-0.010995324701070786,0.62,-0.23,-0.19,278.63
1665697122.11968207,402875838,1,0.71,-1.25,75.2,0.019597338512539864,0.009705438278615475,0.0013074091402813792,-0.03076055459678173,1.4024343490600586,-1.284934401512146,-0.015144496224820614,0.62,-0.23,-0.19,278.63
1665697122.21968293,402975839,1,0.71,-1.25,75.19,0.017696142196655273,0.010324103757739067,0.0012486869236454368,-0.04004944488406181,1.4056936502456665,-1.2852230072021484,-0.01939976215362549,0.62,-0.23,-0.19,278.63
1665697122.31965494,403075811,1,0.72,-1.25,75.18,0.015583687461912632,0.012446708045899868,0.0007716173422522843,-0.03288174793124199,1.4082589149475098,-1.2849645614624023,-0.02253567986190319,0.62,-0.23,-0.19,278.63
1665697122.41967893,403175835,1,0.72,-1.25,75.15,0.013894068077206612,0.012445451691746712,0.0009133082930929959,-0.009442785754799843,1.4108924865722656,-1.2853132486343384,-0.023434435948729515,0.62,-0.23,-0.19,278.63
1665697122.51967502,403275831,1,0.73,-1.25,75.12,0.012701376341283321,0.011545886285603046,0.001293349894694984,0.010162836872041225,1.413934588432312,-1.2868221998214722,-0.0231090746819973,0.62,-0.23,-0.19,278.63
1665697122.61967897,403375835,1,0.73,-1.24,75.11,0.010649122297763824,0.010098153725266457,0.0008002654067240655,0.0038576540537178516,1.416640281677246,-1.2894091606140137,-0.024006452411413193,0.62,-0.24,-0.19,278.63
1665697122.71968603,403475842,1,0.73,-1.24,75.10000000000001,0.009832749143242836,0.0073882960714399815,-0.00035369626129977405,-0.018501508980989456,1.419372797012329,-1.293823480606079,-0.026169680058956146,0.62,-0.24,-0.19,278.63
1665697122.81963301,403575789,1,0.73,-1.23,75.09,0.008789646439254284,0.0056506865657866,-0.001274566282518208,-0.019350247457623482,1.4216434955596924,-1.2976794242858887,-0.027592940255999565,0.62,-0.24,-0.19,278.63
1665697122.91964912,403675805,1,0.74,-1.23,75.09,0.006992563139647245,0.003998458851128817,-0.0016525984974578023,-0.02299482747912407,1.423578143119812,-1.3013255596160889,-0.03006957843899727,0.62,-0.24,-0.19,278.63
1665697123.01964903,403775805,1,0.74,-1.22,75.10000000000001,0.005523844622075558,0.0034219215158373117,-0.002409502398222685,-0.04664098843932152,1.4258759021759033,-1.3040577173233032,-0.03476250171661377,0.62,-0.24,-0.19,278.63
1665697123.11964798,403875804,1,0.75,-1.22,75.10000000000001,0.004638112615793943,0.003252706490457058,-0.0033110142685472965,-0.058805085718631744,1.428916096687317,-1.305975079536438,-0.039699453860521317,0.62,-0.24,-0.19,278.63
1665697123.21964598,403975802,1,0.75,-1.22,75.10000000000001,0.004145674407482147,0.0024460800923407078,-0.004238132853060961,-0.0523395761847496,1.4320359230041504,-1.3079503774642944,-0.044040244072675705,0.62,-0.24,-0.19,278.63
1665697123.31965899,404075815,1,0.76,-1.21,75.11,0.0027114583645015955,0.0012837457470595837,-0.004864173475652933,-0.04381468519568443,1.4355982542037964,-1.3103259801864624,-0.048152245581150055,0.62,-0.24,-0.19,278.63
1665697123.41965103,404175807,1,0.76,-1.21,75.11,0.0015315953642129898,0.0007091923034749925,-0.005440880078822374,-0.0347135029733181,1.4388096332550049,-1.3129010200500488,-0.05132528766989708,0.62,-0.24,-0.19,278.63
