timestamp,TimeUS,DesRoll,Roll,DesPitch,Pitch,DesYaw,Yaw,ErrRP,ErrYaw,AEKF
1682373553.99931121,112122446,0.0,-0.85,0.0,0.56,184.73,184.74,0.0,0.01,3
1682373554.09948921,112222624,0.0,-0.85,0.0,0.56,184.73,184.75,0.0,0.01,3
1682373554.19925618,112322391,0.0,-0.85,0.0,0.56,184.73,184.75,0.0,0.01,3
1682373554.29937315,112422508,0.0,-0.85,0.0,0.55,184.73,184.74,0.0,0.01,3
1682373554.39948916,112522624,0.0,-0.85,0.0,0.55,184.73,184.75,0.0,0.01,3
1682373554.49906325,112622198,0.0,-0.85,0.0,0.56,184.73,184.75,0.0,0.01,3
1682373554.59912109,112722256,0.0,-0.85,0.0,0.56,184.73,184.75,0.0,0.01,3
1682373554.69951725,112822652,0.0,-0.85,0.0,0.56,184.73,184.76,0.0,0.01,3
1682373554.79947019,112922605,0.0,-0.85,0.0,0.56,184.73,184.76,0.0,0.01,3
1682373554.89949107,113022626,0.0,-0.85,0.0,0.56,184.73,184.75,0.0,0.01,3
1682373554.99945426,113122589,0.0,-0.85,0.0,0.56,184.73,184.75,0.0,0.01,3
1682373555.09979510,113222930,0.0,-0.85,0.0,0.56,184.73,184.74,0.0,0.01,3
1682373555.19951105,113322646,0.0,-0.85,0.0,0.56,184.73,184.73,0.0,0.01,3
1682373555.29976821,113422903,0.0,-0.85,0.0,0.56,184.73,184.73,0.0,0.01,3
1682373555.39974523,113522880,0.0,-0.85,0.0,0.5700000000000001,184.73,184.73,0.0,0.01,3
1682373555.49942112,113622556,0.0,-0.85,0.0,0.5700000000000001,184.71,184.72,0.0,0.01,3
1682373555.59954119,113722676,0.0,-0.85,0.0,0.5700000000000001,184.72,184.73,0.0,0.01,3
1682373555.69938111,113822516,0.0,-0.85,0.0,0.5700000000000001,184.72,184.73,0.0,0.01,3
1682373555.79943419,113922569,0.0,-0.85,0.0,0.5700000000000001,184.72,184.73,0.0,0.01,3
1682373555.89938927,114022524,0.0,-0.85,0.0,0.5700000000000001,184.72,184.73,0.0,0.01,3
1682373555.99946022,114122595,0.0,-0.86,0.0,0.5700000000000001,184.72,184.73,0.0,0.01,3
1682373556.09971023,114222845,0.0,-0.85,0.0,0.5700000000000001,184.71,184.72,0.01,0.0,3
1682373556.19945312,114322588,0.0,-0.86,0.0,0.5700000000000001,184.71,184.72,0.01,0.0,3
1682373556.29944921,114422584,0.0,-0.86,0.0,0.5700000000000001,184.71,184.72,0.0,0.0,3
1682373556.39973617,114522871,0.0,-0.86,0.0,0.5700000000000001,184.70000000000002,184.71,0.0,0.0,3
1682373556.49953604,114622671,0.0,-0.86,0.0,0.58,184.70000000000002,184.71,0.0,0.0,3
1682373556.59918618,114722321,0.0,-0.87,0.0,0.5700000000000001,184.70000000000002,184.71,0.0,0.0,3
1682373556.69923615,114822371,0.0,-0.87,0.0,0.5700000000000001,184.70000000000002,184.71,0.0,0.0,3
1682373556.79922414,114922359,0.0,-0.86,0.0,0.58,184.70000000000002,184.71,0.0,0.01,3
1682373556.89933109,115022466,0.0,-0.86,0.0,0.5700000000000001,184.70000000000002,184.70000000000002,0.01,0.01,3
1682373556.99927211,115122407,0.0,-0.86,0.0,0.58,184.70000000000002,184.71,0.01,0.01,3
1682373557.09918714,115222322,0.0,-0.87,0.0,0.56,184.70000000000002,184.70000000000002,0.01,0.01,3
1682373557.19948912,115322624,0.0,-0.87,0.0,0.5700000000000001,184.70000000000002,184.71,0.01,0.01,3
1682373557.29953718,115422672,0.0,-0.87,0.0,0.54,184.70000000000002,184.72,0.01,0.0,3
1682373557.39953303,115522668,0.0,-0.85,0.0,0.5700000000000001,184.70000000000002,184.73,0.01,0.0,3
1682373557.49921107,115622346,0.0,-0.9500000000000001,0.18,0.5,184.70000000000002,184.68,0.01,0.01,3
1682373557.59925723,115722392,0.51,-1.3,0.49,0.19,184.70000000000002,184.69,0.01,0.01,3
1682373557.69923925,115822374,1.09,-0.48,1.22,-0.53,184.72,184.76,0.01,0.01,3
1682373557.79935312,115922488,0.8200000000000001,1.71,1.09,0.99,184.71,184.65,0.01,0.03,3
1682373557.89927220,116022407,0.93,2.2,1.3800000000000001,1.6,184.72,184.56,0.01,0.04,3
1682373557.99918413,116122319,0.9,1.6500000000000001,1.6600000000000001,1.21,184.72,184.34,0.01,0.03,3
1682373558.09935904,116222494,0.56,1.46,1.46,1.31,184.72,184.1,0.01,0.03,3
1682373558.19917417,116322309,0.53,0.98,1.48,1.1,184.72,183.89000000000001,0.01,0.02,3
1682373558.29936123,116422496,0.52,0.51,1.52,0.85,184.72,183.68,0.01,0.02,3
1682373558.39951921,116522654,0.55,0.37,1.45,0.9400000000000001,184.72,183.48,0.01,0.02,3
1682373558.49959111,116622726,0.75,0.46,1.42,1.11,184.72,183.32,0.01,0.02,3
1682373558.59935617,116722491,0.9400000000000001,0.8200000000000001,1.43,1.1400000000000001,184.72,183.14000000000001,0.01,0.02,3
1682373558.69949317,116822628,1.1,0.9500000000000001,1.56,1.19,184.72,183.01,0.03,0.02,3
1682373558.79948926,116922624,1.16,0.89,1.69,1.4000000000000001,184.72,182.88,0.03,0.02,3
1682373558.89947414,117022609,1.22,0.77,1.73,1.58,184.73,182.8,0.04,0.01,3
1682373558.99943304,117122568,1.3,0.98,1.7,1.47,184.72,182.70000000000002,0.04,0.01,3
1682373559.09939003,117222525,1.37,0.91,1.6500000000000001,1.4000000000000001,184.72,182.61,0.04,0.01,3
1682373559.19950509,117322640,1.37,0.97,1.6500000000000001,1.46,184.72,182.57,0.04,0.01,3
1682373559.29982305,117422958,1.4000000000000001,1.16,1.73,1.43,184.73,182.48,0.03,0.01,3
1682373559.39947915,117522614,1.42,1.07,1.78,1.54,184.73,182.42000000000002,0.03,0.01,3
1682373559.49942923,117622564,1.4000000000000001,1.33,1.93,1.6600000000000001,184.73,182.34,0.03,0.01,3
1682373559.59948921,117722624,1.35,1.19,2.1,1.8900000000000001,184.73,182.3,0.03,0.01,3
1682373559.69946504,117822600,1.3,1.12,2.16,2.13,184.74,182.20000000000002,0.03,0.01,3
1682373559.79947805,117922613,1.28,0.8300000000000001,2.16,2.11,184.74,182.07,0.03,0.01,3
1682373559.89942026,118022555,1.34,1.19,2.08,1.99,184.73,181.96,0.04,0.01,3
1682373559.99939704,118122532,1.41,1.26,2.04,1.79,184.73,181.89000000000001,0.04,0.01,3
1682373560.09951019,118222645,1.28,1.52,2.07,1.73,184.73,181.78,0.05,0.01,3
1682373560.19976211,118322897,1.08,1.2,2.1,1.84,184.73,181.78,0.05,0.01,3
1682373560.29956818,118422703,0.9500000000000001,0.77,2.07,1.84,184.73,181.83,0.05,0.01,3
1682373560.39947510,118522610,0.87,0.68,2.02,1.84,184.73,181.85,0.05,0.01,3
1682373560.49952507,118622660,0.91,0.58,1.96,1.87,184.73,181.96,0.05,0.01,3
1682373560.59932923,118722464,1.02,0.59,1.9100000000000001,1.85,184.73,182.07,0.05,0.02,3
1682373560.69958019,118822715,1.01,0.81,1.85,1.9000000000000001,184.73,182.24,0.04,0.02,3
1682373560.79952717,118922662,1.02,0.5,1.79,1.79,184.73,182.37,0.04,0.02,3
1682373560.89945221,119022587,0.93,0.66,1.77,1.76,184.73,182.5,0.04,0.01,3
1682373560.99955726,119122692,0.89,0.61,1.78,1.75,184.73,182.62,0.04,0.01,3
1682373561.09983110,119222966,0.84,0.5,1.72,1.71,184.73,182.78,0.03,0.01,3
1682373561.19981122,119322946,0.76,0.4,1.69,1.6,184.73,182.88,0.03,0.01,3
1682373561.29953313,119422668,0.72,0.47000000000000003,1.6500000000000001,1.58,184.73,183.02,0.04,0.01,3
1682373561.39952016,119522655,0.62,0.64,1.6400000000000001,1.55,184.73,183.12,0.04,0.01,3
1682373561.49926710,119622402,0.65,0.31,1.6500000000000001,1.52,184.73,183.22,0.04,0.02,3
1682373561.59918118,119722316,0.6900000000000001,0.45,1.67,1.53,184.73,183.3,0.04,0.01,3
1682373561.69919324,119822328,0.77,0.5,1.67,1.5,184.73,183.38,0.03,0.01,3
1682373561.79917908,119922314,0.85,0.77,1.67,1.54,184.73,183.42000000000002,0.03,0.01,3
1682373561.89930606,120022441,0.78,0.85,1.55,1.58,183.25,182.01,0.04,0.01,3
1682373561.99922705,120122362,0.86,0.9500000000000001,1.45,1.5,183.25,182.14000000000001,0.04,0.01,3
1682373562.09932923,120222464,0.86,0.8,1.34,1.34,183.25,182.26,0.03,0.01,3
1682373562.19930720,120322442,0.9,0.9,1.25,1.33,183.25,182.22,0.03,0.01,3
1682373562.29955912,120422694,0.9,0.96,1.22,1.31,183.25,182.17000000000002,0.03,0.01,3
1682373562.39927626,120522411,0.91,0.93,1.22,1.32,183.25,182.09,0.03,0.01,3
1682373562.49918318,120622318,0.89,1.05,1.22,1.33,183.25,182.0,0.02,0.01,3
1682373562.59919620,120722331,0.87,1.18,1.22,1.28,183.25,181.98,0.02,0.01,3
1682373562.69919825,120822333,0.91,0.89,1.2,1.18,183.25,181.85,0.02,0.0,3
1682373562.79931426,120922449,0.9500000000000001,1.29,1.19,1.18,183.25,181.77,0.02,0.01,3
1682373562.89948511,121022620,0.96,1.19,1.26,1.22,183.25,181.75,0.03,0.01,3
1682373562.99952507,121122660,0.97,1.0,1.33,1.34,183.25,181.84,0.03,0.02,3
1682373563.09948015,121222615,0.92,1.19,1.31,1.45,183.25,181.91,0.04,0.01,3
1682373563.19954014,121322675,0.86,0.98,1.25,1.34,183.25,181.97,0.04,0.01,3
1682373563.29934812,121422483,0.85,1.11,1.33,1.27,183.25,182.08,0.06,0.01,3
1682373563.39947009,121522605,0.9,0.93,1.49,1.44,183.25,182.14000000000001,0.06,0.01,3
1682373563.49932504,121622460,0.92,1.31,1.56,1.7,183.25,182.17000000000002,0.06,0.01,3
1682373563.59936523,121722500,0.9400000000000001,1.07,1.58,1.72,183.25,182.16,0.06,0.01,3
1682373563.69948411,121822619,0.92,1.2,1.55,1.78,183.25,182.16,0.06,0.0,3
1682373563.79942918,121922564,0.96,1.1300000000000001,1.54,1.73,183.25,182.15,0.06,0.0,3
1682373563.89945221,122022587,0.92,1.0,1.48,1.62,183.25,182.14000000000001,0.05,0.0,3
1682373563.99943805,122122573,0.87,0.9400000000000001,1.42,1.5,183.25,182.13,0.05,0.0,3
1682373564.09946918,122222604,0.8300000000000001,0.84,1.48,1.34,183.25,182.09,0.05,0.0,3
1682373564.19947624,122322611,0.8300000000000001,0.88,1.57,1.53,183.25,182.07,0.05,0.0,3
1682373564.29968309,122422818,0.85,0.88,1.6400000000000001,1.77,183.25,182.05,0.05,0.0,3
1682373564.39919305,122522328,0.89,0.74,1.67,1.87,183.26,182.06,0.05,0.0,3
1682373564.49953318,122622668,0.92,0.6,1.77,1.87,183.26,182.08,0.04,0.01,3
1682373564.59955525,122722690,0.9400000000000001,0.64,1.7,1.9000000000000001,183.27,182.03,0.04,0.01,3
1682373564.69953823,122822673,0.84,0.66,1.47,1.77,183.26,182.02,0.03,0.0,3
1682373564.79970908,122922844,0.63,0.34,1.04,1.25,183.26,182.0,0.03,0.0,3
1682373564.89958525,123022720,0.35000000000000003,0.2,0.43,0.62,183.25,181.9,0.03,0.0,3
1682373564.99953008,123122665,-0.01,-0.29,-0.18,-0.19,182.76,181.85,0.03,0.0,3
1682373565.09952521,123222660,-0.25,-0.66,-0.72,-0.99,181.39000000000001,181.71,0.03,0.01,3
1682373565.19976115,123322896,-0.42,-0.87,-1.23,-1.59,179.14000000000001,181.26,0.03,0.0,3
1682373565.29960608,123422741,-0.48,-0.98,-1.68,-2.0300000000000002,176.01,180.41,0.03,0.0,3
1682373565.39945412,123522589,-0.4,-1.01,-2.17,-2.43,171.99,179.08,0.03,0.0,3
1682373565.49953508,123622670,-0.18,-1.03,-2.61,-2.71,167.6,177.23,0.03,0.01,3
1682373565.59953523,123722670,0.03,-0.99,-2.86,-2.96,164.04,174.94,0.03,0.02,3
1682373565.69954515,123822680,0.29,-0.48,-2.92,-3.06,161.36,172.17000000000002,0.02,0.02,3
1682373565.79950809,123922643,0.61,-0.16,-2.86,-2.95,159.56,169.38,0.02,0.03,3
1682373565.89952016,124022655,0.9,0.65,-2.54,-2.93,158.57,166.4,0.02,0.03,3
1682373565.99952316,124122658,1.08,1.17,-2.05,-2.54,158.08,163.44,0.02,0.04,3
1682373566.09973121,124222866,1.37,1.43,-1.49,-1.81,157.83,160.16,0.03,0.04,3
1682373566.19953203,124322667,1.7,1.79,-0.87,-1.08,157.70000000000002,156.95000000000002,0.03,0.05,3
1682373566.29956007,124422695,1.93,2.41,-0.32,-0.17,157.64000000000001,153.76,0.02,0.04,3
1682373566.39956212,124522697,2.31,2.5,0.17,0.51,157.62,150.8,0.02,0.04,3
1682373566.49923921,124622374,2.46,3.0,0.7000000000000001,1.26,157.61,148.20000000000002,0.02,0.05,3
1682373566.59932113,124722456,2.54,2.9,1.21,1.85,157.61,145.99,0.02,0.05,3
1682373566.69925618,124822391,2.5500000000000003,3.1,1.6300000000000001,2.45,157.62,143.93,0.02,0.05,3
1682373566.79936123,124922496,2.47,2.58,1.9100000000000001,2.71,157.62,142.29,0.02,0.05,3
1682373566.89937305,125022508,2.4,2.58,1.8800000000000001,2.95,157.62,140.97,0.02,0.06,3
1682373566.99960423,125122739,2.14,2.23,1.75,2.79,157.61,140.06,0.02,0.06,3
1682373567.09956026,125222695,1.9000000000000001,1.74,1.56,2.44,157.61,139.47,0.02,0.06,3
1682373567.19953704,125322672,1.77,1.76,1.28,2.12,157.6,139.19,0.02,0.07,3
1682373567.29968023,125422815,1.44,1.29,1.21,1.79,157.59,139.13,0.02,0.07,3
1682373567.39946318,125522598,1.34,0.92,1.1400000000000001,1.62,157.59,139.29,0.02,0.07,3
1682373567.49949408,125622629,1.03,0.8300000000000001,1.1300000000000001,1.52,157.59,139.62,0.02,0.07,3
1682373567.59952927,125722664,0.74,0.31,1.23,1.32,157.59,140.24,0.02,0.06,3
1682373567.69947815,125822613,0.53,0.1,1.18,1.22,157.58,140.96,0.03,0.06,3
1682373567.79947424,125922609,0.33,-0.15,1.17,1.16,157.58,141.89000000000001,0.03,0.05,3
1682373567.89946604,126022601,0.14,-0.17,1.1,1.06,157.58,142.94,0.02,0.05,3
1682373567.99944019,126122575,0.01,-0.13,0.99,1.04,157.58,144.02,0.02,0.05,3
1682373568.09972525,126222860,-0.08,-0.02,0.92,0.97,157.58,145.24,0.02,0.05,3
1682373568.19968224,126322817,-0.1,-0.02,0.8,0.93,157.58,146.48,0.02,0.05,3
1682373568.29933214,126422467,-0.19,-0.17,0.8200000000000001,0.81,157.58,147.65,0.02,0.05,3
1682373568.39934707,126522482,-0.22,-0.17,0.85,0.77,157.58,148.82,0.02,0.04,3
1682373568.49926114,126622396,-0.27,-0.6,0.8300000000000001,0.77,157.58,149.98,0.03,0.04,3
1682373568.59936404,126722499,-0.21,-1.0,0.81,0.54,157.58,151.15,0.03,0.04,3
1682373568.69930124,126822436,0.01,-1.4000000000000001,0.65,0.6,157.58,152.26,0.03,0.03,3
1682373568.79953623,126922671,0.34,-0.89,0.56,0.6,157.58,153.36,0.03,0.04,3
1682373568.89953804,127022673,0.59,-0.56,0.51,0.59,157.58,154.38,0.03,0.03,3
1682373568.99957919,127122714,0.76,-0.32,0.49,0.62,157.58,155.31,0.03,0.03,3
1682373569.09970427,127222839,0.87,0.02,0.5700000000000001,0.6900000000000001,157.58,156.08,0.03,0.02,3
1682373569.19954705,127322682,0.92,0.3,0.66,0.72,157.58,156.72,0.03,0.02,3
1682373569.29957604,127422711,0.91,0.32,0.7000000000000001,0.76,157.58,157.23,0.03,0.03,3
1682373569.39948916,127522624,0.84,0.54,0.76,0.77,157.58,157.68,0.03,0.03,3
1682373569.49950409,127622639,0.85,0.49,0.75,0.8200000000000001,157.58,157.96,0.03,0.03,3
1682373569.59953117,127722666,0.85,0.5700000000000001,0.7000000000000001,0.8,157.58,158.12,0.03,0.03,3
1682373569.69953704,127822672,0.91,0.55,0.6900000000000001,0.71,157.58,158.27,0.03,0.03,3
1682373569.79958916,127922724,0.97,0.66,0.65,0.65,157.58,158.31,0.03,0.03,3
1682373569.89952826,128022663,1.06,0.92,0.61,0.59,157.58,158.24,0.03,0.03,3
1682373569.99969006,128122825,1.18,0.86,0.5700000000000001,0.58,157.58,158.1,0.03,0.03,3
1682373570.09983420,128222969,1.27,1.21,0.5,0.55,157.58,157.93,0.03,0.03,3
1682373570.19933414,128322469,1.37,1.16,0.48,0.51,157.58,157.73,0.03,0.03,3
1682373570.29933524,128422470,1.44,1.17,0.47000000000000003,0.52,157.58,157.52,0.02,0.03,3
1682373570.39934707,128522482,1.5,1.36,0.49,0.51,157.59,157.33,0.02,0.03,3
1682373570.49928617,128622421,1.47,1.55,0.63,0.52,157.59,157.08,0.03,0.03,3
1682373570.59929013,128722425,1.3800000000000001,1.49,0.79,0.6900000000000001,157.59,156.88,0.03,0.02,3
1682373570.69924426,128822379,1.27,1.45,0.97,0.96,157.59,156.69,0.02,0.03,3
1682373570.79917622,128922311,1.08,1.28,1.12,1.08,157.59,156.54,0.02,0.03,3
1682373570.89931417,129022449,1.01,0.9400000000000001,1.28,1.21,157.59,156.4,0.02,0.02,3
1682373570.99954009,129122675,0.9500000000000001,0.88,1.41,1.37,157.59,156.3,0.02,0.02,3
1682373571.09937620,129222511,0.9,0.97,1.5,1.45,157.59,156.26,0.02,0.02,3
1682373571.19951105,129322646,0.85,1.07,1.58,1.58,157.59,156.25,0.02,0.02,3
1682373571.29951310,129422648,0.84,0.87,1.62,1.58,157.59,156.29,0.03,0.03,3
1682373571.39947605,129522611,0.87,1.17,1.6500000000000001,1.71,157.59,156.37,0.03,0.02,3
1682373571.49947906,129622614,0.81,1.24,1.6400000000000001,1.73,157.59,156.46,0.03,0.02,3
1682373571.59943318,129722568,0.74,0.86,1.61,1.6300000000000001,157.59,156.56,0.03,0.02,3
1682373571.69940209,129822537,0.67,0.73,1.58,1.68,157.59,156.67000000000002,0.03,0.02,3
1682373571.79952216,129922657,0.59,0.98,1.56,1.6,157.59,156.8,0.03,0.02,3
1682373571.89979720,130022932,0.44,0.74,1.58,1.56,157.58,156.86,0.02,0.02,3
1682373571.99934626,130122481,0.3,0.67,1.58,1.51,157.58,157.02,0.02,0.02,3
1682373572.09926319,130222398,0.27,0.4,1.54,1.48,157.58,157.21,0.03,0.01,3
1682373572.19935107,130322486,0.31,0.56,1.49,1.52,157.58,157.38,0.03,0.01,3
1682373572.29937506,130422510,0.34,0.35000000000000003,1.4000000000000001,1.42,157.58,157.58,0.03,0.01,3
1682373572.39928508,130522420,0.42,0.62,1.27,1.35,157.58,157.77,0.03,0.01,3
1682373572.49920416,130622339,0.44,0.7000000000000001,1.17,1.17,157.58,158.01,0.03,0.01,3
1682373572.59915709,130722292,0.49,0.78,1.1,1.12,157.58,158.20000000000002,0.03,0.01,3
1682373572.69930410,130822439,0.52,0.7000000000000001,1.06,1.07,157.58,158.38,0.02,0.02,3
1682373572.79955006,130922685,0.59,0.6,1.02,1.05,157.58,158.6,0.02,0.02,3
1682373572.89954615,131022681,0.7000000000000001,0.66,0.9400000000000001,1.01,157.58,158.76,0.03,0.02,3
1682373572.99949026,131122625,0.75,0.67,0.8200000000000001,0.93,157.58,158.92000000000002,0.03,0.02,3
1682373573.09952021,131222655,0.76,0.67,0.85,0.8,157.58,159.0,0.04,0.02,3
1682373573.19939709,131322532,0.6900000000000001,0.71,0.92,0.9,157.58,159.08,0.04,0.02,3
1682373573.29959416,131422729,0.6900000000000001,0.68,1.01,1.08,157.59,159.15,0.05,0.01,3
1682373573.39954114,131522676,0.73,0.8200000000000001,1.1,1.18,157.59,159.17000000000002,0.05,0.01,3
1682373573.49953008,131622665,0.77,0.79,1.06,1.32,157.59,159.16,0.04,0.01,3
1682373573.59967422,131722809,0.87,0.86,1.04,1.17,157.59,159.11,0.04,0.01,3
1682373573.69953203,131822667,0.9500000000000001,0.9500000000000001,1.04,1.1300000000000001,157.59,159.06,0.04,0.01,3
1682373573.79954219,131922677,1.04,1.1400000000000001,1.08,1.19,157.59,158.97,0.04,0.01,3
1682373573.89948606,132022621,0.92,1.25,1.1,1.35,157.59,158.81,0.05,0.01,3
1682373573.99952126,132122656,0.75,0.88,1.06,1.31,157.59,158.6,0.05,0.01,3
1682373574.09929013,132222425,0.62,0.6900000000000001,1.07,1.24,157.58,158.39000000000001,0.06,0.01,3
1682373574.19922423,132322359,0.53,0.56,1.08,1.32,157.58,158.20000000000002,0.06,0.01,3
1682373574.29926515,132422400,0.55,0.28,1.16,1.32,157.58,158.02,0.05,0.01,3
1682373574.39916706,132522302,0.56,0.5700000000000001,1.23,1.46,157.58,157.82,0.05,0.02,3
1682373574.49929810,132622433,0.53,0.71,1.27,1.4000000000000001,157.58,157.61,0.04,0.01,3
1682373574.59924912,132722384,0.5,0.51,1.29,1.43,157.58,157.48,0.04,0.01,3
1682373574.69932103,132822456,0.47000000000000003,0.78,1.27,1.5,157.58,157.34,0.04,0.01,3
1682373574.79950523,132922640,0.45,0.65,1.28,1.34,157.58,157.25,0.04,0.01,3
1682373574.89952111,133022656,0.42,0.56,1.28,1.3,157.58,157.17000000000002,0.03,0.02,3
1682373574.99931121,133122446,0.35000000000000003,0.59,1.29,1.3900000000000001,157.58,157.11,0.03,0.02,3
1682373575.09949923,133222634,0.29,0.59,1.23,1.43,157.58,157.08,0.03,0.02,3
1682373575.19947720,133322612,0.23,0.46,1.16,1.36,157.58,157.06,0.03,0.01,3
1682373575.29955626,133422691,0.28,0.52,1.09,1.22,157.58,157.06,0.03,0.02,3
1682373575.39951706,133522652,0.38,0.51,1.03,1.06,157.58,157.15,0.03,0.01,3
1682373575.49940825,133622543,0.46,0.56,0.96,1.0,157.58,157.22,0.03,0.01,3
1682373575.59949207,133722627,0.59,0.78,0.89,0.97,157.58,157.32,0.03,0.01,3
1682373575.69944310,133822578,0.54,0.99,0.84,0.9500000000000001,157.58,157.44,0.03,0.01,3
1682373575.79949522,133922630,0.48,0.75,0.8200000000000001,0.9400000000000001,157.58,157.55,0.03,0.01,3
1682373575.89947820,134022613,0.42,0.73,0.74,0.91,157.58,157.65,0.03,0.01,3
1682373575.99967217,134122807,0.36,0.5700000000000001,0.67,0.85,157.58,157.8,0.03,0.01,3
1682373576.09921503,134222350,0.37,0.5700000000000001,0.58,0.73,157.58,157.93,0.03,0.01,3
1682373576.19919705,134322332,0.42,0.5700000000000001,0.49,0.59,157.58,158.06,0.03,0.01,3
1682373576.29934216,134422477,0.47000000000000003,0.62,0.5,0.55,157.58,158.21,0.03,0.01,3
1682373576.39922619,134522361,0.5,0.65,0.52,0.54,157.58,158.35,0.03,0.01,3
1682373576.49926519,134622400,0.54,0.6900000000000001,0.55,0.58,157.58,158.51,0.03,0.01,3
1682373576.59926414,134722399,0.49,0.76,0.56,0.67,157.58,158.64000000000001,0.03,0.01,3
1682373576.69933820,134822473,0.53,0.52,0.59,0.64,157.58,158.77,0.03,0.01,3
1682373576.79929805,134922433,0.59,0.56,0.63,0.74,157.58,158.87,0.03,0.01,3
1682373576.89954424,135022679,0.58,0.62,0.61,0.76,157.58,158.96,0.03,0.02,3
1682373576.99954724,135122682,0.62,0.62,0.56,0.67,157.58,159.06,0.03,0.01,3
1682373577.09954309,135222678,0.6900000000000001,0.78,0.47000000000000003,0.59,157.58,159.1,0.03,0.02,3
1682373577.19965506,135322790,0.8,0.89,0.4,0.49,157.58,159.17000000000002,0.03,0.02,3
1682373577.29956412,135422699,0.84,0.88,0.38,0.45,157.58,159.20000000000002,0.04,0.02,3
1682373577.39958405,135522719,0.84,0.71,0.42,0.47000000000000003,157.58,159.24,0.04,0.02,3
1682373577.49956322,135622698,0.84,0.78,0.45,0.56,157.58,159.25,0.03,0.02,3
1682373577.59952521,135722660,0.87,0.72,0.47000000000000003,0.6,157.58,159.20000000000002,0.03,0.02,3
1682373577.69952726,135822662,0.91,0.75,0.47000000000000003,0.56,157.58,159.14000000000001,0.03,0.02,3
1682373577.79978204,135922917,0.93,0.8200000000000001,0.47000000000000003,0.5,157.58,159.05,0.03,0.01,3
1682373577.89921713,136022352,0.97,0.75,0.56,0.48,157.58,158.94,0.03,0.01,3
1682373577.99917006,136122305,1.0,0.92,0.67,0.51,157.58,158.79,0.03,0.01,3
1682373578.09930205,136222437,0.96,0.92,0.8,0.6,157.59,158.66,0.03,0.01,3
1682373578.19923210,136322367,0.91,0.93,0.91,0.65,157.59,158.51,0.03,0.01,3
1682373578.29935813,136422493,0.89,0.84,0.9500000000000001,0.8300000000000001,157.59,158.36,0.03,0.01,3
1682373578.39925814,136522393,0.88,0.66,0.98,0.8,157.59,158.16,0.03,0.01,3
1682373578.49934626,136622481,0.81,0.73,0.97,0.88,157.59,157.99,0.03,0.01,3
1682373578.59929013,136722425,0.72,0.55,1.0,0.88,157.59,157.8,0.03,0.01,3
1682373578.69955611,136822691,0.68,0.64,0.99,0.98,157.58,157.57,0.02,0.0,3
1682373578.79956126,136922696,0.68,0.55,0.98,0.93,157.58,157.36,0.02,0.0,3
1682373578.89953208,137022667,0.77,0.4,0.98,0.91,157.59,157.14000000000001,0.03,0.0,3
1682373578.99954724,137122682,0.84,0.6,0.9500000000000001,0.9500000000000001,157.59,156.97,0.03,0.0,3
1682373579.09940624,137222541,0.84,0.6900000000000001,0.96,0.98,157.59,156.76,0.03,0.0,3
1682373579.19949317,137322628,0.8,0.65,0.93,1.04,157.59,156.6,0.03,0.0,3
1682373579.29958916,137422724,0.77,0.71,0.97,1.06,157.59,156.44,0.03,0.01,3
1682373579.39947915,137522614,0.71,0.74,0.98,1.04,157.59,156.35,0.03,0.01,3
1682373579.49950814,137622643,0.58,0.78,1.05,1.1400000000000001,157.58,156.20000000000002,0.03,0.01,3
1682373579.59953713,137722672,0.47000000000000003,0.5700000000000001,1.1500000000000001,1.29,157.58,156.11,0.03,0.01,3
1682373579.69945025,137822585,0.4,0.6,1.07,1.43,157.58,156.04,0.05,0.01,3
1682373579.79975319,137922888,0.37,0.6,0.9,1.37,157.58,155.98,0.05,0.01,3
1682373579.89955020,138022685,0.34,0.4,0.68,1.17,157.58,155.94,0.05,0.01,3
1682373579.99922323,138122358,0.36,0.21,0.51,0.88,157.58,155.95000000000002,0.05,0.01,3
1682373580.09925914,138222394,0.39,0.33,0.38,0.61,157.58,155.97,0.04,0.01,3
1682373580.19930911,138322444,0.47000000000000003,0.5,0.24,0.49,157.58,156.03,0.04,0.01,3
1682373580.29936123,138422496,0.49,0.46,0.19,0.42,157.58,156.1,0.04,0.01,3
1682373580.39929605,138522431,0.51,0.58,0.16,0.46,157.58,156.19,0.04,0.01,3
1682373580.49919915,138622334,0.47000000000000003,0.62,0.1,0.51,157.58,156.25,0.04,0.01,3
1682373580.59954405,138722679,0.42,0.39,0.08,0.33,157.58,156.33,0.04,0.01,3
1682373580.69945526,138822590,0.36,0.36,0.06,0.28,157.58,156.4,0.03,0.01,3
1682373580.79965115,138922786,0.34,0.41000000000000003,0.09,0.23,157.58,156.46,0.03,0.01,3
1682373580.89952707,139022662,0.32,0.31,0.09,0.28,157.58,156.51,0.03,0.01,3
1682373580.99955511,139122690,0.32,0.26,0.08,0.31,157.58,156.53,0.03,0.01,3
1682373581.09949923,139222634,0.35000000000000003,0.19,0.09,0.25,157.58,156.58,0.03,0.01,3
1682373581.19955015,139322685,0.37,0.26,0.06,0.26,157.58,156.62,0.03,0.0,3
1682373581.29958510,139422720,0.41000000000000003,0.4,0.06,0.2,157.58,156.62,0.03,0.01,3
1682373581.39956021,139522695,0.46,0.49,0.06,0.18,157.58,156.62,0.03,0.01,3
1682373581.49956107,139622696,0.53,0.65,0.11,0.29,157.58,156.62,0.03,0.01,3
1682373581.59959817,139722733,0.62,0.5700000000000001,0.17,0.32,157.58,156.61,0.03,0.02,3
1682373581.69969726,139822832,0.72,0.68,0.17,0.43,157.58,156.59,0.03,0.02,3
1682373581.79985619,139922991,0.8,0.72,0.18,0.38,157.58,156.59,0.03,0.02,3
1682373581.89954209,140022677,0.81,1.0,0.1,0.34,157.58,156.64000000000001,0.03,0.02,3
1682373581.99925017,140122385,0.77,0.8300000000000001,0.03,0.23,157.58,156.68,0.03,0.01,3
1682373582.09934211,140222477,0.78,0.71,-0.06,0.06,157.58,156.73,0.03,0.01,3
1682373582.19929004,140322425,0.8300000000000001,0.51,-0.13,0.0,157.58,156.78,0.03,0.01,3
1682373582.29932308,140422458,0.9500000000000001,0.66,-0.01,-0.15,157.58,156.9,0.04,0.02,3
1682373582.39923811,140522373,1.06,0.97,0.1,0.07,157.58,157.0,0.04,0.02,3
1682373582.49916005,140622295,1.19,0.91,0.21,0.23,157.58,157.08,0.04,0.01,3
1682373582.59930825,140722443,1.32,1.16,0.28,0.28,157.58,157.18,0.04,0.01,3
1682373582.69952106,140822656,1.33,1.22,0.33,0.23,157.58,157.3,0.04,0.01,3
1682373582.79932809,140922463,1.28,1.26,0.42,0.28,157.58,157.41,0.04,0.02,3
1682373582.89925003,141022385,1.24,1.17,0.5,0.35000000000000003,157.58,157.53,0.04,0.02,3
1682373582.99933720,141122472,1.21,1.1300000000000001,0.6,0.49,157.59,157.63,0.04,0.02,3
1682373583.09929204,141222427,1.23,1.26,0.63,0.66,157.59,157.71,0.04,0.02,3
1682373583.19930720,141322442,1.22,1.35,0.62,0.64,157.59,157.8,0.04,0.01,3
1682373583.29926705,141422402,1.18,1.23,0.52,0.58,157.58,157.88,0.04,0.01,3
1682373583.39916706,141522302,1.11,1.04,0.39,0.39,157.58,157.93,0.04,0.01,3
1682373583.49929905,141622434,1.09,1.11,0.32,0.26,157.58,157.95000000000002,0.04,0.02,3
1682373583.59953117,141722666,1.09,1.06,0.31,0.18,157.58,157.96,0.04,0.02,3
1682373583.69937420,141822509,1.12,1.0,0.37,0.17,157.58,157.92000000000002,0.03,0.02,3
1682373583.79950213,141922637,1.1500000000000001,1.22,0.46,0.37,157.58,157.92000000000002,0.03,0.02,3
1682373583.89948916,142022624,1.1500000000000001,1.27,0.53,0.38,157.58,157.9,0.03,0.02,3
1682373583.99948907,142122624,1.1500000000000001,1.07,0.72,0.53,157.59,157.85,0.03,0.02,3
1682373584.09950209,142222637,1.09,1.2,1.03,0.84,157.59,157.85,0.02,0.02,3
1682373584.19944310,142322578,1.03,1.18,1.54,1.22,157.59,157.8,0.02,0.02,3
1682373584.29946017,142422595,0.98,1.03,2.21,1.95,157.6,157.78,0.03,0.02,3
1682373584.39952207,142522657,0.93,0.96,2.93,2.85,157.6,157.75,0.03,0.02,3
1682373584.49977112,142622906,0.91,1.04,3.62,3.54,157.61,157.73,0.03,0.02,3
1682373584.59956217,142722697,0.89,1.02,4.25,4.23,157.61,157.74,0.03,0.02,3
1682373584.69950509,142822640,0.84,0.87,4.86,4.8500000000000005,157.61,157.69,0.02,0.02,3
1682373584.79957223,142922707,0.81,0.81,5.45,5.41,157.62,157.69,0.02,0.02,3
1682373584.89936018,143022495,0.7000000000000001,0.91,5.87,5.95,157.62,157.67000000000002,0.02,0.01,3
1682373584.99955821,143122693,0.62,0.68,6.1000000000000005,6.2700000000000005,157.61,157.66,0.02,0.02,3
1682373585.09958625,143222721,0.56,0.71,6.1000000000000005,6.32,157.61,157.64000000000001,0.02,0.02,3
1682373585.19954824,143322683,0.53,0.61,5.86,6.0600000000000005,157.61,157.6,0.02,0.02,3
1682373585.29975915,143422894,0.46,0.51,5.37,5.49,157.6,157.56,0.03,0.02,3
1682373585.39952826,143522663,0.37,0.45,4.73,4.84,157.59,157.5,0.03,0.02,3
1682373585.49951625,143622651,0.31,0.37,4.04,3.94,157.59,157.44,0.03,0.02,3
1682373585.59951019,143722645,0.29,0.33,3.35,3.09,157.59,157.4,0.03,0.02,3
1682373585.69952822,143822663,0.25,0.1,2.75,2.33,157.59,157.33,0.03,0.03,3
1682373585.79940414,143922539,0.23,0.16,2.21,1.8,157.58,157.3,0.03,0.03,3
1682373585.89933705,144022472,0.19,0.16,1.72,1.28,157.58,157.24,0.03,0.03,3
1682373585.99924612,144122381,0.22,-0.03,1.32,0.8,157.58,157.23,0.03,0.04,3
1682373586.09918404,144222319,0.22,0.18,1.09,0.56,157.58,157.21,0.03,0.04,3
1682373586.19947410,144322609,0.2,0.16,1.09,0.46,157.58,157.24,0.03,0.03,3
1682373586.29926324,144422398,1.12,0.28,0.79,0.67,157.58,157.27,0.02,0.03,3
1682373586.39935517,144522490,3.33,1.6600000000000001,-0.19,0.27,157.54,157.32,0.02,0.04,3
1682373586.49948215,144622617,5.99,4.87,-1.49,-1.25,157.43,157.36,0.02,0.05,3
1682373586.59957719,144722712,7.13,8.24,-2.11,-2.84,157.36,157.27,0.02,0.05,3
1682373586.69929624,144822431,6.5600000000000005,8.85,-1.94,-3.25,157.38,157.3,0.03,0.06,3
1682373586.79932404,144922459,5.28,6.79,-1.28,-2.17,157.45000000000002,157.46,0.03,0.06,3
1682373586.89921021,145022345,3.84,4.16,-0.36,-0.73,157.52,157.53,0.04,0.05,3
1682373586.99917817,145122313,2.75,2.37,0.38,0.43,157.56,157.62,0.04,0.06,3
1682373587.09930420,145222439,1.92,1.19,0.87,1.25,157.58,157.66,0.04,0.06,3
1682373587.19924307,145322378,1.32,0.56,1.19,1.45,157.59,157.65,0.04,0.05,3
1682373587.29936004,145422495,0.93,0.23,1.4000000000000001,1.56,157.6,157.68,0.04,0.04,3
1682373587.39982510,145522960,0.65,0.13,1.61,1.54,157.6,157.69,0.04,0.04,3
1682373587.49954414,145622679,0.25,0.05,1.85,1.6500000000000001,157.6,157.62,0.05,0.04,3
1682373587.59938908,145722524,-0.05,-0.43,2.07,1.86,157.6,157.6,0.05,0.03,3
1682373587.69951415,145822649,-0.39,-0.5700000000000001,2.27,2.13,157.6,157.57,0.05,0.03,3
1682373587.79944611,145922581,-0.51,-1.03,2.4,2.2800000000000002,157.6,157.5,0.05,0.03,3
1682373587.89944911,146022584,-0.67,-0.73,2.43,2.45,157.6,157.42000000000002,0.04,0.02,3
1682373587.99950123,146122636,-0.71,-0.89,2.43,2.37,157.6,157.35,0.04,0.02,3
1682373588.09940124,146222536,-0.62,-0.85,2.33,2.32,157.6,157.32,0.04,0.02,3
1682373588.19950318,146322638,-0.52,-0.65,2.17,2.2600000000000002,157.6,157.3,0.04,0.03,3
1682373588.29947209,146422607,-0.34,-0.76,2.08,1.99,157.6,157.27,0.04,0.04,3
1682373588.39977217,146522907,-0.17,-0.38,2.0100000000000002,1.99,157.6,157.24,0.04,0.04,3
1682373588.49947119,146622606,-0.03,-0.13,1.97,1.92,157.6,157.20000000000002,0.05,0.03,3
1682373588.59976006,146722895,0.05,0.05,1.8900000000000001,1.87,157.6,157.19,0.05,0.03,3
1682373588.69949126,146822626,0.09,0.16,1.83,1.7,157.6,157.18,0.04,0.03,3
1682373588.79951119,146922646,0.16,0.29,1.78,1.61,157.6,157.18,0.04,0.04,3
1682373588.89955711,147022692,0.13,0.59,1.69,1.46,157.6,157.13,0.03,0.03,3
1682373588.99952912,147122664,0.21,0.56,1.6500000000000001,1.5,157.6,157.17000000000002,0.03,0.04,3
1682373589.09954619,147222681,0.23,0.35000000000000003,1.55,1.43,157.6,157.19,0.03,0.03,3
1682373589.19951415,147322649,0.32,0.52,1.46,1.52,157.6,157.21,0.03,0.02,3
1682373589.29958320,147422718,0.36,0.46,1.4000000000000001,1.45,157.6,157.27,0.03,0.02,3
1682373589.39978814,147522923,0.44,0.52,1.36,1.49,157.6,157.31,0.03,0.03,3
1682373589.49973226,147622867,0.48,0.71,1.29,1.41,157.6,157.3,0.02,0.03,3
1682373589.59921908,147722354,0.58,0.5700000000000001,1.24,1.29,157.6,157.33,0.02,0.03,3
1682373589.69917226,147822307,0.61,0.85,1.12,1.2,157.6,157.34,0.02,0.03,3
1682373589.79930305,147922438,0.66,0.62,1.06,0.9400000000000001,157.6,157.31,0.02,0.03,3
1682373589.89921904,148022354,0.62,0.89,1.02,0.91,157.6,157.3,0.02,0.03,3
1682373589.99937224,148122507,0.65,0.58,1.0,0.91,157.6,157.27,0.02,0.03,3
1682373590.09936714,148222502,0.6,0.8300000000000001,1.06,0.97,157.6,157.29,0.03,0.02,3
1682373590.19938421,148322519,0.6,0.45,1.09,1.02,157.6,157.27,0.03,0.03,3
1682373590.29939008,148422525,0.61,0.67,1.09,1.1500000000000001,157.6,157.29,0.03,0.02,3
1682373590.39961123,148522746,0.58,0.66,1.03,1.1400000000000001,157.6,157.29,0.03,0.03,3
1682373590.49949121,148622626,0.59,0.6,0.99,1.06,157.6,157.26,0.03,0.02,3
1682373590.59953308,148722668,0.64,0.73,0.97,0.99,157.6,157.29,0.03,0.02,3
1682373590.69965219,148822787,0.72,0.84,0.92,0.97,157.6,157.28,0.03,0.02,3
1682373590.79924321,148922378,0.8,0.75,0.92,0.98,157.6,157.26,0.03,0.02,3
1682373590.89932203,149022457,0.78,1.07,0.9400000000000001,0.9500000000000001,157.6,157.24,0.03,0.02,3
1682373590.99932814,149122463,0.77,0.76,0.9500000000000001,0.9,157.6,157.24,0.03,0.02,3
1682373591.09935713,149222492,0.71,0.86,0.96,1.05,157.6,157.20000000000002,0.03,0.02,3
1682373591.19935417,149322489,0.67,0.74,0.98,1.03,157.6,157.17000000000002,0.03,0.02,3
1682373591.29930615,149422441,0.66,0.77,0.93,1.02,157.6,157.19,0.03,0.02,3
1682373591.39940906,149522544,0.64,0.61,0.85,0.9400000000000001,157.6,157.17000000000002,0.03,0.02,3
1682373591.49951816,149622653,0.63,0.84,0.81,0.8200000000000001,157.6,157.15,0.03,0.02,3
1682373591.59965515,149722790,0.64,0.58,0.78,0.81,157.6,157.11,0.03,0.02,3
1682373591.69941521,149822550,0.66,0.75,0.74,0.87,157.6,157.09,0.03,0.03,3
1682373591.79948926,149922624,0.65,0.73,0.71,0.86,157.6,157.05,0.03,0.03,3
1682373591.89944124,150022576,0.63,0.76,0.71,0.79,157.6,157.01,0.04,0.02,3
1682373591.99948812,150122623,0.54,0.77,0.76,0.78,157.6,156.96,0.04,0.02,3
1682373592.09952021,150222655,0.53,0.64,0.75,0.76,157.6,156.9,0.04,0.02,3
1682373592.19952917,150322664,0.45,0.64,0.76,0.75,157.6,156.85,0.04,0.02,3
1682373592.29948020,150422615,0.48,0.49,0.8,0.77,157.6,156.82,0.03,0.02,3
1682373592.39953303,150522668,0.48,0.44,0.8200000000000001,0.92,157.6,156.79,0.03,0.02,3
1682373592.49954009,150622675,0.43,0.5700000000000001,0.87,0.93,157.6,156.78,0.03,0.02,3
1682373592.59953213,150722667,0.47000000000000003,0.46,0.88,0.89,157.6,156.76,0.03,0.02,3
1682373592.69954324,150822678,0.46,0.51,0.93,0.86,157.6,156.75,0.02,0.02,3
1682373592.79950714,150922642,0.48,0.59,0.9500000000000001,0.87,157.6,156.77,0.02,0.02,3
1682373592.89952612,151022661,0.51,0.36,0.97,0.84,157.6,156.8,0.02,0.02,3
1682373592.99953914,151122674,0.52,0.55,1.0,0.86,157.6,156.83,0.02,0.01,3
1682373593.09954405,151222679,0.51,0.53,1.02,0.85,157.6,156.89000000000001,0.02,0.02,3
1682373593.19958615,151322721,0.55,0.46,1.03,0.8200000000000001,157.6,156.96,0.02,0.02,3
1682373593.29955626,151422691,0.59,0.71,1.05,0.9,157.6,157.04,0.02,0.02,3
1682373593.39967012,151522805,0.63,0.51,1.04,0.9400000000000001,157.6,157.13,0.02,0.02,3
1682373593.49924016,151622375,0.68,0.64,1.07,1.05,157.6,157.19,0.02,0.02,3
1682373593.59933305,151722468,0.66,0.81,1.07,1.09,157.6,157.25,0.02,0.03,3
1682373593.69931126,151822446,0.67,0.6,1.08,1.09,157.6,157.28,0.02,0.02,3
1682373593.79935312,151922488,0.6,0.72,1.11,1.07,157.6,157.35,0.02,0.02,3
1682373593.89929914,152022434,0.5700000000000001,0.62,1.07,1.05,157.6,157.4,0.01,0.01,3
1682373593.99928212,152122417,0.55,0.41000000000000003,1.06,1.1,157.6,157.48,0.01,0.01,3
1682373594.09922314,152222358,0.45,0.56,1.05,1.0,157.6,157.53,0.01,0.01,3
1682373594.19930911,152322444,0.45,0.51,1.02,0.87,157.6,157.58,0.01,0.01,3
1682373594.29938507,152422520,0.42,0.51,0.99,0.89,157.6,157.65,0.01,0.01,3
1682373594.39954925,152522684,0.41000000000000003,0.7000000000000001,1.0,0.87,157.6,157.72,0.01,0.02,3
1682373594.49932003,152622455,0.43,0.6,1.02,0.91,157.6,157.8,0.01,0.01,3
1682373594.59931517,152722450,0.36,0.67,1.02,0.97,157.6,157.82,0.01,0.02,3
1682373594.69934320,152822478,0.31,0.51,0.98,1.07,157.6,157.85,0.02,0.01,3
1682373594.79928017,152922415,0.29,0.55,0.92,1.02,157.6,157.85,0.02,0.02,3
1682373594.89927006,153022405,0.29,0.5,0.89,0.91,157.6,157.86,0.02,0.02,3
1682373594.99921417,153122349,0.25,0.4,0.86,0.93,157.6,157.88,0.02,0.02,3
1682373595.09916925,153222304,0.3,0.18,0.85,0.84,157.6,157.93,0.01,0.02,3
1682373595.19932222,153322457,0.35000000000000003,-0.02,0.8,0.86,157.6,157.99,0.01,0.02,3
1682373595.29957819,153422713,0.37,0.01,0.75,0.8,157.6,158.07,0.01,0.01,3
1682373595.39933825,153522473,0.45,-0.1,0.72,0.81,157.6,158.14000000000001,0.01,0.02,3
1682373595.49943805,153622573,0.5,0.0,0.65,0.89,157.6,158.23,0.01,0.02,3
1682373595.59949422,153722629,0.58,0.06,0.65,0.8200000000000001,157.6,158.29,0.01,0.02,3
1682373595.69946122,153822596,0.54,0.17,0.66,0.7000000000000001,157.6,158.36,0.01,0.02,3
1682373595.79949117,153922626,0.5700000000000001,0.32,0.6900000000000001,0.74,157.6,158.5,0.01,0.01,3
1682373595.89944005,154022575,0.6,0.58,0.6900000000000001,0.77,157.6,158.6,0.02,0.02,3
1682373595.99942803,154122563,0.63,0.6,0.63,0.8300000000000001,157.6,158.74,0.02,0.03,3
1682373596.09951305,154222648,0.65,0.38,0.61,0.64,157.6,158.81,0.01,0.03,3
1682373596.19978619,154322921,0.62,0.44,0.58,0.58,157.6,158.89000000000001,0.01,0.03,3
1682373596.29972124,154422856,0.59,0.48,0.53,0.49,157.59,158.93,0.01,0.03,3
1682373596.39958906,154522724,0.61,0.35000000000000003,0.51,0.52,157.59,158.93,0.01,0.02,3
1682373596.49952722,154622662,0.5700000000000001,0.4,0.52,0.5,157.59,158.88,0.01,0.02,3
1682373596.59935021,154722485,0.52,0.37,0.55,0.54,157.6,158.82,0.01,0.03,3
1682373596.69956112,154822696,0.46,0.44,0.54,0.64,157.59,158.71,0.01,0.02,3
1682373596.79957914,154922714,0.37,0.44,0.61,0.63,157.6,158.6,0.01,0.02,3
1682373596.89953017,155022665,0.33,0.35000000000000003,0.65,0.6,157.6,158.38,0.01,0.02,3
1682373596.99964809,155122783,0.27,0.38,0.66,0.61,157.6,158.19,0.01,0.02,3
1682373597.09983826,155222973,0.26,0.2,0.65,0.63,157.6,157.99,0.01,0.02,3
1682373597.19957304,155322708,0.24,0.28,0.65,0.5700000000000001,157.6,157.8,0.01,0.02,3
1682373597.29934525,155422480,0.25,0.2,0.63,0.66,157.6,157.66,0.01,0.02,3
1682373597.39934707,155522482,0.24,0.15,0.66,0.7000000000000001,157.6,157.52,0.01,0.01,3
1682373597.49928617,155622421,0.18,0.26,0.68,0.81,157.6,157.39000000000001,0.01,0.02,3
1682373597.59927917,155722414,0.19,0.29,0.6900000000000001,0.79,157.6,157.34,0.01,0.02,3
1682373597.69924521,155822380,-0.03,0.65,0.74,0.74,157.6,157.32,0.01,0.02,3
1682373597.79916120,155922296,-0.06,0.28,0.72,0.76,157.6,157.32,0.01,0.03,3
1682373597.89930320,156022438,-0.14,0.15,0.73,0.77,157.6,157.31,0.01,0.02,3
1682373597.99924612,156122381,-0.24,0.15,0.73,0.75,157.6,157.34,0.01,0.02,3
1682373598.09932613,156222461,-0.22,-0.15,0.72,0.58,157.6,157.37,0.01,0.02,3
1682373598.19950509,156322640,-0.28,0.02,0.71,0.43,157.6,157.43,0.01,0.02,3
1682373598.29956412,156422699,-0.23,0.06,0.78,0.37,157.6,157.5,0.01,0.02,3
1682373598.39941907,156522554,-0.13,-0.08,0.85,0.49,157.6,157.55,0.01,0.02,3
1682373598.49931908,156622454,-0.08,0.08,0.88,0.8,157.6,157.59,0.01,0.02,3
1682373598.59924722,156722382,0.0,0.24,0.92,0.79,157.6,157.64000000000001,0.01,0.01,3
1682373598.69916511,156822300,0.04,0.36,0.87,0.87,157.6,157.70000000000002,0.01,0.02,3
1682373598.79932308,156922458,0.04,0.46,0.8200000000000001,0.85,157.6,157.76,0.01,0.01,3
1682373598.89924717,157022382,0.07,0.3,0.76,0.79,157.6,157.83,0.01,0.01,3
1682373598.99933720,157122472,0.0,0.28,0.6900000000000001,0.76,157.6,157.87,0.01,0.01,3
1682373599.09950018,157222635,0.06,-0.09,0.61,0.8300000000000001,157.6,157.92000000000002,0.01,0.01,3
1682373599.19953513,157322670,0.05,-0.15,0.59,0.85,157.6,157.94,0.01,0.01,3
1682373599.29938006,157422515,0.18,-0.12,0.58,0.8200000000000001,157.6,157.95000000000002,0.01,0.01,3
1682373599.39949703,157522632,0.27,-0.12,0.58,0.8300000000000001,157.6,157.95000000000002,0.01,0.01,3
1682373599.49942327,157622558,0.38,0.28,0.56,0.79,157.6,157.95000000000002,0.01,0.01,3
1682373599.59939814,157722533,0.46,0.23,0.51,0.7000000000000001,157.59,157.96,0.01,0.01,3
1682373599.69952106,157822656,0.4,0.43,0.52,0.45,157.59,157.95000000000002,0.01,0.02,3
1682373599.79945326,157922588,0.34,0.49,0.55,0.33,157.59,157.97,0.01,0.02,3
1682373599.89950109,158022636,0.24,0.58,0.61,0.41000000000000003,157.6,157.95000000000002,0.01,0.02,3
1682373599.99943614,158122571,0.17,0.49,0.63,0.73,157.6,157.97,0.01,0.02,3
1682373600.09949327,158222628,0.2,0.27,0.65,0.76,157.6,157.97,0.01,0.01,3
1682373600.19949412,158322629,0.14,0.2,0.59,0.67,157.6,158.0,0.01,0.01,3
1682373600.29971623,158422851,0.16,0.14,0.48,0.73,157.59,158.04,0.01,0.01,3
1682373600.39921117,158522346,0.17,0.11,0.48,0.68,157.59,158.09,0.01,0.01,3
1682373600.49959111,158622726,0.15,0.29,0.4,0.63,157.59,158.13,0.01,0.01,3
1682373600.59967709,158722812,0.3,0.2,0.3,0.58,157.59,158.16,0.01,0.01,3
1682373600.69953918,158822674,0.28,0.38,0.34,0.23,157.59,158.17000000000002,0.01,0.01,3
1682373600.79954123,158922676,0.36,0.31,0.35000000000000003,0.13,157.59,158.13,0.01,0.01,3
1682373600.89949012,159022625,0.41000000000000003,0.22,0.5,0.12,157.6,158.11,0.02,0.01,3
1682373600.99953413,159122669,0.3,0.56,0.6,0.41000000000000003,157.6,158.07,0.02,0.01,3
1682373601.09953523,159222670,0.34,0.66,0.67,0.49,157.6,158.04,0.02,0.01,3
1682373601.19975019,159322885,0.32,0.62,0.61,0.61,157.6,158.0,0.02,0.01,3
1682373601.29959607,159422731,0.27,0.5700000000000001,0.47000000000000003,0.79,157.6,157.94,0.02,0.01,3
1682373601.39954209,159522677,0.25,0.5,0.33,0.73,157.59,157.89000000000001,0.02,0.01,3
1682373601.49955320,159622688,0.24,0.17,0.28,0.54,157.59,157.8,0.02,0.01,3
1682373601.59954810,159722683,0.24,0.27,0.23,0.33,157.59,157.73,0.02,0.01,3
1682373601.69953609,159822671,0.24,0.41000000000000003,0.19,0.39,157.59,157.67000000000002,0.02,0.01,3
1682373601.79948521,159922620,0.26,0.53,0.27,0.24,157.59,157.59,0.02,0.01,3
1682373601.89951825,160022653,0.23,0.39,0.34,0.18,157.59,157.52,0.02,0.01,3
1682373601.99952316,160122658,0.15,0.4,0.4,0.25,157.6,157.47,0.02,0.01,3
1682373602.09973621,160222871,0.17,0.28,0.36,0.62,157.59,157.46,0.01,0.0,3
1682373602.19951010,160322645,0.18,0.34,0.42,0.68,157.6,157.41,0.01,0.01,3
1682373602.29955912,160422694,0.14,0.43,0.25,0.89,157.59,157.35,0.01,0.0,3
1682373602.39966321,160522798,0.79,0.38,0.28,0.89,157.6,157.44,0.01,0.0,3
1682373602.49924326,160622378,0.75,0.91,0.4,0.63,157.6,157.57,0.01,0.0,3
1682373602.59938717,160722522,0.0,0.0,0.58,1.0,157.6,157.73,0.01,0.0,3
1682373602.69935822,160822493,0.52,0.47000000000000003,0.62,0.77,157.6,157.77,0.01,0.0,3
1682373602.79937410,160922509,0.17,0.12,0.68,0.79,157.6,157.8,0.01,0.0,3
1682373602.89930415,161022439,0.58,0.26,0.22,0.78,157.6,157.79,0.01,0.01,3
1682373602.99954009,161122675,0.0,-0.04,0.37,0.84,157.6,157.78,0.01,0.01,3
1682373603.09958005,161222715,0.56,0.3,0.21,0.89,157.6,157.79,0.02,0.01,3
1682373603.19942427,161322559,0.23,0.03,0.42,0.85,157.6,157.73,0.02,0.01,3
1682373603.29954410,161422679,0.48,0.17,0.35000000000000003,0.88,157.6,157.75,0.02,0.01,3
1682373603.39946604,161522601,0.45,0.16,0.39,0.85,157.6,157.75,0.02,0.01,3
1682373603.49946904,161622604,0.45,0.03,0.38,0.88,157.6,157.71,0.02,0.01,3
1682373603.59943509,161722570,0.54,0.09,0.38,0.9,157.6,157.73,0.02,0.01,3
1682373603.69948125,161822616,0.44,0.06,0.52,0.9,157.6,157.75,0.01,0.01,3
1682373603.79946423,161922599,0.54,0.07,0.38,0.89,157.6,157.70000000000002,0.01,0.01,3
1682373603.89947724,162022612,0.33,0.07,0.6,0.89,157.6,157.74,0.01,0.01,3
1682373603.99942923,162122564,0.35000000000000003,0.1,0.43,0.88,157.6,157.77,0.01,0.01,3
1682373604.09952521,162222660,0.33,0.05,0.6,0.87,157.6,157.70000000000002,0.01,0.01,3
1682373604.19965410,162322789,0.5,0.16,0.48,0.87,157.6,157.76,0.01,0.01,3
1682373604.29926205,162422397,0.43,0.09,0.55,0.88,157.6,157.78,0.01,0.01,3
1682373604.39926314,162522398,0.54,0.1,0.52,0.88,157.6,157.76,0.01,0.01,3
1682373604.49924326,162622378,0.48,0.11,0.56,0.88,157.6,157.77,0.01,0.01,3
1682373604.59931421,162722449,0.51,0.12,0.5700000000000001,0.89,157.6,157.83,0.01,0.01,3
1682373604.69930410,162822439,0.26,0.04,0.29,0.87,157.73,157.73,0.01,0.01,3
1682373604.79929423,162922429,0.13,0.12,0.15,0.84,157.8,157.8,0.01,0.01,3
1682373604.89947915,163022614,0.06,0.07,0.07,0.89,158.08,158.08,0.01,0.01,3
1682373604.99943805,163122573,0.03,0.11,0.03,0.89,158.25,158.25,0.01,0.0,3
1682373605.09954524,163222680,0.01,0.06,0.02,0.87,158.57,158.57,0.0,0.0,3
1682373605.19921517,163322350,0.0,0.09,0.01,0.91,159.04,159.04,0.0,0.01,3
1682373605.29958320,163422718,0.0,0.08,0.0,0.91,159.41,159.41,0.0,0.0,3
1682373605.39949107,163522626,0.0,0.08,0.0,0.88,159.77,159.77,0.0,0.01,3
1682373605.49951005,163622645,0.0,0.09,0.0,0.9,160.25,160.25,0.0,0.01,3
1682373605.59952116,163722656,0.0,0.09,0.0,0.89,160.62,160.62,0.0,0.01,3
1682373605.69952822,163822663,0.0,0.08,0.0,0.88,160.96,160.96,0.0,0.01,3
1682373605.79950905,163922644,0.0,0.11,0.0,0.9,161.4,161.4,0.0,0.0,3
1682373605.89942503,164022560,0.0,0.1,0.0,0.9,161.70000000000002,161.70000000000002,0.0,0.01,3
1682373605.99955010,164122685,0.0,0.11,0.0,0.89,161.99,161.99,0.0,0.01,3
1682373606.09983110,164222966,0.0,0.1,0.0,0.93,162.4,162.4,0.0,0.01,3
1682373606.19981718,164322952,0.0,0.11,0.0,0.92,162.68,162.68,0.0,0.01,3
1682373606.29926705,164422402,0.0,0.1,0.0,0.92,162.95000000000002,162.95000000000002,0.0,0.01,3
1682373606.39932323,164522458,0.0,0.11,0.0,0.9400000000000001,163.33,163.33,0.0,0.01,3
1682373606.49924016,164622375,0.0,0.11,0.0,0.92,163.59,163.59,0.0,0.01,3
1682373606.59918022,164722315,0.0,0.1,0.0,0.93,163.86,163.86,0.0,0.01,3
1682373606.69909310,164822228,0.0,0.1,0.0,0.9400000000000001,164.21,164.21,0.0,0.02,3
1682373606.79918909,164922324,0.0,0.1,0.0,0.93,164.46,164.46,0.0,0.01,3
1682373606.89954615,165022681,0.0,0.1,0.0,0.9400000000000001,164.71,164.71,0.0,0.01,3
1682373606.99920011,165122335,0.0,0.11,0.0,0.9400000000000001,165.03,165.03,0.0,0.01,3
1682373607.09922409,165222359,0.0,0.11,0.0,0.9400000000000001,165.24,165.24,0.0,0.01,3
1682373607.19923210,165322367,0.0,0.12,0.0,0.9500000000000001,165.48,165.48,0.0,0.01,3
1682373607.29933119,165422466,0.0,0.12,0.0,0.9500000000000001,165.77,165.77,0.0,0.01,3
1682373607.39925814,165522393,0.0,0.12,0.0,0.9500000000000001,165.97,165.97,0.0,0.01,3
1682373607.49915719,165622292,0.0,0.12,0.0,0.96,166.19,166.19,0.0,0.01,3
1682373607.59917903,165722314,0.0,0.12,0.0,0.9500000000000001,166.44,166.44,0.0,0.0,3
1682373607.69915318,165822288,0.0,0.12,0.0,0.9500000000000001,166.63,166.63,0.0,0.01,3
1682373607.79929924,165922434,0.0,0.12,0.0,0.9500000000000001,166.84,166.84,0.0,0.01,3
1682373607.89948511,166022620,0.0,0.13,0.0,0.9500000000000001,167.07,167.07,0.0,0.01,3
1682373607.99954224,166122677,0.0,0.13,0.0,0.9500000000000001,167.25,167.25,0.0,0.01,3
1682373608.09947515,166222610,0.0,0.13,0.0,0.9500000000000001,167.45000000000002,167.45000000000002,0.0,0.0,3
1682373608.19952822,166322663,0.0,0.13,0.0,0.9400000000000001,167.67000000000002,167.67000000000002,0.0,0.01,3
1682373608.29935622,166422491,0.0,0.12,0.0,0.9500000000000001,167.83,167.83,0.0,0.01,3
1682373608.39917827,166522313,0.0,0.12,0.0,0.9500000000000001,168.02,168.02,0.0,0.01,3
1682373608.49908805,166622223,0.0,0.13,0.0,0.9500000000000001,168.23,168.23,0.0,0.01,3
1682373608.59915709,166722292,0.0,0.12,0.0,0.9500000000000001,168.39000000000001,168.39000000000001,0.0,0.01,3
1682373608.69927716,166822412,0.0,0.12,0.0,0.9500000000000001,168.58,168.58,0.0,0.01,3
1682373608.79951715,166922652,0.0,0.12,0.0,0.9500000000000001,168.78,168.78,0.0,0.01,3
1682373608.89955926,167022694,0.0,0.12,0.0,0.96,168.93,168.93,0.0,0.01,3
1682373608.99951720,167122652,0.0,0.12,0.0,0.96,169.1,169.1,0.0,0.01,3
1682373609.09952807,167222663,0.0,0.12,0.0,0.96,169.3,169.3,0.0,0.01,3
1682373609.19929910,167322434,0.0,0.11,0.0,0.96,169.43,169.43,0.0,0.01,3
1682373609.29929709,167422432,0.0,0.11,0.0,0.96,169.6,169.6,0.0,0.01,3
1682373609.39918303,167522318,0.0,0.11,0.0,0.96,169.78,169.78,0.0,0.01,3
1682373609.49914503,167622280,0.0,0.11,0.0,0.97,169.91,169.91,0.0,0.01,3
1682373609.59928107,167722416,0.0,0.11,0.0,0.96,170.07,170.07,0.0,0.01,3
1682373609.69919205,167822327,0.0,0.11,0.0,0.96,170.23,170.23,0.0,0.01,3
1682373609.79923606,167922371,0.0,0.11,0.0,0.96,170.35,170.35,0.0,0.01,3
1682373609.89923120,168022366,0.0,0.11,0.0,0.96,170.5,170.5,0.0,0.01,3
1682373609.99950624,168122641,0.0,0.11,0.0,0.96,170.65,170.65,0.0,0.01,3
1682373610.09926605,168222401,0.0,0.11,0.0,0.9500000000000001,170.76,170.76,0.0,0.01,3
1682373610.19918323,168322318,0.0,0.11,0.0,0.96,170.91,170.91,0.0,0.01,3
1682373610.29954815,168422683,0.0,0.11,0.0,0.96,171.05,171.05,0.0,0.01,3
1682373610.39939713,168522532,0.0,0.11,0.0,0.9500000000000001,171.16,171.16,0.0,0.01,3
1682373610.49950218,168622637,0.0,0.11,0.0,0.96,171.3,171.3,0.0,0.01,3
1682373610.59938312,168722518,0.0,0.11,0.0,0.9500000000000001,171.43,171.43,0.0,0.02,3
1682373610.69946218,168822597,0.0,0.11,0.0,0.9500000000000001,171.54,171.54,0.0,0.01,3
1682373610.79966426,168922799,0.0,0.11,0.0,0.96,171.68,171.68,0.0,0.02,3
1682373610.89950109,169022636,0.0,0.11,0.0,0.96,171.82,171.82,0.0,0.02,3
1682373610.99931526,169122450,0.0,0.1,0.0,0.96,171.92000000000002,171.92000000000002,0.0,0.01,3
1682373611.09956408,169222699,0.0,0.1,0.0,0.97,172.05,172.05,0.0,0.01,3
1682373611.19950104,169322636,0.0,0.11,0.0,0.97,172.18,172.18,0.0,0.01,3
1682373611.29951310,169422648,0.0,0.1,0.0,0.97,172.27,172.27,0.0,0.01,3
1682373611.39966011,169522795,0.0,0.1,0.0,0.97,172.4,172.4,0.0,0.01,3
1682373611.49948716,169622622,0.0,0.1,0.0,0.97,172.51,172.51,0.0,0.01,3
1682373611.59952927,169722664,0.0,0.1,0.0,0.97,172.6,172.6,0.0,0.01,3
1682373611.69948411,169822619,0.0,0.1,0.0,0.97,172.72,172.72,0.0,0.01,3
1682373611.79952812,169922663,0.0,0.11,0.0,0.97,172.82,172.82,0.0,0.01,3
1682373611.89951611,170022651,0.0,0.11,0.0,0.97,172.9,172.9,0.0,0.01,3
1682373611.99979520,170122930,0.0,0.11,0.0,0.97,173.02,173.02,0.0,0.01,3
1682373612.09908104,170222216,0.0,0.11,0.0,0.98,173.12,173.12,0.0,0.01,3
1682373612.19915724,170322292,0.0,0.1,0.0,0.98,173.20000000000002,173.20000000000002,0.0,0.01,3
1682373612.29931927,170422454,0.0,0.1,0.0,0.98,173.32,173.32,0.0,0.01,3
1682373612.39919114,170522326,0.0,0.1,0.0,0.98,173.42000000000002,173.42000000000002,0.0,0.01,3
1682373612.49923205,170622367,0.0,0.1,0.0,0.99,173.52,173.52,0.0,0.02,3
1682373612.59922504,170722360,0.0,0.1,0.0,0.99,173.64000000000001,173.64000000000001,0.0,0.02,3
1682373612.69950509,170822640,0.0,0.1,0.0,0.99,173.73,173.73,0.0,0.02,3
1682373612.79926705,170922402,0.0,0.1,0.0,0.99,173.82,173.82,0.0,0.02,3
1682373612.89917707,171022312,0.0,0.1,0.0,0.99,173.93,173.93,0.0,0.02,3
1682373612.99918222,171122317,0.0,0.1,0.0,0.99,174.02,174.02,0.0,0.02,3
1682373613.09914327,171222278,0.0,0.1,0.0,0.99,174.11,174.11,0.0,0.02,3
1682373613.19927406,171322409,0.0,0.1,0.0,0.99,174.22,174.22,0.0,0.02,3
1682373613.29924011,171422375,0.0,0.1,0.0,0.99,174.3,174.3,0.0,0.02,3
1682373613.39925313,171522388,0.0,0.1,0.0,0.99,174.38,174.38,0.0,0.02,3
1682373613.49921322,171622348,0.0,0.1,0.0,0.99,174.48,174.48,0.0,0.01,3
1682373613.59926414,171722399,0.0,0.09,0.0,0.99,174.55,174.55,0.0,0.01,3
1682373613.69927216,171822407,0.0,0.1,0.0,0.99,174.63,174.63,0.0,0.01,3
1682373613.79954624,171922681,0.0,0.1,0.0,0.99,174.73,174.73,0.0,0.01,3
1682373613.89908624,172022221,0.0,0.09,0.0,0.99,174.8,174.8,0.0,0.01,3
1682373613.99914408,172122279,0.0,0.1,0.0,0.99,174.87,174.87,0.0,0.01,3
1682373614.09947824,172222613,0.0,0.09,0.0,1.0,174.96,174.96,0.0,0.01,3
1682373614.19940925,172322544,0.0,0.09,0.0,1.0,175.03,175.03,0.0,0.01,3
1682373614.29951119,172422646,0.0,0.09,0.0,1.0,175.1,175.1,0.0,0.01,3
1682373614.39943004,172522565,0.0,0.09,0.0,0.99,175.19,175.19,0.0,0.02,3
1682373614.49967122,172622806,0.0,0.09,0.0,0.99,175.25,175.25,0.0,0.02,3
1682373614.59947705,172722612,0.0,0.09,0.0,0.99,175.32,175.32,0.0,0.01,3
1682373614.69954324,172822678,0.0,0.08,0.0,0.99,175.41,175.41,0.0,0.02,3
1682373614.79954720,172922682,0.0,0.08,0.0,0.99,175.47,175.47,0.0,0.01,3
1682373614.89941907,173022554,0.0,0.07,0.0,0.99,175.54,175.54,0.0,0.01,3
1682373614.99966121,173122796,0.0,0.07,0.0,0.98,175.63,175.63,0.0,0.01,3
1682373615.09945917,173222594,0.0,0.06,0.0,0.98,175.69,175.69,0.0,0.02,3
1682373615.19957209,173322707,0.0,0.06,0.0,0.98,175.76,175.76,0.0,0.02,3
1682373615.29958415,173422719,0.0,0.06,0.0,0.99,175.84,175.84,0.0,0.01,3
1682373615.39975309,173522888,0.0,0.06,0.0,0.99,175.9,175.9,0.0,0.01,3
1682373615.49926305,173622398,0.0,0.06,0.0,0.99,175.98,175.98,0.0,0.01,3
1682373615.59917521,173722310,0.0,0.06,0.0,0.99,176.05,176.05,0.0,0.01,3
1682373615.69908714,173822222,0.0,0.05,0.0,0.99,176.11,176.11,0.0,0.01,3
1682373615.79915404,173922289,0.0,0.05,0.0,1.0,176.18,176.18,0.0,0.01,3
1682373615.89919209,174022327,0.0,0.05,0.0,1.0,176.25,176.25,0.0,0.01,3
1682373615.99919105,174122326,0.0,0.05,0.0,1.0,176.31,176.31,0.0,0.01,3
1682373616.09951615,174222651,0.0,0.05,0.0,1.0,176.38,176.38,0.0,0.01,3
1682373616.19922519,174322360,0.0,0.05,0.0,1.0,176.45000000000002,176.45000000000002,0.0,0.01,3
1682373616.29935813,174422493,0.0,0.05,0.0,1.0,176.51,176.51,0.0,0.01,3
1682373616.39927220,174522407,0.0,0.05,0.0,1.0,176.58,176.58,0.0,0.01,3
1682373616.49916720,174622302,0.0,0.04,0.0,1.0,176.64000000000001,176.64000000000001,0.0,0.01,3
1682373616.59918809,174722323,0.0,0.04,0.0,1.0,176.70000000000002,176.70000000000002,0.0,0.02,3
1682373616.69951725,174822652,0.0,0.04,0.0,1.0,176.77,176.77,0.0,0.02,3
1682373616.79955220,174922687,0.0,0.04,0.0,1.0,176.83,176.83,0.0,0.01,3
1682373616.89938712,175022522,0.0,0.03,0.0,1.0,176.88,176.88,0.0,0.01,3
1682373616.99947715,175122612,0.0,0.03,0.0,1.0,176.95000000000002,176.95000000000002,0.0,0.01,3
1682373617.09943008,175222565,0.0,0.03,0.0,1.0,177.01,177.01,0.0,0.01,3
1682373617.19948125,175322616,0.0,0.03,0.0,0.99,177.06,177.06,0.0,0.01,3
1682373617.29955411,175422689,0.0,0.03,0.0,0.99,177.12,177.12,0.0,0.01,3
1682373617.39953518,175522670,0.0,0.02,0.0,0.99,177.17000000000002,177.17000000000002,0.0,0.01,3
1682373617.49941015,175622545,0.0,0.02,0.0,0.99,177.22,177.22,0.0,0.01,3
1682373617.59937310,175722508,0.0,0.02,0.0,0.99,177.28,177.28,0.0,0.01,3
1682373617.69947910,175822614,0.0,0.02,0.0,0.99,177.33,177.33,0.0,0.01,3
1682373617.79975104,175922886,0.0,0.01,0.0,0.99,177.38,177.38,0.0,0.01,3
1682373617.89950109,176022636,0.0,0.01,0.0,0.99,177.45000000000002,177.45000000000002,0.0,0.01,3
1682373617.99921227,176122347,0.0,0.01,0.0,0.99,177.5,177.5,0.0,0.01,3
1682373618.09950304,176222638,0.0,0.02,0.0,0.99,177.54,177.54,0.0,0.01,3
1682373618.19952106,176322656,0.0,0.02,0.0,0.98,177.6,177.6,0.0,0.01,3
1682373618.29956722,176422702,0.0,0.02,0.0,0.99,177.65,177.65,0.0,0.01,3
1682373618.39948225,176522617,0.0,0.02,0.0,0.99,177.70000000000002,177.70000000000002,0.0,0.01,3
1682373618.49941421,176622549,0.0,0.01,0.0,0.98,177.77,177.77,0.0,0.01,3
1682373618.59956217,176722697,0.0,0.02,0.0,0.98,177.81,177.81,0.0,0.01,3
1682373618.69980526,176822940,0.0,0.01,0.0,0.98,177.86,177.86,0.0,0.01,3
1682373618.79953408,176922669,0.0,0.01,0.0,0.98,177.92000000000002,177.92000000000002,0.0,0.01,3
1682373618.89946818,177022603,0.0,0.01,0.0,0.98,177.97,177.97,0.0,0.01,3
1682373618.99952722,177122662,0.0,0.01,0.0,0.97,178.01,178.01,0.0,0.01,3
1682373619.09951210,177222647,0.0,0.01,0.0,0.98,178.06,178.06,0.0,0.01,3
1682373619.19956923,177322704,0.0,0.02,0.0,0.97,178.11,178.11,0.0,0.01,3
1682373619.29957008,177422705,0.0,0.02,0.0,0.97,178.15,178.15,0.0,0.01,3
1682373619.39956617,177522701,0.0,0.02,0.0,0.98,178.20000000000002,178.20000000000002,0.0,0.01,3
1682373619.49967504,177622810,0.0,0.02,0.0,0.98,178.25,178.25,0.0,0.01,3
1682373619.59982705,177722962,0.0,0.02,0.0,0.98,178.3,178.3,0.0,0.01,3
1682373633.99919915,192122334,0.0,0.01,0.0,1.0,182.87,182.89000000000001,0.0,0.0,3
1682373634.09932804,192222463,0.0,0.02,0.0,1.0,182.87,182.92000000000002,0.0,0.0,3
1682373634.19928908,192322424,0.0,0.02,0.0,1.0,182.93,182.94,0.0,0.0,3
1682373634.29954314,192422678,0.0,0.02,0.0,1.0,182.95000000000002,182.96,0.0,0.0,3
1682373634.39928007,192522415,0.0,0.02,0.0,1.0,182.98,182.99,0.0,0.0,3
1682373634.49946308,192622598,0.0,0.02,0.0,1.0,183.0,183.01,0.0,0.01,3
1682373634.59941626,192722551,0.0,0.02,0.0,1.0,183.02,183.03,0.0,0.01,3
1682373634.69937205,192822507,0.0,0.03,0.0,1.0,183.04,183.05,0.0,0.0,3
1682373634.79948521,192922620,0.0,0.03,0.0,1.0,183.06,183.07,0.0,0.0,3
1682373634.89937925,193022514,0.0,0.03,0.0,1.0,183.08,183.09,0.0,0.0,3
1682373634.99947023,193122605,0.0,0.03,0.0,1.0,183.1,183.11,0.0,0.0,3
1682373635.09963608,193222771,0.0,0.02,0.0,1.0,183.12,183.13,0.0,0.0,3
1682373635.19965506,193322790,0.0,0.03,0.0,1.0,183.14000000000001,183.15,0.0,0.0,3
1682373635.29929519,193422430,0.0,0.02,0.0,1.0,183.16,183.17000000000002,0.0,0.0,3
1682373635.39916420,193522299,0.0,0.03,0.0,1.0,183.18,183.19,0.0,0.01,3
1682373635.49946523,193622600,0.0,0.03,0.0,1.0,183.20000000000002,183.21,0.0,0.01,3
1682373635.59944916,193722584,0.0,0.03,0.0,1.0,183.23,183.24,0.0,0.0,3
1682373635.69952512,193822660,0.0,0.03,0.0,1.0,183.25,183.26,0.0,0.01,3
1682373635.79948306,193922618,0.0,0.03,0.0,1.0,183.27,183.28,0.0,0.0,3
1682373635.89950109,194022636,0.0,0.03,0.0,1.0,183.3,183.31,0.0,0.0,3
1682373635.99946809,194122603,0.0,0.03,0.0,1.0,183.32,183.33,0.0,0.0,3
1682373636.09949112,194222626,0.0,0.03,0.0,1.0,183.34,183.35,0.0,0.01,3
1682373636.19955325,194322688,0.0,0.03,0.0,1.0,183.36,183.37,0.0,0.01,3
1682373636.29976010,194422895,0.0,0.03,0.0,1.01,183.38,183.39000000000001,0.0,0.01,3
1682373636.39948416,194522619,0.0,0.03,0.0,1.01,183.39000000000001,183.4,0.0,0.0,3
1682373636.49946404,194622599,0.0,0.03,0.0,1.01,183.41,183.42000000000002,0.0,0.0,3
1682373636.59953403,194722669,0.0,0.03,0.0,1.01,183.41,183.44,0.0,0.0,3
1682373636.69948626,194822621,0.0,0.03,0.0,1.01,183.41,183.45000000000002,0.0,0.0,3
1682373636.79952908,194922664,0.0,0.03,0.0,1.01,183.41,183.49,0.0,0.0,3
1682373636.89946413,195022599,0.0,0.03,0.0,1.01,183.41,183.53,0.01,0.0,3
1682373636.99975824,195122893,0.0,0.04,0.0,1.0,183.41,183.47,0.01,0.01,3
1682373637.09925413,195222389,0.0,0.03,0.0,1.01,183.41,183.55,0.01,0.01,3
1682373637.19918418,195322319,0.0,0.03,0.0,0.97,183.41,183.57,0.01,0.01,3
1682373637.29923916,195422374,0.0,0.0,0.0,0.98,183.41,183.61,0.01,0.01,3
1682373637.39918613,195522321,0.12,-0.12,0.15,0.87,183.41,183.63,0.01,0.01,3
1682373637.49926925,195622404,0.43,-0.14,0.4,0.03,183.41,183.41,0.01,0.02,3
1682373637.59921217,195722347,0.13,1.19,0.66,-0.5700000000000001,183.41,183.11,0.01,0.03,3
1682373637.69931626,195822451,0.15,1.42,0.97,-0.38,183.41,182.82,0.02,0.03,3
1682373637.79924822,195922383,0.32,0.75,1.31,0.12,183.41,182.54,0.02,0.02,3
1682373637.89932704,196022462,0.17,0.61,1.47,0.97,183.41,182.28,0.02,0.02,3
1682373637.99933004,196122465,0.24,0.17,1.54,1.48,183.41,182.0,0.02,0.02,3
1682373638.09953308,196222668,0.33,0.11,1.56,1.54,183.41,181.76,0.02,0.02,3
1682373638.19952226,196322657,0.35000000000000003,0.22,1.53,1.49,183.41,181.57,0.02,0.02,3
1682373638.29961514,196422750,0.54,0.41000000000000003,1.51,1.27,183.41,181.43,0.02,0.02,3
1682373638.39968324,196522818,0.68,0.5,1.47,1.31,183.41,181.31,0.02,0.02,3
1682373638.49920225,196622337,0.85,0.59,1.56,1.34,183.41,181.27,0.02,0.02,3
1682373638.59925914,196722394,0.97,0.87,1.61,1.45,183.41,181.26,0.02,0.02,3
1682373638.69923925,196822374,0.98,0.88,1.79,1.61,183.42000000000002,181.27,0.03,0.02,3
1682373638.79933906,196922474,1.03,0.71,1.94,1.73,183.42000000000002,181.33,0.03,0.02,3
1682373638.89927220,197022407,0.9400000000000001,0.6900000000000001,1.98,1.95,183.42000000000002,181.34,0.04,0.02,3
1682373638.99954414,197122679,0.93,0.8200000000000001,1.96,1.9000000000000001,183.42000000000002,181.39000000000001,0.04,0.02,3
1682373639.09949422,197222629,0.91,0.47000000000000003,1.93,1.84,183.42000000000002,181.43,0.04,0.02,3
1682373639.19961214,197322747,0.97,0.65,1.93,1.82,183.42000000000002,181.52,0.04,0.02,3
1682373639.29967904,197422814,0.9400000000000001,0.81,1.9000000000000001,1.85,183.42000000000002,181.58,0.04,0.01,3
1682373639.39923525,197522370,0.81,0.8,1.9100000000000001,1.77,183.42000000000002,181.63,0.04,0.01,3
1682373639.49924111,197622376,0.74,0.73,1.93,1.81,183.42000000000002,181.72,0.04,0.01,3
1682373639.59925318,197722388,0.73,0.55,1.97,1.8800000000000001,183.42000000000002,181.82,0.04,0.01,3
1682373639.69928813,197822423,0.6900000000000001,0.59,1.95,1.92,183.42000000000002,181.88,0.04,0.01,3
1682373639.79929519,197922430,0.72,0.31,1.9000000000000001,1.77,183.42000000000002,181.97,0.04,0.01,3
1682373639.89926004,198022395,0.62,0.4,1.74,1.69,183.42000000000002,181.99,0.04,0.01,3
1682373639.99922919,198122364,0.62,0.36,1.6,1.47,183.42000000000002,182.0,0.04,0.01,3
1682373640.09944510,198222580,0.6,0.66,1.56,1.37,183.42000000000002,182.01,0.04,0.01,3
1682373640.19967103,198322806,0.59,0.68,1.6,1.27,183.42000000000002,182.05,0.04,0.01,3
1682373640.29946303,198422598,0.68,0.76,1.74,1.34,183.42000000000002,182.05,0.04,0.01,3
1682373640.39954019,198522675,0.73,0.89,1.9000000000000001,1.55,183.42000000000002,182.13,0.04,0.01,3
1682373640.49947023,198622605,0.79,0.93,2.02,1.73,183.42000000000002,182.20000000000002,0.04,0.01,3
1682373640.59947205,198722607,0.79,1.02,2.16,1.9000000000000001,183.42000000000002,182.25,0.04,0.01,3
1682373640.69947505,198822610,0.78,0.9400000000000001,2.18,1.93,183.42000000000002,182.36,0.04,0.01,3
1682373640.79950213,198922637,0.74,0.85,2.2,1.98,183.42000000000002,182.47,0.04,0.01,3
1682373640.89946508,199022600,0.71,0.67,2.15,1.97,183.42000000000002,182.55,0.03,0.01,3
1682373640.99953222,199122667,0.73,0.64,2.09,1.96,183.42000000000002,182.67000000000002,0.03,0.01,3
1682373641.09954906,199222684,0.76,0.71,1.99,1.92,183.42000000000002,182.72,0.03,0.01,3
1682373641.19921017,199322345,0.84,0.6,1.94,1.75,183.42000000000002,182.77,0.03,0.01,3
