timestamp,TimeUS,I,Status,GMS,GWk,NSats,HDop,Lat,Lng,Alt,Spd,GCrs,VZ,Yaw,U
1682373553.99900007,112122135,0,3,165571999,2259,16,0.66,42.6899934,-84.4888173,263.47,0.019646884873509407,104.7435531616211,0.058000002056360245,0.0,1
1682373554.19901204,112322147,0,3,165572199,2259,16,0.66,42.6899934,-84.4888172,263.46,0.03231098875403404,158.19857788085938,0.08900000154972076,0.0,1
1682373554.39916015,112522295,0,3,165572399,2259,16,0.66,42.6899934,-84.48881709999999,263.45,0.02690725028514862,131.98721313476562,0.05400000140070915,0.0,1
1682373554.59887314,112722008,0,3,165572599,2259,16,0.66,42.6899934,-84.488817,263.44,0.012206556275486946,304.9920349121094,-0.01600000075995922,0.0,1
1682373554.79918003,112922315,0,3,165572799,2259,16,0.66,42.6899934,-84.48881689999999,263.42,0.01303840521723032,4.398705005645752,-0.012000000104308128,0.0,1
1682373554.99920011,113122335,0,3,165572999,2259,16,0.66,42.6899934,-84.48881689999999,263.42,0.01720465160906315,305.5376892089844,-0.052000001072883606,0.0,1
1682373555.19925714,113322392,0,3,165573199,2259,16,0.66,42.6899934,-84.4888168,263.42,0.010816654190421104,326.3099365234375,0.01600000075995922,0.0,1
1682373555.39944506,113522580,0,3,165573399,2259,16,0.66,42.6899935,-84.4888167,263.41,0.004999999888241291,53.13010025024414,0.007000000216066837,0.0,1
1682373555.59919715,113722332,0,3,165573599,2259,16,0.66,42.6899935,-84.4888167,263.41,0.00854400359094143,200.55606079101562,0.003000000026077032,0.0,1
1682373555.77896404,113902099,0,3,165573799,2259,16,0.66,42.6899934,-84.48881659999999,263.39,0.03080584481358528,346.865966796875,-0.07700000703334808,0.0,1
1682373555.99920821,114122343,0,3,165573999,2259,16,0.66,42.6899935,-84.4888165,263.39,0.009899495169520378,135.0,0.0690000057220459,0.0,1
1682373556.21890020,114342035,0,3,165574199,2259,16,0.66,42.6899935,-84.48881639999999,263.39,0.01004987582564354,275.7106018066406,-0.005000000353902578,0.0,1
1682373556.39939404,114522529,0,3,165574399,2259,16,0.66,42.6899935,-84.48881639999999,263.39,0.0070710680447518826,351.8699035644531,-0.014000000432133675,0.0,1
1682373556.59894013,114722075,0,3,165574599,2259,16,0.66,42.6899935,-84.4888163,263.39,0.01720465160906315,215.53768920898438,0.04200000315904617,0.0,1
1682373556.79898715,114922122,0,3,165574799,2259,16,0.66,42.6899935,-84.4888162,263.37,0.03498571366071701,329.0362548828125,-0.09300000220537186,0.0,1
1682373556.99895406,115122089,0,3,165574999,2259,16,0.66,42.6899935,-84.4888162,263.37,0.008944272063672543,206.56504821777344,-0.00800000037997961,0.0,1
1682373557.19918013,115322315,0,3,165575199,2259,16,0.66,42.6899935,-84.4888161,263.37,0.03324154019355774,158.83872985839844,0.06000000238418579,0.0,1
1682373557.39919019,115522325,0,3,165575399,2259,16,0.66,42.6899935,-84.488816,263.36,0.008602325804531574,305.5376892089844,0.00800000037997961,0.0,1
1682373557.59901810,115722153,0,3,165575599,2259,16,0.66,42.6899934,-84.488816,263.36,0.018439089879393578,220.60130310058594,0.0020000000949949026,0.0,1
1682373557.79907227,115922207,0,3,165575799,2259,16,0.66,42.6899933,-84.4888158,263.4,0.07150524854660034,137.8341064453125,-0.609000027179718,0.0,1
1682373557.99888825,116122023,0,3,165575999,2259,16,0.66,42.689993199999996,-84.4888156,263.55,0.05249762162566185,72.25532531738281,-1.096000075340271,0.0,1
1682373558.19893503,116322070,0,3,165576199,2259,16,0.66,42.6899933,-84.4888155,263.8,0.012041594833135605,265.2363586425781,-1.1120001077651978,0.0,1
1682373558.39920521,116522340,0,3,165576399,2259,16,0.66,42.6899933,-84.4888153,263.98,0.07942921668291092,79.11446380615234,-0.968000054359436,0.0,1
1682373558.59902215,116722157,0,3,165576599,2259,16,0.66,42.689993099999995,-84.4888153,264.15,0.1657467931509018,199.74684143066406,-0.64000004529953,0.0,1
1682373558.79920506,116922340,0,3,165576799,2259,16,0.66,42.6899929,-84.48881519999999,264.23,0.03101612627506256,88.15238189697266,-0.3620000183582306,0.0,1
1682373558.99906111,117122196,0,3,165576999,2259,16,0.66,42.6899929,-84.4888151,264.3,0.039000000804662704,180.0,-0.4190000295639038,0.0,1
1682373559.19915509,117322290,0,3,165577199,2259,16,0.66,42.6899928,-84.488815,264.38,0.08883693814277649,148.8150177001953,-0.2800000011920929,0.0,1
1682373559.39919615,117522331,0,3,165577399,2259,16,0.66,42.6899924,-84.488815,264.39,0.16015306115150452,205.12496948242188,-0.2630000114440918,0.0,1
1682373559.59923124,117722366,0,3,165577599,2259,16,0.66,42.6899923,-84.488815,264.47,0.04244997352361679,254.9816436767578,-0.44600000977516174,0.0,1
1682373559.79912305,117922258,0,3,165577799,2259,16,0.66,42.6899922,-84.488815,264.55,0.06637018173933029,149.1842803955078,-0.40800002217292786,0.0,1
1682373559.99910522,118122240,0,3,165577999,2259,16,0.66,42.6899921,-84.4888151,264.65,0.19474342465400696,264.9920349121094,-0.6150000095367432,0.0,1
1682373560.19938827,118322523,0,3,165578199,2259,16,0.66,42.6899921,-84.4888153,264.75,0.06579513847827911,316.84759521484375,-0.5750000476837158,0.0,1
1682373560.39922714,118522362,0,3,165578399,2259,16,0.66,42.6899921,-84.4888154,264.86,0.0660984143614769,252.38742065429688,-0.5900000333786011,0.0,1
1682373560.59899116,118722126,0,3,165578599,2259,16,0.66,42.6899921,-84.4888155,264.95,0.12954150140285492,285.2163391113281,-0.6190000176429749,0.0,1
1682373560.79918814,118922323,0,3,165578799,2259,16,0.66,42.6899921,-84.48881589999999,265.08,0.17400288581848145,270.32928466796875,-0.6790000200271606,0.0,1
1682373560.99921107,119122346,0,3,165578999,2259,16,0.66,42.6899921,-84.4888161,265.19,0.115745410323143,309.7421875,-0.6130000352859497,0.0,1
1682373561.19951606,119322651,0,3,165579199,2259,16,0.66,42.6899921,-84.4888163,265.26,0.2000025063753128,298.3589782714844,-0.5830000042915344,0.0,1
1682373561.39926314,119522398,0,3,165579399,2259,16,0.66,42.6899922,-84.4888165,265.35,0.05412023887038231,332.4880065917969,-0.534000039100647,0.0,1
1682373561.59889412,119722029,0,3,165579599,2259,16,0.66,42.6899923,-84.4888165,265.46,0.07632169127464294,338.4773864746094,-0.6070000529289246,0.0,1
1682373561.79892612,119922061,0,3,165579799,2259,16,0.66,42.689992499999995,-84.4888165,265.56,0.18160396814346313,343.3612060546875,-0.5590000152587891,0.0,1
1682373561.99899125,120122126,0,3,165579999,2259,16,0.66,42.6899927,-84.4888165,265.66,0.1086646243929863,6.34019136428833,-0.5070000290870667,0.0,1
1682373562.19902515,120322160,0,3,165580199,2259,16,0.66,42.6899928,-84.48881639999999,265.74,0.10404326766729355,342.0874938964844,-0.5890000462532043,0.0,1
1682373562.39897704,120522112,0,3,165580399,2259,15,0.66,42.689993,-84.48881639999999,265.85,0.0991816595196724,3.468229055404663,-0.6210000514984131,0.0,1
1682373562.59886909,120722004,0,3,165580599,2259,16,0.66,42.689993099999995,-84.4888162,265.93,0.11706835776567459,55.088165283203125,-0.5110000371932983,0.0,1
1682373562.79899406,120922129,0,3,165580799,2259,16,0.66,42.689993199999996,-84.4888161,266.04,0.033105891197919846,295.01690673828125,-0.5410000085830688,0.0,1
1682373562.99923515,121122370,0,3,165580999,2259,16,0.66,42.689993199999996,-84.488816,266.09000000000003,0.12500399351119995,359.5416564941406,-0.5020000338554382,0.0,1
1682373563.19932604,121322461,0,3,165581199,2259,16,0.66,42.689993099999995,-84.4888158,266.16,0.14800338447093964,143.51722717285156,-0.36900001764297485,0.0,1
1682373563.39911509,121522250,0,3,165581399,2259,16,0.66,42.689993099999995,-84.48881569999999,266.23,0.06706713140010834,339.94390869140625,-0.4830000102519989,0.0,1
1682373563.59904504,121722180,0,3,165581599,2259,17,0.62,42.689993099999995,-84.4888156,266.28000000000003,0.022203603759407997,35.83765411376953,-0.4910000264644623,0.0,1
1682373563.79915214,121922287,0,3,165581799,2259,17,0.62,42.6899933,-84.4888155,266.38,0.08036168664693832,343.3690490722656,-0.3880000114440918,0.0,1
1682373563.99918103,122122316,0,3,165581999,2259,17,0.62,42.6899933,-84.4888155,266.41,0.0718679428100586,238.07913208007812,-0.33100003004074097,0.0,1
1682373564.19920325,122322338,0,3,165582199,2259,17,0.62,42.6899933,-84.4888156,266.46,0.03280244022607803,322.431396484375,-0.22300000488758087,0.0,1
1682373564.39886522,122522000,0,3,165582399,2259,17,0.62,42.689993199999996,-84.4888156,266.46,0.02692582458257675,285.0684814453125,-0.07900000363588333,0.0,1
1682373564.59929323,122722428,0,3,165582599,2259,17,0.62,42.689993199999996,-84.4888156,266.46,0.05603570491075516,272.04541015625,-0.006000000052154064,0.0,1
1682373564.79937720,122922512,0,3,165582799,2259,17,0.62,42.689993099999995,-84.48881569999999,266.42,0.05916925147175789,300.4655456542969,0.05100000277161598,0.0,1
1682373564.99927115,123122406,0,3,165582999,2259,17,0.62,42.689993099999995,-84.48881569999999,266.38,0.04219004884362221,185.4403533935547,0.1940000057220459,0.0,1
1682373565.19954109,123322676,0,3,165583199,2259,17,0.62,42.689993,-84.48881569999999,266.35,0.0806535854935646,160.44174194335938,0.039000000804662704,0.0,1
1682373565.39915204,123522287,0,3,165583399,2259,17,0.62,42.6899927,-84.4888155,266.33,0.24390573799610138,148.06932067871094,0.1340000033378601,0.0,1
1682373565.59922314,123722358,0,3,165583599,2259,17,0.62,42.6899922,-84.488815,266.29,0.3789578080177307,147.60997009277344,0.09800000488758087,0.0,1
1682373565.79925203,123922387,0,3,165583799,2259,17,0.62,42.6899915,-84.4888144,266.26,0.518552839756012,147.8423614501953,0.17900000512599945,0.0,1
1682373565.99927807,124122413,0,3,165583999,2259,17,0.62,42.689990699999996,-84.48881349999999,266.24,0.6318109631538391,139.3003387451172,0.017000000923871994,0.0,1
1682373566.21918917,124342324,0,3,165584199,2259,17,0.62,42.6899897,-84.4888124,266.2,0.7451510429382324,141.97665405273438,0.07900000363588333,0.0,1
1682373566.39929414,124522429,0,3,165584399,2259,17,0.62,42.6899885,-84.4888112,266.18,0.8898685574531555,148.04238891601562,0.07400000095367432,0.0,1
1682373566.59903812,124722173,0,3,165584599,2259,17,0.62,42.689986999999995,-84.48880989999999,266.14,0.9033477306365967,148.35093688964844,-0.02200000174343586,0.0,1
1682373566.79906106,124922196,0,3,165584799,2259,17,0.62,42.6899856,-84.4888088,266.13,0.9043058753013611,152.8965606689453,-0.032999999821186066,0.0,1
1682373566.99931026,125122445,0,3,165584999,2259,17,0.62,42.6899841,-84.48880779999999,266.11,0.8655340075492859,158.44444274902344,-0.04200000315904617,0.0,1
1682373567.19917226,125322307,0,3,165585199,2259,17,0.62,42.6899825,-84.488807,266.11,0.9313029050827026,161.85687255859375,0.020000001415610313,0.0,1
1682373567.39916420,125522299,0,3,165585399,2259,17,0.62,42.6899807,-84.4888064,266.06,0.9908158183097839,171.5264129638672,0.04400000348687172,0.0,1
1682373567.59932208,125722457,0,3,165585599,2259,17,0.62,42.689979,-84.488806,266.02,0.9248378276824951,169.7228546142578,0.1810000091791153,0.0,1
1682373567.79920506,125922340,0,3,165585799,2259,17,0.62,42.689977299999995,-84.48880559999999,265.99,0.9157647490501404,172.5335235595703,0.13600000739097595,0.0,1
1682373567.99907112,126122206,0,3,165585999,2259,17,0.62,42.6899757,-84.4888051,265.95,0.9015592932701111,169.00164794921875,0.1680000126361847,0.0,1
1682373568.19932508,126322460,0,3,165586199,2259,17,0.62,42.689974,-84.4888047,265.94,0.9961330890655518,171.0482940673828,0.12000000476837158,0.0,1
1682373568.39906812,126522203,0,3,165586399,2259,17,0.62,42.6899723,-84.48880419999999,265.9,0.8749314546585083,170.5269012451172,0.10600000619888306,0.0,1
1682373568.59905314,126722188,0,3,165586599,2259,17,0.62,42.6899708,-84.48880369999999,265.86,0.7995762228965759,164.1038055419922,0.04700000211596489,0.0,1
1682373568.79918504,126922320,0,3,165586799,2259,17,0.62,42.6899692,-84.4888031,265.83,0.9011115431785583,165.14639282226562,0.0690000057220459,0.0,1
1682373568.99916124,127122296,0,3,165586999,2259,17,0.62,42.6899677,-84.4888024,265.85,0.9571290612220764,163.9888153076172,0.0010000000474974513,0.0,1
1682373569.19923520,127322370,0,3,165587199,2259,17,0.62,42.689966,-84.4888017,265.84000000000003,0.9404940605163574,163.12570190429688,-0.04200000315904617,0.0,1
1682373569.39923120,127522366,0,3,165587399,2259,17,0.62,42.6899644,-84.48880079999999,265.85,0.8493722081184387,155.51695251464844,-0.06599999964237213,0.0,1
1682373569.59927511,127722410,0,3,165587599,2259,17,0.62,42.6899629,-84.48879989999999,265.84000000000003,0.9363610744476318,158.9712677001953,-0.006000000052154064,0.0,1
1682373569.79922509,127922360,0,3,165587799,2259,17,0.62,42.6899614,-84.488799,265.86,0.8709765076637268,155.73025512695312,-0.05400000140070915,0.0,1
1682373569.99933219,128122467,0,3,165587999,2259,17,0.62,42.6899599,-84.488798,265.84000000000003,0.8721697330474854,154.31634521484375,-0.015000000596046448,0.0,1
1682373570.19904804,128322183,0,3,165588199,2259,17,0.62,42.6899583,-84.48879699999999,265.81,0.9185059070587158,156.44918823242188,0.05400000140070915,0.0,1
1682373570.39906216,128522197,0,3,165588399,2259,17,0.62,42.689956699999996,-84.4887961,265.81,1.0356645584106445,158.71224975585938,0.09000000357627869,0.0,1
1682373570.59891009,128722045,0,3,165588599,2259,17,0.62,42.6899549,-84.4887952,265.79,1.0607553720474243,160.6768035888672,-0.039000000804662704,0.0,1
1682373570.79893208,128922067,0,3,165588799,2259,17,0.62,42.689952999999996,-84.4887942,265.78000000000003,1.0748605728149414,158.78260803222656,0.06599999964237213,0.0,1
1682373570.99922705,129122362,0,3,165588999,2259,17,0.62,42.689951199999996,-84.4887933,265.77,1.065422534942627,162.12625122070312,-0.04200000315904617,0.0,1
1682373571.19925213,129322387,0,3,165589199,2259,17,0.62,42.689949399999996,-84.4887924,265.78000000000003,1.0468477010726929,157.47695922851562,-0.009000000543892384,0.0,1
1682373571.39921713,129522352,0,3,165589399,2259,17,0.62,42.689947599999996,-84.48879149999999,265.78000000000003,1.0487602949142456,163.77694702148438,0.10100000351667404,0.0,1
1682373571.59907126,129722206,0,3,165589599,2259,17,0.62,42.689945699999996,-84.4887907,265.72,1.0449775457382202,162.57073974609375,0.16500000655651093,0.0,1
1682373571.79917121,129922306,0,3,165589799,2259,17,0.62,42.689943799999995,-84.4887899,265.71,1.0678998231887817,162.95643615722656,-0.03700000047683716,0.0,1
1682373571.99905419,130122189,0,3,165589999,2259,17,0.62,42.689942099999996,-84.488789,265.7,0.9693364500999451,159.34017944335938,0.08400000631809235,0.0,1
1682373572.19904613,130322181,0,3,165590199,2259,17,0.62,42.6899405,-84.4887882,265.71,0.9508970379829407,161.54598999023438,0.04200000315904617,0.0,1
1682373572.39890122,130522036,0,3,165590399,2259,17,0.62,42.6899388,-84.4887873,265.7,0.9706704020500183,160.5010223388672,-0.11400000751018524,0.0,1
1682373572.59891915,130722054,0,3,165590599,2259,17,0.62,42.689937099999995,-84.48878649999999,265.72,0.9502973556518555,161.08837890625,-0.12000000476837158,0.0,1
1682373572.79923224,130922367,0,3,165590799,2259,17,0.62,42.6899355,-84.4887856,265.71,0.8839547634124756,154.8264617919922,0.05100000277161598,0.0,1
1682373572.99923515,131122370,0,3,165590999,2259,17,0.62,42.6899338,-84.4887847,265.68,1.068868637084961,161.22601318359375,0.11000000685453415,0.0,1
1682373573.19901514,131322150,0,3,165591199,2259,17,0.62,42.6899321,-84.4887838,265.69,0.9803846478462219,157.38462829589844,0.030000001192092896,0.0,1
1682373573.39918923,131522324,0,3,165591399,2259,17,0.62,42.6899304,-84.4887828,265.66,0.9361501336097717,156.11830139160156,0.12600000202655792,0.0,1
1682373573.59931922,131722454,0,3,165591599,2259,17,0.62,42.6899288,-84.4887818,265.67,1.0476970672607422,156.6649627685547,0.029000001028180122,0.0,1
1682373573.79925513,131922390,0,3,165591799,2259,17,0.62,42.689927,-84.488781,265.66,0.954235315322876,166.79385375976562,-0.08500000089406967,0.0,1
1682373573.99927020,132122405,0,3,165591999,2259,17,0.62,42.6899252,-84.4887802,265.64,1.0135290622711182,158.04112243652344,0.0690000057220459,0.0,1
1682373574.19890618,132322041,0,3,165592199,2259,17,0.62,42.6899235,-84.48877929999999,265.64,1.049594759941101,161.0989532470703,0.02800000086426735,0.0,1
1682373574.39892316,132522058,0,3,165592399,2259,17,0.62,42.6899217,-84.4887784,265.66,1.0107779502868652,160.70458984375,-0.11000000685453415,0.0,1
1682373574.59901023,132722145,0,3,165592599,2259,17,0.62,42.6899199,-84.48877739999999,265.62,1.0089014768600464,158.5465850830078,0.049000002443790436,0.0,1
1682373574.79924226,132922377,0,3,165592799,2259,17,0.62,42.6899182,-84.4887765,265.61,1.0021616220474243,160.0461883544922,0.015000000596046448,0.0,1
1682373574.99899817,133122133,0,3,165592999,2259,17,0.62,42.6899166,-84.4887756,265.62,0.9414144158363342,161.73825073242188,0.012000000104308128,0.0,1
1682373575.19906306,133322198,0,3,165593199,2259,17,0.62,42.689915,-84.4887747,265.61,0.9496384263038635,154.62225341796875,0.017000000923871994,0.0,1
1682373575.39917421,133522309,0,3,165593399,2259,17,0.62,42.689913499999996,-84.4887736,265.61,0.8995426893234253,152.23849487304688,0.009000000543892384,0.0,1
1682373575.59921217,133722347,0,3,165593599,2259,17,0.62,42.6899119,-84.48877259999999,265.62,0.9570810198783875,158.42091369628906,-0.1300000101327896,0.0,1
1682373575.79924417,133922379,0,3,165593799,2259,17,0.62,42.6899103,-84.4887717,265.64,0.9047077298164368,158.19857788085938,-0.05400000140070915,0.0,1
1682373576.01917219,134142307,0,3,165593999,2259,17,0.62,42.6899088,-84.4887708,265.63,0.8760879635810852,157.09336853027344,-0.05700000375509262,0.0,1
1682373576.19895911,134322094,0,3,165594199,2259,17,0.62,42.6899072,-84.4887698,265.61,0.9677293300628662,156.87913513183594,0.04100000113248825,0.0,1
1682373576.39897823,134522113,0,3,165594399,2259,17,0.62,42.689905599999996,-84.4887688,265.59000000000003,0.9155381321907043,156.09469604492188,-0.04100000113248825,0.0,1
1682373576.59902215,134722157,0,3,165594599,2259,17,0.62,42.689904,-84.48876779999999,265.57,0.9864710569381714,154.99362182617188,0.08500000089406967,0.0,1
1682373576.79900122,134922136,0,3,165594799,2259,17,0.62,42.6899024,-84.4887668,265.55,0.8975216150283813,158.83872985839844,0.01900000125169754,0.0,1
1682373576.99918222,135122317,0,3,165594999,2259,17,0.62,42.6899008,-84.4887657,265.51,0.9367188215255737,151.2186737060547,0.03400000184774399,0.0,1
1682373577.19930220,135322437,0,3,165595199,2259,17,0.62,42.6898992,-84.48876469999999,265.51,0.9935839772224426,159.06597900390625,-0.049000002443790436,0.0,1
1682373577.39934206,135522477,0,3,165595399,2259,17,0.62,42.689897599999995,-84.48876369999999,265.52,0.9614624381065369,157.3022003173828,-0.04000000283122063,0.0,1
1682373577.59927225,135722407,0,3,165595599,2259,17,0.62,42.689895899999996,-84.4887627,265.5,0.9560084342956543,157.61985778808594,-0.015000000596046448,0.0,1
1682373577.79955912,135922694,0,3,165595799,2259,17,0.62,42.6898942,-84.48876159999999,265.48,1.052335500717163,152.92359924316406,0.03700000047683716,0.0,1
1682373577.99893403,136122069,0,3,165595999,2259,17,0.62,42.6898926,-84.4887605,265.47,1.0125398635864258,157.28436279296875,0.09800000488758087,0.0,1
1682373578.19899511,136322130,0,3,165596199,2259,17,0.62,42.689890899999995,-84.48875939999999,265.47,0.9784365296363831,155.03262329101562,-0.06700000166893005,0.0,1
1682373578.39902306,136522158,0,3,165596399,2259,17,0.62,42.689889199999996,-84.4887584,265.44,0.9943003058433533,158.95834350585938,0.03700000047683716,0.0,1
1682373578.59898925,136722124,0,3,165596599,2259,17,0.62,42.6898875,-84.4887573,265.41,1.006475567817688,157.07797241210938,0.12400000542402267,0.0,1
1682373578.79921913,136922354,0,3,165596799,2259,17,0.62,42.6898859,-84.4887562,265.41,1.0057837963104248,153.48590087890625,0.039000000804662704,0.0,1
1682373578.99920321,137122338,0,3,165596999,2259,17,0.62,42.6898841,-84.4887552,265.4,1.0045720338821411,159.67091369628906,-0.046000003814697266,0.0,1
1682373579.19920826,137322343,0,3,165597199,2259,17,0.62,42.689882399999995,-84.4887542,265.38,1.0382264852523804,158.352294921875,0.06599999964237213,0.0,1
1682373579.39921522,137522350,0,3,165597399,2259,17,0.62,42.689880599999995,-84.48875319999999,265.4,1.1292622089385986,161.83779907226562,0.006000000052154064,0.0,1
1682373579.59917903,137722314,0,3,165597599,2259,17,0.62,42.6898789,-84.4887523,265.39,0.8825401067733765,157.270263671875,-0.11100000888109207,0.0,1
1682373579.79939103,137922526,0,3,165597799,2259,17,0.62,42.6898772,-84.48875149999999,265.37,0.9563263654708862,160.95875549316406,0.08300000429153442,0.0,1
1682373579.99897814,138122113,0,3,165597999,2259,17,0.62,42.6898756,-84.4887506,265.34000000000003,0.8723904490470886,155.8441162109375,-0.004000000189989805,0.0,1
1682373580.19902921,138322164,0,3,165598199,2259,17,0.62,42.689873999999996,-84.4887497,265.31,0.9305960536003113,159.5592498779297,-0.004000000189989805,0.0,1
1682373580.39900923,138522144,0,3,165598399,2259,17,0.62,42.6898725,-84.48874889999999,265.3,0.8995805382728577,159.57066345214844,0.0560000017285347,0.0,1
1682373580.59919214,138722327,0,3,165598599,2259,17,0.62,42.689870899999995,-84.4887481,265.27,0.9526258707046509,158.4442901611328,0.12600000202655792,0.0,1
1682373580.79929209,138922427,0,3,165598799,2259,17,0.62,42.6898693,-84.48874719999999,265.23,0.906159520149231,160.4652557373047,0.10900000482797623,0.0,1
1682373580.99931812,139122453,0,3,165598999,2259,17,0.62,42.6898677,-84.4887464,265.2,0.901932418346405,158.4698944091797,0.10200000554323196,0.0,1
1682373581.19933915,139322474,0,3,165599199,2259,17,0.62,42.689866099999996,-84.4887455,265.16,0.9594603180885315,161.1495819091797,0.14600001275539398,0.0,1
1682373581.39919019,139522325,0,3,165599399,2259,17,0.62,42.6898645,-84.48874459999999,265.14,0.9787487387657166,154.71786499023438,0.0560000017285347,0.0,1
1682373581.59915924,139722294,0,3,165599599,2259,17,0.62,42.6898629,-84.48874359999999,265.13,0.9336257576942444,155.71348571777344,0.036000002175569534,0.0,1
1682373581.79951215,139922647,0,3,165599799,2259,17,0.62,42.6898615,-84.4887428,265.14,0.8848062753677368,161.48313903808594,-0.02800000086426735,0.0,1
1682373582.01928806,140142423,0,3,165599999,2259,17,0.62,42.689859999999996,-84.488742,265.14,0.8942310214042664,155.69920349121094,0.04700000211596489,0.0,1
1682373582.19900107,140322136,0,3,165600199,2259,17,0.62,42.6898583,-84.4887409,265.08,1.054977297782898,153.4835205078125,0.06599999964237213,0.0,1
1682373582.39888406,140522019,0,3,165600399,2259,17,0.62,42.6898567,-84.48873979999999,265.07,0.9279682636260986,153.43495178222656,0.010000000707805157,0.0,1
1682373582.59899521,140722130,0,3,165600599,2259,17,0.62,42.689855099999996,-84.4887388,265.06,0.9949684143066406,159.3428497314453,0.04000000283122063,0.0,1
1682373582.79903913,140922174,0,3,165600799,2259,17,0.62,42.689853299999996,-84.4887378,265.03000000000003,1.0254385471343994,155.08436584472656,0.10200000554323196,0.0,1
1682373582.99904609,141122181,0,3,165600999,2259,17,0.62,42.6898517,-84.48873669999999,265.02,0.9731315970420837,156.43804931640625,0.012000000104308128,0.0,1
1682373583.19891524,141322050,0,3,165601199,2259,17,0.62,42.689850199999995,-84.4887358,265.01,0.8917091488838196,158.2105255126953,0.06800000369548798,0.0,1
1682373583.39893222,141522067,0,3,165601399,2259,17,0.62,42.6898485,-84.4887349,264.97,0.9888726472854614,156.96116638183594,0.004000000189989805,0.0,1
1682373583.59921813,141722353,0,3,165601599,2259,17,0.62,42.6898469,-84.4887339,264.96,1.0024096965789795,157.7846221923828,-0.007000000216066837,0.0,1
1682373583.79924512,141922380,0,3,165601799,2259,17,0.62,42.6898452,-84.488733,264.97,0.9879049062728882,158.00473022460938,-0.07900000363588333,0.0,1
1682373583.99924207,142122377,0,3,165601999,2259,17,0.62,42.689843499999995,-84.4887321,264.94,0.9638075828552246,160.23020935058594,0.04500000178813934,0.0,1
1682373584.19905519,142322190,0,3,165602199,2259,17,0.62,42.689841699999995,-84.48873119999999,264.89,1.021511197090149,158.2819061279297,0.16500000655651093,0.0,1
1682373584.39916706,142522302,0,3,165602399,2259,17,0.62,42.6898401,-84.4887303,264.86,0.9445464611053467,159.03216552734375,0.03400000184774399,0.0,1
1682373584.59932017,142722455,0,3,165602599,2259,17,0.62,42.6898385,-84.4887296,264.86,0.8980869054794312,161.56504821777344,0.03200000151991844,0.0,1
1682373584.79935122,142922486,0,3,165602799,2259,17,0.62,42.689837,-84.4887289,264.82,0.7922784090042114,162.59420776367188,0.1469999998807907,0.0,1
1682373584.99920821,143122343,0,3,165602999,2259,17,0.62,42.6898358,-84.48872829999999,264.79,0.5991669297218323,164.01519775390625,0.04800000041723251,0.0,1
1682373585.19917727,143322312,0,3,165603199,2259,17,0.62,42.6898349,-84.488728,264.77,0.47183048725128174,172.69422912597656,0.09200000762939453,0.0,1
1682373585.39920425,143522339,0,3,165603399,2259,17,0.62,42.6898342,-84.488728,264.75,0.2685386538505554,183.62957763671875,0.018000001087784767,0.0,1
1682373585.59924817,143722383,0,3,165603599,2259,17,0.62,42.689833799999995,-84.488728,264.75,0.19876118004322052,196.06419372558594,0.03500000014901161,0.0,1
1682373585.79902124,143922156,0,3,165603799,2259,17,0.62,42.6898335,-84.4887282,264.73,0.12041594833135605,221.633544921875,-0.055000003427267075,0.0,1
1682373585.99890208,144122037,0,3,165603999,2259,17,0.62,42.6898334,-84.4887284,264.73,0.12060265988111496,217.24996948242188,0.07000000029802322,0.0,1
1682373586.21925426,144342389,0,3,165604199,2259,17,0.62,42.689833199999995,-84.4887285,264.71,0.08011242747306824,245.6744384765625,-0.06100000441074371,0.0,1
1682373586.39904523,144522180,0,3,165604399,2259,17,0.62,42.6898333,-84.4887286,264.73,0.019209373742341995,308.6598205566406,-0.05400000140070915,0.0,1
1682373586.59934521,144722480,0,3,165604599,2259,17,0.62,42.6898331,-84.4887287,264.75,0.226353719830513,207.92359924316406,-0.0560000017285347,0.0,1
1682373586.79889917,144922034,0,3,165604799,2259,17,0.62,42.6898327,-84.48872879999999,264.69,0.2759438455104828,206.00790405273438,0.25,0.0,1
1682373586.99892807,145122063,0,3,165604999,2259,17,0.62,42.6898321,-84.4887292,264.63,0.4709787666797638,209.23184204101562,0.36000001430511475,0.0,1
1682373587.19899821,145322133,0,3,165605199,2259,17,0.62,42.689831399999996,-84.4887297,264.55,0.47807222604751587,206.45785522460938,0.47700002789497375,0.0,1
1682373587.39924622,145522381,0,3,165605399,2259,17,0.62,42.6898305,-84.4887304,264.45,0.613130509853363,211.4605712890625,0.503000020980835,0.0,1
1682373587.59899020,145722125,0,3,165605599,2259,17,0.62,42.689829599999996,-84.488731,264.33,0.4945806562900543,208.89707946777344,0.5490000247955322,0.0,1
1682373587.79905009,145922185,0,3,165605799,2259,17,0.62,42.6898287,-84.4887315,264.2,0.45207080245018005,210.87681579589844,0.35500001907348633,0.0,1
1682373588.01906419,146142199,0,3,165605999,2259,17,0.62,42.689828299999995,-84.488732,264.14,0.2918218672275543,221.66615295410156,0.34800001978874207,0.0,1
1682373588.19921112,146322346,0,3,165606199,2259,17,0.62,42.689827699999995,-84.4887323,264.04,0.2401103973388672,193.97837829589844,0.3150000274181366,0.0,1
1682373588.39921904,146522354,0,3,165606399,2259,17,0.62,42.6898273,-84.48873239999999,263.96,0.20838667452335358,210.25643920898438,0.4050000309944153,0.0,1
1682373588.59954619,146722681,0,3,165606599,2259,17,0.62,42.689827,-84.4887325,263.86,0.13534031808376312,194.54965209960938,0.3920000195503235,0.0,1
1682373588.79914522,146922280,0,3,165606799,2259,17,0.62,42.6898267,-84.48873259999999,263.76,0.09585927426815033,200.13632202148438,0.398000031709671,0.0,1
1682373588.99921012,147122345,0,3,165606999,2259,17,0.62,42.689826499999995,-84.48873259999999,263.67,0.0495176762342453,223.36341857910156,0.4650000333786011,0.0,1
1682373589.19924426,147322379,0,3,165607199,2259,17,0.62,42.6898263,-84.48873259999999,263.56,0.09062009304761887,202.03622436523438,0.35100001096725464,0.0,1
1682373589.39927721,147522412,0,3,165607399,2259,17,0.62,42.6898261,-84.48873259999999,263.43,0.023000001907348633,180.0,0.5750000476837158,0.0,1
1682373589.59887719,147722012,0,3,165607599,2259,17,0.62,42.6898262,-84.48873259999999,263.34000000000003,0.05234501138329506,316.54815673828125,0.42000001668930054,0.0,1
1682373589.79898810,147922123,0,3,165607799,2259,17,0.62,42.6898263,-84.48873259999999,263.29,0.01077033020555973,21.801406860351562,0.25,0.0,1
1682373589.99904513,148122180,0,3,165607999,2259,17,0.62,42.6898262,-84.4887325,263.18,0.07851751148700714,186.5819549560547,0.49900001287460327,0.0,1
1682373590.19908905,148322224,0,3,165608199,2259,17,0.62,42.6898261,-84.4887325,263.06,0.04123105853796005,284.0362548828125,0.5160000324249268,0.0,1
1682373590.39918613,148522321,0,3,165608399,2259,17,0.62,42.6898261,-84.48873239999999,262.95,0.031400639563798904,142.76515197753906,0.453000009059906,0.0,1
1682373590.59916115,148722296,0,3,165608599,2259,17,0.62,42.6898262,-84.4887323,262.88,0.06449805945158005,60.25511169433594,0.4710000157356262,0.0,1
1682373590.79899120,148922126,0,3,165608799,2259,17,0.62,42.6898261,-84.4887322,262.76,0.057271283119916916,204.775146484375,0.41200003027915955,0.0,1
1682373590.99903822,149122173,0,3,165608999,2259,17,0.62,42.689826,-84.488732,262.65,0.058523502200841904,146.85299682617188,0.49900001287460327,0.0,1
1682373591.19899607,149322131,0,3,165609199,2259,17,0.62,42.6898261,-84.48873189999999,262.58,0.049648769199848175,18.799882888793945,0.32100000977516174,0.0,1
1682373591.39889622,149522031,0,3,165609399,2259,17,0.62,42.689825899999995,-84.4887318,262.46,0.05770615488290787,152.10272216796875,0.36100003123283386,0.0,1
1682373591.59928513,149722420,0,3,165609599,2259,17,0.62,42.689826,-84.4887317,262.39,0.053460270166397095,7.523819923400879,0.4400000274181366,0.0,1
1682373591.79919910,149922334,0,3,165609799,2259,17,0.62,42.689825899999995,-84.4887316,262.28000000000003,0.06806614995002747,177.473876953125,0.3830000162124634,0.0,1
1682373591.99922705,150122362,0,3,165609999,2259,17,0.62,42.689825899999995,-84.4887315,262.22,0.029068883508443832,26.56505012512207,0.25200000405311584,0.0,1
1682373592.19918823,150322323,0,3,165610199,2259,17,0.62,42.6898258,-84.48873139999999,262.16,0.04257934167981148,170.5376739501953,0.21000000834465027,0.0,1
1682373592.39915204,150522287,0,3,165610399,2259,17,0.62,42.6898258,-84.48873139999999,262.12,0.030083218589425087,195.42218017578125,0.12600000202655792,0.0,1
1682373592.59921408,150722349,0,3,165610599,2259,17,0.62,42.6898257,-84.48873139999999,262.11,0.03801315650343895,181.5074462890625,0.08700000494718552,0.0,1
1682373592.79924917,150922384,0,3,165610799,2259,17,0.62,42.6898257,-84.48873139999999,262.12,0.03668787330389023,162.55279541015625,0.06300000101327896,0.0,1
1682373592.99927616,151122411,0,3,165610999,2259,17,0.62,42.6898257,-84.48873139999999,262.11,0.02282542549073696,331.189208984375,-0.009000000543892384,0.0,1
1682373593.19921517,151322350,0,3,165611199,2259,17,0.62,42.6898256,-84.48873139999999,262.1,0.02523886039853096,146.30992126464844,0.07900000363588333,0.0,1
1682373593.39930511,151522440,0,3,165611399,2259,17,0.62,42.6898256,-84.48873139999999,262.09000000000003,0.03534119576215744,115.11483001708984,0.16500000655651093,0.0,1
1682373593.59904814,151722183,0,3,165611599,2259,17,0.62,42.6898257,-84.48873139999999,262.09000000000003,0.06053924560546875,157.67132568359375,0.25200000405311584,0.0,1
1682373593.79899716,151922132,0,3,165611799,2259,17,0.62,42.6898257,-84.48873139999999,262.06,0.04176123067736626,163.30075073242188,0.20600001513957977,0.0,1
1682373593.99890423,152122039,0,3,165611999,2259,17,0.62,42.6898256,-84.4887313,262.02,0.017492856830358505,239.0362548828125,0.11300000548362732,0.0,1
1682373594.19895816,152322093,0,3,165612199,2259,17,0.62,42.6898255,-84.4887313,262.0,0.012727922759950161,45.0,0.06800000369548798,0.0,1
1682373594.39922523,152522360,0,3,165612399,2259,17,0.62,42.6898255,-84.4887313,261.98,0.055154331028461456,157.61985778808594,0.17900000512599945,0.0,1
1682373594.59902310,152722158,0,3,165612599,2259,17,0.62,42.6898254,-84.48873119999999,261.95,0.015264337882399559,58.392494201660156,0.11300000548362732,0.0,1
1682373594.79898810,152922123,0,3,165612799,2259,17,0.62,42.6898254,-84.48873119999999,261.92,0.029154760763049126,185.90615844726562,0.2150000035762787,0.0,1
1682373594.99887204,153122007,0,3,165612999,2259,17,0.62,42.6898254,-84.4887311,261.88,0.013000000268220901,67.380126953125,0.18800000846385956,0.0,1
1682373595.19898605,153322121,0,3,165613199,2259,17,0.62,42.6898254,-84.488731,261.83,0.01004987582564354,185.71060180664062,0.21400001645088196,0.0,1
1682373595.39903426,153522169,0,3,165613399,2259,17,0.62,42.689825299999995,-84.488731,261.78000000000003,0.031906113028526306,237.8042755126953,0.19100001454353333,0.0,1
1682373595.59923220,153722367,0,3,165613599,2259,17,0.62,42.6898254,-84.488731,261.75,0.07040596753358841,191.46954345703125,0.24700000882148743,0.0,1
1682373595.79912305,153922258,0,3,165613799,2259,17,0.62,42.6898254,-84.4887309,261.71,0.021095024421811104,84.55966186523438,0.14400000870227814,0.0,1
1682373595.99911904,154122254,0,3,165613999,2259,17,0.62,42.6898254,-84.4887308,261.68,0.04219004884362221,95.44032287597656,0.15800000727176666,0.0,1
1682373596.21901917,154342154,0,3,165614199,2259,17,0.62,42.689825299999995,-84.48873069999999,261.63,0.020396079868078232,101.30992126464844,0.16100001335144043,0.0,1
1682373596.39929724,154522432,0,3,165614399,2259,17,0.62,42.6898254,-84.4887306,261.6,0.009999999776482582,126.8698959350586,0.1850000023841858,0.0,1
1682373596.59898806,154722123,0,3,165614599,2259,17,0.62,42.6898254,-84.4887305,261.57,0.02408318966627121,228.36647033691406,0.1510000079870224,0.0,1
1682373596.79920912,154922344,0,3,165614799,2259,17,0.62,42.6898254,-84.4887305,261.54,0.022090723738074303,174.80557250976562,0.19700001180171967,0.0,1
1682373596.99929118,155122426,0,3,165614999,2259,17,0.62,42.6898254,-84.4887304,261.51,0.00806225836277008,277.1250305175781,0.11900000274181366,0.0,1
1682373597.19932413,155322459,0,3,165615199,2259,17,0.62,42.6898254,-84.4887303,261.47,0.0442831814289093,154.59228515625,0.22800001502037048,0.0,1
1682373597.39899921,155522134,0,3,165615399,2259,17,0.62,42.689825299999995,-84.48873019999999,261.42,0.019798990339040756,135.0,0.17000000178813934,0.0,1
1682373597.59891009,155722045,0,3,165615599,2259,17,0.62,42.689825299999995,-84.4887301,261.37,0.05281098559498787,198.7780303955078,0.1940000057220459,0.0,1
1682373597.79891324,155922048,0,3,165615799,2259,17,0.62,42.6898252,-84.4887301,261.31,0.0510392040014267,214.62416076660156,0.1770000010728836,0.0,1
1682373597.99900222,156122137,0,3,165615999,2259,17,0.62,42.6898252,-84.48872999999999,261.28000000000003,0.022203603759407997,215.83766174316406,0.17400000989437103,0.0,1
1682373598.19924021,156322375,0,3,165616199,2259,17,0.62,42.6898251,-84.48872999999999,261.24,0.05508175864815712,176.87786865234375,0.15400001406669617,0.0,1
1682373598.39903617,156522171,0,3,165616399,2259,17,0.62,42.6898251,-84.4887299,261.2,0.046572525054216385,165.06857299804688,0.2240000069141388,0.0,1
1682373598.59887409,156722009,0,3,165616599,2259,17,0.62,42.6898251,-84.4887298,261.14,0.019313208758831024,201.25051879882812,0.1980000138282776,0.0,1
1682373598.79901719,156922152,0,3,165616799,2259,17,0.62,42.6898252,-84.4887297,261.13,0.0454532727599144,129.6441650390625,0.125,0.0,1
1682373598.99905205,157122187,0,3,165616999,2259,17,0.62,42.689825299999995,-84.4887297,261.12,0.022203605622053146,172.2348175048828,0.20100000500679016,0.0,1
1682373599.19926715,157322402,0,3,165617199,2259,17,0.62,42.6898254,-84.4887296,261.1,0.022090723738074303,84.8055648803711,0.21400001645088196,0.0,1
1682373599.39913011,157522265,0,3,165617399,2259,17,0.62,42.6898255,-84.48872949999999,261.05,0.04455333948135376,45.90937805175781,0.11700000613927841,0.0,1
1682373599.59910011,157722235,0,3,165617599,2259,17,0.62,42.6898258,-84.48872949999999,261.06,0.03551056236028671,147.6525421142578,0.20800000429153442,0.0,1
1682373599.79915810,157922293,0,3,165617799,2259,17,0.62,42.689826,-84.48872949999999,261.05,0.024413112550973892,145.00796508789062,0.1900000125169754,0.0,1
1682373600.04001021,158163145,0,3,165617999,2259,17,0.62,42.6898262,-84.4887296,261.05,0.021931713446974754,155.77224731445312,0.1980000138282776,0.0,1
1682373600.19921207,158322347,0,3,165618199,2259,17,0.62,42.6898263,-84.48872949999999,261.03000000000003,0.03047950379550457,138.99090576171875,0.1810000091791153,0.0,1
1682373600.39887619,158522011,0,3,165618399,2259,17,0.62,42.6898264,-84.48872949999999,261.01,0.028231190517544746,67.0678939819336,0.1300000101327896,0.0,1
1682373600.59929323,158722428,0,3,165618599,2259,17,0.62,42.689826499999995,-84.48872949999999,260.98,0.010295630432665348,60.94539260864258,0.09200000762939453,0.0,1
1682373600.79924107,158922376,0,3,165618799,2259,17,0.62,42.689826499999995,-84.4887294,260.95,0.08319855481386185,166.7989044189453,0.2510000169277191,0.0,1
1682373600.99932504,159122460,0,3,165618999,2259,17,0.62,42.689826499999995,-84.4887294,260.9,0.0213775597512722,10.784296989440918,0.17100000381469727,0.0,1
1682373601.19953108,159322666,0,3,165619199,2259,17,0.62,42.689826599999996,-84.4887294,260.86,0.016401220113039017,232.43142700195312,0.18200001120567322,0.0,1
1682373601.39916205,159522297,0,3,165619399,2259,17,0.62,42.6898267,-84.4887294,260.83,0.01664331741631031,32.73522186279297,0.21900001168251038,0.0,1
1682373601.59922814,159722363,0,3,165619599,2259,17,0.62,42.6898267,-84.4887293,260.8,0.05685947835445404,145.75096130371094,0.21900001168251038,0.0,1
1682373601.79923105,159922366,0,3,165619799,2259,17,0.62,42.689826599999996,-84.4887292,260.74,0.015524175018072128,194.93142700195312,0.11600000411272049,0.0,1
1682373601.99927115,160122406,0,3,165619999,2259,17,0.62,42.689826499999995,-84.4887291,260.68,0.025632010772824287,159.44393920898438,0.3140000104904175,0.0,1
1682373602.19919324,160322328,0,3,165620199,2259,17,0.62,42.689826499999995,-84.4887291,260.63,0.020124612376093864,296.5650634765625,0.1770000010728836,0.0,1
1682373602.39929724,160522432,0,3,165620399,2259,17,0.62,42.689826599999996,-84.4887292,260.59000000000003,0.036769554018974304,292.380126953125,0.18700000643730164,0.0,1
1682373602.59906220,160722197,0,3,165620599,2259,17,0.62,42.689826499999995,-84.4887291,260.57,0.07158910483121872,131.03533935546875,0.0020000000949949026,0.0,1
1682373602.79905725,160922192,0,3,165620799,2259,17,0.62,42.689826499999995,-84.48872899999999,260.57,0.047423623502254486,114.94390869140625,-0.13199999928474426,0.0,1
1682373602.99917316,161122308,0,3,165620999,2259,17,0.62,42.6898264,-84.48872879999999,260.56,0.0688767060637474,25.82098960876465,0.03100000135600567,0.0,1
1682373603.19911504,161322250,0,3,165621199,2259,17,0.62,42.689826499999995,-84.4887287,260.55,0.026000000536441803,90.0,0.058000002056360245,0.0,1
1682373603.39916110,161522296,0,3,165621399,2259,17,0.62,42.689826499999995,-84.4887287,260.54,0.02202271670103073,182.60256958007812,0.0,0.0,1
1682373603.59917426,161722309,0,3,165621599,2259,17,0.62,42.689826499999995,-84.4887287,260.54,0.0298328697681427,219.55967712402344,0.05300000309944153,0.0,1
1682373603.79921222,161922347,0,3,165621799,2259,17,0.62,42.689826499999995,-84.4887287,260.54,0.015524175018072128,255.06858825683594,-0.026000000536441803,0.0,1
1682373603.99905324,162122188,0,3,165621999,2259,17,0.62,42.689826499999995,-84.4887287,260.53000000000003,0.02024845778942108,327.0947570800781,-0.08000000566244125,0.0,1
1682373604.19929409,162322429,0,3,165622199,2259,17,0.62,42.689826499999995,-84.4887287,260.53000000000003,0.006708203814923763,333.4349365234375,-0.01900000125169754,0.0,1
1682373604.39902210,162522157,0,3,165622399,2259,17,0.62,42.689826499999995,-84.4887287,260.51,0.0058309524320065975,239.0362548828125,0.005000000353902578,0.0,1
1682373604.59896016,162722095,0,3,165622599,2259,17,0.62,42.6898264,-84.4887287,260.49,0.028635643422603607,192.0947723388672,0.03400000184774399,0.0,1
1682373604.79886127,162921996,0,3,165622799,2259,17,0.62,42.6898263,-84.4887286,260.47,0.009433981962502003,147.99461364746094,0.06300000101327896,0.0,1
1682373604.99912310,163122258,0,3,165622999,2259,17,0.62,42.6898264,-84.4887286,260.47,0.04500000178813934,126.8698959350586,0.11000000685453415,0.0,1
1682373605.19893909,163322074,0,3,165623199,2259,17,0.62,42.6898263,-84.4887285,260.45,0.028635643422603607,167.9052276611328,0.04500000178813934,0.0,1
1682373605.39921522,163522350,0,3,165623399,2259,17,0.62,42.6898263,-84.4887285,260.44,0.011661904864013195,149.03623962402344,0.07500000298023224,0.0,1
1682373605.59922004,163722355,0,3,165623599,2259,17,0.62,42.6898264,-84.4887285,260.44,0.033105891197919846,244.98312377929688,0.09800000488758087,0.0,1
1682373605.79907918,163922214,0,3,165623799,2259,17,0.62,42.6898263,-84.4887285,260.42,0.05000000074505806,343.73980712890625,-0.07300000637769699,0.0,1
1682373605.99918509,164122320,0,3,165623999,2259,17,0.62,42.6898263,-84.4887285,260.4,0.02607681043446064,274.3987121582031,-0.021000001579523087,0.0,1
1682373606.19950008,164322635,0,3,165624199,2259,17,0.62,42.6898262,-84.4887285,260.38,0.04123105853796005,140.90614318847656,0.05400000140070915,0.0,1
1682373606.39901018,164522145,0,3,165624399,2259,17,0.62,42.6898262,-84.4887284,260.36,0.014764823950827122,61.699241638183594,0.04000000283122063,0.0,1
1682373606.59885120,164721986,0,3,165624599,2259,17,0.62,42.6898262,-84.4887284,260.36,0.02154066041111946,338.1986083984375,-0.014000000432133675,0.0,1
1682373606.79889417,164922029,0,3,165624799,2259,17,0.62,42.6898262,-84.4887285,260.34000000000003,0.029154760763049126,264.0938720703125,0.032999999821186066,0.0,1
1682373606.99894810,165122083,0,3,165624999,2259,17,0.62,42.6898262,-84.4887285,260.33,0.03847077116370201,278.9726257324219,0.01100000087171793,0.0,1
1682373607.19894314,165322078,0,3,165625199,2259,17,0.62,42.6898262,-84.4887285,260.31,0.01910497434437275,47.121097564697266,-0.036000002175569534,0.0,1
1682373607.39884424,165521979,0,3,165625399,2259,17,0.62,42.6898261,-84.4887285,260.29,0.03342154994606972,128.92755126953125,0.10000000149011612,0.0,1
1682373607.59883022,165721965,0,3,165625599,2259,17,0.62,42.6898261,-84.4887285,260.28000000000003,0.00984885822981596,156.03750610351562,0.06599999964237213,0.0,1
1682373607.79895806,165922093,0,3,165625799,2259,17,0.62,42.6898261,-84.4887285,260.27,0.020591260865330696,240.94540405273438,0.02500000037252903,0.0,1
1682373607.99923921,166122374,0,3,165625999,2259,17,0.62,42.6898261,-84.4887285,260.26,0.023021729663014412,55.61965560913086,-0.03100000135600567,0.0,1
1682373608.19924927,166322384,0,3,165626199,2259,17,0.62,42.6898261,-84.4887285,260.26,0.015000000596046448,126.8698959350586,0.05700000375509262,0.0,1
1682373608.39885116,166521986,0,3,165626399,2259,17,0.62,42.6898262,-84.4887285,260.26,0.015132746659219265,277.5946350097656,0.015000000596046448,0.0,1
1682373608.59889913,166722034,0,3,165626599,2259,17,0.62,42.6898261,-84.4887285,260.24,0.031048350036144257,75.06857299804688,0.03700000047683716,0.0,1
1682373608.79916906,166922304,0,3,165626799,2259,17,0.62,42.6898262,-84.4887285,260.24,0.009433981962502003,212.00538635253906,0.0010000000474974513,0.0,1
1682373608.99924707,167122382,0,3,165626999,2259,17,0.62,42.6898262,-84.4887285,260.23,0.012529964558780193,298.6104736328125,-0.00800000037997961,0.0,1
1682373609.21907926,167342214,0,3,165627199,2259,17,0.62,42.6898262,-84.4887285,260.23,0.009219544939696789,319.3987121582031,0.0020000000949949026,0.0,1
1682373609.39883304,167521968,0,3,165627399,2259,17,0.62,42.6898261,-84.4887286,260.22,0.03080584481358528,144.24610900878906,0.04800000041723251,0.0,1
1682373609.59895921,167722094,0,3,165627599,2259,17,0.62,42.6898261,-84.4887285,260.2,0.0058309524320065975,210.96376037597656,0.01900000125169754,0.0,1
1682373609.79896903,167922104,0,3,165627799,2259,17,0.62,42.6898261,-84.4887286,260.19,0.02828427217900753,171.86988830566406,0.09000000357627869,0.0,1
1682373609.99922323,168122358,0,3,165627999,2259,17,0.62,42.6898261,-84.4887286,260.17,0.032388269901275635,171.11932373046875,0.07700000703334808,0.0,1
1682373610.19885707,168321992,0,3,165628199,2259,17,0.62,42.6898261,-84.4887286,260.17,0.055443666875362396,172.74679565429688,0.12300000339746475,0.0,1
1682373610.39902616,168522161,0,3,165628399,2259,17,0.62,42.689826,-84.4887286,260.16,0.01900000125169754,180.0,0.05100000277161598,0.0,1
1682373610.59907913,168722214,0,3,165628599,2259,17,0.62,42.689826,-84.4887286,260.15,0.035227831453084946,353.4801940917969,-0.05900000408291817,0.0,1
1682373610.79939818,168922533,0,3,165628799,2259,17,0.62,42.6898261,-84.4887286,260.16,0.017691805958747864,132.70938110351562,0.0950000062584877,0.0,1
1682373610.99893212,169122067,0,3,165628999,2259,17,0.62,42.6898261,-84.4887286,260.16,0.02941088192164898,215.31121826171875,0.055000003427267075,0.0,1
1682373611.19907618,169322211,0,3,165629199,2259,17,0.62,42.6898261,-84.4887287,260.15,0.01612451672554016,330.255126953125,-0.014000000432133675,0.0,1
1682373611.39928603,169522421,0,3,165629399,2259,17,0.62,42.6898262,-84.4887287,260.17,0.07502666115760803,178.4724578857422,0.14600001275539398,0.0,1
1682373611.59921813,169722353,0,3,165629599,2259,17,0.62,42.6898261,-84.4887287,260.15,0.03036445379257202,197.24147033691406,0.009000000543892384,0.0,1
1682373611.79925418,169922389,0,3,165629799,2259,17,0.62,42.6898261,-84.48872879999999,260.16,0.014317821711301804,192.0947723388672,0.0650000050663948,0.0,1
1682373612.01889420,170142029,0,3,165629999,2259,17,0.62,42.6898261,-84.48872879999999,260.16,0.0152970589697361,11.309930801391602,0.003000000026077032,0.0,1
1682373612.19888520,170322020,0,3,165630199,2259,17,0.62,42.6898261,-84.48872879999999,260.15,0.017720045521855354,16.38953971862793,-0.0020000000949949026,0.0,1
1682373612.39893007,170522065,0,3,165630399,2259,17,0.62,42.6898261,-84.48872879999999,260.14,0.007280109915882349,164.05459594726562,0.026000000536441803,0.0,1
1682373612.59896421,170722099,0,3,165630599,2259,17,0.62,42.6898261,-84.48872879999999,260.13,0.023345237597823143,170.13418579101562,0.0560000017285347,0.0,1
1682373612.79893422,170922069,0,3,165630799,2259,17,0.62,42.6898261,-84.4887289,260.14,0.013152946718037128,261.25384521484375,-0.020000001415610313,0.0,1
1682373612.99882507,171121960,0,3,165630999,2259,17,0.62,42.6898261,-84.4887289,260.14,0.012041594833135605,265.2363586425781,-0.007000000216066837,0.0,1
1682373613.19894123,171322076,0,3,165631199,2259,17,0.62,42.689826,-84.4887289,260.13,0.022360682487487793,169.6951446533203,0.0430000014603138,0.0,1
1682373613.39898610,171522121,0,3,165631399,2259,17,0.62,42.689826,-84.48872899999999,260.14,0.022360682487487793,169.6951446533203,0.003000000026077032,0.0,1
1682373613.59899807,171722133,0,3,165631599,2259,17,0.62,42.689826,-84.48872899999999,260.14,0.013341664336621761,257.0054016113281,-0.01600000075995922,0.0,1
1682373613.79916024,171922295,0,3,165631799,2259,17,0.62,42.689826,-84.4887291,260.13,0.01900000125169754,0.0,-0.017000000923871994,0.0,1
1682373613.99886703,172122002,0,3,165631999,2259,17,0.62,42.689826,-84.4887291,260.13,0.03668787330389023,162.55279541015625,0.06700000166893005,0.0,1
1682373614.19910407,172322239,0,3,165632199,2259,17,0.62,42.689825899999995,-84.4887291,260.13,0.036221545189619064,173.65980529785156,0.07300000637769699,0.0,1
1682373614.39915514,172522290,0,3,165632399,2259,17,0.62,42.689825899999995,-84.4887291,260.13,0.03860051929950714,163.4429168701172,0.10000000149011612,0.0,1
1682373614.59908724,172722222,0,3,165632599,2259,17,0.62,42.689825899999995,-84.4887291,260.13,0.025079874321818352,156.50143432617188,-0.029000001028180122,0.0,1
1682373614.79908824,172922223,0,3,165632799,2259,17,0.62,42.689825899999995,-84.4887292,260.15,0.011313709430396557,315.0,-0.018000001087784767,0.0,1
1682373614.99919105,173122326,0,3,165632999,2259,17,0.62,42.689826,-84.4887292,260.16,0.022090723738074303,5.194427967071533,0.02800000086426735,0.0,1
1682373615.19926715,173322402,0,3,165633199,2259,17,0.62,42.689826,-84.4887293,260.17,0.01077033020555973,248.1986083984375,-0.012000000104308128,0.0,1
1682373615.39948916,173522624,0,3,165633399,2259,17,0.62,42.689826,-84.4887293,260.18,0.01649242267012596,14.036242485046387,0.010000000707805157,0.0,1
1682373615.59884715,173721982,0,3,165633599,2259,17,0.62,42.689826,-84.4887294,260.18,0.013892444781959057,300.2564392089844,0.0020000000949949026,0.0,1
1682373615.79889226,173922027,0,3,165633799,2259,17,0.62,42.6898261,-84.4887294,260.19,0.02692582458257675,158.19857788085938,0.05100000277161598,0.0,1
1682373615.99892521,174122060,0,3,165633999,2259,17,0.62,42.689826,-84.48872949999999,260.18,0.025179356336593628,353.1572265625,-0.09200000762939453,0.0,1
1682373616.19895506,174322090,0,3,165634199,2259,17,0.62,42.689826,-84.48872949999999,260.18,0.014317820779979229,114.7751235961914,0.009000000543892384,0.0,1
1682373616.39893818,174522073,0,3,165634399,2259,17,0.62,42.689826,-84.48872949999999,260.18,0.00412310566753149,284.0362548828125,-0.003000000026077032,0.0,1
1682373616.59883118,174721966,0,3,165634599,2259,17,0.62,42.689826,-84.48872949999999,260.19,0.018027756363153458,70.5599594116211,0.07300000637769699,0.0,1
1682373616.79917908,174922314,0,3,165634799,2259,17,0.62,42.689826,-84.4887296,260.19,0.008944272063672543,26.56505012512207,-0.06599999964237213,0.0,1
1682373616.99916816,175122303,0,3,165634999,2259,17,0.62,42.689826,-84.4887296,260.21,0.02865309827029705,209.2488250732422,0.06599999964237213,0.0,1
1682373617.19920921,175322344,0,3,165635199,2259,17,0.62,42.689825899999995,-84.4887297,260.19,0.03014962747693062,5.710592269897461,-0.021000001579523087,0.0,1
1682373617.39914703,175522282,0,3,165635399,2259,17,0.62,42.689825899999995,-84.4887297,260.19,0.02846050076186657,341.5650634765625,-0.05900000408291817,0.0,1
1682373617.59902620,175722161,0,3,165635599,2259,17,0.62,42.689825899999995,-84.4887298,260.21,0.00984885822981596,156.03750610351562,0.013000000268220901,0.0,1
1682373617.79935813,175922493,0,3,165635799,2259,17,0.62,42.689825899999995,-84.4887299,260.21,0.022135945037007332,288.4349365234375,-0.026000000536441803,0.0,1
1682373617.99894118,176122076,0,3,165635999,2259,17,0.62,42.689825899999995,-84.4887299,260.22,0.004000000189989805,180.0,0.01100000087171793,0.0,1
1682373618.19924617,176322381,0,3,165636199,2259,17,0.62,42.689825899999995,-84.48872999999999,260.22,0.012165524996817112,9.462321281433105,-0.020000001415610313,0.0,1
1682373618.39907622,176522211,0,3,165636399,2259,17,0.62,42.689826,-84.48872999999999,260.24,0.02121320366859436,135.0,0.09300000220537186,0.0,1
1682373618.59919715,176722332,0,3,165636599,2259,17,0.62,42.689825899999995,-84.48872999999999,260.22,0.009055386297404766,276.3402099609375,-0.017000000923871994,0.0,1
1682373618.79922605,176922361,0,3,165636799,2259,17,0.62,42.689825899999995,-84.4887301,260.23,0.010440307669341564,163.30075073242188,0.06000000238418579,0.0,1
1682373618.99925423,177122389,0,3,165636999,2259,17,0.62,42.689826,-84.4887301,260.23,0.007810249924659729,219.8055877685547,0.004000000189989805,0.0,1
1682373619.21911216,177342247,0,3,165637199,2259,17,0.62,42.689826,-84.48873019999999,260.23,0.017492856830358505,149.03623962402344,0.04700000211596489,0.0,1
1682373619.39913917,177522274,0,3,165637399,2259,17,0.62,42.689825899999995,-84.48873019999999,260.23,0.018248287960886955,350.5376892089844,-0.03800000250339508,0.0,1
1682373619.59945607,177722591,0,3,165637599,2259,17,0.62,42.689826,-84.48873019999999,260.24,0.03047950379550457,138.99090576171875,0.06100000441074371,0.0,1
1682373633.99895716,192122092,0,3,165651999,2259,16,0.66,42.689826,-84.48873329999999,260.92,0.010816654190421104,303.6900634765625,0.018000001087784767,0.0,1
1682373634.19901109,192322146,0,3,165652199,2259,16,0.66,42.689825899999995,-84.48873329999999,260.92,0.019999999552965164,306.8699035644531,-0.08800000697374344,0.0,1
1682373634.39894605,192522081,0,3,165652399,2259,16,0.66,42.6898258,-84.4887334,260.92,0.014866068959236145,340.34619140625,-0.04800000041723251,0.0,1
1682373634.59902716,192722162,0,3,165652599,2259,16,0.66,42.6898258,-84.4887335,260.92,0.03328663483262062,302.7352294921875,-0.02800000086426735,0.0,1
1682373634.79913712,192922272,0,3,165652799,2259,16,0.66,42.6898258,-84.4887335,260.92,0.014422205276787281,303.6900634765625,-0.02200000174343586,0.0,1
1682373634.99917316,193122308,0,3,165652999,2259,16,0.66,42.6898256,-84.48873359999999,260.91,0.016552945598959923,334.98309326171875,-0.03800000250339508,0.0,1
1682373635.19943905,193322574,0,3,165653199,2259,16,0.66,42.6898255,-84.48873359999999,260.89,0.015652475878596306,333.4349365234375,-0.05100000277161598,0.0,1
1682373635.39885616,193521991,0,3,165653399,2259,16,0.66,42.6898255,-84.48873359999999,260.88,0.014317820779979229,335.224853515625,0.03700000047683716,0.0,1
1682373635.59912610,193722261,0,3,165653599,2259,16,0.66,42.6898254,-84.4887337,260.87,0.0072111026383936405,236.3099365234375,-0.024000000208616257,0.0,1
1682373635.79918623,193922321,0,3,165653799,2259,16,0.66,42.689825299999995,-84.4887337,260.86,0.013000000268220901,22.619863510131836,-0.015000000596046448,0.0,1
1682373635.99921608,194122351,0,3,165653999,2259,16,0.66,42.6898252,-84.4887337,260.86,0.01720465160906315,144.46231079101562,0.01900000125169754,0.0,1
1682373636.19928026,194322415,0,3,165654199,2259,16,0.66,42.6898252,-84.4887337,260.85,0.00984885822981596,156.03750610351562,0.0650000050663948,0.0,1
1682373636.39909410,194522229,0,3,165654399,2259,16,0.66,42.6898251,-84.48873359999999,260.83,0.025612497702240944,128.65980529785156,0.046000003814697266,0.0,1
1682373636.59919214,194722327,0,3,165654599,2259,16,0.66,42.689825,-84.48873359999999,260.81,0.014422205276787281,213.69007873535156,0.03200000151991844,0.0,1
1682373636.79923820,194922373,0,3,165654799,2259,16,0.66,42.6898249,-84.48873359999999,260.8,0.039000000804662704,337.380126953125,-0.08400000631809235,0.0,1
1682373636.99950624,195122641,0,3,165654999,2259,16,0.66,42.6898249,-84.48873359999999,260.8,0.04100000113248825,0.0,-0.01900000125169754,0.0,1
1682373637.19886017,195321995,0,3,165655199,2259,16,0.66,42.6898249,-84.48873359999999,260.79,0.02475883811712265,133.36341857910156,0.055000003427267075,0.0,1
1682373637.39893603,195522071,0,3,165655399,2259,16,0.66,42.689824699999996,-84.48873359999999,260.75,0.025059929117560387,331.3895568847656,-0.05900000408291817,0.0,1
1682373637.59897017,195722105,0,3,165655599,2259,16,0.66,42.6898246,-84.4887335,260.79,0.05371220037341118,118.95098876953125,-0.4270000159740448,0.0,1
1682373637.79900217,195922137,0,3,165655799,2259,16,0.66,42.6898246,-84.4887334,260.9,0.04019950330257416,354.2893981933594,-0.8420000672340393,0.0,1
1682373637.99898911,196122124,0,3,165655999,2259,16,0.66,42.6898245,-84.48873329999999,261.05,0.037215590476989746,96.17017364501953,-0.7550000548362732,0.0,1
1682373638.19918323,196322318,0,3,165656199,2259,16,0.66,42.6898244,-84.48873309999999,261.18,0.1046518087387085,116.0753402709961,-0.8210000395774841,0.0,1
1682373638.39929008,196522425,0,3,165656399,2259,16,0.66,42.689824099999996,-84.4887329,261.26,0.0720069482922554,152.7232208251953,-0.5330000519752502,0.0,1
1682373638.59900904,196722144,0,3,165656599,2259,16,0.66,42.6898237,-84.4887327,261.31,0.18992894887924194,171.8272247314453,-0.4050000309944153,0.0,1
1682373638.79903412,196922169,0,3,165656799,2259,16,0.66,42.689823499999996,-84.4887327,261.37,0.08900561928749084,270.64373779296875,-0.3790000081062317,0.0,1
1682373638.99917626,197122311,0,3,165656999,2259,16,0.66,42.6898233,-84.4887328,261.42,0.042296573519706726,173.2110137939453,-0.23500001430511475,0.0,1
1682373639.21897125,197342106,0,3,165657199,2259,16,0.66,42.6898232,-84.4887328,261.46,0.08139410614967346,264.35943603515625,-0.46800002455711365,0.0,1
1682373639.39897704,197522112,0,3,165657399,2259,16,0.66,42.689823,-84.4887329,261.55,0.06008328124880791,198.43495178222656,-0.5480000376701355,0.0,1
1682373639.59901118,197722146,0,3,165657599,2259,16,0.66,42.6898231,-84.4887329,261.66,0.08829496055841446,346.9081115722656,-0.5170000195503235,0.0,1
1682373639.79898906,197922124,0,3,165657799,2259,16,0.66,42.6898233,-84.488733,261.78000000000003,0.1638108640909195,341.12261962890625,-0.6480000019073486,0.0,1
1682373639.99886608,198122001,0,3,165657999,2259,16,0.66,42.689823399999995,-84.48873309999999,261.9,0.07529276609420776,300.31121826171875,-0.6940000057220459,0.0,1
1682373640.19930720,198322442,0,3,165658199,2259,16,0.66,42.689823399999995,-84.48873309999999,262.02,0.05099020153284073,154.4400177001953,-0.5560000538825989,0.0,1
1682373640.39924717,198522382,0,3,165658399,2259,16,0.66,42.6898232,-84.488733,262.09000000000003,0.03189043700695038,221.18592834472656,-0.47600001096725464,0.0,1
1682373640.59921813,198722353,0,3,165658599,2259,16,0.66,42.689823,-84.48873309999999,262.13,0.0832165852189064,290.3948669433594,-0.4220000207424164,0.0,1
1682373640.79913926,198922274,0,3,165658799,2259,16,0.66,42.689823,-84.4887332,262.2,0.06389053165912628,320.0796203613281,-0.4300000071525574,0.0,1
1682373640.99915004,199122285,0,3,165658999,2259,16,0.66,42.6898232,-84.48873329999999,262.33,0.09396275877952576,343.3007507324219,-0.5850000381469727,0.0,1
1682373641.19895720,199322092,0,3,165659199,2259,16,0.66,42.689823499999996,-84.4887335,262.47,0.20957577228546143,328.6611633300781,-0.6020000576972961,0.0,1
1682373641.39923525,199522370,0,3,165659399,2259,16,0.66,42.6898239,-84.4887335,262.61,0.26139625906944275,9.246112823486328,-0.6610000133514404,0.0,1
1682373641.59928513,199722420,0,3,165659599,2259,16,0.66,42.6898243,-84.4887335,262.74,0.19636701047420502,356.4964599609375,-0.6370000243186951,0.0,1
1682373641.79919624,199922331,0,3,165659799,2259,16,0.66,42.6898246,-84.4887335,262.87,0.1582687646150589,11.66491985321045,-0.703000009059906,0.0,1
1682373641.99931622,200122451,0,3,165659999,2259,16,0.66,42.689825,-84.4887334,263.01,0.22300225496292114,0.25693002343177795,-0.6320000290870667,0.0,1
1682373642.19931316,200322448,0,3,165660199,2259,16,0.66,42.689825299999995,-84.4887334,263.12,0.1182708814740181,3.8785243034362793,-0.41700002551078796,0.0,1
1682373642.39904904,200522184,0,3,165660399,2259,16,0.66,42.6898255,-84.4887334,263.2,0.12522779405117035,341.85443115234375,-0.34300002455711365,0.0,1
1682373642.59891725,200722052,0,3,165660599,2259,16,0.66,42.6898258,-84.48873359999999,263.25,0.28804516792297363,339.0481872558594,-0.2290000170469284,0.0,1
1682373642.79894924,200922084,0,3,165660799,2259,16,0.66,42.6898263,-84.4887339,263.28000000000003,0.3992956280708313,330.93145751953125,-0.18000000715255737,0.0,1
1682373642.99920821,201122343,0,3,165660999,2259,16,0.66,42.689827,-84.48873449999999,263.31,0.5147786140441895,325.8468933105469,-0.08300000429153442,0.0,1
1682373643.19902825,201322163,0,3,165661199,2259,16,0.66,42.689827799999996,-84.4887351,263.3,0.7031394243240356,332.3780822753906,-0.1290000081062317,0.0,1
1682373643.39902210,201522157,0,3,165661399,2259,16,0.66,42.689828999999996,-84.4887359,263.33,0.7004056572914124,332.6300964355469,0.012000000104308128,0.0,1
1682373643.59889627,201722031,0,3,165661599,2259,16,0.66,42.68983,-84.48873669999999,263.29,0.6771971583366394,332.37542724609375,0.1210000067949295,0.0,1
1682373643.79902506,201922160,0,3,165661799,2259,16,0.66,42.689831,-84.4887373,263.27,0.6788593530654907,337.0230712890625,0.06400000303983688,0.0,1
1682373643.99901509,202122150,0,3,165661999,2259,16,0.66,42.6898321,-84.488738,263.25,0.6703916788101196,337.6430969238281,0.17800000309944153,0.0,1
1682373644.19923210,202322367,0,3,165662199,2259,16,0.66,42.689833199999995,-84.4887385,263.21,0.6915490627288818,338.62939453125,0.0820000022649765,0.0,1
1682373644.39914227,202522277,0,3,165662399,2259,16,0.66,42.689834499999996,-84.4887392,263.21,0.7535781264305115,338.6786193847656,0.16100001335144043,0.0,1
1682373644.59913611,202722271,0,3,165662599,2259,16,0.66,42.6898359,-84.48873979999999,263.16,0.9445237517356873,343.57965087890625,0.11100000888109207,0.0,1
1682373644.79940009,202922535,0,3,165662799,2259,16,0.66,42.689837399999995,-84.4887404,263.16,0.7984485626220703,343.1083068847656,0.11700000613927841,0.0,1
