timestamp,TimeUS,Lat,Lng,Alt,RelHomeAlt,RelOriginAlt
1682373553.99948406,112122619,42.6899921,-84.488818,256.3599853515625,0.008024977520108223,0.19802497327327728
1682373554.09967113,112222806,42.6899921,-84.488818,256.3599853515625,0.0038328636437654495,0.1938328593969345
1682373554.19945121,112322586,42.6899921,-84.488818,256.3500061035156,-4.799477756023407e-05,0.18995200097560883
1682373554.29952121,112422656,42.6899921,-84.4888179,256.3500061035156,-0.006010962650179863,0.1839890331029892
1682373554.39967608,112522811,42.6899921,-84.4888179,256.3399963378906,-0.010830236598849297,0.17916975915431976
1682373554.49935007,112622485,42.6899921,-84.48881779999999,256.3399963378906,-0.015981270000338554,0.1740187257528305
1682373554.59935308,112722488,42.6899921,-84.48881779999999,256.3299865722656,-0.020960045978426933,0.16903994977474213
1682373554.69979119,112822926,42.6899921,-84.48881779999999,256.3299865722656,-0.023281050845980644,0.16671894490718842
1682373554.79974723,112922882,42.6899921,-84.4888177,256.3299865722656,-0.025459004566073418,0.16454099118709564
1682373554.89973617,113022871,42.6899921,-84.4888177,256.3299865722656,-0.02581639401614666,0.1641836017370224
1682373554.99963808,113122773,42.6899921,-84.4888177,256.3299865722656,-0.026180578395724297,0.16381941735744476
1682373555.10002923,113223164,42.6899921,-84.4888177,256.3299865722656,-0.024131370708346367,0.1658686250448227
1682373555.19965720,113322792,42.6899921,-84.48881759999999,256.3299865722656,-0.022898031398653984,0.16710196435451508
1682373555.29993606,113423071,42.6899921,-84.48881759999999,256.3299865722656,-0.02213592641055584,0.16786406934261322
1682373555.39989805,113523033,42.6899921,-84.48881759999999,256.3299865722656,-0.021741224452853203,0.16825877130031586
1682373555.49974322,113622878,42.6899922,-84.48881759999999,256.3299865722656,-0.021869374439120293,0.16813062131404877
1682373555.59981203,113722947,42.6899922,-84.48881759999999,256.3299865722656,-0.022548509761691093,0.16745148599147797
1682373555.69958806,113822723,42.6899922,-84.4888175,256.3299865722656,-0.02250547520816326,0.1674945205450058
1682373555.79959726,113922732,42.6899922,-84.4888175,256.3299865722656,-0.022284938022494316,0.16771505773067474
1682373555.89954519,114022680,42.6899922,-84.4888175,256.3399963378906,-0.01840193383395672,0.17159806191921234
1682373555.99960709,114122742,42.6899922,-84.4888175,256.3399963378906,-0.015321923419833183,0.17467807233333588
1682373556.09988523,114223020,42.6899923,-84.4888174,256.3399963378906,-0.015436006709933281,0.17456398904323578
1682373556.19960809,114322743,42.6899923,-84.4888174,256.3399963378906,-0.015737248584628105,0.17426274716854095
1682373556.29966712,114422802,42.6899923,-84.4888174,256.3399963378906,-0.015105081722140312,0.17489491403102875
1682373556.39988923,114523024,42.6899923,-84.4888174,256.3399963378906,-0.014175845310091972,0.1758241504430771
1682373556.49983406,114622969,42.6899923,-84.4888173,256.3399963378906,-0.011991692706942558,0.1780083030462265
1682373556.59938717,114722522,42.6899923,-84.4888173,256.3399963378906,-0.010020090267062187,0.17997990548610687
1682373556.69945908,114822594,42.6899923,-84.4888173,256.3399963378906,-0.010116888210177422,0.17988310754299164
1682373556.79941916,114922554,42.6899923,-84.4888172,256.3399963378906,-0.010059429332613945,0.17994056642055511
1682373556.89948106,115022616,42.6899923,-84.4888172,256.3500061035156,-0.00458843819797039,0.18541155755519867
1682373556.99946213,115122597,42.6899923,-84.4888172,256.3500061035156,-8.316151797771454e-05,0.18991683423519135
1682373557.09947014,115222605,42.6899923,-84.4888172,256.3599853515625,0.0038899648934602737,0.19388996064662933
1682373557.19970918,115322844,42.6899923,-84.4888172,256.3599853515625,0.006845163181424141,0.1968451589345932
1682373557.29976606,115422901,42.6899923,-84.48881709999999,256.3599853515625,0.00571887381374836,0.19571886956691742
1682373557.39980316,115522938,42.6899923,-84.48881709999999,256.3599853515625,0.0044252146035432816,0.19442521035671234
1682373557.49940825,115622543,42.6899923,-84.488817,256.3599853515625,0.0027341116219758987,0.19273410737514496
1682373557.59947705,115722612,42.6899923,-84.488817,256.3599853515625,0.0059576500207185745,0.19595764577388763
1682373557.69943905,115822574,42.6899923,-84.48881689999999,256.3999938964844,0.04356937110424042,0.23356936872005463
1682373557.79950023,115922635,42.6899923,-84.4888168,256.47998046875,0.12780731916427612,0.31780731678009033
1682373557.89947009,116022605,42.6899922,-84.4888167,256.6099853515625,0.25363487005233765,0.44363486766815186
1682373557.99942708,116122562,42.6899921,-84.4888167,256.72998046875,0.37249135971069336,0.5624913573265076
1682373558.09964418,116222779,42.6899921,-84.4888167,256.8399963378906,0.48938488960266113,0.6793848872184753
1682373558.19940925,116322544,42.6899921,-84.4888167,256.9499816894531,0.5936428904533386,0.7836428880691528
1682373558.29955411,116422689,42.6899921,-84.48881659999999,257.0400085449219,0.6894094347953796,0.8794094324111938
1682373558.39979124,116522926,42.6899921,-84.48881659999999,257.1300048828125,0.7702881693840027,0.9602881669998169
1682373558.49981713,116622952,42.6899921,-84.48881639999999,257.19000244140625,0.8355714678764343,1.0255714654922485
1682373558.59949803,116722633,42.6899921,-84.4888163,257.25,0.8900145888328552,1.0800145864486694
1682373558.69965219,116822787,42.689992,-84.4888163,257.2900085449219,0.9339123368263245,1.1239123344421387
1682373558.79963613,116922771,42.689992,-84.4888163,257.3299865722656,0.9744351506233215,1.1644351482391357
1682373558.89963007,117022765,42.689992,-84.4888163,257.3599853515625,1.0030261278152466,1.193026065826416
1682373558.99966812,117122803,42.689991899999995,-84.4888163,257.3899841308594,1.0328161716461182,1.2228161096572876
1682373559.09970617,117222841,42.689991899999995,-84.4888162,257.41998291015625,1.0682681798934937,1.258268117904663
1682373559.19977713,117322912,42.689991899999995,-84.4888162,257.4599914550781,1.1067521572113037,1.2967520952224731
1682373559.29996920,117423104,42.689991899999995,-84.4888161,257.5,1.1426429748535156,1.332642912864685
1682373559.39972711,117522862,42.6899918,-84.4888161,257.5400085449219,1.1823700666427612,1.3723700046539307
1682373559.49960613,117622741,42.6899916,-84.488816,257.57000732421875,1.2190243005752563,1.4090242385864258
1682373559.59963822,117722773,42.6899916,-84.488816,257.6199951171875,1.2609111070632935,1.450911045074463
1682373559.69961810,117822753,42.6899916,-84.488816,257.6600036621094,1.3088525533676147,1.4988524913787842
1682373559.79962516,117922760,42.6899916,-84.488816,257.7200012207031,1.3628097772598267,1.552809715270996
1682373559.89965320,118022788,42.6899915,-84.488816,257.7699890136719,1.4162895679473877,1.6062895059585571
1682373559.99970222,118122837,42.6899915,-84.488816,257.8299865722656,1.4719845056533813,1.6619844436645508
1682373560.09977007,118222905,42.6899915,-84.4888161,257.8899841308594,1.532348871231079,1.7223488092422485
1682373560.19991803,118323053,42.6899915,-84.4888162,257.9499816894531,1.5919914245605469,1.7819913625717163
1682373560.29980612,118422941,42.6899915,-84.4888162,258.0099792480469,1.6525484323501587,1.8425483703613281
1682373560.39967918,118522814,42.6899915,-84.4888163,258.07000732421875,1.7137963771820068,1.9037963151931763
1682373560.49967122,118622806,42.6899914,-84.4888163,258.1300048828125,1.7750879526138306,1.965087890625
1682373560.59952307,118722658,42.6899914,-84.48881639999999,258.19000244140625,1.83975350856781,2.0297534465789795
1682373560.69973707,118822872,42.6899914,-84.48881639999999,258.2599792480469,1.9076522588729858,2.0976521968841553
1682373560.79970312,118922838,42.6899915,-84.4888165,258.3299865722656,1.9783772230148315,2.168377161026001
1682373560.89975619,119022891,42.6899915,-84.48881659999999,258.3999938964844,2.0482888221740723,2.2382888793945312
1682373560.99981403,119122949,42.6899915,-84.4888167,258.4700012207031,2.1132426261901855,2.3032426834106445
1682373561.09998417,119223119,42.6899915,-84.4888168,258.5299987792969,2.1775169372558594,2.3675169944763184
1682373561.20002222,119323157,42.6899916,-84.48881689999999,258.6000061035156,2.245094060897827,2.435094118118286
1682373561.29971409,119422849,42.6899916,-84.488817,258.6600036621094,2.30890154838562,2.498901605606079
1682373561.39969826,119522833,42.6899917,-84.48881709999999,258.72998046875,2.373478412628174,2.563478469848633
1682373561.49946523,119622600,42.6899917,-84.4888172,258.7900085449219,2.4356610774993896,2.6256611347198486
1682373561.59946704,119722602,42.6899917,-84.4888172,258.8500061035156,2.497694253921509,2.6876943111419678
1682373561.69942713,119822562,42.6899918,-84.4888172,258.91998291015625,2.560593366622925,2.750593423843384
1682373561.79941225,119922547,42.6899918,-84.4888172,258.97998046875,2.6270201206207275,2.8170201778411865
1682373561.89953208,120022667,42.689991899999995,-84.4888172,259.04998779296875,2.691298007965088,2.881298065185547
1682373561.99943018,120122565,42.689991899999995,-84.4888172,259.1099853515625,2.7552883625030518,2.9452884197235107
1682373562.09950805,120222643,42.689992,-84.4888172,259.16998291015625,2.8199548721313477,3.0099549293518066
1682373562.19946814,120322603,42.6899921,-84.4888172,259.239990234375,2.886000394821167,3.076000452041626
1682373562.29974103,120422876,42.6899922,-84.4888172,259.30999755859375,2.953993082046509,3.1439931392669678
1682373562.39947224,120522607,42.6899922,-84.4888172,259.3800048828125,3.0212836265563965,3.2112836837768555
1682373562.49946904,120622604,42.6899923,-84.48881709999999,259.44000244140625,3.088468551635742,3.278468608856201
1682373562.59942412,120722559,42.6899923,-84.48881709999999,259.5099792480469,3.157231092453003,3.347231149673462
1682373562.69945908,120822594,42.6899924,-84.488817,259.5799865722656,3.2263898849487305,3.4163899421691895
1682373562.79952526,120922660,42.6899924,-84.488817,259.6499938964844,3.2965219020843506,3.4865219593048096
1682373562.89976525,121022900,42.6899924,-84.48881689999999,259.7200012207031,3.362802505493164,3.552802562713623
1682373562.99975705,121122892,42.6899924,-84.48881689999999,259.7900085449219,3.4317591190338135,3.6217591762542725
1682373563.09966111,121222796,42.6899924,-84.48881689999999,259.8500061035156,3.4960873126983643,3.6860873699188232
1682373563.19972324,121322858,42.689992499999995,-84.48881689999999,259.9100036621094,3.559868574142456,3.749868631362915
1682373563.29949212,121422627,42.6899924,-84.4888168,259.9700012207031,3.614995241165161,3.80499529838562
1682373563.39962411,121522759,42.6899924,-84.4888168,260.0199890136719,3.6699678897857666,3.8599679470062256
1682373563.49960804,121622743,42.6899924,-84.48881659999999,260.0799865722656,3.7232425212860107,3.9132425785064697
1682373563.59960008,121722735,42.6899924,-84.48881659999999,260.1300048828125,3.7780725955963135,3.9680726528167725
1682373563.69974113,121822876,42.6899924,-84.4888165,260.19000244140625,3.8316516876220703,4.021651744842529
1682373563.79963112,121922766,42.6899924,-84.4888165,260.239990234375,3.882168769836426,4.072168827056885
1682373563.89970803,122022843,42.6899924,-84.4888165,260.2799987792969,3.9262232780456543,4.116223335266113
1682373563.99961925,122122754,42.6899924,-84.4888165,260.32000732421875,3.9651260375976562,4.155126094818115
1682373564.09962010,122222755,42.6899924,-84.4888165,260.3500061035156,3.9936203956604004,4.183620452880859
1682373564.19962811,122322763,42.6899924,-84.4888165,260.3699951171875,4.016262054443359,4.206262111663818
1682373564.29983926,122422974,42.6899924,-84.4888165,260.3800048828125,4.029169082641602,4.2191691398620605
1682373564.39944124,122522576,42.6899924,-84.4888165,260.3899841308594,4.037152290344238,4.227152347564697
1682373564.49975824,122622893,42.6899924,-84.4888165,260.3899841308594,4.037723064422607,4.227723121643066
1682373564.59982419,122722959,42.6899924,-84.4888165,260.3899841308594,4.036181926727295,4.226181983947754
1682373564.69979024,122822925,42.6899924,-84.4888165,260.3899841308594,4.031326770782471,4.22132682800293
1682373564.79985213,122922987,42.6899924,-84.4888165,260.3800048828125,4.026674270629883,4.216674327850342
1682373564.89981914,123022954,42.6899924,-84.4888165,260.3800048828125,4.021711349487305,4.211711406707764
1682373564.99971104,123122846,42.6899924,-84.4888165,260.3699951171875,4.017989158630371,4.20798921585083
1682373565.09967613,123222811,42.6899923,-84.4888165,260.3699951171875,4.0116801261901855,4.2016801834106445
1682373565.19990420,123323039,42.6899922,-84.48881639999999,260.3599853515625,4.007173538208008,4.197173595428467
1682373565.29974818,123422883,42.689992,-84.48881639999999,260.3599853515625,4.004335403442383,4.194335460662842
1682373565.39976811,123522903,42.6899917,-84.4888163,260.3599853515625,4.003915309906006,4.193915367126465
1682373565.49981618,123622951,42.6899914,-84.4888161,260.3599853515625,4.0015082359313965,4.1915082931518555
1682373565.59979010,123722925,42.689991,-84.4888158,260.3599853515625,4.000011444091797,4.190011501312256
1682373565.69977808,123822913,42.6899905,-84.4888154,260.3500061035156,3.9924569129943848,4.182456970214844
1682373565.79969406,123922829,42.689989999999995,-84.488815,260.3399963378906,3.983908176422119,4.173908233642578
1682373565.89968514,124022820,42.689989399999995,-84.48881449999999,260.32000732421875,3.969862461090088,4.159862518310547
1682373565.99968123,124122816,42.689988799999995,-84.48881399999999,260.32000732421875,3.9609570503234863,4.150957107543945
1682373566.09987211,124223007,42.6899881,-84.4888134,260.30999755859375,3.9565787315368652,4.146578788757324
1682373566.19970322,124322838,42.6899875,-84.48881279999999,260.30999755859375,3.95485782623291,4.144857883453369
1682373566.29978418,124422919,42.6899868,-84.48881209999999,260.30999755859375,3.952763557434082,4.142763614654541
1682373566.39982820,124522963,42.6899861,-84.4888114,260.30999755859375,3.9510116577148438,4.141011714935303
1682373566.49946523,124622600,42.6899854,-84.4888107,260.29998779296875,3.948763847351074,4.138763904571533
1682373566.59949708,124722632,42.6899847,-84.48881,260.29998779296875,3.949470043182373,4.139470100402832
1682373566.69944715,124822582,42.6899839,-84.4888093,260.30999755859375,3.9550323486328125,4.1450324058532715
1682373566.79950905,124922644,42.6899832,-84.4888088,260.32000732421875,3.963593006134033,4.153593063354492
1682373566.89953518,125022670,42.6899825,-84.4888082,260.3299865722656,3.974699020385742,4.164699077606201
1682373566.99975419,125122889,42.6899818,-84.4888077,260.3399963378906,3.985164165496826,4.175164222717285
1682373567.09971905,125222854,42.689980999999996,-84.48880729999999,260.3500061035156,3.9943900108337402,4.184390068054199
1682373567.19976425,125322899,42.689980299999995,-84.4888069,260.3599853515625,4.003237724304199,4.193237781524658
1682373567.29985404,125422989,42.6899795,-84.4888065,260.3599853515625,4.009578227996826,4.199578285217285
1682373567.39974618,125522881,42.6899787,-84.4888062,260.3699951171875,4.013664245605469,4.203664302825928
1682373567.49974322,125622878,42.689977899999995,-84.488806,260.3699951171875,4.0130696296691895,4.203069686889648
1682373567.59970522,125722840,42.689977,-84.4888058,260.3699951171875,4.012635707855225,4.202635765075684
1682373567.69962907,125822764,42.689976099999996,-84.4888055,260.3599853515625,4.005303382873535,4.195303440093994
1682373567.79962206,125922757,42.6899753,-84.4888053,260.3500061035156,3.9961295127868652,4.186129570007324
1682373567.89963126,126022766,42.6899744,-84.4888052,260.3399963378906,3.983572483062744,4.173572540283203
1682373567.99966908,126122804,42.6899735,-84.488805,260.3299865722656,3.9773192405700684,4.167319297790527
1682373568.09987020,126223005,42.6899727,-84.4888047,260.3299865722656,3.9700136184692383,4.160013675689697
1682373568.19985723,126322992,42.689971899999996,-84.4888045,260.32000732421875,3.9642038345336914,4.15420389175415
1682373568.29954815,126422683,42.689971,-84.48880419999999,260.30999755859375,3.9577364921569824,4.147736549377441
1682373568.39953017,126522665,42.6899701,-84.488804,260.30999755859375,3.953658103942871,4.14365816116333
1682373568.49945521,126622590,42.6899693,-84.48880369999999,260.29998779296875,3.949186325073242,4.139186382293701
1682373568.59950614,126722641,42.6899685,-84.4888034,260.29998779296875,3.94796085357666,4.137960910797119
1682373568.69949913,126822634,42.6899677,-84.4888031,260.29998779296875,3.9484481811523438,4.138448238372803
1682373568.79968524,126922820,42.689966999999996,-84.4888027,260.30999755859375,3.9534173011779785,4.1434173583984375
1682373568.89972115,127022856,42.6899662,-84.4888023,260.30999755859375,3.958345413208008,4.148345470428467
1682373568.99981022,127122945,42.6899654,-84.4888019,260.32000732421875,3.9647974967956543,4.154797554016113
1682373569.09989309,127223028,42.689964599999996,-84.4888015,260.32000732421875,3.9684009552001953,4.158401012420654
1682373569.19983220,127322967,42.6899638,-84.48880109999999,260.3299865722656,3.9739198684692383,4.163919925689697
1682373569.29981422,127422949,42.6899629,-84.4888007,260.3399963378906,3.9808897972106934,4.170889854431152
1682373569.39968014,127522815,42.689962099999995,-84.4888002,260.3399963378906,3.9866466522216797,4.176646709442139
1682373569.49964905,127622784,42.6899613,-84.4887998,260.3500061035156,3.992588520050049,4.182588577270508
1682373569.59967804,127722813,42.6899605,-84.48879939999999,260.3500061035156,3.9985475540161133,4.188547611236572
1682373569.69968724,127822822,42.689959699999996,-84.48879889999999,260.3599853515625,4.003085613250732,4.193085670471191
1682373569.79974413,127922879,42.6899589,-84.4887985,260.3599853515625,4.006881237030029,4.196881294250488
1682373569.89976215,128022897,42.6899582,-84.488798,260.3699951171875,4.012983798980713,4.202983856201172
1682373569.99985909,128122994,42.6899574,-84.48879749999999,260.3699951171875,4.017322540283203,4.207322597503662
1682373570.09998012,128223115,42.689956599999995,-84.48879699999999,260.3800048828125,4.020081520080566,4.210081577301025
1682373570.19951606,128322651,42.6899559,-84.48879649999999,260.3800048828125,4.021582126617432,4.211582183837891
1682373570.29947615,128422611,42.6899551,-84.488796,260.3800048828125,4.020876407623291,4.21087646484375
1682373570.39949608,128522631,42.6899543,-84.4887955,260.3699951171875,4.0196967124938965,4.2096967697143555
1682373570.49948716,128622622,42.6899535,-84.4887949,260.3699951171875,4.0159592628479,4.205959320068359
1682373570.59949803,128722633,42.6899526,-84.4887945,260.3699951171875,4.012693405151367,4.202693462371826
1682373570.69947624,128822611,42.689951699999995,-84.488794,260.3699951171875,4.0125861167907715,4.2025861740112305
1682373570.79941821,128922553,42.6899508,-84.4887935,260.3699951171875,4.013453960418701,4.20345401763916
1682373570.89953208,129022667,42.689949899999995,-84.4887931,260.3699951171875,4.013288497924805,4.203288555145264
1682373570.99980307,129122938,42.689949,-84.4887926,260.3699951171875,4.013595104217529,4.203595161437988
1682373571.09955621,129222691,42.689948099999995,-84.4887921,260.3699951171875,4.014814376831055,4.204814434051514
1682373571.19969225,129322827,42.6899472,-84.4887916,260.3699951171875,4.013685703277588,4.203685760498047
1682373571.29967117,129422806,42.689946299999995,-84.4887911,260.3699951171875,4.011414051055908,4.201414108276367
1682373571.39963317,129522768,42.6899454,-84.4887907,260.3599853515625,4.008354663848877,4.198354721069336
1682373571.49962521,129622760,42.689944499999996,-84.4887902,260.3599853515625,4.000677108764648,4.190677165985107
1682373571.59966826,129722803,42.6899436,-84.48878979999999,260.3500061035156,3.9917616844177246,4.181761741638184
1682373571.69970918,129822844,42.689942699999996,-84.4887894,260.3299865722656,3.9774703979492188,4.167470455169678
1682373571.79979610,129922931,42.6899418,-84.4887889,260.32000732421875,3.966519355773926,4.156519412994385
1682373571.89994621,130023081,42.689940899999996,-84.48878859999999,260.32000732421875,3.960944175720215,4.150944232940674
1682373571.99952221,130122657,42.68994,-84.4887882,260.30999755859375,3.956334114074707,4.146334171295166
1682373572.09945512,130222590,42.6899392,-84.4887877,260.30999755859375,3.9502367973327637,4.140236854553223
1682373572.19950604,130322641,42.6899383,-84.4887873,260.29998779296875,3.9474363327026367,4.137436389923096
1682373572.29953504,130422670,42.6899375,-84.4887869,260.29998779296875,3.9467391967773438,4.136739253997803
1682373572.39951611,130522651,42.6899367,-84.48878649999999,260.29998779296875,3.9479823112487793,4.137982368469238
1682373572.49944115,130622576,42.689935899999995,-84.4887861,260.30999755859375,3.952718734741211,4.14271879196167
1682373572.59940410,130722539,42.6899351,-84.4887856,260.30999755859375,3.9577531814575195,4.1477532386779785
1682373572.69951725,130822652,42.6899343,-84.4887852,260.32000732421875,3.965580940246582,4.155580997467041
1682373572.79981518,130922950,42.689933499999995,-84.4887847,260.3299865722656,3.9704084396362305,4.1604084968566895
1682373572.89980626,131022941,42.6899327,-84.48878429999999,260.3299865722656,3.9718127250671387,4.161812782287598
1682373572.99967504,131122810,42.6899319,-84.4887838,260.3299865722656,3.974299430847168,4.164299488067627
1682373573.09968305,131222818,42.689931099999995,-84.4887833,260.3299865722656,3.971513271331787,4.161513328552246
1682373573.19954824,131322683,42.6899302,-84.48878289999999,260.32000732421875,3.969026565551758,4.159026622772217
1682373573.29973412,131422869,42.6899294,-84.48878239999999,260.32000732421875,3.965480327606201,4.15548038482666
1682373573.39971709,131522852,42.689928599999995,-84.48878189999999,260.32000732421875,3.964547634124756,4.154547691345215
1682373573.49975610,131622891,42.6899278,-84.4887814,260.32000732421875,3.9601798057556152,4.150179862976074
1682373573.59985518,131722990,42.689926899999996,-84.4887809,260.30999755859375,3.955796718597412,4.145796775817871
1682373573.69978118,131822916,42.6899261,-84.4887804,260.30999755859375,3.952993869781494,4.142993927001953
1682373573.79979324,131922928,42.6899253,-84.4887798,260.30999755859375,3.9522275924682617,4.142227649688721
1682373573.89967823,132022813,42.689924399999995,-84.4887794,260.30999755859375,3.9543004035949707,4.14430046081543
1682373573.99967027,132122805,42.6899236,-84.488779,260.30999755859375,3.9579825401306152,4.147982597351074
1682373574.09948111,132222616,42.6899227,-84.48877859999999,260.32000732421875,3.960442543029785,4.150442600250244
1682373574.19948721,132322622,42.689921899999995,-84.48877809999999,260.32000732421875,3.9636178016662598,4.153617858886719
1682373574.29953814,132422673,42.689921,-84.4887777,260.32000732421875,3.964226722717285,4.154226779937744
1682373574.39941907,132522554,42.689920099999995,-84.4887772,260.32000732421875,3.967069625854492,4.157069683074951
1682373574.49951720,132622652,42.6899192,-84.4887768,260.3299865722656,3.9733195304870605,4.1633195877075195
1682373574.59946823,132722603,42.689918399999996,-84.48877639999999,260.3299865722656,3.9791102409362793,4.169110298156738
1682373574.69949722,132822632,42.6899175,-84.4887759,260.3399963378906,3.9836292266845703,4.173629283905029
1682373574.79968905,132922824,42.6899166,-84.4887754,260.3399963378906,3.987875461578369,4.177875518798828
1682373574.89967918,133022814,42.6899158,-84.48877499999999,260.3399963378906,3.988569736480713,4.178569793701172
1682373574.99949503,133122630,42.6899149,-84.48877449999999,260.3399963378906,3.9873247146606445,4.1773247718811035
1682373575.09964824,133222783,42.689914099999996,-84.4887741,260.3399963378906,3.985232353210449,4.175232410430908
1682373575.19969320,133322828,42.6899133,-84.4887737,260.3399963378906,3.9835305213928223,4.173530578613281
1682373575.29978323,133422918,42.6899125,-84.4887732,260.3399963378906,3.981492519378662,4.171492576599121
1682373575.39984417,133522979,42.689911699999996,-84.4887727,260.3399963378906,3.9808526039123535,4.1708526611328125
1682373575.49967217,133622807,42.6899109,-84.4887722,260.3299865722656,3.9788222312927246,4.168822288513184
1682373575.59973717,133722872,42.6899101,-84.4887717,260.3299865722656,3.9769134521484375,4.1669135093688965
1682373575.69963622,133822771,42.6899093,-84.4887712,260.3399963378906,3.9808402061462402,4.170840263366699
1682373575.79965115,133922786,42.6899085,-84.48877069999999,260.3399963378906,3.9851608276367188,4.175160884857178
1682373575.89963222,134022767,42.6899077,-84.4887703,260.3500061035156,3.9923696517944336,4.182369709014893
1682373575.99981618,134122951,42.689907,-84.4887698,260.3500061035156,3.998241424560547,4.188241481781006
1682373576.09943819,134222573,42.689906199999996,-84.4887694,260.3599853515625,4.004309177398682,4.194309234619141
1682373576.19945121,134322586,42.6899054,-84.4887689,260.3699951171875,4.011402606964111,4.20140266418457
1682373576.29954624,134422681,42.6899046,-84.48876849999999,260.3699951171875,4.0158562660217285,4.2058563232421875
1682373576.39946318,134522598,42.689903799999996,-84.488768,260.3699951171875,4.018767356872559,4.208767414093018
1682373576.49949718,134622632,42.689903,-84.4887675,260.3699951171875,4.019730091094971,4.20973014831543
1682373576.59945107,134722586,42.6899022,-84.488767,260.3699951171875,4.01764440536499,4.207644462585449
1682373576.69949317,134822628,42.6899014,-84.4887665,260.3699951171875,4.011836528778076,4.201836585998535
1682373576.79949212,134922627,42.6899006,-84.488766,260.3599853515625,4.0055155754089355,4.1955156326293945
1682373576.89969826,135022833,42.6898998,-84.4887655,260.3599853515625,4.002564907073975,4.192564964294434
1682373576.99971509,135122850,42.689899,-84.4887651,260.3500061035156,3.9998631477355957,4.189863204956055
1682373577.09977007,135222905,42.689898199999995,-84.4887645,260.3500061035156,3.996671199798584,4.186671257019043
1682373577.19985318,135322988,42.6898974,-84.48876399999999,260.3500061035156,3.994473457336426,4.184473514556885
1682373577.29982615,135422961,42.6898966,-84.48876349999999,260.3500061035156,3.9954476356506348,4.185447692871094
1682373577.39981914,135522954,42.689895799999995,-84.48876299999999,260.3500061035156,3.9975156784057617,4.187515735626221
1682373577.49981523,135622950,42.689895,-84.48876249999999,260.3599853515625,4.001341819763184,4.191341876983643
1682373577.59967017,135722805,42.6898942,-84.488762,260.3599853515625,4.0050835609436035,4.1950836181640625
1682373577.69967604,135822811,42.6898933,-84.4887615,260.3599853515625,4.009573459625244,4.199573516845703
1682373577.79994917,135923084,42.6898925,-84.488761,260.3699951171875,4.012397289276123,4.202397346496582
1682373577.89944625,136022581,42.689891599999996,-84.4887605,260.3699951171875,4.0136518478393555,4.2036519050598145
1682373577.99942207,136122557,42.6898908,-84.48876,260.3699951171875,4.014978408813477,4.2049784660339355
1682373578.09951019,136222645,42.6898899,-84.48875939999999,260.3699951171875,4.011435508728027,4.201435565948486
1682373578.19946623,136322601,42.689889,-84.488759,260.3599853515625,4.00603723526001,4.196037292480469
1682373578.29953623,136422671,42.6898882,-84.4887584,260.3599853515625,4.002458095550537,4.192458152770996
1682373578.39945316,136522588,42.689887299999995,-84.4887579,260.3500061035156,3.998866558074951,4.18886661529541
1682373578.49949408,136622629,42.6898865,-84.48875749999999,260.3500061035156,3.9958877563476562,4.185887813568115
1682373578.59949017,136722625,42.6898856,-84.48875699999999,260.3500061035156,3.993105411529541,4.18310546875
1682373578.69970703,136822842,42.6898847,-84.4887565,260.3399963378906,3.987125873565674,4.177125930786133
1682373578.79971218,136922847,42.6898839,-84.488756,260.3399963378906,3.98276948928833,4.172769546508789
1682373578.89976907,137022904,42.689883099999996,-84.4887555,260.3299865722656,3.979926586151123,4.169926643371582
1682373578.99981904,137122954,42.6898822,-84.488755,260.3399963378906,3.98087739944458,4.170877456665039
1682373579.09967208,137222807,42.6898814,-84.4887545,260.3399963378906,3.98504638671875,4.175046443939209
1682373579.19972324,137322858,42.6898805,-84.488754,260.3399963378906,3.989478588104248,4.179478645324707
1682373579.29980707,137422942,42.6898797,-84.4887535,260.3500061035156,3.9929633140563965,4.1829633712768555
1682373579.39963913,137522774,42.689878799999995,-84.488753,260.3500061035156,3.998383045196533,4.188383102416992
1682373579.49965405,137622789,42.6898779,-84.48875249999999,260.3599853515625,4.00380802154541,4.193808078765869
1682373579.59968710,137722822,42.689876999999996,-84.4887521,260.3699951171875,4.01123571395874,4.201235771179199
1682373579.69968510,137822820,42.6898762,-84.4887516,260.3699951171875,4.019354820251465,4.209354877471924
1682373579.79991126,137923046,42.6898754,-84.4887512,260.3800048828125,4.023987770080566,4.213987827301025
1682373579.89982510,138022960,42.689874499999995,-84.4887507,260.3800048828125,4.025258541107178,4.215258598327637
1682373579.99941611,138122551,42.6898737,-84.48875029999999,260.3800048828125,4.0268330574035645,4.216833114624023
1682373580.09949207,138222627,42.689873,-84.4887499,260.3800048828125,4.028611660003662,4.218611717224121
1682373580.19946504,138322600,42.689872199999996,-84.4887495,260.3800048828125,4.0299153327941895,4.219915390014648
1682373580.29950809,138422643,42.6898714,-84.488749,260.3899841308594,4.031933307647705,4.221933364868164
1682373580.39949226,138522627,42.6898706,-84.4887486,260.3899841308594,4.03375244140625,4.223752498626709
1682373580.49949908,138622634,42.6898698,-84.48874819999999,260.3899841308594,4.033897399902344,4.223897457122803
1682373580.59973025,138722865,42.689869099999996,-84.48874769999999,260.3899841308594,4.035248279571533,4.225248336791992
1682373580.69973826,138822873,42.6898682,-84.4887473,260.3899841308594,4.034931182861328,4.224931240081787
1682373580.79985023,138922985,42.6898674,-84.4887469,260.3899841308594,4.034423351287842,4.224423408508301
1682373580.89981008,139022945,42.689866599999995,-84.4887464,260.3899841308594,4.032203674316406,4.222203731536865
1682373580.99980211,139122937,42.6898658,-84.48874599999999,260.3899841308594,4.031643390655518,4.221643447875977
1682373581.09968424,139222819,42.689865,-84.4887456,260.3899841308594,4.030189037322998,4.220189094543457
1682373581.19973707,139322872,42.689864199999995,-84.4887451,260.3800048828125,4.028693675994873,4.218693733215332
1682373581.29973006,139422865,42.6898634,-84.4887447,260.3800048828125,4.024704933166504,4.214704990386963
1682373581.39971709,139522852,42.6898626,-84.4887442,260.3800048828125,4.023115634918213,4.213115692138672
1682373581.49974012,139622875,42.6898617,-84.4887437,260.3800048828125,4.0235371589660645,4.213537216186523
1682373581.59981418,139722949,42.6898609,-84.4887432,260.3800048828125,4.025437355041504,4.215437412261963
1682373581.69990516,139823040,42.6898601,-84.4887427,260.3800048828125,4.029176235198975,4.219176292419434
1682373581.80000114,139923136,42.689859299999995,-84.48874219999999,260.3899841308594,4.034374237060547,4.224374294281006
1682373581.89979506,140022930,42.6898585,-84.48874169999999,260.3899841308594,4.039872169494629,4.229872226715088
1682373581.99943924,140122574,42.6898577,-84.4887413,260.3999938964844,4.042806625366211,4.23280668258667
1682373582.09948707,140222622,42.689856899999995,-84.4887408,260.3999938964844,4.044028282165527,4.234028339385986
1682373582.19949722,140322632,42.6898562,-84.4887404,260.3999938964844,4.045966148376465,4.235966205596924
1682373582.29954314,140422678,42.6898553,-84.48873979999999,260.3999938964844,4.047576904296875,4.237576961517334
1682373582.39947724,140522612,42.689854499999996,-84.48873929999999,260.3999938964844,4.0497517585754395,4.239751815795898
1682373582.49941516,140622550,42.6898537,-84.4887387,260.4100036621094,4.050063133239746,4.240063190460205
1682373582.59952116,140722656,42.6898529,-84.4887382,260.3999938964844,4.049559116363525,4.239559173583984
1682373582.69980621,140822941,42.689851999999995,-84.4887377,260.3999938964844,4.047335624694824,4.237335681915283
1682373582.79950809,140922643,42.6898512,-84.4887372,260.3999938964844,4.042605876922607,4.232605934143066
1682373582.89944506,141022580,42.689850299999996,-84.4887366,260.3899841308594,4.034735202789307,4.224735260009766
1682373582.99948812,141122623,42.6898495,-84.4887361,260.3800048828125,4.028519153594971,4.21851921081543
1682373583.09948206,141222617,42.6898486,-84.4887356,260.3800048828125,4.024816989898682,4.214817047119141
1682373583.19953108,141322666,42.689847799999995,-84.4887351,260.3800048828125,4.0233845710754395,4.213384628295898
1682373583.29949808,141422633,42.689847,-84.4887347,260.3800048828125,4.0243425369262695,4.2143425941467285
1682373583.39942813,141522563,42.6898462,-84.4887342,260.3800048828125,4.027100563049316,4.217100620269775
1682373583.49951911,141622654,42.689845399999996,-84.4887337,260.3899841308594,4.031567096710205,4.221567153930664
1682373583.59979510,141722930,42.6898445,-84.48873329999999,260.3899841308594,4.035641193389893,4.225641250610352
1682373583.69955111,141822686,42.6898437,-84.4887328,260.3899841308594,4.038082599639893,4.228082656860352
1682373583.79968810,141922823,42.689842899999995,-84.4887323,260.3999938964844,4.0400309562683105,4.2300310134887695
1682373583.89964318,142022778,42.689842,-84.48873189999999,260.3999938964844,4.0424957275390625,4.2324957847595215
1682373583.99963903,142122774,42.6898412,-84.48873139999999,260.3999938964844,4.043102264404297,4.233102321624756
1682373584.09965825,142222793,42.6898403,-84.4887309,260.3999938964844,4.0427727699279785,4.2327728271484375
1682373584.19967914,142322814,42.6898395,-84.4887305,260.3999938964844,4.041079998016357,4.231080055236816
1682373584.29976416,142422899,42.689838699999996,-84.4887301,260.3899841308594,4.035181999206543,4.225182056427002
1682373584.39980507,142522940,42.6898379,-84.4887297,260.3899841308594,4.031160354614258,4.221160411834717
1682373584.49993110,142623066,42.6898371,-84.4887293,260.3800048828125,4.0288310050964355,4.2188310623168945
1682373584.59980106,142722936,42.6898364,-84.4887289,260.3800048828125,4.025542259216309,4.215542316436768
1682373584.69969511,142822830,42.6898358,-84.4887286,260.3800048828125,4.025055408477783,4.215055465698242
1682373584.79975724,142922892,42.6898352,-84.48872829999999,260.3800048828125,4.024713039398193,4.214713096618652
1682373584.89951324,143022648,42.6898346,-84.4887281,260.3800048828125,4.023692607879639,4.213692665100098
1682373584.99970412,143122839,42.6898342,-84.4887279,260.3800048828125,4.023120403289795,4.213120460510254
1682373585.09973717,143222872,42.689833799999995,-84.48872779999999,260.3800048828125,4.0207695960998535,4.2107696533203125
1682373585.19978714,143322922,42.6898335,-84.4887277,260.3699951171875,4.018191814422607,4.208191871643066
1682373585.29991508,143423050,42.6898333,-84.4887277,260.3699951171875,4.016669750213623,4.206669807434082
1682373585.39979911,143522934,42.689833199999995,-84.4887277,260.3699951171875,4.0143818855285645,4.204381942749023
1682373585.49975514,143622890,42.6898331,-84.48872779999999,260.3699951171875,4.011308670043945,4.201308727264404
1682373585.59969020,143722825,42.689833,-84.48872779999999,260.3599853515625,4.009457588195801,4.19945764541626
1682373585.69971204,143822847,42.6898329,-84.4887279,260.3599853515625,4.008061408996582,4.198061466217041
1682373585.79956412,143922699,42.6898329,-84.488728,260.3599853515625,4.007631301879883,4.197631359100342
1682373585.89958024,144022715,42.6898329,-84.488728,260.3599853515625,4.008345127105713,4.198345184326172
1682373585.99947906,144122614,42.6898329,-84.4887281,260.3599853515625,4.0089006423950195,4.1989006996154785
1682373586.09941626,144222551,42.6898328,-84.4887281,260.3599853515625,4.0066728591918945,4.1966729164123535
1682373586.19970703,144322842,42.6898327,-84.4887281,260.3599853515625,4.004477500915527,4.194477558135986
1682373586.29951119,144422646,42.6898327,-84.4887281,260.3599853515625,4.004737377166748,4.194737434387207
1682373586.39954114,144522676,42.689832599999995,-84.4887282,260.3599853515625,4.006406784057617,4.196406841278076
1682373586.49966216,144622797,42.6898325,-84.4887282,260.3599853515625,4.006782054901123,4.196782112121582
1682373586.59976220,144722897,42.6898324,-84.4887284,260.3500061035156,3.9982357025146484,4.188235759735107
1682373586.69948626,144822621,42.6898321,-84.4887286,260.3399963378906,3.9816513061523438,4.171651363372803
1682373586.79954505,144922680,42.6898318,-84.4887289,260.30999755859375,3.9559473991394043,4.145947456359863
1682373586.89945006,145022585,42.689831399999996,-84.4887293,260.2699890136719,3.919311046600342,4.109311103820801
1682373586.99941206,145122547,42.6898309,-84.4887297,260.22998046875,3.878176212310791,4.06817626953125
1682373587.09951806,145222653,42.6898304,-84.4887301,260.19000244140625,3.8324766159057617,4.022476673126221
1682373587.19946814,145322603,42.68983,-84.4887305,260.1399841308594,3.7849690914154053,3.9749691486358643
1682373587.29954219,145422677,42.689829499999995,-84.4887308,260.0899963378906,3.7349188327789307,3.9249188899993896
1682373587.40003610,145523171,42.6898291,-84.48873119999999,260.0400085449219,3.6850128173828125,3.8750128746032715
1682373587.49972820,145622863,42.6898287,-84.4887315,259.989990234375,3.6350595951080322,3.825059652328491
1682373587.59953809,145722673,42.689828299999995,-84.4887317,259.94000244140625,3.5863027572631836,3.7763028144836426
1682373587.69966507,145822800,42.6898279,-84.488732,259.8899841308594,3.5381546020507812,3.7281546592712402
1682373587.79966307,145922798,42.6898276,-84.4887322,259.8500061035156,3.4911162853240967,3.6811163425445557
1682373587.89974809,146022883,42.689827199999996,-84.48873239999999,259.79998779296875,3.4492499828338623,3.6392500400543213
1682373587.99981117,146122946,42.689827,-84.4887325,259.7599792480469,3.4080371856689453,3.5980372428894043
1682373588.09967613,146222811,42.6898268,-84.4887327,259.72998046875,3.3718438148498535,3.5618438720703125
1682373588.19973707,146322872,42.689826599999996,-84.4887328,259.69000244140625,3.33585524559021,3.525855302810669
1682373588.29965305,146422788,42.689826499999995,-84.4887328,259.6600036621094,3.3033101558685303,3.4933102130889893
1682373588.40001011,146523145,42.6898263,-84.4887328,259.6199951171875,3.2697832584381104,3.4597833156585693
1682373588.49961710,146622752,42.6898262,-84.4887328,259.5899963378906,3.234990358352661,3.42499041557312
1682373588.59990525,146723040,42.6898262,-84.4887328,259.54998779296875,3.198251485824585,3.388251543045044
1682373588.69970417,146822839,42.6898261,-84.4887328,259.5199890136719,3.1621649265289307,3.3521649837493896
1682373588.79974723,146922882,42.689826,-84.4887328,259.47998046875,3.1255862712860107,3.3155863285064697
1682373588.89983106,147022966,42.689826,-84.4887328,259.44000244140625,3.0889313220977783,3.2789313793182373
1682373588.99977803,147122913,42.689825899999995,-84.4887328,259.4100036621094,3.051374912261963,3.241374969482422
1682373589.09978724,147222922,42.689825899999995,-84.4887328,259.3599853515625,3.0089690685272217,3.1989691257476807
1682373589.19969821,147322833,42.6898258,-84.4887329,259.32000732421875,2.9674389362335205,3.1574389934539795
1682373589.29976416,147422899,42.6898258,-84.4887329,259.2799987792969,2.926619052886963,3.116619110107422
1682373589.40005922,147523194,42.6898257,-84.4887329,259.239990234375,2.8843812942504883,3.0743813514709473
1682373589.49987316,147623008,42.6898257,-84.4887328,259.19000244140625,2.8362369537353516,3.0262370109558105
1682373589.59945011,147722585,42.6898257,-84.4887328,259.1499938964844,2.790588617324829,2.980588674545288
1682373589.69941115,147822546,42.6898257,-84.4887328,259.1000061035156,2.746755361557007,2.936755418777466
1682373589.79950905,147922644,42.6898257,-84.4887328,259.05999755859375,2.70365834236145,2.893658399581909
1682373589.89945221,148022587,42.6898256,-84.4887327,259.0199890136719,2.6674742698669434,2.8574743270874023
1682373589.99956417,148122699,42.6898256,-84.4887327,258.97998046875,2.629409074783325,2.819409132003784
1682373590.09951210,148222647,42.6898256,-84.4887327,258.94000244140625,2.5861690044403076,2.7761690616607666
1682373590.19953012,148322665,42.6898255,-84.4887327,258.8999938964844,2.542814254760742,2.732814311981201
1682373590.29953504,148422670,42.6898255,-84.4887327,258.8500061035156,2.495182752609253,2.685182809829712
1682373590.39976311,148522898,42.6898254,-84.4887327,258.79998779296875,2.4499826431274414,2.6399827003479004
1682373590.49971008,148622845,42.6898254,-84.4887327,258.7599792480469,2.405466318130493,2.595466375350952
1682373590.59977221,148722907,42.6898254,-84.4887327,258.7200012207031,2.361621856689453,2.551621913909912
1682373590.69982624,148822961,42.6898254,-84.4887327,258.66998291015625,2.3164570331573486,2.5064570903778076
1682373590.79948521,148922620,42.6898254,-84.48873259999999,258.6300048828125,2.273970365524292,2.463970422744751
1682373590.89951015,149022645,42.689825299999995,-84.4887325,258.5899963378906,2.2311015129089355,2.4211015701293945
1682373590.99948120,149122616,42.689825299999995,-84.4887325,258.54998779296875,2.191329002380371,2.38132905960083
1682373591.09949923,149222634,42.6898252,-84.48873239999999,258.5,2.148573637008667,2.338573694229126
1682373591.19950509,149322640,42.6898252,-84.48873239999999,258.4599914550781,2.1083216667175293,2.2983217239379883
1682373591.29954004,149422675,42.6898252,-84.48873239999999,258.42999267578125,2.0712897777557373,2.2612898349761963
1682373591.39965510,149522790,42.6898252,-84.4887323,258.3899841308594,2.0345571041107178,2.2245571613311768
1682373591.49974823,149622883,42.6898251,-84.4887323,258.3500061035156,1.9999858140945435,2.189985752105713
1682373591.59983611,149722971,42.6898251,-84.4887322,258.32000732421875,1.9653915166854858,2.1553914546966553
1682373591.69972420,149822859,42.6898251,-84.4887321,258.2799987792969,1.9261847734451294,2.116184711456299
1682373591.79972720,149922862,42.6898251,-84.4887321,258.239990234375,1.8862799406051636,2.076279878616333
1682373591.89962816,150022763,42.6898251,-84.488732,258.1999816894531,1.849939227104187,2.0399391651153564
1682373591.99963808,150122773,42.6898251,-84.488732,258.17999267578125,1.8204370737075806,2.01043701171875
1682373592.09966922,150222804,42.6898251,-84.48873189999999,258.1600036621094,1.8003352880477905,1.99033522605896
1682373592.19969821,150322833,42.689825,-84.48873189999999,258.1399841308594,1.7839046716690063,1.9739046096801758
1682373592.29970908,150422844,42.689825,-84.4887318,258.1199951171875,1.769304871559143,1.9593048095703125
1682373592.39976811,150522903,42.689825,-84.4887318,258.1099853515625,1.756833553314209,1.9468334913253784
1682373592.49979925,150622934,42.6898249,-84.4887317,258.1000061035156,1.7464452981948853,1.9364452362060547
1682373592.59979320,150722928,42.6898249,-84.4887317,258.0899963378906,1.7372450828552246,1.927245020866394
1682373592.69977713,150822912,42.6898249,-84.4887316,258.0799865722656,1.7290219068527222,1.9190218448638916
1682373592.79970026,150922835,42.6898248,-84.4887316,258.07000732421875,1.7197197675704956,1.909719705581665
1682373592.89971519,151022850,42.6898248,-84.4887315,258.05999755859375,1.7098239660263062,1.8998239040374756
1682373592.99968719,151122822,42.6898248,-84.4887315,258.04998779296875,1.6995797157287598,1.8895796537399292
1682373593.09969616,151222831,42.6898248,-84.48873139999999,258.04998779296875,1.6908549070358276,1.880854845046997
1682373593.19973922,151322874,42.689824699999996,-84.48873139999999,258.0299987792969,1.6796668767929077,1.8696668148040771
1682373593.29978323,151422918,42.689824699999996,-84.4887313,258.0199890136719,1.6685771942138672,1.8585771322250366
1682373593.39985323,151522988,42.689824699999996,-84.4887313,258.0099792480469,1.6567332744598389,1.8467332124710083
1682373593.49946213,151622597,42.689824699999996,-84.48873119999999,258.0,1.6417245864868164,1.8317245244979858
1682373593.59952211,151722657,42.689824699999996,-84.48873119999999,257.97998046875,1.625737190246582,1.8157371282577515
1682373593.69946408,151822599,42.6898246,-84.4887311,257.9599914550781,1.6031973361968994,1.7931972742080688
1682373593.79949713,151922632,42.6898246,-84.488731,257.94000244140625,1.5817991495132446,1.771799087524414
1682373593.89949822,152022633,42.6898246,-84.488731,257.91998291015625,1.5621790885925293,1.7521790266036987
1682373593.99949908,152122634,42.6898246,-84.488731,257.8999938964844,1.5437246561050415,1.733724594116211
1682373594.09944510,152222580,42.6898246,-84.4887309,257.8800048828125,1.5293534994125366,1.719353437423706
1682373594.19954324,152322678,42.6898246,-84.4887309,257.8699951171875,1.515151858329773,1.7051517963409424
1682373594.29956007,152422695,42.6898246,-84.4887309,257.8599853515625,1.5032145977020264,1.6932145357131958
1682373594.39983225,152522967,42.6898246,-84.4887309,257.8399963378906,1.4896951913833618,1.6796951293945312
1682373594.49950123,152622636,42.6898245,-84.4887309,257.8299865722656,1.4747333526611328,1.6647332906723022
1682373594.59945607,152722591,42.6898245,-84.4887309,257.80999755859375,1.459047794342041,1.6490477323532104
1682373594.69949126,152822626,42.6898245,-84.4887308,257.79998779296875,1.444631576538086,1.6346315145492554
1682373594.79948020,152922615,42.6898245,-84.4887308,257.7799987792969,1.42857027053833,1.6185702085494995
1682373594.89949822,153022633,42.6898245,-84.4887308,257.7599792480469,1.409110188484192,1.5991101264953613
1682373594.99943805,153122573,42.6898245,-84.4887309,257.739990234375,1.3878650665283203,1.5778650045394897
1682373595.09941316,153222548,42.6898245,-84.4887308,257.7200012207031,1.364985704421997,1.5549856424331665
1682373595.19952822,153322663,42.6898245,-84.4887308,257.6999816894531,1.3434381484985352,1.5334380865097046
1682373595.29983521,153422970,42.6898245,-84.4887308,257.67999267578125,1.3235433101654053,1.5135432481765747
1682373595.39952326,153522658,42.6898245,-84.4887308,257.6600036621094,1.30538809299469,1.4953880310058594
1682373595.49961615,153622751,42.6898245,-84.4887308,257.6399841308594,1.2896965742111206,1.47969651222229
1682373595.59963822,153722773,42.6898244,-84.4887308,257.6300048828125,1.274705171585083,1.4647051095962524
1682373595.69961619,153822751,42.6898244,-84.4887308,257.6099853515625,1.2591179609298706,1.44911789894104
1682373595.79964209,153922777,42.6898244,-84.4887308,257.6000061035156,1.2442008256912231,1.4342007637023926
1682373595.89967012,154022805,42.6898244,-84.4887308,257.5899963378906,1.2311015129089355,1.421101450920105
1682373595.99966407,154122799,42.6898244,-84.48873069999999,257.57000732421875,1.2170836925506592,1.4070836305618286
1682373596.09978104,154222916,42.6898244,-84.48873069999999,257.55999755859375,1.2038575410842896,1.393857479095459
1682373596.19994521,154323080,42.6898244,-84.4887306,257.5400085449219,1.1893047094345093,1.3793046474456787
1682373596.29991722,154423052,42.6898244,-84.4887306,257.5299987792969,1.1744780540466309,1.3644779920578003
1682373596.39984107,154522976,42.6898244,-84.4887306,257.5099792480469,1.1578923463821411,1.3478922843933105
1682373596.49968410,154622819,42.6898244,-84.4887306,257.489990234375,1.1390081644058228,1.3290081024169922
1682373596.59950519,154722640,42.6898244,-84.4887305,257.4700012207031,1.1194510459899902,1.3094509840011597
1682373596.69971108,154822846,42.6898244,-84.4887305,257.4499816894531,1.0999177694320679,1.2899177074432373
1682373596.79972816,154922863,42.6898244,-84.4887306,257.42999267578125,1.07955002784729,1.2695499658584595
1682373596.89977407,155022909,42.6898244,-84.4887305,257.4100036621094,1.0590307712554932,1.2490307092666626
1682373596.99985313,155122988,42.6898243,-84.4887305,257.3899841308594,1.0394587516784668,1.2294586896896362
1682373597.09999919,155223134,42.6898243,-84.4887305,257.3800048828125,1.0247180461883545,1.214717984199524
1682373597.19981623,155322951,42.6898243,-84.4887305,257.3599853515625,1.009476900100708,1.1994768381118774
1682373597.29949021,155422625,42.6898243,-84.4887305,257.3500061035156,0.994798481464386,1.1847984790802002
1682373597.39949822,155522633,42.6898243,-84.4887305,257.3399963378906,0.9806978106498718,1.170697808265686
1682373597.49947524,155622610,42.6898243,-84.4887304,257.32000732421875,0.9671217799186707,1.1571217775344849
1682373597.59951019,155722645,42.6898243,-84.4887304,257.30999755859375,0.9530696272850037,1.1430696249008179
1682373597.69948006,155822615,42.6898242,-84.4887304,257.2900085449219,0.9348706603050232,1.1248706579208374
1682373597.79939318,155922528,42.6898242,-84.4887304,257.2699890136719,0.9154810309410095,1.1054810285568237
1682373597.89952421,156022659,42.6898242,-84.4887304,257.25,0.8947985768318176,1.0847985744476318
1682373597.99946404,156122599,42.689824099999996,-84.4887304,257.22998046875,0.8743018507957458,1.06430184841156
1682373598.09950614,156222641,42.689824099999996,-84.4887304,257.2099914550781,0.8562237620353699,1.046223759651184
1682373598.19968724,156322822,42.689824099999996,-84.4887304,257.19000244140625,0.837068498134613,1.0270684957504272
1682373598.29975009,156422885,42.689824099999996,-84.4887304,257.16998291015625,0.8190277218818665,1.0090277194976807
1682373598.39957404,156522709,42.689824,-84.4887303,257.1499938964844,0.7995513081550598,0.989551305770874
1682373598.49952507,156622660,42.689824,-84.4887303,257.1300048828125,0.7784375548362732,0.9684375524520874
1682373598.59947324,156722608,42.689824,-84.48873019999999,257.1099853515625,0.7588181495666504,0.9488181471824646
1682373598.69940615,156822541,42.689824,-84.48873019999999,257.1000061035156,0.7409711480140686,0.9309711456298828
1682373598.79953218,156922667,42.689824,-84.4887301,257.0799865722656,0.7241171002388,0.9141170978546143
1682373598.89948726,157022622,42.6898239,-84.4887301,257.07000732421875,0.71112060546875,0.9011206030845642
1682373598.99951720,157122652,42.6898239,-84.48872999999999,257.04998779296875,0.6973713636398315,0.8873713612556458
1682373599.09968424,157222819,42.6898239,-84.48872999999999,257.0400085449219,0.6824818253517151,0.8724818229675293
1682373599.19972205,157322857,42.689824,-84.48872999999999,257.0199890136719,0.6687135696411133,0.8587135672569275
1682373599.29952812,157422663,42.689824,-84.4887299,257.0099792480469,0.6516603827476501,0.8416603803634644
1682373599.39965510,157522790,42.689824,-84.4887298,256.989990234375,0.6314343214035034,0.8214343190193176
1682373599.49965310,157622788,42.689824,-84.4887297,256.9700012207031,0.6136782765388489,0.8036782741546631
1682373599.59964824,157722783,42.689824,-84.4887297,256.9499816894531,0.594818651676178,0.7848186492919922
1682373599.69978523,157822920,42.689824,-84.4887296,256.92999267578125,0.5753315091133118,0.765331506729126
1682373599.79972410,157922859,42.689824,-84.48872949999999,256.9100036621094,0.5566850304603577,0.7466850280761719
1682373599.89976120,158022896,42.689824099999996,-84.48872949999999,256.8899841308594,0.5390418767929077,0.7290418744087219
1682373599.99961710,158122752,42.689824099999996,-84.48872949999999,256.8800048828125,0.5210762023925781,0.7110762000083923
1682373600.09964609,158222781,42.689824099999996,-84.4887294,256.8599853515625,0.5022185444831848,0.692218542098999
1682373600.19964314,158322778,42.689824099999996,-84.4887294,256.8399963378906,0.48289984464645386,0.6728998422622681
1682373600.29986405,158422999,42.6898242,-84.4887294,256.82000732421875,0.46697866916656494,0.6569786667823792
1682373600.39947915,158522614,42.6898242,-84.4887294,256.80999755859375,0.4516121745109558,0.64161217212677
1682373600.49980426,158622939,42.6898243,-84.4887293,256.7900085449219,0.43973106145858765,0.6297310590744019
1682373600.59986615,158723001,42.6898243,-84.4887293,256.7799987792969,0.424233615398407,0.6142336130142212
1682373600.69980311,158822938,42.6898244,-84.4887293,256.7599792480469,0.40945571660995483,0.599455714225769
1682373600.79977918,158922914,42.6898244,-84.4887293,256.75,0.39316344261169434,0.5831634402275085
1682373600.89967704,159022812,42.6898244,-84.4887292,256.72998046875,0.37378984689712524,0.5637898445129395
1682373600.99971509,159122850,42.6898245,-84.4887292,256.7099914550781,0.35291045904159546,0.5429104566574097
1682373601.09968615,159222821,42.6898245,-84.4887292,256.69000244140625,0.3331679701805115,0.5231679677963257
1682373601.19990706,159323042,42.6898245,-84.4887291,256.66998291015625,0.3129686713218689,0.5029686689376831
1682373601.29974914,159422884,42.6898245,-84.4887291,256.6499938964844,0.2963487505912781,0.4863487482070923
1682373601.39977527,159522910,42.6898246,-84.4887291,256.6399841308594,0.2809374928474426,0.47093749046325684
1682373601.49982023,159622955,42.6898246,-84.4887291,256.6199951171875,0.2655300498008728,0.455530047416687
1682373601.59979820,159722933,42.689824699999996,-84.4887291,256.6000061035156,0.24730151891708374,0.43730151653289795
1682373601.69977617,159822911,42.689824699999996,-84.4887291,256.5799865722656,0.22667962312698364,0.41667962074279785
1682373601.79969716,159922832,42.689824699999996,-84.4887291,256.55999755859375,0.20664852857589722,0.3966485261917114
1682373601.89967108,160022806,42.6898248,-84.4887291,256.5400085449219,0.18875807523727417,0.3787580728530884
1682373601.99967122,160122806,42.6898248,-84.4887291,256.5199890136719,0.16877692937850952,0.35877692699432373
1682373602.09987807,160223013,42.6898248,-84.4887291,256.5,0.1461278796195984,0.3361278772354126
1682373602.19972324,160322858,42.6898248,-84.4887291,256.47998046875,0.12199968099594116,0.31199967861175537
1682373602.29977012,160422905,42.6898248,-84.4887291,256.4599914550781,0.10205870866775513,0.29205870628356934
1682373602.39984918,160522984,42.6898249,-84.48872899999999,256.4599914550781,0.10250741243362427,0.2925074100494385
1682373602.49946904,160622604,42.6898249,-84.48872899999999,256.4599914550781,0.10385626554489136,0.29385626316070557
1682373602.59958005,160722715,42.6898249,-84.48872899999999,256.4499816894531,0.09375756978988647,0.2837575674057007
1682373602.69953609,160822671,42.6898249,-84.48872899999999,256.44000244140625,0.08986085653305054,0.27986085414886475
1682373602.79951525,160922650,42.6898249,-84.4887289,256.44000244140625,0.08214312791824341,0.2721431255340576
1682373602.89950109,161022636,42.6898249,-84.4887289,256.44000244140625,0.08675748109817505,0.27675747871398926
1682373602.99968624,161122821,42.6898249,-84.4887289,256.44000244140625,0.08745342493057251,0.2774534225463867
1682373603.09974217,161222877,42.6898249,-84.48872879999999,256.44000244140625,0.08792012929916382,0.277920126914978
1682373603.19971919,161322854,42.689825,-84.48872879999999,256.44000244140625,0.08583086729049683,0.27583086490631104
1682373603.29981804,161422953,42.689825,-84.4887287,256.44000244140625,0.0824233889579773,0.2724233865737915
1682373603.39975715,161522892,42.689825,-84.4887286,256.42999267578125,0.0786481499671936,0.2686481475830078
1682373603.49969912,161622834,42.6898251,-84.4887286,256.42999267578125,0.07673639059066772,0.26673638820648193
1682373603.59961724,161722752,42.6898251,-84.4887285,256.42999267578125,0.07309848070144653,0.26309847831726074
1682373603.69963622,161822771,42.6898251,-84.4887285,256.41998291015625,0.06861966848373413,0.25861966609954834
1682373603.79961205,161922747,42.6898251,-84.4887285,256.41998291015625,0.06385689973831177,0.253856897354126
1682373603.89963222,162022767,42.6898251,-84.4887284,256.41998291015625,0.06254404783248901,0.2525440454483032
1682373603.99966121,162122796,42.6898251,-84.4887284,256.41998291015625,0.06068044900894165,0.25068044662475586
1682373604.09975505,162222890,42.6898251,-84.4887284,256.41998291015625,0.06361132860183716,0.25361132621765137
1682373604.19986010,162322995,42.6898251,-84.4887284,256.41998291015625,0.06551212072372437,0.2555121183395386
1682373604.29951525,162422650,42.6898252,-84.4887284,256.41998291015625,0.06894427537918091,0.2589442729949951
1682373604.39950204,162522637,42.6898252,-84.48872829999999,256.42999267578125,0.07100576162338257,0.2610057592391968
1682373604.49943709,162622572,42.6898252,-84.48872829999999,256.42999267578125,0.07321470975875854,0.26321470737457275
1682373604.59946108,162722596,42.6898252,-84.48872829999999,256.42999267578125,0.07389479875564575,0.26389479637145996
1682373604.69951916,162822654,42.6898252,-84.48872829999999,256.42999267578125,0.07401102781295776,0.264011025428772
1682373604.79952812,162922663,42.6898252,-84.48872829999999,256.42999267578125,0.07485419511795044,0.26485419273376465
1682373604.89973617,163022871,42.6898252,-84.48872829999999,256.42999267578125,0.0747174620628357,0.2647174596786499
1682373604.99976325,163122898,42.6898252,-84.48872829999999,256.42999267578125,0.07551509141921997,0.2655150890350342
1682373605.09984207,163222977,42.6898252,-84.4887282,256.42999267578125,0.07469302415847778,0.264693021774292
1682373605.19947004,163322605,42.6898252,-84.4887282,256.42999267578125,0.07118874788284302,0.2611887454986572
1682373605.29984713,163422982,42.6898251,-84.4887282,256.41998291015625,0.06665438413619995,0.25665438175201416
1682373605.39971423,163522849,42.6898251,-84.4887282,256.41998291015625,0.06314736604690552,0.2531473636627197
1682373605.49971819,163622853,42.6898251,-84.4887281,256.4100036621094,0.05991332232952118,0.2499133199453354
1682373605.59969020,163722825,42.6898251,-84.4887281,256.4100036621094,0.0575893372297287,0.2475893348455429
1682373605.69970226,163822837,42.689825,-84.4887281,256.4100036621094,0.05517701804637909,0.2451770156621933
1682373605.79974604,163922881,42.689825,-84.4887281,256.4100036621094,0.05486099421977997,0.24486099183559418
1682373605.89977813,164022913,42.689825,-84.4887281,256.4100036621094,0.05481724441051483,0.24481724202632904
1682373605.99986219,164122997,42.689825,-84.4887281,256.4100036621094,0.05253295600414276,0.24253295361995697
1682373606.10000420,164223139,42.6898251,-84.4887282,256.4100036621094,0.05254904925823212,0.24254904687404633
1682373606.20005322,164323188,42.6898251,-84.4887282,256.4100036621094,0.050101444125175476,0.24010144174098969
1682373606.29948711,164422622,42.6898251,-84.4887282,256.3999938964844,0.04521612823009491,0.23521612584590912
1682373606.39949918,164522634,42.689825,-84.4887282,256.3999938964844,0.04022984206676483,0.23022983968257904
1682373606.49946213,164622597,42.689825,-84.4887282,256.3899841308594,0.035971447825431824,0.22597144544124603
1682373606.59949517,164722630,42.689825,-84.4887282,256.3899841308594,0.03081374056637287,0.22081373631954193
1682373606.69943309,164822568,42.6898251,-84.4887282,256.3800048828125,0.02810673601925373,0.2181067317724228
1682373606.79954004,164922675,42.6898251,-84.4887282,256.3800048828125,0.027585910633206367,0.21758590638637543
1682373606.89988422,165023019,42.6898251,-84.4887282,256.3800048828125,0.028291987255215645,0.2182919830083847
1682373606.99942708,165122562,42.6898251,-84.4887282,256.3800048828125,0.029295967891812325,0.21929596364498138
1682373607.09947515,165222610,42.6898251,-84.4887282,256.3899841308594,0.03136591613292694,0.22136591374874115
1682373607.19945121,165322586,42.6898251,-84.4887282,256.3899841308594,0.031902000308036804,0.221901997923851
1682373607.29951024,165422645,42.6898251,-84.4887282,256.3899841308594,0.034599706530570984,0.2245997041463852
1682373607.39949226,165522627,42.6898251,-84.4887282,256.3899841308594,0.0379519909620285,0.2279519885778427
1682373607.49945617,165622591,42.6898251,-84.4887282,256.3999938964844,0.040671512484550476,0.23067151010036469
1682373607.59944606,165722581,42.6898251,-84.4887282,256.3999938964844,0.04463355243206024,0.23463355004787445
1682373607.69942713,165822562,42.6898251,-84.4887282,256.3999938964844,0.04575328528881073,0.23575328290462494
1682373607.79953504,165922670,42.6898251,-84.4887282,256.3999938964844,0.04391269385814667,0.23391269147396088
