timestamp,TimeUS,C,Q1,Q2,Q3,Q4
1682373553.99867511,112121810,2,-0.03980445861816406,-0.005778913851827383,-0.007090170402079821,0.9991655945777893
1682373554.09859324,112221728,2,-0.039863500744104385,-0.005805914290249348,-0.0070742410607635975,0.9991632103919983
1682373554.19863105,112321766,2,-0.03983665257692337,-0.005823259241878986,-0.007036195602267981,0.9991644620895386
1682373554.29858923,112421724,2,-0.039747897535562515,-0.005811773240566254,-0.007027520798146725,0.9991680979728699
1682373554.39859104,112521726,2,-0.039841122925281525,-0.005745497066527605,-0.007058884482830763,0.9991645812988281
1682373554.49859524,112621730,2,-0.03983498737215996,-0.00576850725337863,-0.007078425493091345,0.9991645216941833
1682373554.59865713,112721792,2,-0.03984236717224121,-0.00577358016744256,-0.007054409943521023,0.9991644024848938
1682373554.69870520,112821840,2,-0.03989240154623985,-0.005695562344044447,-0.00708644138649106,0.9991626143455505
1682373554.79867721,112921812,2,-0.03993885964155197,-0.005727886222302914,-0.007069872226566076,0.9991607069969177
1682373554.89867711,113021812,2,-0.039849903434515,-0.005722467787563801,-0.007059765048325062,0.999164342880249
1682373554.99859023,113121725,2,-0.03986354544758797,-0.005696391221135855,-0.007093396503478289,0.9991636872291565
1682373555.09863210,113221767,2,-0.03985143080353737,-0.005678046960383654,-0.007083616219460964,0.9991644024848938
1682373555.19859624,113321731,2,-0.039810243993997574,-0.005704004317522049,-0.007131610531359911,0.9991655349731445
1682373555.29858923,113421724,2,-0.03985903784632683,-0.005667927674949169,-0.007187333423644304,0.9991633892059326
1682373555.39859223,113521727,2,-0.03983490169048309,-0.005714774131774902,-0.007179377134889364,0.9991641640663147
1682373555.49866319,113621798,2,-0.039748381823301315,-0.0057158395648002625,-0.007172309327870607,0.9991676211357117
1682373555.59870219,113721837,2,-0.03977011516690254,-0.005719719920307398,-0.007157360203564167,0.9991668462753296
1682373555.69868612,113821821,2,-0.03978873789310455,-0.005744309164583683,-0.007160545792430639,0.999165952205658
1682373555.79866219,113921797,2,-0.03972934931516647,-0.005691777914762497,-0.007174566388130188,0.9991685152053833
1682373555.89867306,114021808,2,-0.03978845477104187,-0.005663158372044563,-0.0072049484588205814,0.9991660714149475
1682373555.99862313,114121758,2,-0.03980829194188118,-0.005674514453858137,-0.007221432868391275,0.9991651177406311
1682373556.09859610,114221731,2,-0.03974907472729683,-0.0056512909941375256,-0.007191901560872793,0.999167799949646
1682373556.19860625,114321741,2,-0.039759255945682526,-0.005649082828313112,-0.007208917755633593,0.9991673231124878
1682373556.29859209,114421727,2,-0.03968875855207443,-0.005672627594321966,-0.0071923877112567425,0.9991701245307922
1682373556.39866614,114521801,2,-0.039652761071920395,-0.005671083461493254,-0.007248021196573973,0.9991711378097534
1682373556.49870825,114621843,2,-0.039692219346761703,-0.005656027235090733,-0.0072538298554718494,0.9991695880889893
1682373556.59868717,114721822,2,-0.0396505631506443,-0.005608212668448687,-0.007243490312248468,0.9991716146469116
1682373556.69866705,114821802,2,-0.03965526446700096,-0.005601679440587759,-0.0072385226376354694,0.9991714954376221
1682373556.79868412,114921819,2,-0.0397321917116642,-0.005592326633632183,-0.007227631751447916,0.9991685748100281
1682373556.89864826,115021783,2,-0.039683952927589417,-0.005611796863377094,-0.007242270279675722,0.9991703033447266
1682373556.99860024,115121735,2,-0.03983226418495178,-0.005614851601421833,-0.007236058358103037,0.9991644024848938
1682373557.09859920,115221734,2,-0.039679113775491714,-0.005551861599087715,-0.007288750261068344,0.9991704821586609
1682373557.19861317,115321748,2,-0.03976064175367355,-0.005621822085231543,-0.007283492013812065,0.9991668462753296
1682373557.29868317,115421818,2,-0.039792582392692566,-0.005419935565441847,-0.007206762209534645,0.999167263507843
1682373557.39870811,115521843,2,-0.03997426480054855,-0.005645605269819498,-0.007133397273719311,0.9991592764854431
1682373557.49869418,115621829,2,-0.03956963121891022,-0.005128034390509129,-0.007887826301157475,0.9991725087165833
1682373557.59869003,115721825,2,-0.039666157215833664,-0.002413265174254775,-0.009968572296202183,0.9991603493690491
1682373557.69867420,115821809,2,-0.03994761034846306,0.0040017361752688885,-0.004833986051380634,0.9991820454597473
1682373557.79864407,115921779,2,-0.03943392261862755,-0.010815967805683613,0.013421077281236649,0.9990735054016113
1682373557.89859605,116021731,2,-0.03833278268575668,-0.01608286239206791,0.01890651509165764,0.9989566802978516
1682373557.99859524,116121730,2,-0.03641621768474579,-0.012030843645334244,0.0152938487008214,0.9991472363471985
1682373558.09861517,116221750,2,-0.03444506227970123,-0.013009637594223022,0.013774072751402855,0.999226987361908
1682373558.19866419,116321799,2,-0.03278990089893341,-0.011284103617072105,0.008941748179495335,0.9993585348129272
1682373558.29872417,116421859,2,-0.030713491141796112,-0.008827948942780495,0.005430561024695635,0.9994744658470154
1682373558.39868522,116521820,2,-0.028948578983545303,-0.009719653986394405,0.004343098029494286,0.9995242357254028
1682373558.49867225,116621807,2,-0.027397042140364647,-0.011370524764060974,0.004690519999712706,0.9995489716529846
1682373558.59867406,116721809,2,-0.025943698361516,-0.011719425208866596,0.0074036819860339165,0.9995672702789307
1682373558.69863605,116821771,2,-0.024827534332871437,-0.01194271445274353,0.008432497270405293,0.9995848536491394
1682373558.79860020,116921735,2,-0.02369900420308113,-0.013682722114026546,0.007871320471167564,0.999594509601593
1682373558.89861226,117021747,2,-0.02280346304178238,-0.015063627623021603,0.007949372753500938,0.9995948672294617
1682373558.99860811,117121743,2,-0.021971238777041435,-0.014593538828194141,0.008350519463419914,0.9996172189712524
1682373559.09866405,117221799,2,-0.021122150123119354,-0.014231900684535503,0.008665608242154121,0.999638020992279
1682373559.19870615,117321841,2,-0.020644741132855415,-0.01443423144519329,0.00919015146791935,0.9996404051780701
1682373559.29868126,117421816,2,-0.019938478246331215,-0.014207077212631702,0.010215028189122677,0.9996480941772461
1682373559.39866924,117521804,2,-0.01947643794119358,-0.01523439958691597,0.01075046043843031,0.9996364116668701
1682373559.49869108,117621826,2,-0.018805192783474922,-0.016218749806284904,0.011699545197188854,0.9996231198310852
1682373559.59864211,117721777,2,-0.018197443336248398,-0.01859477162361145,0.010783892124891281,0.9996033310890198
1682373559.69859505,117821730,2,-0.01741914264857769,-0.020702507346868515,0.010306889191269875,0.9995808005332947
1682373559.79859924,117921734,2,-0.016394902020692825,-0.01990116387605667,0.010219941847026348,0.9996152520179749
1682373559.89860606,118021741,2,-0.015443732030689716,-0.01883634179830551,0.010909343138337135,0.9996437430381775
1682373559.99867415,118121809,2,-0.01476896833628416,-0.017465366050601006,0.012350104749202728,0.9996621012687683
1682373560.09870720,118221842,2,-0.013986875303089619,-0.016785379499197006,0.013654496520757675,0.9996680021286011
1682373560.19868112,118321816,2,-0.013924865052103996,-0.017399946227669716,0.010966828092932701,0.9996914863586426
1682373560.29868913,118421824,2,-0.014273080043494701,-0.01795548014342785,0.00845735426992178,0.9997011423110962
1682373560.39859509,118521730,2,-0.014562592841684818,-0.01756853237748146,0.006871642079204321,0.9997159838676453
1682373560.49863720,118621772,2,-0.015574921853840351,-0.017240289598703384,0.005811808630824089,0.9997131824493408
1682373560.59860015,118721735,2,-0.01670125499367714,-0.017011212185025215,0.005907772574573755,0.9996983408927917
1682373560.69861913,118821754,2,-0.017949968576431274,-0.017524298280477524,0.0069625950418412685,0.9996610283851624
1682373560.79860020,118921735,2,-0.0190583486109972,-0.016844021156430244,0.0063225990161299706,0.9996564984321594
1682373560.89868426,119021819,2,-0.020296525210142136,-0.016390234231948853,0.006269366014748812,0.9996399879455566
1682373560.99872017,119121855,2,-0.021271027624607086,-0.015710247680544853,0.00549678597599268,0.9996352195739746
1682373561.09869409,119221829,2,-0.02251294068992138,-0.01584014855325222,0.004918285645544529,0.9996089339256287
1682373561.19868207,119321817,2,-0.023435819894075394,-0.01479370892047882,0.005259932018816471,0.9996020197868347
1682373561.29867506,119421810,2,-0.024615244939923286,-0.014449275098741055,0.005068602506071329,0.9995797276496887
1682373561.39862919,119521764,2,-0.025583229959011078,-0.013868605718016624,0.004639194346964359,0.9995657205581665
1682373561.49860215,119621737,2,-0.026518117636442184,-0.013696491718292236,0.004354479257017374,0.9995450377464294
1682373561.59860516,119721740,2,-0.027200542390346527,-0.013704047538340092,0.005439374595880508,0.9995212554931641
1682373561.69859624,119821731,2,-0.027920939028263092,-0.0139958830550313,0.0065026297233998775,0.9994909763336182
1682373561.79868126,119921816,2,-0.028225257992744446,-0.014128568582236767,0.007430383004248142,0.9994741082191467
1682373561.89866114,120021796,2,-0.014266464859247208,-0.014294044114649296,0.008295426145195961,0.9997616410255432
1682373561.99869704,120121832,2,-0.015257583931088448,-0.013228274881839752,0.009242207743227482,0.9997533559799194
1682373562.09868407,120221819,2,-0.01623634248971939,-0.012430842965841293,0.00933951884508133,0.9997472763061523
1682373562.19867921,120321814,2,-0.01626909337937832,-0.012431965209543705,0.00918576680123806,0.999748170375824
1682373562.29864120,120421776,2,-0.015906233340501785,-0.012118487618863583,0.009691242128610611,0.9997530579566956
1682373562.39859414,120521729,2,-0.01566144824028015,-0.01197044923901558,0.010119560174643993,0.9997544884681702
1682373562.49859810,120621733,2,-0.015097414143383503,-0.012121375650167465,0.010526640340685844,0.9997571110725403
1682373562.59859705,120721732,2,-0.015041680075228214,-0.011973167769610882,0.010875393636524677,0.9997560381889343
1682373562.69865823,120821793,2,-0.013989674858748913,-0.011332767084240913,0.009916000068187714,0.999788761138916
1682373562.79871917,120921854,2,-0.013158269226551056,-0.011419778689742088,0.01088012009859085,0.9997889995574951
1682373562.89869404,121021829,2,-0.013040692545473576,-0.011500805616378784,0.011530185118317604,0.9997823238372803
1682373562.99866509,121121800,2,-0.013727640733122826,-0.012383696623146534,0.010927926748991013,0.999769389629364
1682373563.09867811,121221813,2,-0.014147622510790825,-0.013627429492771626,0.011412402614951134,0.9997419118881226
1682373563.19864106,121321776,2,-0.014481740072369576,-0.012866170145571232,0.010994656011462212,0.9997519254684448
1682373563.29859614,121421731,2,-0.014640803448855877,-0.012209190055727959,0.010810710489749908,0.9997598528862
1682373563.39859605,121521731,2,-0.014714331366121769,-0.01367825549095869,0.0110338618978858,0.9997372627258301
1682373563.49860120,121621736,2,-0.01496380940079689,-0.015685444697737694,0.011514754965901375,0.9996986985206604
1682373563.59863925,121721774,2,-0.01518187578767538,-0.016112517565488815,0.011468208394944668,0.9996891617774963
1682373563.69871807,121821853,2,-0.015187069773674011,-0.016250090673565865,0.011012100614607334,0.9996919631958008
1682373563.79868221,121921817,2,-0.015176085755228996,-0.015824154019355774,0.009924406185746193,0.9997103810310364
1682373563.89867806,122021813,2,-0.014967773109674454,-0.014937344938516617,0.010432584211230278,0.9997219443321228
1682373563.99859619,122121731,2,-0.014691850170493126,-0.013784141279757023,0.009478796273469925,0.9997521042823792
1682373564.09862924,122221764,2,-0.014562278985977173,-0.012963656336069107,0.00915768276900053,0.9997679591178894
1682373564.19860315,122321738,2,-0.014585214667022228,-0.014311223290860653,0.00886527355760336,0.9997519254684448
1682373564.29859710,122421732,2,-0.014674307778477669,-0.016392119228839874,0.008651700802147388,0.9997205138206482
1682373564.39860106,122521736,2,-0.014845778234302998,-0.017333414405584335,0.007849235087633133,0.9997087121009827
1682373564.49866104,122621796,2,-0.015010109171271324,-0.017809951677918434,0.007318522781133652,0.9997019171714783
1682373564.59873223,122721867,2,-0.01470209751278162,-0.017892247065901756,0.007805847097188234,0.9997013211250305
1682373564.69868016,122821815,2,-0.014540000818669796,-0.01630306802690029,0.008027572184801102,0.9997291564941406
1682373564.79867125,122921806,2,-0.014222794212400913,-0.011639334261417389,0.006024808157235384,0.9998129606246948
1682373564.89868522,123021820,2,-0.013399993069469929,-0.006166009232401848,0.003586698556318879,0.9998847842216492
1682373564.99863315,123121768,2,-0.012534764595329762,0.001703428803011775,-0.00044034275924786925,0.9999198913574219
1682373565.09859920,123221734,2,-0.010788623243570328,0.008287857286632061,-0.0032657377887517214,0.9999021291732788
1682373565.19861507,123321750,2,-0.00657052593305707,0.013173389248549938,-0.004922042600810528,0.9998795390129089
1682373565.29859519,123421730,2,0.001249430002644658,0.01770860329270363,-0.006221549119800329,0.9998230338096619
1682373565.39865303,123521788,2,0.01315835677087307,0.02066860720515251,-0.007819094695150852,0.9996691942214966
1682373565.49871206,123621847,2,0.03004668653011322,0.02236291952431202,-0.00810233224183321,0.9992654323577881
1682373565.59869123,123721826,2,0.05103103816509247,0.02400972694158554,-0.007696409709751606,0.9983787536621094
1682373565.69868517,123821820,2,0.07545275241136551,0.02473049983382225,-0.004936187993735075,0.9968304634094238
1682373565.79859710,123921732,2,0.10013199597597122,0.023920373991131783,-0.0010489925043657422,0.9946860074996948
1682373565.89863610,124021771,2,0.1264665573835373,0.023624178022146225,0.003772877622395754,0.9916823506355286
1682373565.99860620,124121741,2,0.15234126150608063,0.021061426028609276,0.008732674643397331,0.9880649447441101
1682373566.09860921,124221744,2,0.1807238906621933,0.01566990651190281,0.012748808600008488,0.9833263754844666
1682373566.19860411,124321739,2,0.20825226604938507,0.009821913205087185,0.01663668267428875,0.9778842926025391
1682373566.29867315,124421808,2,0.235414057970047,0.0034538155887275934,0.02208711765706539,0.971638023853302
1682373566.39864826,124521783,2,0.25981542468070984,-0.0017048422014340758,0.026941515505313873,0.9652808904647827
1682373566.49870420,124621839,2,0.2823871970176697,-0.006557480897754431,0.03149800002574921,0.9587608575820923
1682373566.59868622,124721821,2,0.3015601634979248,-0.011284357868134975,0.033746637403964996,0.952782928943634
1682373566.69867516,124821810,2,0.31894758343696594,-0.015512661077082157,0.033722855150699615,0.9470452070236206
1682373566.79863906,124921774,2,0.3330715000629425,-0.018396839499473572,0.03398161008954048,0.9421094059944153
1682373566.89860821,125021743,2,0.34448906779289246,-0.02046283520758152,0.03207291662693024,0.9380190968513489
1682373566.99860215,125121737,2,0.35263708233833313,-0.019788438454270363,0.0300822202116251,0.9350671768188477
1682373567.09861326,125221748,2,0.3580843508243561,-0.01795097254216671,0.02642652578651905,0.9331425428390503
1682373567.19866204,125321797,2,0.36097046732902527,-0.015924928709864616,0.02285465970635414,0.9321611523628235
1682373567.29870415,125421839,2,0.362180233001709,-0.013601270504295826,0.020715033635497093,0.931778609752655
1682373567.39867806,125521813,2,0.3614063858985901,-0.013010852038860321,0.017321845516562462,0.9321566820144653
1682373567.49867606,125621811,2,0.35908424854278564,-0.013059061951935291,0.015387841500341892,0.9330869317054749
1682373567.59877110,125721906,2,0.35510754585266113,-0.012267565354704857,0.012016166001558304,0.934667706489563
1682373567.69863415,125821769,2,0.34976837038993835,-0.012584496289491653,0.00895315408706665,0.936708927154541
1682373567.79860020,125921735,2,0.34281864762306213,-0.012249313294887543,0.007116641849279404,0.9392947554588318
1682373567.89859819,126021733,2,0.3350468575954437,-0.011888121254742146,0.005754556972533464,0.9421088695526123
1682373567.99860120,126121736,2,0.3262714147567749,-0.011385646648705006,0.004417513497173786,0.9451972246170044
1682373568.09866309,126221798,2,0.3168497383594513,-0.01079814974218607,0.0035298706497997046,0.9484077095985413
1682373568.19864416,126321779,2,0.3071720600128174,-0.01059582456946373,0.003537364536896348,0.9515884518623352
1682373568.29869318,126421828,2,0.2977151572704315,-0.009454375132918358,0.0029359417967498302,0.9546034336090088
1682373568.39868021,126521815,2,0.2882811427116394,-0.009316950105130672,0.0009426987962797284,0.9575000405311584
1682373568.49865007,126621785,2,0.27880650758743286,-0.009426956064999104,-0.0013527879491448402,0.960300087928772
1682373568.59863925,126721774,2,0.2694111168384552,-0.00849476270377636,-0.004573932383209467,0.9629769325256348
1682373568.69860625,126821741,2,0.26008373498916626,-0.008931484073400497,-0.006155873648822308,0.9655251502990723
1682373568.79859710,126921732,2,0.2509191334247589,-0.008051241748034954,-0.005049773491919041,0.9679613709449768
1682373568.89860225,127021737,2,0.24237947165966034,-0.007275356445461512,-0.0022239284589886665,0.9701517224311829
1682373568.99865603,127121791,2,0.23456238210201263,-0.00707869790494442,0.0004419116012286395,0.9720752239227295
1682373569.09864116,127221776,2,0.2278997004032135,-0.006665772292762995,0.0027425221633166075,0.9736579060554504
1682373569.19868803,127321823,2,0.22207841277122498,-0.006010104436427355,0.004869403783231974,0.9749981164932251
1682373569.29869223,127421827,2,0.21759118139743805,-0.0064196716994047165,0.006291992496699095,0.97599858045578
1682373569.39859509,127521730,2,0.21394255757331848,-0.0066192480735480785,0.0072884950786828995,0.9767966270446777
1682373569.49862814,127621763,2,0.21134793758392334,-0.007226999383419752,0.0069105117581784725,0.9773597121238708
1682373569.59859514,127721730,2,0.2095697969198227,-0.006632306147366762,0.007455970160663128,0.9777427911758423
1682373569.69860125,127821736,2,0.2083258181810379,-0.005821395665407181,0.006823279429227114,0.9780183434486389
1682373569.79860520,127921740,2,0.20784100890159607,-0.00534048629924655,0.008013720624148846,0.9781152009963989
1682373569.89867306,128021808,2,0.20845451951026917,-0.004655048716813326,0.008797653019428253,0.9779813885688782
1682373569.99867320,128121808,2,0.20957449078559875,-0.003935826942324638,0.009882308542728424,0.9777348041534424
1682373570.09868908,128221824,2,0.211116760969162,-0.0033384833950549364,0.011176963336765766,0.977391242980957
1682373570.19868612,128321821,2,0.2127978503704071,-0.0028942034114152193,0.011669095605611801,0.9770222902297974
1682373570.29868221,128421817,2,0.2148973047733307,-0.0026284523773938417,0.012488232925534248,0.9765532612800598
1682373570.39864016,128521775,2,0.21658354997634888,-0.002117013558745384,0.013226350769400597,0.9761722087860107
1682373570.49860406,128621739,2,0.21869465708732605,-0.0022140510845929384,0.014443699270486832,0.9756839275360107
1682373570.59860325,128721738,2,0.22048188745975494,-0.003710042219609022,0.014630189165472984,0.9752742648124695
1682373570.69862413,128821759,2,0.22214578092098236,-0.005717468913644552,0.014170398935675621,0.9748936891555786
1682373570.79865813,128921793,2,0.22345347702503204,-0.007441308349370956,0.013255416415631771,0.9745960235595703
1682373570.89872718,129021862,2,0.2246248722076416,-0.009038666263222694,0.011808574199676514,0.9743318557739258
1682373570.99868107,129121816,2,0.22537589073181152,-0.010201587341725826,0.011171994730830193,0.9741544127464294
1682373571.09866810,129221803,2,0.22569650411605835,-0.010862336494028568,0.011652237735688686,0.9740673899650574
1682373571.19868922,129321824,2,0.22593671083450317,-0.011668384075164795,0.011475936509668827,0.9740045070648193
1682373571.29863715,129421772,2,0.22571513056755066,-0.012077439576387405,0.0119433319196105,0.9740452766418457
1682373571.39859509,129521730,2,0.22524341940879822,-0.0125069385394454,0.011991349048912525,0.9741484522819519
1682373571.49860620,129621741,2,0.22474023699760437,-0.013202614150941372,0.013055898249149323,0.9742417931556702
1682373571.59860015,129721735,2,0.2240641713142395,-0.013104172423481941,0.011720518581569195,0.9744157791137695
1682373571.69867611,129821811,2,0.22326304018497467,-0.012873544357717037,0.011211962439119816,0.9746087193489075
1682373571.79871321,129921848,2,0.22228461503982544,-0.012299362570047379,0.011093314737081528,0.9748411178588867
1682373571.89869809,130021833,2,0.2213539034128189,-0.011619375087320805,0.010200215503573418,0.9750709533691406
1682373571.99868727,130121822,2,0.2201237827539444,-0.012131650932133198,0.008648382499814034,0.9753581881523132
1682373572.09867620,130221811,2,0.218598872423172,-0.01246695127338171,0.0068677933886647224,0.9757109880447388
1682373572.19863510,130321770,2,0.2170475274324417,-0.012317719869315624,0.007392392959445715,0.9760553240776062
1682373572.29860520,130421740,2,0.21545328199863434,-0.011480333283543587,0.007686602417379618,0.9764164090156555
1682373572.39860821,130521743,2,0.21376438438892365,-0.010391615331172943,0.007687912322580814,0.976799726486206
1682373572.49860406,130621739,2,0.2119825929403305,-0.008981814607977867,0.008590210229158401,0.9771944284439087
1682373572.59864211,130721777,2,0.21032410860061646,-0.008358125574886799,0.008116005919873714,0.9775623083114624
1682373572.69870806,130821843,2,0.20872913300991058,-0.007885417900979519,0.007865922525525093,0.977910041809082
1682373572.79868507,130921820,2,0.20706921815872192,-0.007428271230310202,0.008016212843358517,0.9782652258872986
1682373572.89867616,131021811,2,0.2056865245103836,-0.007156356703490019,0.007992998696863651,0.978559136390686
1682373572.99867225,131121807,2,0.20433107018470764,-0.006405046675354242,0.00872462522238493,0.97884202003479
1682373573.09863305,131221768,2,0.20337413251399994,-0.005375513806939125,0.008812214247882366,0.9790467023849487
1682373573.19861126,131321746,2,0.2026185840368271,-0.006444050930440426,0.00906987302005291,0.9791945219039917
1682373573.29860210,131421737,2,0.20205461978912354,-0.00799847487360239,0.00853016972541809,0.9793044328689575
1682373573.39860010,131521735,2,0.2019566148519516,-0.008892032317817211,0.008807143196463585,0.9793145060539246
1682373573.49866319,131621798,2,0.20201410353183746,-0.009782169945538044,0.009108368307352066,0.9792913794517517
1682373573.59865713,131721792,2,0.20262381434440613,-0.008673972450196743,0.009467667900025845,0.9791724681854248
1682373573.69868326,131821818,2,0.2032037377357483,-0.008023844100534916,0.010766411200165749,0.9790443778038025
1682373573.79867721,131921812,2,0.20424126088619232,-0.008724195882678032,0.011959684081375599,0.9788086414337158
1682373573.89865112,132021786,2,0.20579306781291962,-0.00928466860204935,0.012567398138344288,0.9784708023071289
1682373573.99863720,132121772,2,0.2074824422597885,-0.009522074833512306,0.01071797776967287,0.9781336784362793
1682373574.09860826,132221743,2,0.20942632853984833,-0.009571908973157406,0.008389842696487904,0.9777415990829468
1682373574.19860315,132321738,2,0.2110806256532669,-0.010358449071645737,0.007530664559453726,0.9773847460746765
1682373574.29860425,132421739,2,0.21275636553764343,-0.010697425343096256,0.006956842727959156,0.9770219326019287
1682373574.39865303,132521788,2,0.21449607610702515,-0.011224509216845036,0.007919027470052242,0.9766282439231873
1682373574.49872017,132621855,2,0.21609514951705933,-0.011259466409683228,0.00873593706637621,0.9762682914733887
1682373574.59868407,132721819,2,0.2172231525182724,-0.011367371305823326,0.008237380534410477,0.9760209918022156
1682373574.69866824,132821803,2,0.21835781633853912,-0.011561223305761814,0.008529205806553364,0.9757630228996277
1682373574.79867220,132921807,2,0.21920804679393768,-0.010952162556350231,0.008757603354752064,0.9755773544311523
1682373574.89863014,133021765,2,0.2197931855916977,-0.01077802013605833,0.008682968094944954,0.9754483103752136
1682373574.99860215,133121737,2,0.220322385430336,-0.011001689359545708,0.008748444728553295,0.9753258228302002
1682373575.09859705,133221732,2,0.22063645720481873,-0.011472673155367374,0.008293809369206429,0.9752534031867981
1682373575.19860721,133321742,2,0.2208891361951828,-0.010919897817075253,0.007382398005574942,0.9752098321914673
1682373575.29865623,133421791,2,0.22085092961788177,-0.009955409914255142,0.007036298513412476,0.975231409072876
1682373575.39871216,133521847,2,0.22043271362781525,-0.008845481090247631,0.007545297499746084,0.9753329157829285
1682373575.49869108,133621826,2,0.21992789208889008,-0.00788123533129692,0.008166966028511524,0.9754500985145569
1682373575.59867120,133721806,2,0.21928679943084717,-0.007100824266672134,0.008813999593257904,0.9755948185920715
1682373575.69867611,133821811,2,0.2183234542608261,-0.006699086166918278,0.010160214267671108,0.9758005738258362
1682373575.79864907,133921784,2,0.21740998327732086,-0.0070206718519330025,0.00912752840667963,0.9760124683380127
1682373575.89860415,134021739,2,0.21635766327381134,-0.007158603053539991,0.008062789216637611,0.9762546420097351
1682373575.99861026,134121745,2,0.2152201384305954,-0.006753955036401749,0.007112070452421904,0.9765163064002991
1682373576.09860110,134221736,2,0.2142188996076584,-0.006204386707395315,0.0059912800788879395,0.9767475724220276
1682373576.19866514,134321800,2,0.21316272020339966,-0.005073220934718847,0.005926860962063074,0.9769855737686157
1682373576.29871726,134421852,2,0.21196328103542328,-0.00392742408439517,0.006479011848568916,0.9772482514381409
1682373576.39868426,134521819,2,0.210696741938591,-0.0042990949004888535,0.0069224536418914795,0.9775174856185913
1682373576.49868226,134621817,2,0.2095203697681427,-0.004809082485735416,0.007069441024214029,0.9777668714523315
1682373576.59868121,134721816,2,0.20841261744499207,-0.005116013810038567,0.0071355365216732025,0.978001594543457
1682373576.69863915,134821774,2,0.20731303095817566,-0.005189947318285704,0.006485170219093561,0.9782394170761108
1682373576.79860020,134921735,2,0.20638328790664673,-0.0057957908138632774,0.006750726141035557,0.9784307479858398
1682373576.89860225,135021737,2,0.20569728314876556,-0.006018660496920347,0.007218306418508291,0.9785705208778381
1682373576.99859524,135121730,2,0.20515350997447968,-0.005595754366368055,0.006865596864372492,0.9786897301673889
1682373577.09865904,135221794,2,0.20475955307483673,-0.004815280437469482,0.007224741391837597,0.9787737727165222
1682373577.19872618,135321861,2,0.20419654250144958,-0.003532553557306528,0.007842794060707092,0.9788921475410461
1682373577.29868126,135421816,2,0.2038945108652115,-0.003105688141658902,0.008002333343029022,0.9789552092552185
1682373577.39868021,135521815,2,0.20357875525951385,-0.003584167454391718,0.00793221965432167,0.9790198802947998
1682373577.49867105,135621806,2,0.20349612832069397,-0.004354824312031269,0.00736834853887558,0.9790383577346802
1682373577.59862804,135721763,2,0.20386460423469543,-0.004563811235129833,0.006962565705180168,0.9789636731147766
1682373577.69859624,135821731,2,0.20449946820735931,-0.0046336292289197445,0.0071257855743169785,0.9788297414779663
1682373577.79860115,135921736,2,0.20534874498844147,-0.004109175410121679,0.0075343940407037735,0.978651225566864
1682373577.89859819,136021733,2,0.20634426176548004,-0.00349359936080873,0.007667758502066135,0.9784432053565979
1682373577.99865723,136121792,2,0.20768693089485168,-0.003788381116464734,0.008600073866546154,0.9781501889228821
1682373578.09871221,136221847,2,0.20885427296161652,-0.004500245209783316,0.009303408674895763,0.9778921604156494
1682373578.19868803,136321823,2,0.21020114421844482,-0.005650138482451439,0.009226955473423004,0.9775983095169067
1682373578.29868722,136421822,2,0.21153287589550018,-0.0066938018426299095,0.008464611135423183,0.9773113131523132
1682373578.39867210,136521807,2,0.213282972574234,-0.006856793537735939,0.007797415368258953,0.9769352674484253
1682373578.49863720,136621772,2,0.21487517654895782,-0.007596610579639673,0.007814240641891956,0.9765807390213013
1682373578.59859824,136721733,2,0.2165953814983368,-0.008107234723865986,0.00679862592369318,0.9762040972709656
1682373578.69859719,136821732,2,0.2184361219406128,-0.008681216277182102,0.006071754731237888,0.975793719291687
1682373578.79860210,136921737,2,0.22039934992790222,-0.00877877976745367,0.005415316671133041,0.9753552079200745
1682373578.89866114,137021796,2,0.2221142053604126,-0.008360872976481915,0.005347179248929024,0.9749701619148254
1682373578.99870324,137121838,2,0.2237982600927353,-0.008393141441047192,0.00646220613270998,0.9745779037475586
1682373579.09869218,137221827,2,0.2254091203212738,-0.008602483198046684,0.007431853096932173,0.9741978645324707
1682373579.19867325,137321808,2,0.22681266069412231,-0.009136113338172436,0.007780061569064856,0.9738644957542419
1682373579.29877424,137421909,2,0.22812674939632416,-0.009345130994915962,0.007516771089285612,0.9735575914382935
1682373579.39863610,137521771,2,0.22917744517326355,-0.00949009694159031,0.00820713397115469,0.9733037948608398
1682373579.49859810,137621733,2,0.23016402125358582,-0.010013778693974018,0.008245227858424187,0.9730653762817383
1682373579.59860110,137721736,2,0.2309064120054245,-0.011731415055692196,0.007419798988848925,0.9728769659996033
1682373579.69860506,137821740,2,0.23141340911388397,-0.01332413125783205,0.006859160028398037,0.9727400541305542
1682373579.79865813,137921793,2,0.23178374767303467,-0.012527583166956902,0.005807110574096441,0.9726693630218506
1682373579.89870405,138021839,2,0.2321060746908188,-0.01087034773081541,0.005065699573606253,0.9726165533065796
1682373579.99868917,138121824,2,0.23202165961265564,-0.008536571636795998,0.0044116126373410225,0.972663164138794
1682373580.09867406,138221809,2,0.2318689525127411,-0.0064273918978869915,0.00425303028896451,0.9727165102958679
1682373580.19867206,138321807,2,0.23140785098075867,-0.005030243191868067,0.0046210940927267075,0.9728328585624695
1682373580.29862809,138421763,2,0.23092840611934662,-0.004419681616127491,0.005106865428388119,0.9729472994804382
1682373580.39859509,138521730,2,0.23043401539325714,-0.004509574268013239,0.005364579614251852,0.9730626940727234
1682373580.49859810,138621733,2,0.22978338599205017,-0.004527958109974861,0.0051079001277685165,0.9732178449630737
1682373580.59859920,138721734,2,0.22926491498947144,-0.0035614692606031895,0.003923707641661167,0.9733496308326721
1682373580.69865608,138821791,2,0.2287493497133255,-0.003328615101054311,0.0038191915955394506,0.9734721779823303
1682373580.79867721,138921812,2,0.2283034771680832,-0.0028290911577641964,0.0032945796847343445,0.9735803604125977
1682373580.89869118,139021826,2,0.22782739996910095,-0.003284948877990246,0.0028854573611170053,0.9736917018890381
1682373580.99868226,139121817,2,0.22756831347942352,-0.0035904417745769024,0.0026541519910097122,0.9737519025802612
1682373581.09859610,139221731,2,0.22725161910057068,-0.003426109906286001,0.002316375495865941,0.9738273024559021
1682373581.19864106,139321776,2,0.22709986567497253,-0.003567816922441125,0.0027260128408670425,0.9738610982894897
1682373581.29859805,139421733,2,0.2270715832710266,-0.0028346891049295664,0.0031238256487995386,0.9738689064979553
1682373581.39860415,139521739,2,0.22699885070323944,-0.002847391413524747,0.003670145059004426,0.9738839268684387
1682373581.49860406,139621739,2,0.22705906629562378,-0.0028637098148465157,0.004699446726590395,0.9738654494285583
1682373581.59865022,139721785,2,0.22708502411842346,-0.003178999526426196,0.005603765603154898,0.9738536477088928
1682373581.69871616,139821851,2,0.22729812562465668,-0.0038868708070367575,0.0069442433305084705,0.9737927317619324
1682373581.79869509,139921830,2,0.2273043990135193,-0.003576630959287286,0.00754229910671711,0.9737879633903503
1682373581.89868116,140021816,2,0.22701305150985718,-0.0033962854649871588,0.008150867186486721,0.9738516807556152
1682373581.99868512,140121820,2,0.22673021256923676,-0.00204258831217885,0.006844572257250547,0.9739314317703247
1682373582.09863520,140221770,2,0.22625134885311127,-0.0008967553148977458,0.00555231049656868,0.9740527272224426
1682373582.19859815,140321733,2,0.2256474643945694,-3.9885417209006846e-05,0.004858930129557848,0.9741969108581543
1682373582.29859805,140421733,2,0.2246924638748169,0.0009011360234580934,0.0051277801394462585,0.9744158387184143
1682373582.39859509,140521730,2,0.22381927073001862,-0.0006375286029651761,0.006504761055111885,0.9746087789535522
1682373582.49866819,140621803,2,0.22306367754936218,-0.0016131510492414236,0.008006556890904903,0.974769651889801
1682373582.59871221,140721847,2,0.22207671403884888,-0.0015874154632911086,0.009478038176894188,0.9749818444252014
1682373582.69869304,140821828,2,0.2210393249988556,-0.0015197212342172861,0.010945103131234646,0.9752023220062256
1682373582.79867721,140921812,2,0.2200237512588501,-0.0015502575552091002,0.011062836274504662,0.9754305481910706
1682373582.89867711,141021812,2,0.2189214676618576,-0.0023396769538521767,0.010904054157435894,0.9756787419319153
1682373582.99862623,141121761,2,0.21800385415554047,-0.0033225694205611944,0.011005593463778496,0.9758802056312561
1682373583.09860206,141221737,2,0.2171151041984558,-0.004311857745051384,0.0112900510430336,0.9760711789131165
1682373583.19860506,141321740,2,0.21631483733654022,-0.004645385313779116,0.011986910365521908,0.976239025592804
1682373583.29859519,141421730,2,0.21574607491493225,-0.0041394964791834354,0.012071915902197361,0.9763661026954651
1682373583.39866018,141521795,2,0.21535047888755798,-0.00295175239443779,0.01079889852553606,0.9764726758003235
1682373583.49871206,141621847,2,0.21512635052204132,-0.0016063533257693052,0.009640127420425415,0.9765373468399048
1682373583.59869504,141721830,2,0.21504539251327515,-0.0013340138830244541,0.00978921726346016,0.9765540957450867
1682373583.69867325,141821808,2,0.21507781744003296,-0.0009513964178040624,0.010028345510363579,0.976544976234436
1682373583.79867721,141921812,2,0.21510930359363556,-0.0017875231569632888,0.010636159218847752,0.9765304327011108
1682373583.89863706,142021772,2,0.21530090272426605,-0.0028598818462342024,0.011472200974822044,0.9764761924743652
1682373583.99859405,142121729,2,0.21550491452217102,-0.0036357082426548004,0.011417715810239315,0.9764292240142822
1682373584.09859610,142221731,2,0.21562327444553375,-0.006122078746557236,0.011791910044848919,0.9763862490653992
1682373584.19860005,142321735,2,0.21593107283115387,-0.010069068521261215,0.01218242384493351,0.976280689239502
1682373584.29866409,142421799,2,0.21602939069271088,-0.01621386967599392,0.012887017801404,0.9761671423912048
1682373584.39871311,142521848,2,0.21614447236061096,-0.023540133610367775,0.01410546712577343,0.9759756326675415
1682373584.49869013,142621825,2,0.2163798063993454,-0.03027990832924843,0.015444665215909481,0.9757173657417297
1682373584.59868407,142721819,2,0.2163875848054886,-0.03620592877268791,0.01669555902481079,0.9754931330680847
1682373584.69868803,142821823,2,0.2167043834924698,-0.04136059060692787,0.017888404428958893,0.9751966595649719
1682373584.79865026,142921785,2,0.21667508780956268,-0.046248797327280045,0.01833915337920189,0.9749751687049866
1682373584.89860821,143021743,2,0.21670091152191162,-0.050719376653432846,0.01907230354845524,0.9747330546379089
1682373584.99860215,143121737,2,0.21670818328857422,-0.05353019759058952,0.018244870007038116,0.9745969176292419
1682373585.09861112,143221746,2,0.21694837510585785,-0.054024387151002884,0.017424438148736954,0.9745312333106995
1682373585.19867325,143321808,2,0.2172195017337799,-0.05202589929103851,0.016589652746915817,0.9745941758155823
1682373585.29865623,143421791,2,0.21756285429000854,-0.04782054200768471,0.015373281203210354,0.9747529029846191
1682373585.39868426,143521819,2,0.21802836656570435,-0.041595812886953354,0.013235372491180897,0.9749657511711121
1682373585.49867511,143621810,2,0.21855542063713074,-0.034422967582941055,0.010499264113605022,0.9751606583595276
1682373585.59859610,143721731,2,0.2189287692308426,-0.02747572585940361,0.008329585194587708,0.9753183722496033
1682373585.69862604,143821761,2,0.21933887898921967,-0.02134544402360916,0.006402149330824614,0.9753941893577576
1682373585.79860306,143921738,2,0.21948634088039398,-0.01661093719303608,0.004372425843030214,0.9754643440246582
1682373585.89861727,144021752,2,0.21978384256362915,-0.0123014897108078,0.0034589034039527178,0.9754648804664612
1682373585.99860525,144121740,2,0.21976129710674286,-0.008496166206896305,0.0024021691642701626,0.9755136966705322
1682373586.09867406,144221809,2,0.21982170641422272,-0.0055578406900167465,0.0021979091688990593,0.9755217432975769
1682373586.19871926,144321854,2,0.21957145631313324,-0.005090485792607069,0.002711338922381401,0.9755793809890747
1682373586.29869819,144421833,2,0.21932785212993622,-0.006350596435368061,0.0038159857504069805,0.9756230711936951
1682373586.39867306,144521808,2,0.219157412648201,-0.00035991836921311915,0.014646721072494984,0.9755795001983643
1682373586.49867105,144621806,2,0.21857471764087677,0.018343692645430565,0.03987977281212807,0.9748324155807495
1682373586.59864020,144721775,2,0.21766723692417145,0.039041973650455475,0.06483566015958786,0.9730842709541321
1682373586.69859624,144821731,2,0.21699891984462738,0.04305759817361832,0.06930960714817047,0.9727557301521301
1682373586.79860020,144921735,2,0.2167692631483078,0.02992229536175728,0.05333556607365608,0.9743054509162903
1682373586.89860225,145021737,2,0.21693730354309082,0.012931055389344692,0.03389083966612816,0.975511372089386
1682373586.99865317,145121788,2,0.21651175618171692,-0.0007818753365427256,0.020177870988845825,0.9760711789131165
1682373587.09872913,145221864,2,0.2160327285528183,-0.009479190222918987,0.012167480774223804,0.9762642979621887
1682373587.19869208,145321827,2,0.21581226587295532,-0.012795967981219292,0.0070292153395712376,0.9763257503509521
1682373587.29867721,145421812,2,0.21550993621349335,-0.014162220992147923,0.004795791115611792,0.9763871431350708
1682373587.39867616,145521811,2,0.21537555754184723,-0.013989858329296112,0.004014917649328709,0.9764228463172913
1682373587.49863911,145621774,2,0.21547344326972961,-0.015127617865800858,0.0031846570782363415,0.9763873219490051
1682373587.59859610,145721731,2,0.2157159149646759,-0.018046990036964417,0.00022094514861237258,0.9762893319129944
1682373587.69860315,145821738,2,0.21592336893081665,-0.020275084301829338,-0.0013180561363697052,0.9761989116668701
1682373587.79859805,145921733,2,0.21632997691631317,-0.022652048617601395,-0.00284532830119133,0.9760533571243286
1682373587.89866114,146021796,2,0.21683211624622345,-0.02365119755268097,-0.0028132691513746977,0.9759182929992676
1682373587.99871111,146121846,2,0.2172372043132782,-0.023354757577180862,-0.0033859272953122854,0.975833535194397
1682373588.09868717,146221822,2,0.2175060361623764,-0.022730087861418724,-0.0032594010699540377,0.9757888317108154
1682373588.19867110,146321806,2,0.21759027242660522,-0.02133360505104065,-0.0017390213906764984,0.9758054614067078
1682373588.29867721,146421812,2,0.21788738667964935,-0.019446173682808876,-0.0010239161783829331,0.97577965259552
1682373588.39862514,146521760,2,0.2180650234222412,-0.019031694158911705,0.0009501799358986318,0.9757481813430786
1682373588.49859905,146621734,2,0.21833625435829163,-0.017820604145526886,0.0023508109152317047,0.9757080674171448
1682373588.59867406,146721809,2,0.21846064925193787,-0.017161061987280846,0.003498671343550086,0.9756885766983032
1682373588.69859719,146821732,2,0.21853817999362946,-0.0158428642898798,0.005119814071804285,0.9756863713264465
1682373588.79864812,146921783,2,0.21846912801265717,-0.014027230441570282,0.005881056189537048,0.9757252931594849
1682373588.89865804,147021793,2,0.21856838464736938,-0.013058358803391457,0.007675351575016975,0.9757040739059448
1682373588.99869013,147121825,2,0.21848119795322418,-0.012721286155283451,0.006872724276036024,0.9757340550422668
1682373589.09867716,147221812,2,0.21827635169029236,-0.012549583800137043,0.007281206548213959,0.975779116153717
1682373589.19867611,147321811,2,0.21806277334690094,-0.012790966778993607,0.006825532764196396,0.9758270382881165
1682373589.29864717,147421782,2,0.21758893132209778,-0.012912244535982609,0.006729818880558014,0.9759318828582764
1682373589.39859605,147521731,2,0.2171998769044876,-0.012545483186841011,0.007337077520787716,0.9760189652442932
1682373589.49860311,147621738,2,0.21701684594154358,-0.011920330114662647,0.0076997848227620125,0.9760646820068359
1682373589.59860325,147721738,2,0.21676987409591675,-0.010572071187198162,0.008005264215171337,0.9761326313018799
1682373589.69866514,147821800,2,0.21665745973587036,-0.0095081040635705,0.008501413278281689,0.9761643409729004
1682373589.79868007,147921815,2,0.21686546504497528,-0.007748999632894993,0.008365350775420666,0.9761348962783813
1682373589.89868522,148021820,2,0.21696797013282776,-0.007143440190702677,0.008670148439705372,0.9761140942573547
1682373589.99867821,148121813,2,0.21706132590770721,-0.00750937033444643,0.008334359154105186,0.9760935306549072
1682373590.09867525,148221810,2,0.21707575023174286,-0.007460185792297125,0.008066543377935886,0.9760929346084595
1682373590.19864321,148321778,2,0.21718038618564606,-0.008870736695826054,0.007280764635652304,0.9760640263557434
1682373590.29860425,148421739,2,0.2171603888273239,-0.009462307207286358,0.007447940297424793,0.9760616421699524
1682373590.39860415,148521739,2,0.21715636551380157,-0.00943932868540287,0.007645870558917522,0.976061224937439
1682373590.49859810,148621733,2,0.2171759307384491,-0.008538728579878807,0.007675080560147762,0.9760649800300598
1682373590.59867024,148721805,2,0.21702539920806885,-0.007726041600108147,0.007966798730194569,0.976102888584137
1682373590.69871807,148821853,2,0.2170916646718979,-0.007632301654666662,0.00886126235127449,0.976081132888794
1682373590.79868817,148921823,2,0.21706731617450714,-0.007474985439330339,0.009041696786880493,0.9760861396789551
1682373590.89868522,149021820,2,0.21717199683189392,-0.006857307627797127,0.009935345500707626,0.9760587215423584
1682373590.99867821,149121813,2,0.2170942723751068,-0.007086874917149544,0.009147793054580688,0.9760820269584656
1682373591.09862518,149221760,2,0.21721169352531433,-0.007703423500061035,0.009251154027879238,0.9760502576828003
1682373591.19860220,149321737,2,0.21734239161014557,-0.007994643412530422,0.00864865630865097,0.9760243892669678
1682373591.29859710,149421732,2,0.2172185182571411,-0.008108428679406643,0.008545535616576672,0.976051926612854
1682373591.39860320,149521738,2,0.21743661165237427,-0.0074388119392097,0.008475851267576218,0.9760093092918396
1682373591.49866414,149621799,2,0.21752624213695526,-0.006307972129434347,0.007759870029985905,0.9760032296180725
1682373591.59871125,149721846,2,0.2178080528974533,-0.006380097940564156,0.007572803646326065,0.9759414196014404
1682373591.69869518,149821830,2,0.21777312457561493,-0.0066473656333982944,0.008045588620007038,0.9759436249732971
1682373591.79866910,149921804,2,0.21786461770534515,-0.006434968672692776,0.007952850311994553,0.9759253859519958
1682373591.89868116,150021816,2,0.21816159784793854,-0.005716030485928059,0.00816539116203785,0.9758617281913757
1682373591.99863720,150121772,2,0.2183995246887207,-0.005617938004434109,0.008007463067770004,0.9758104085922241
1682373592.09859705,150221732,2,0.21881116926670074,-0.006037093233317137,0.007342366501688957,0.9757209420204163
1682373592.19860005,150321735,2,0.21902073919773102,-0.0059571461752057076,0.007867063395678997,0.9756702780723572
1682373592.29859805,150421733,2,0.2192438840866089,-0.006276246625930071,0.007040985394269228,0.9756245017051697
1682373592.39865518,150521790,2,0.21924571692943573,-0.007693760097026825,0.006903587840497494,0.9756149053573608
1682373592.49868011,150621815,2,0.2192991077899933,-0.007924024015665054,0.007700271904468536,0.9755951166152954
1682373592.59868622,150721821,2,0.21940819919109344,-0.007641750853508711,0.006613435689359903,0.9755808115005493
1682373592.69868112,150821816,2,0.21934522688388824,-0.006980739068239927,0.00712176226079464,0.9755963683128357
1682373592.79868126,150921816,2,0.21918964385986328,-0.007410392165184021,0.006676219869405031,0.9756312966346741
1682373592.89863920,151021774,2,0.21879732608795166,-0.00745483860373497,0.006816618610173464,0.9757180213928223
1682373592.99859619,151121731,2,0.2184271216392517,-0.007112512830644846,0.006933141034096479,0.9758027195930481
1682373593.09860110,151221736,2,0.21791258454322815,-0.006904937326908112,0.00691250478848815,0.9759193658828735
1682373593.19860911,151321744,2,0.21719640493392944,-0.007156644947826862,0.007123322691768408,0.9760757088661194
1682373593.29867125,151421806,2,0.21651431918144226,-0.007346946746110916,0.007377301342785358,0.9762239456176758
1682373593.39872313,151521858,2,0.215737983584404,-0.008109199814498425,0.007631661370396614,0.9763877987861633
1682373593.49868107,151621816,2,0.2150995135307312,-0.008495320565998554,0.008528419770300388,0.976517915725708
1682373593.59867620,151721811,2,0.21452820301055908,-0.008926217444241047,0.009118542075157166,0.9766344428062439
1682373593.69859624,151821731,2,0.21412605047225952,-0.008723273873329163,0.009114854037761688,0.9767245650291443
1682373593.79862809,151921763,2,0.21349312365055084,-0.00834811944514513,0.008779528550803661,0.9768694639205933
1682373593.89860511,152021740,2,0.21291793882846832,-0.008967570960521698,0.008013056591153145,0.9769960641860962
1682373593.99860525,152121740,2,0.21216674149036407,-0.00930025614798069,0.0070765395648777485,0.9771636128425598
1682373594.09860706,152221742,2,0.2117493897676468,-0.008276631124317646,0.007415505591779947,0.9772608280181885
1682373594.19866514,152321800,2,0.21119697391986847,-0.007372492924332619,0.0064841764979064465,0.9773942232131958
1682373594.29869509,152421830,2,0.21059663593769073,-0.007429464720189571,0.006864041090011597,0.9775207042694092
1682373594.39869022,152521825,2,0.21002453565597534,-0.007002434693276882,0.00781777873635292,0.9776397943496704
1682373594.49866819,152621803,2,0.20941783487796783,-0.007842534221708775,0.00777175510302186,0.9777638912200928
1682373594.59867525,152721810,2,0.20915520191192627,-0.00838304590433836,0.007585371378809214,0.9778171181678772
1682373594.69863415,152821769,2,0.20880642533302307,-0.009416594170033932,0.007542720064520836,0.9778825640678406
1682373594.79859924,152921734,2,0.2087249606847763,-0.008856315165758133,0.006949904374778271,0.9779095649719238
1682373594.89860225,153021737,2,0.2086905539035797,-0.008015111088752747,0.006519906688481569,0.9779271483421326
1682373594.99859619,153121731,2,0.20846892893314362,-0.00802198238670826,0.006072905845940113,0.9779772162437439
1682373595.09866214,153221797,2,0.2080727368593216,-0.007699818350374699,0.004162914119660854,0.9780741930007935
1682373595.19871521,153321850,2,0.20748165249824524,-0.008225136436522007,0.0028597102500498295,0.9782001376152039
1682373595.29868817,153421823,2,0.20684979856014252,-0.008410305716097355,0.002042048145085573,0.9783344268798828
1682373595.39867520,153521810,2,0.20604541897773743,-0.00820805411785841,0.0013414743589237332,0.9785071015357971
1682373595.49867725,153621812,2,0.2053101509809494,-0.009149283170700073,0.0021683445665985346,0.9786518216133118
1682373595.59863615,153721771,2,0.20468640327453613,-0.008075512014329433,0.0021152819972485304,0.9787920117378235
1682373595.69859910,153821734,2,0.20400984585285187,-0.006729161366820335,0.0034742557909339666,0.9789395332336426
1682373595.79860020,153921735,2,0.20291416347026825,-0.006949054077267647,0.004697846714407206,0.9791606068611145
1682373595.89859915,154021734,2,0.2019016593694687,-0.006840304471552372,0.006349803414195776,0.979361355304718
1682373595.99868417,154121819,2,0.20069894194602966,-0.007118641398847103,0.006528480909764767,0.9796053767204285
1682373596.09871316,154221848,2,0.19992996752262115,-0.005928401369601488,0.005207265727221966,0.9797784090042114
1682373596.19868422,154321819,2,0.19918979704380035,-0.005053653847426176,0.005258854944258928,0.9799337983131409
1682373596.29869604,154421831,2,0.19889365136623383,-0.004620426334440708,0.005089438520371914,0.9799969792366028
1682373596.39859509,154521730,2,0.198855921626091,-0.004910789895802736,0.004276673309504986,0.9800071120262146
1682373596.49862814,154621763,2,0.19924116134643555,-0.0048321825452148914,0.004793676547706127,0.9799268245697021
1682373596.59860706,154721742,2,0.19971539080142975,-0.0050152502954006195,0.004766681231558323,0.9798295497894287
1682373596.69860506,154821740,2,0.20061615109443665,-0.006152807269245386,0.004779525566846132,0.979638934135437
1682373596.79860425,154921739,2,0.20173698663711548,-0.006005152128636837,0.004481735173612833,0.9794110655784607
1682373596.89867806,155021813,2,0.20342998206615448,-0.005789462476968765,0.004416082054376602,0.9790624380111694
1682373596.99871922,155121854,2,0.20505984127521515,-0.0060625942423939705,0.004186957608908415,0.9787216782569885
1682373597.09868312,155221818,2,0.2067275047302246,-0.0062475488521158695,0.0037261019460856915,0.9783715009689331
1682373597.19867325,155321808,2,0.2082609385251999,-0.005974454805254936,0.003506122622638941,0.9780487418174744
1682373597.29869413,155421829,2,0.20954568684101105,-0.006743695121258497,0.0030866991728544235,0.9777707457542419
1682373597.39863515,155521770,2,0.21048042178153992,-0.007054401095956564,0.0031618326902389526,0.9775674939155579
1682373597.49859905,155621734,2,0.21139749884605408,-0.007769002113491297,0.00387841765768826,0.9773616194725037
1682373597.59862113,155721756,2,0.21183235943317413,-0.007899736054241657,0.004370049107819796,0.9772643446922302
1682373597.69862318,155821758,2,0.21195802092552185,-0.006657882127910852,0.006291598081588745,0.9772358536720276
1682373597.79865026,155921785,2,0.21197263896465302,-0.007311376743018627,0.0043571144342422485,0.9772385358810425
1682373597.89871812,156021853,2,0.2119598537683487,-0.007962558418512344,0.002882311586290598,0.9772416949272156
1682373597.99869919,156121834,2,0.21165795624256134,-0.007890475913882256,0.0020763250067830086,0.9773097634315491
1682373598.09870315,156221838,2,0.21139338612556458,-0.006503621116280556,0.0002842320827767253,0.9773793816566467
1682373598.19867206,156321807,2,0.21081049740314484,-0.005195313598960638,0.0011430252343416214,0.9775124788284302
1682373598.29863906,156421774,2,0.21026137471199036,-0.0044644358567893505,0.0009127285447902977,0.977634608745575
1682373598.39863324,156521768,2,0.20971432328224182,-0.006032527424395084,0.0002478546230122447,0.9777440428733826
1682373598.49859810,156621733,2,0.20925210416316986,-0.0081705367192626,0.0017568626208230853,0.9778259992599487
1682373598.59860516,156721740,2,0.20876403152942657,-0.008187549188733101,0.0034140022471547127,0.9779258370399475
1682373598.69865513,156821790,2,0.20823191106319427,-0.00824989564716816,0.005138392560184002,0.9780312180519104
1682373598.79864025,156921775,2,0.20766277611255646,-0.00799475610256195,0.005392482969909906,0.9781529307365417
1682373598.89869714,157021832,2,0.20700755715370178,-0.0077194105833768845,0.0039427983574569225,0.978300929069519
1682373598.99866819,157121803,2,0.2065477818250656,-0.007892148569226265,0.0032589989714324474,0.9783992767333984
1682373599.09867120,157221806,2,0.2059277594089508,-0.008949973620474339,0.0006939811282791197,0.9785259962081909
1682373599.19863415,157321769,2,0.20561076700687408,-0.009247328154742718,0.000248672062298283,0.9785901308059692
1682373599.29860806,157421743,2,0.20550578832626343,-0.009122435934841633,-0.0005835873889736831,0.9786131978034973
1682373599.39859724,157521732,2,0.20542263984680176,-0.009021388366818428,0.0006446947227232158,0.9786315560340881
1682373599.49860024,157621735,2,0.2053040713071823,-0.008313245140016079,0.002658259589225054,0.9786593317985535
1682373599.59866309,157721798,2,0.20530754327774048,-0.007027094718068838,0.0034564908128231764,0.9786661863327026
1682373599.69864607,157821781,2,0.2053295075893402,-0.004798633512109518,0.00470336526632309,0.9786698222160339
1682373599.79868221,157921817,2,0.20521047711372375,-0.0040660034865140915,0.00484707485884428,0.9786974191665649
1682373599.89868712,158021822,2,0.20532089471817017,-0.004782695323228836,0.005278080236166716,0.9786688089370728
1682373599.99868011,158121815,2,0.20510174334049225,-0.007375672925263643,0.005427161231637001,0.9786978363990784
1682373600.09864116,158221776,2,0.20494727790355682,-0.007996267639100552,0.003498323494568467,0.9787340760231018
1682373600.19860506,158321740,2,0.2046489119529724,-0.007587512489408255,0.002724660327658057,0.9788022637367249
1682373600.29859924,158421734,2,0.20424702763557434,-0.008121863007545471,0.0022558458149433136,0.9788830876350403
1682373600.39860320,158521738,2,0.20380352437496185,-0.00762667553499341,0.0022936579771339893,0.9789794087409973
1682373600.49866104,158621796,2,0.20339472591876984,-0.007102718111127615,0.003406026167795062,0.9790651202201843
1682373600.59871006,158721845,2,0.2031383365392685,-0.006751058157533407,0.0027262752410024405,0.9791229963302612
1682373600.69868922,158821824,2,0.20301583409309387,-0.0032923356629908085,0.0037140839267522097,0.979162871837616
1682373600.79868627,158921821,2,0.20326730608940125,-0.0021382239647209644,0.0029743132181465626,0.9791164398193359
1682373600.89868426,159021819,2,0.20347175002098083,-0.0024257677141577005,0.002167110564187169,0.9790754318237305
1682373600.99863911,159121774,2,0.2035668045282364,-0.0041870540007948875,0.005639515817165375,0.9790358543395996
1682373601.09860611,159221741,2,0.203790545463562,-0.005284925922751427,0.006190018728375435,0.9789806604385376
1682373601.19860721,159321742,2,0.20411044359207153,-0.006547639146447182,0.005939625669270754,0.9789079427719116
1682373601.29861426,159421749,2,0.20450223982334137,-0.007558735553175211,0.006573797203600407,0.9788148403167725
1682373601.39865804,159521793,2,0.2049027681350708,-0.0075529590249061584,0.005277406424283981,0.9787389636039734
1682373601.49871325,159621848,2,0.20559361577033997,-0.006165406666696072,0.0030802651308476925,0.9786131978034973
1682373601.59868908,159721824,2,0.20621196925640106,-0.004652227740734816,0.0028061557095497847,0.978492259979248
1682373601.69867206,159821807,2,0.20661737024784088,-0.004603859037160873,0.004653037525713444,0.978399932384491
1682373601.79859424,159921729,2,0.20726008713245392,-0.0033885310404002666,0.005121350288391113,0.9782665967941284
1682373601.89862823,160021763,2,0.2078033834695816,-0.0032628807239234447,0.004109824541956186,0.978156566619873
1682373601.99859810,160121733,2,0.20820260047912598,-0.00404416024684906,0.00385041581466794,0.9780697822570801
1682373602.09860516,160221740,2,0.20831191539764404,-0.007487483322620392,0.0037539212498813868,0.9780265688896179
1682373602.19860005,160321735,2,0.20853044092655182,-0.007537739351391792,0.004639726597815752,0.9779758453369141
1682373602.29867721,160421812,2,0.20889030396938324,-0.00934708584100008,0.0059019289910793304,0.977876603603363
1682373602.39872313,160521858,2,0.208175390958786,-0.009599344804883003,0.004735794384032488,0.9780329465866089
1682373602.49868226,160621817,2,0.207007497549057,-0.00630157208070159,0.00889377761632204,0.978278636932373
1682373602.59867406,160721809,2,0.2054746299982071,-0.010843603871762753,0.0017292300472036004,0.9786008596420288
1682373602.69868422,160821819,2,0.2051461935043335,-0.007913057692348957,0.005629497580230236,0.9786831736564636
1682373602.79864025,160921775,2,0.20490863919258118,-0.008901326917111874,0.0024361074902117252,0.9787375926971436
1682373602.89860821,161021743,2,0.2050217092037201,-0.00862478744238615,0.0037452015094459057,0.978712260723114
1682373602.99860120,161121736,2,0.2049480527639389,-0.009575334377586842,0.0008356595644727349,0.9787256717681885
1682373603.09860325,161221738,2,0.2049231380224228,-0.009213107638061047,0.004106935113668442,0.9787260890007019
1682373603.19866014,161321795,2,0.20529259741306305,-0.00970899686217308,0.001374030951410532,0.9786515235900879
1682373603.29870510,161421840,2,0.20504112541675568,-0.009510745294392109,0.0025445278733968735,0.9787038564682007
1682373603.39869022,161521825,2,0.20504924654960632,-0.009419777430593967,0.0025167488493025303,0.9787030816078186
1682373603.49868608,161621821,2,0.20528976619243622,-0.009570536203682423,0.0016968704294413328,0.9786529541015625
1682373603.59867024,161721805,2,0.20510326325893402,-0.00951034389436245,0.0024967072531580925,0.9786909222602844
1682373603.69864321,161821778,2,0.20500248670578003,-0.009751428849995136,0.001973537728190422,0.9787108898162842
1682373603.79859519,161921730,2,0.20547957718372345,-0.009761430323123932,0.0021876527462154627,0.9786102771759033
1682373603.89860916,162021744,2,0.2051251381635666,-0.009687911719083786,0.0020753564313054085,0.9786856174468994
1682373603.99860215,162121737,2,0.20492185652256012,-0.009708904661238194,0.0023493319749832153,0.9787273406982422
1682373604.09866309,162221798,2,0.20560865104198456,-0.009730967693030834,0.0018775059143081307,0.9785841107368469
1682373604.19870806,162321843,2,0.20507091283798218,-0.009700263850390911,0.00274353357963264,0.9786952137947083
1682373604.29868507,162421820,2,0.2049310803413391,-0.009715347550809383,0.002084014704450965,0.9787259697914124
1682373604.39867806,162521813,2,0.20503652095794678,-0.009740461595356464,0.002230712678283453,0.9787033200263977
1682373604.49867725,162621812,2,0.20503616333007812,-0.009663906879723072,0.002396857365965843,0.9787037372589111
1682373604.59863019,162721765,2,0.20456302165985107,-0.009711109101772308,0.002414827235043049,0.9788022637367249
1682373604.69858909,162821724,2,0.20531219244003296,-0.009753918275237083,0.0018485754262655973,0.9786461591720581
1682373604.79858923,162921724,2,0.20461691915988922,-0.009474889375269413,0.002229685429483652,0.978793740272522
1682373604.89859223,163021727,2,0.2022559493780136,-0.009874936193227768,0.0018836678937077522,0.9792810678482056
1682373604.99865222,163121787,2,0.2006041705608368,-0.009847719222307205,0.0022213312331587076,0.9796203374862671
1682373605.09870005,163221835,2,0.1977427899837494,-0.009697826579213142,0.0018369300523772836,0.9802042245864868
1682373605.19867611,163321811,2,0.19352346658706665,-0.009992823004722595,0.0019754923414438963,0.981042742729187
1682373605.29866409,163421799,2,0.1901569962501526,-0.009994414635002613,0.0019439117750152946,0.9817008972167969
1682373605.39859319,163521728,2,0.1868216097354889,-0.009898952208459377,0.0018869031919166446,0.9823421835899353
1682373605.49863219,163621767,2,0.1824893057346344,-0.009968848899006844,0.0019442993216216564,0.983155369758606
1682373605.59859109,163721726,2,0.1792515516281128,-0.009968300350010395,0.0019038148457184434,0.9837509393692017
1682373605.69859815,163821733,2,0.17618168890476227,-0.00993106234818697,0.0018237916519865394,0.9843058586120605
1682373605.79858708,163921722,2,0.17230764031410217,-0.010031543672084808,0.001959852408617735,0.9849901795387268
1682373605.89865804,164021793,2,0.16966752707958221,-0.009952749125659466,0.0019196881912648678,0.9854492545127869
1682373605.99870515,164121840,2,0.1669638454914093,-0.00990077294409275,0.001971303252503276,0.9859113097190857
1682373606.09867120,164221806,2,0.16331860423088074,-0.010149969719350338,0.0020105792209506035,0.9865190982818604
1682373606.19866204,164321797,2,0.160859614610672,-0.010064835660159588,0.0020259874872863293,0.98692387342453
1682373606.29867506,164421810,2,0.1582314372062683,-0.010073470883071423,0.0020147478207945824,0.9873486161231995
1682373606.39863110,164521766,2,0.154785618185997,-0.01016281358897686,0.002106443513184786,0.9878935813903809
