timestamp,TimeUS,C,Roll,Pitch,Yaw,VN,VE,VD,dPD,PN,PE,PD,GX,GY,GZ,OH
1682373553.99867511,112121810,2,-0.78,0.6900000000000001,184.55,-0.005988279357552528,0.018491491675376892,0.015814026817679405,0.04727181792259216,1.5648401975631714,-0.9561551213264465,-0.1559707522392273,0.0,0.01,0.01,257.64
1682373554.09859324,112221728,2,-0.78,0.6900000000000001,184.56,-0.006392297800630331,0.019192228093743324,0.018387367948889732,0.048868946731090546,1.5645040273666382,-0.9537228941917419,-0.15163666009902954,0.0,0.01,0.01,257.64
1682373554.19863105,112321766,2,-0.77,0.6900000000000001,184.56,-0.006303866393864155,0.01953043043613434,0.019464101642370224,0.04342973977327347,1.5640732049942017,-0.951418399810791,-0.14767104387283325,0.0,0.01,0.01,257.64
1682373554.29858923,112421724,2,-0.77,0.6900000000000001,184.55,-0.007681922987103462,0.01935802586376667,0.021362442523241043,0.05872869864106178,1.5628150701522827,-0.9485002160072327,-0.14151448011398315,0.0,0.01,0.01,257.64
1682373554.39859104,112521726,2,-0.78,0.6900000000000001,184.56,-0.009360069409012794,0.019799575209617615,0.022456476464867592,0.056022655218839645,1.561445713043213,-0.9458402395248413,-0.13661950826644897,0.0,0.01,0.01,257.64
1682373554.49859524,112621730,2,-0.78,0.6900000000000001,184.56,-0.01088392361998558,0.020282385870814323,0.025066928938031197,0.05448797717690468,1.5600664615631104,-0.9422622919082642,-0.13127225637435913,0.0,0.01,0.01,257.64
1682373554.59865713,112721792,2,-0.78,0.6900000000000001,184.56,-0.011821888387203217,0.021008813753724098,0.02568807452917099,0.05081811174750328,1.5586087703704834,-0.9390485286712646,-0.12626343965530396,0.0,0.01,0.01,257.64
1682373554.69870520,112821840,2,-0.78,0.68,184.56,-0.010577305220067501,0.01867499202489853,0.026557710021734238,0.031197112053632736,1.55864679813385,-0.9367377161979675,-0.12370890378952026,0.0,0.01,0.01,257.64
1682373554.79867721,112921812,2,-0.78,0.68,184.57,-0.010727467946708202,0.016676075756549835,0.0271111149340868,0.01879795640707016,1.5584748983383179,-0.9348103404045105,-0.12129133939743042,0.0,0.01,0.01,257.64
1682373554.89867711,113021812,2,-0.78,0.68,184.56,-0.008345617912709713,0.013982739299535751,0.026975227519869804,0.005177008453756571,1.5597751140594482,-0.9328283071517944,-0.12055987119674683,0.0,0.01,0.01,257.64
1682373554.99859023,113121725,2,-0.78,0.68,184.56,-0.00667702779173851,0.012297501787543297,0.026777485385537148,0.00030532298842445016,1.560895323753357,-0.9313819408416748,-0.11981040239334106,0.0,0.01,0.01,257.64
1682373555.09863210,113221767,2,-0.78,0.68,184.56,-0.002829671138897538,0.007807430345565081,0.026072971522808075,-0.01754828728735447,1.563004970550537,-0.9306614398956299,-0.12150639295578003,0.0,0.01,0.01,257.64
1682373555.19859624,113321731,2,-0.79,0.68,184.55,-0.001750789931975305,0.004771050997078419,0.024822749197483063,-0.018304996192455292,1.5648750066757202,-0.9305091500282288,-0.1223631501197815,0.0,0.01,0.01,257.64
1682373555.29858923,113421724,2,-0.79,0.68,184.56,0.0006833067745901644,0.000972710782662034,0.024341223761439323,-0.010206056758761406,1.5672650337219238,-0.9300707578659058,-0.12279301881790161,0.0,0.01,0.01,257.64
1682373555.39859223,113521727,2,-0.79,0.68,184.56,0.003450800431892276,-0.0019174981862306595,0.0254940465092659,-0.0005325254751369357,1.5693973302841187,-0.9302021265029907,-0.12270087003707886,0.0,0.01,0.01,257.64
1682373555.49866319,113621798,2,-0.79,0.68,184.55,0.005652609281241894,-0.0032497732900083065,0.024742303416132927,0.003943548072129488,1.571813941001892,-0.9289821982383728,-0.12230902910232544,0.0,0.01,0.01,257.64
1682373555.59870219,113721837,2,-0.79,0.68,184.55,0.007498979102820158,-0.005241271108388901,0.024903088808059692,0.012978977523744106,1.5739496946334839,-0.9283706545829773,-0.12110263109207153,0.0,0.01,0.01,257.64
1682373555.69868612,113821821,2,-0.79,0.6900000000000001,184.55,0.006986750289797783,-0.005409585777670145,0.023718180134892464,0.00797554012387991,1.5754460096359253,-0.9269627332687378,-0.12088626623153687,0.0,0.01,0.01,257.64
1682373555.79866219,113921797,2,-0.79,0.68,184.54,0.0068842945620417595,-0.006155603565275669,0.022700471803545952,0.0038130534812808037,1.5770021677017212,-0.925765872001648,-0.12127012014389038,0.0,0.01,0.01,257.64
1682373555.89867306,114021808,2,-0.79,0.68,184.55,0.008553563617169857,-0.008008314296603203,0.02068975381553173,-0.03371587023139,1.5794792175292969,-0.9243345856666565,-0.12479156255722046,0.0,0.01,0.01,257.64
1682373555.99862313,114121758,2,-0.8,0.68,184.55,0.01076260581612587,-0.008548356592655182,0.018639395013451576,-0.038701530545949936,1.5817195177078247,-0.9235931634902954,-0.12746816873550415,0.0,0.01,0.01,257.64
1682373556.09859610,114221731,2,-0.79,0.67,184.55,0.010303446091711521,-0.0074419486336410046,0.017972851172089577,-0.009813555516302586,1.5830029249191284,-0.9210443496704102,-0.12717992067337036,0.0,0.01,0.01,257.64
1682373556.19860625,114321741,2,-0.79,0.67,184.55,0.01024695299565792,-0.0072821867652237415,0.017614860087633133,0.009283526800572872,1.5841385126113892,-0.9192600846290588,-0.12648159265518188,0.0,0.01,0.01,257.64
1682373556.29859209,114421727,2,-0.79,0.68,184.54,0.009609011933207512,-0.006741260644048452,0.016161734238266945,0.0027273823507130146,1.5849660634994507,-0.9169270396232605,-0.12716025114059448,0.0,0.01,0.01,257.64
1682373556.39866614,114521801,2,-0.8,0.68,184.54,0.009302988648414612,-0.006376573815941811,0.015312298201024532,-0.006096747703850269,1.5856716632843018,-0.9152143001556396,-0.12782615423202515,0.0,0.01,0.01,257.64
1682373556.49870825,114621843,2,-0.8,0.68,184.54,0.00964076817035675,-0.005824754014611244,0.014768553897738457,-0.017737461254000664,1.5865986347198486,-0.9127370119094849,-0.1295502781867981,0.0,0.01,0.01,257.64
1682373556.59868717,114721822,2,-0.8,0.67,184.54,0.009493519552052021,-0.005074174143373966,0.01419262308627367,-0.020925700664520264,1.5874643325805664,-0.9106237888336182,-0.13133245706558228,0.0,0.01,0.01,257.64
1682373556.69866705,114821802,2,-0.8,0.67,184.54,0.007138863205909729,-0.005609152838587761,0.014059832319617271,-0.004002876579761505,1.587119460105896,-0.9079481959342957,-0.13114875555038452,0.0,0.01,0.01,257.64
1682373556.79868412,114921819,2,-0.8,0.67,184.54,0.005900129675865173,-0.005861727055162191,0.012843942269682884,0.0038448229897767305,1.5867886543273926,-0.906208336353302,-0.13101357221603394,0.0,0.01,0.01,257.64
1682373556.89864826,115021783,2,-0.8,0.67,184.54,0.007964510470628738,-0.008056996390223503,0.011062879115343094,-0.041025396436452866,1.5883135795593262,-0.9042178988456726,-0.1364920735359192,0.0,0.01,0.01,257.64
1682373556.99860024,115121735,2,-0.8,0.67,184.56,0.0057500023394823074,-0.007190232165157795,0.010242583230137825,-0.05479530990123749,1.5896482467651367,-0.9031872153282166,-0.14074259996414185,0.0,0.01,0.01,257.64
1682373557.09859920,115221734,2,-0.8,0.66,184.54,0.006852057296782732,-0.008964135311543941,0.008463937789201736,-0.047418516129255295,1.5898147821426392,-0.9008913636207581,-0.14449042081832886,0.0,0.01,0.01,257.64
1682373557.19861317,115321748,2,-0.8,0.67,184.55,0.0015887361951172352,-0.009541609324514866,0.008035952225327492,-0.030552735552191734,1.5903345346450806,-0.8996281027793884,-0.14707130193710327,0.0,0.01,0.01,257.64
1682373557.29868317,115421818,2,-0.8,0.65,184.55,-0.004268322139978409,-0.020388780161738396,0.0071458700112998486,0.0069416887126863,1.5882166624069214,-0.89610755443573,-0.14574843645095825,0.0,0.01,0.01,257.64
1682373557.39870811,115521843,2,-0.79,0.67,184.57,-0.022187890484929085,-0.020824596285820007,0.009111512452363968,0.02789846621453762,1.5868433713912964,-0.8934046030044556,-0.14408248662948608,0.0,0.01,0.01,257.64
1682373557.49869418,115621829,2,-0.87,0.62,184.53,-0.006772080902010202,0.014531925320625305,-0.0015287973219528794,0.019824961200356483,1.585848093032837,-0.8900474905967712,-0.1423051953315735,0.0,0.01,0.01,257.64
1682373557.59869003,115721825,2,-1.1300000000000001,0.32,184.54,-0.06376858800649643,0.0492449514567852,-0.131087526679039,-0.11445198208093643,1.5830367803573608,-0.8859859108924866,-0.1452816128730774,0.0,0.01,0.01,257.64
1682373557.69867420,115821809,2,-0.5700000000000001,-0.43,184.58,-0.08422157168388367,0.01408506277948618,-0.6443989276885986,-0.6374058127403259,1.5757685899734497,-0.8779730796813965,-0.18324345350265503,0.0,0.01,0.01,257.64
1682373557.79864407,115921779,2,1.58,1.17,184.53,-0.07024683058261871,0.024167809635400772,-1.0014827251434326,-1.0065257549285889,1.5691407918930054,-0.8724552989006042,-0.26846057176589966,0.0,0.01,0.01,257.64
1682373557.89859605,116021731,2,2.23,1.75,184.42000000000002,-0.08693164587020874,0.022136522457003593,-1.0377346277236938,-1.2418994903564453,1.5600460767745972,-0.8646259307861328,-0.3944924473762512,0.0,0.01,0.01,257.64
1682373557.99859524,116121730,2,1.8,1.31,184.19,-0.07699192315340042,-0.017131948843598366,-0.9898766279220581,-1.249605655670166,1.5504847764968872,-0.8594604730606079,-0.5151755809783936,0.0,0.01,0.01,257.64
1682373558.09861517,116221750,2,1.62,1.43,183.96,-0.06565514206886292,-0.012809163890779018,-0.9849341511726379,-1.2225985527038574,1.5489978790283203,-0.8572941422462463,-0.6356570720672607,0.0,0.01,0.01,257.64
1682373558.19866419,116321799,2,1.06,1.25,183.77,-0.0617886520922184,-0.02172982506453991,-0.9370472431182861,-1.0760524272918701,1.5467180013656616,-0.8568982481956482,-0.7406781911849976,0.0,0.01,0.01,257.64
1682373558.29872417,116421859,2,0.65,0.99,183.52,-0.060312386602163315,-0.01567293517291546,-0.8539570569992065,-0.9272961616516113,1.5472954511642456,-0.8556792736053467,-0.8368822932243347,0.0,0.01,0.01,257.64
1682373558.39868522,116521820,2,0.52,1.09,183.32,-0.04808433726429939,-0.03373376280069351,-0.7274754047393799,-0.7535011172294617,1.5472770929336548,-0.8560677766799927,-0.9190358519554138,0.0,0.01,0.01,257.64
1682373558.49867225,116621807,2,0.5700000000000001,1.28,183.14000000000001,-0.04682203382253647,-0.0298612117767334,-0.6291447877883911,-0.5810545682907104,1.550046682357788,-0.8479958176612854,-0.9828402996063232,0.0,0.01,0.01,257.64
1682373558.59867406,116721809,2,0.88,1.32,182.98,-0.03984745219349861,-0.01649155467748642,-0.5317515730857849,-0.4590308666229248,1.5515146255493164,-0.8419960141181946,-1.0376776456832886,0.0,0.01,0.01,257.64
1682373558.69863605,116821771,2,1.0,1.34,182.85,-0.04317682236433029,-0.01732068881392479,-0.48981818556785583,-0.40875840187072754,1.5450890064239502,-0.8381381630897522,-1.0800710916519165,0.0,0.01,0.01,257.64
1682373558.79860020,116921735,2,0.93,1.54,182.72,-0.04070969671010971,-0.011394316330552101,-0.3945840299129486,-0.33641132712364197,1.539324402809143,-0.8357193470001221,-1.1201070547103882,0.0,0.01,0.01,257.64
1682373558.89861226,117021747,2,0.9500000000000001,1.7,182.62,-0.037871938198804855,-0.014446789398789406,-0.37323620915412903,-0.2851242125034332,1.5365363359451294,-0.8302203416824341,-1.148099660873413,0.0,0.01,0.01,257.64
1682373558.99860811,117121743,2,0.99,1.6500000000000001,182.53,-0.03166405111551285,-0.007508565671741962,-0.35929015278816223,-0.2708125412464142,1.533931851387024,-0.8267273902893066,-1.178086280822754,0.0,0.01,0.01,257.64
1682373559.09866405,117221799,2,1.02,1.6,182.43,-0.023378290235996246,-0.027178457006812096,-0.38106009364128113,-0.3702998161315918,1.5318185091018677,-0.8217322826385498,-1.2148250341415405,0.0,0.01,0.01,257.64
1682373559.19870615,117321841,2,1.08,1.6300000000000001,182.38,-0.016404928639531136,-0.03146033734083176,-0.35905298590660095,-0.3947716951370239,1.5302996635437012,-0.8188134431838989,-1.2532010078430176,0.0,0.01,0.01,257.64
1682373559.29868126,117421816,2,1.2,1.6,182.3,-0.010776631534099579,-0.012031433172523975,-0.40243393182754517,-0.4129239022731781,1.5259631872177124,-0.8121074438095093,-1.2898015975952148,0.0,0.01,0.01,257.64
1682373559.39866924,117521804,2,1.26,1.72,182.25,-0.0042569274082779884,-0.0213613361120224,-0.41481927037239075,-0.4082418382167816,1.5229246616363525,-0.808543860912323,-1.3293938636779785,0.0,0.01,0.02,257.64
1682373559.49869108,117621826,2,1.37,1.83,182.17000000000002,-0.0016594685148447752,-0.028976358473300934,-0.43384552001953125,-0.39494168758392334,1.5131586790084839,-0.8076859712600708,-1.3669192790985107,0.0,0.01,0.02,257.64
1682373559.59864211,117721777,2,1.27,2.1,182.1,0.004594461992383003,-0.0412333719432354,-0.4622393846511841,-0.4253147542476654,1.5059443712234497,-0.8081783652305603,-1.4095687866210938,0.0,0.01,0.02,257.64
1682373559.69859505,117821730,2,1.22,2.35,182.02,0.00808312650769949,-0.03813766688108444,-0.4943915009498596,-0.4872051775455475,1.5009315013885498,-0.8090910315513611,-1.4574342966079712,0.0,0.01,0.02,257.64
1682373559.79859924,117921734,2,1.2,2.2600000000000002,181.9,0.02745114080607891,-0.04230036586523056,-0.5318992733955383,-0.5635476112365723,1.498038649559021,-0.8113933801651001,-1.511871576309204,0.0,0.01,0.02,257.64
1682373559.89860606,118021741,2,1.28,2.13,181.79,0.030751686543226242,-0.03715928643941879,-0.5372607111930847,-0.5672276616096497,1.4940742254257202,-0.8079149723052979,-1.5659117698669434,0.0,0.01,0.02,257.64
1682373559.99867415,118121809,2,1.44,1.98,181.71,0.04376892000436783,-0.03754449263215065,-0.5556466579437256,-0.5652199983596802,1.4927278757095337,-0.8068202137947083,-1.6217432022094727,0.0,0.01,0.02,257.64
1682373560.09870720,118221842,2,1.59,1.9000000000000001,181.62,0.04928498715162277,-0.03515113890171051,-0.5756835341453552,-0.6089932918548584,1.4913229942321777,-0.8134964108467102,-1.6826629638671875,0.0,0.01,0.02,257.64
1682373560.19868112,118321816,2,1.28,1.97,181.61,0.05443539842963219,-0.05684720724821091,-0.5921220183372498,-0.6286916732788086,1.4920274019241333,-0.8201357126235962,-1.744098424911499,0.0,0.01,0.02,257.64
1682373560.29868913,118421824,2,0.99,2.04,181.65,0.06543818861246109,-0.04181011766195297,-0.5902403593063354,-0.6016368865966797,1.4946444034576416,-0.8251878619194031,-1.8040601015090942,0.0,0.01,0.02,257.64
1682373560.39859509,118521730,2,0.81,2.0,181.68,0.06369650363922119,-0.060421936213970184,-0.6422897577285767,-0.6407910585403442,1.498408555984497,-0.830602765083313,-1.865110993385315,0.0,0.01,0.02,257.64
1682373560.49863720,118621772,2,0.6900000000000001,1.96,181.79,0.0692826434969902,-0.07179354131221771,-0.6076138019561768,-0.6055310368537903,1.499079942703247,-0.8336735367774963,-1.9267170429229736,0.0,0.01,0.02,257.64
1682373560.59860015,118721735,2,0.7000000000000001,1.93,181.92000000000002,0.08050398528575897,-0.05834974721074104,-0.6314857602119446,-0.6471402049064636,1.5018638372421265,-0.8368867635726929,-1.99140202999115,0.0,0.01,0.02,257.64
1682373560.69861913,118821754,2,0.8300000000000001,1.99,182.07,0.07207848131656647,-0.04770892485976219,-0.6251482963562012,-0.6847308278083801,1.5040030479431152,-0.8423857092857361,-2.060457229614258,0.0,0.01,0.02,257.64
1682373560.79860020,118921735,2,0.76,1.9100000000000001,182.19,0.0793512761592865,-0.018713347613811493,-0.6347113847732544,-0.7238704562187195,1.5078791379928589,-0.8471710085868835,-2.1318235397338867,0.0,0.01,0.02,257.64
1682373560.89868426,119021819,2,0.75,1.86,182.33,0.0750625804066658,-0.020931396633386612,-0.6420128345489502,-0.7260957956314087,1.5081921815872192,-0.8564212322235107,-2.2021899223327637,0.0,0.01,0.02,257.64
1682373560.99872017,119121855,2,0.66,1.78,182.44,0.07417131960391998,-0.024802809581160545,-0.6311174631118774,-0.6660327911376953,1.510376214981079,-0.8644051551818848,-2.2666923999786377,0.0,0.01,0.02,257.64
1682373561.09869409,119221829,2,0.6,1.8,182.58,0.08289669454097748,-0.038078904151916504,-0.6351267099380493,-0.6330177187919617,1.5129542350769043,-0.8715193867683411,-2.330726146697998,0.0,0.01,0.02,257.64
1682373561.19868207,119321817,2,0.64,1.68,182.69,0.07587064802646637,-0.013196013867855072,-0.6287373900413513,-0.6423091888427734,1.516842007637024,-0.877138614654541,-2.3964943885803223,0.0,0.01,0.02,257.64
1682373561.29867506,119421810,2,0.62,1.6400000000000001,182.83,0.07072649151086807,-0.004916899837553501,-0.6240435242652893,-0.6463605761528015,1.5213184356689453,-0.8870924115180969,-2.4616594314575195,0.0,0.01,0.02,257.64
1682373561.39862919,119521764,2,0.5700000000000001,1.57,182.94,0.062315914779901505,0.006935359910130501,-0.6157637238502502,-0.6419070363044739,1.5265276432037354,-0.8946821689605713,-2.5270168781280518,0.0,0.01,0.02,257.64
1682373561.49860215,119621737,2,0.54,1.55,183.04,0.05746316537261009,0.010814698413014412,-0.6203724145889282,-0.6317456960678101,1.5287362337112427,-0.8973019123077393,-2.5898475646972656,0.0,0.01,0.02,257.64
1682373561.59860516,119721740,2,0.66,1.55,183.12,0.06378999352455139,-0.0015736102359369397,-0.6162506341934204,-0.6246405839920044,1.532105803489685,-0.8992334008216858,-2.6524176597595215,0.0,0.01,0.02,257.64
1682373561.69859624,119821731,2,0.78,1.58,183.21,0.06252729147672653,0.011342721991240978,-0.62339186668396,-0.6323879361152649,1.5346304178237915,-0.9000329971313477,-2.7150957584381104,0.0,0.01,0.02,257.64
1682373561.79868126,119921816,2,0.89,1.59,183.24,0.05670584365725517,0.021710067987442017,-0.6175799369812012,-0.6606314182281494,1.5378363132476807,-0.8998061418533325,-2.781071424484253,0.0,0.01,0.02,257.64
1682373561.89866114,120021796,2,0.97,1.62,181.64000000000001,0.06043948978185654,0.0072353002615273,-0.6187024712562561,-0.6675057411193848,1.5458183288574219,-0.9006085991859436,-2.845324754714966,0.0,0.01,0.02,257.64
1682373561.99869704,120121832,2,1.08,1.49,181.76,0.05160623788833618,0.004234431777149439,-0.6136829853057861,-0.6568556427955627,1.5533101558685303,-0.9010990262031555,-2.9108972549438477,0.0,0.01,0.02,257.64
1682373562.09868407,120221819,2,1.09,1.4000000000000001,181.87,0.05878276750445366,0.010684515349566936,-0.6126919984817505,-0.6524202227592468,1.56090247631073,-0.8995863795280457,-2.97609543800354,0.0,0.01,0.02,257.64
1682373562.19867921,120321814,2,1.07,1.4000000000000001,181.87,0.04577428102493286,0.007600284181535244,-0.6185914874076843,-0.6720020771026611,1.5679305791854858,-0.8982332944869995,-3.043351650238037,0.0,0.01,0.02,257.64
1682373562.29864120,120421776,2,1.1300000000000001,1.37,181.83,0.036542367190122604,0.0030502681620419025,-0.6231501698493958,-0.6928972601890564,1.5744483470916748,-0.8977326154708862,-3.112001895904541,0.0,0.01,0.02,257.64
1682373562.39859414,120521729,2,1.18,1.35,181.8,0.032900210469961166,0.004267928656190634,-0.636107325553894,-0.7056787014007568,1.5801969766616821,-0.8977457880973816,-3.1801559925079346,0.0,0.01,0.02,257.64
1682373562.49859810,120621733,2,1.22,1.37,181.74,0.028933284804224968,0.0049108415842056274,-0.5974063873291016,-0.6481029987335205,1.5857021808624268,-0.8969066143035889,-3.2465460300445557,0.0,0.01,0.02,257.64
1682373562.59859705,120721732,2,1.26,1.35,181.73,0.025520455092191696,-0.0013559788931161165,-0.5927217602729797,-0.6530417799949646,1.5903983116149902,-0.8967550992965698,-3.3148534297943115,0.0,0.01,0.02,257.64
1682373562.69865823,120821793,2,1.1500000000000001,1.28,181.61,0.02605219930410385,-0.021771471947431564,-0.6235946416854858,-0.6887115240097046,1.5938656330108643,-0.8908501863479614,-3.3826253414154053,0.0,0.01,0.02,257.64
1682373562.79871917,120921854,2,1.26,1.29,181.52,0.013959242962300777,0.0013664058642461896,-0.5835957527160645,-0.6629461646080017,1.596824288368225,-0.8867352604866028,-3.4509189128875732,0.0,0.01,0.02,257.64
1682373562.89869404,121021829,2,1.33,1.3,181.5,0.0026916905771940947,0.008344246074557304,-0.5946477651596069,-0.6786175966262817,1.597328543663025,-0.8838882446289062,-3.519005060195923,0.0,0.01,0.02,257.64
1682373562.99866509,121121800,2,1.27,1.4000000000000001,181.58,-0.0033278779592365026,-0.027806855738162994,-0.5969749093055725,-0.6929243206977844,1.5974606275558472,-0.8819088339805603,-3.5886387825012207,0.0,0.01,0.02,257.64
1682373563.09867811,121221813,2,1.33,1.54,181.63,-0.002558424137532711,-0.01804300583899021,-0.5860408544540405,-0.6586787104606628,1.601616382598877,-0.8789163827896118,-3.6543474197387695,0.0,0.01,0.02,257.64
1682373563.19864106,121321776,2,1.28,1.45,181.67000000000002,0.005038121249526739,-0.012769700959324837,-0.5785055160522461,-0.6349102258682251,1.605109691619873,-0.8778027296066284,-3.7189791202545166,0.0,0.01,0.02,257.64
1682373563.29859614,121421731,2,1.25,1.3800000000000001,181.69,-0.0008185775950551033,-0.03111884742975235,-0.5881737470626831,-0.5723122954368591,1.5994927883148193,-0.8708446621894836,-3.7739408016204834,0.0,0.01,0.02,257.64
1682373563.39859605,121521731,2,1.28,1.54,181.70000000000002,-0.013210124336183071,-0.04386569932103157,-0.5805350542068481,-0.5364997386932373,1.594651699066162,-0.8657995462417603,-3.8299715518951416,0.0,0.01,0.02,257.64
1682373563.49860120,121621736,2,1.34,1.77,181.73,-0.0059894234873354435,-0.021035362035036087,-0.5621333122253418,-0.5188910961151123,1.5933420658111572,-0.8630245923995972,-3.8844692707061768,0.0,0.01,0.02,257.64
1682373563.59863925,121721774,2,1.34,1.82,181.76,-0.013732402585446835,-0.054310958832502365,-0.5627692937850952,-0.5537604093551636,1.591935634613037,-0.8625381588935852,-3.9408013820648193,0.0,0.01,0.02,257.64
1682373563.69871807,121821853,2,1.29,1.84,181.76,-0.014310456812381744,-0.019233226776123047,-0.5000371336936951,-0.5118217468261719,1.591217279434204,-0.8598758578300476,-3.9936416149139404,0.0,0.01,0.02,257.64
1682373563.79868221,121921817,2,1.16,1.79,181.75,-0.010775730945169926,-0.05524921417236328,-0.4828687906265259,-0.5065695643424988,1.5909596681594849,-0.8592547178268433,-4.044833660125732,0.0,0.01,0.02,257.64
1682373563.89867806,122021813,2,1.22,1.69,181.73,-0.0035309139639139175,-0.05499348044395447,-0.42988142371177673,-0.4318302571773529,1.5944019556045532,-0.857656717300415,-4.088599681854248,0.0,0.01,0.02,257.64
1682373563.99859619,122121731,2,1.1,1.56,181.69,0.0016167516587302089,-0.05775247514247894,-0.3884885013103485,-0.37728485465049744,1.5975476503372192,-0.8578705787658691,-4.126984596252441,0.0,0.01,0.02,257.64
1682373564.09862924,122221764,2,1.07,1.47,181.68,-0.0051460908725857735,-0.05353447422385216,-0.30368056893348694,-0.2629317045211792,1.5970746278762817,-0.8596635460853577,-4.1560282707214355,0.0,0.01,0.02,257.64
1682373564.19860315,122321738,2,1.04,1.62,181.68,-0.002077082172036171,-0.06416888535022736,-0.23206067085266113,-0.18831093609333038,1.5965650081634521,-0.8633754849433899,-4.179223537445068,0.0,0.01,0.02,257.64
1682373564.29859710,122421732,2,1.01,1.86,181.69,-0.015859583392739296,-0.06003277003765106,-0.15596164762973785,-0.10969109833240509,1.5965051651000977,-0.8647986650466919,-4.193652629852295,0.0,0.01,0.02,257.64
1682373564.39860106,122521736,2,0.92,1.97,181.71,-0.004991977009922266,-0.0540374331176281,-0.08437962085008621,-0.0534101277589798,1.5962640047073364,-0.8682036995887756,-4.203350067138672,0.0,0.01,0.02,257.64
1682373564.49866104,122621796,2,0.86,2.02,181.73,-0.002731276210397482,-0.0792703628540039,-0.04253381863236427,0.009167090058326721,1.5958759784698486,-0.8685555458068848,-4.203773498535156,0.0,0.01,0.02,257.64
1682373564.59873223,122721867,2,0.92,2.0300000000000002,181.70000000000002,0.004586738534271717,-0.07584059238433838,0.011280006729066372,0.05123266950249672,1.5959489345550537,-0.8705088496208191,-4.201843738555908,0.0,0.01,0.02,257.64
1682373564.69868016,122821815,2,0.9400000000000001,1.85,181.68,-0.0033613976556807756,-0.05764683336019516,0.02954239584505558,0.0562068335711956,1.5951473712921143,-0.8712398409843445,-4.196263313293457,0.0,0.01,0.02,257.64
1682373564.79867125,122921806,2,0.7000000000000001,1.32,181.63,0.0001826493680709973,-0.08106778562068939,0.04245762154459953,0.040426019579172134,1.5939817428588867,-0.8735392093658447,-4.191319465637207,0.0,0.01,0.02,257.64
1682373564.89868522,123021820,2,0.42,0.7000000000000001,181.53,-0.027824513614177704,-0.036189790815114975,0.07310935109853745,0.05409355089068413,1.5927653312683105,-0.8749402761459351,-4.186202049255371,0.0,0.01,0.02,257.64
1682373564.99863315,123121768,2,-0.05,-0.19,181.43,-0.055020321160554886,-0.038892537355422974,0.05860580876469612,0.03595759719610214,1.5893269777297974,-0.8772730827331543,-4.1822357177734375,0.0,0.01,0.02,257.64
1682373565.09859920,123221734,2,-0.38,-0.9400000000000001,181.23,-0.09506115317344666,-0.033907972276210785,0.04033718258142471,0.05777677893638611,1.5785744190216064,-0.8730913400650024,-4.175085067749023,0.0,0.01,0.02,257.64
1682373565.19861507,123321750,2,-0.5700000000000001,-1.5,180.76,-0.1500142365694046,0.002586973598226905,0.030621496960520744,0.06404157727956772,1.563920021057129,-0.869061291217804,-4.169967174530029,0.0,0.01,0.02,257.64
1682373565.29859519,123421730,2,-0.71,-2.0300000000000002,179.86,-0.21499772369861603,0.026094289496541023,-0.0016181080136448145,0.026176229119300842,1.5415092706680298,-0.8571907877922058,-4.1671905517578125,0.0,0.01,0.02,257.64
1682373565.39865303,123521788,2,-0.86,-2.38,178.5,-0.27422934770584106,0.06253571808338165,-0.012492210604250431,-0.0001979394437512383,1.5137603282928467,-0.8444052338600159,-4.167115211486816,0.0,0.01,0.02,257.64
1682373565.49871206,123621847,2,-0.85,-2.58,176.57,-0.3485659956932068,0.11041440814733505,-0.014278522692620754,0.015196739695966244,1.4757002592086792,-0.8201349377632141,-4.1650071144104,0.0,0.01,0.02,257.64
1682373565.59869123,123721826,2,-0.74,-2.79,174.16,-0.43089646100997925,0.1423739194869995,0.014953956939280033,0.04361264780163765,1.4312041997909546,-0.7955917119979858,-4.164211750030518,0.0,0.01,0.02,257.64
1682373565.69868517,123821820,2,-0.35000000000000003,-2.86,171.35,-0.502293586730957,0.18118013441562653,0.02076355740427971,0.07788553088903427,1.377724051475525,-0.7602363228797913,-4.158094882965088,0.0,0.01,0.02,257.64
1682373565.79859710,123921732,2,0.15,-2.73,168.49,-0.5786500573158264,0.22277086973190308,0.024945631623268127,0.10854150354862213,1.3187077045440674,-0.7249277234077454,-4.149312973022461,0.0,0.01,0.02,257.64
1682373565.89863610,124021771,2,0.77,-2.63,165.44,-0.6455493569374084,0.2657308876514435,0.019396021962165833,0.15075422823429108,1.253523826599121,-0.6797472238540649,-4.134377479553223,0.0,0.01,0.02,257.64
1682373565.99860620,124121741,2,1.35,-2.23,162.44,-0.7046812772750854,0.28471609950065613,-0.013181786984205246,0.11621181666851044,1.1831490993499756,-0.6360660195350647,-4.123234748840332,0.0,0.02,0.02,257.64
1682373566.09860921,124221744,2,1.76,-1.5,159.14000000000001,-0.759226381778717,0.31283801794052124,0.0030329187866300344,0.06680271029472351,1.1135917901992798,-0.5810128450393677,-4.118381023406982,0.0,0.02,0.02,257.64
1682373566.19860411,124321739,2,2.09,-0.7000000000000001,155.94,-0.7974202632904053,0.330463171005249,-0.018750924617052078,-0.010802708566188812,1.0390135049819946,-0.5291039347648621,-4.117321014404297,0.0,0.02,0.02,257.64
1682373566.29867315,124421808,2,2.5500000000000003,0.21,152.76,-0.8345363140106201,0.3210843503475189,-0.04054386913776398,-0.04567872732877731,0.9664462804794312,-0.4724811613559723,-4.117614269256592,0.0,0.02,0.02,257.64
1682373566.39864826,124521783,2,2.93,0.99,149.89000000000001,-0.8513498902320862,0.3220662772655487,-0.07455828040838242,-0.06136368587613106,0.8924629092216492,-0.4178563952445984,-4.118302822113037,0.0,0.02,0.02,257.64
1682373566.49870420,124621839,2,3.25,1.73,147.22,-0.8652991652488708,0.31646278500556946,-0.06430904567241669,-0.023303333669900894,0.8162147402763367,-0.3587174713611603,-4.119039535522461,0.0,0.02,0.02,257.64
1682373566.59868622,124721821,2,3.29,2.39,144.94,-0.8879007697105408,0.29999271035194397,-0.03889627382159233,-0.00661780871450901,0.7369022369384766,-0.30606862902641296,-4.121928691864014,0.0,0.02,0.02,257.64
1682373566.69867516,124821810,2,3.09,2.91,142.85,-0.8751875758171082,0.285454660654068,-0.06729082018136978,-0.06728651374578476,0.6601160764694214,-0.25121986865997314,-4.128625869750977,0.0,0.01,0.02,257.64
1682373566.79863906,124921774,2,2.97,3.2800000000000002,141.14000000000001,-0.8824302554130554,0.24513889849185944,-0.05073319002985954,-0.0994950532913208,0.5808553695678711,-0.20462079346179962,-4.138267517089844,0.0,0.01,0.02,257.64
1682373566.89860821,125021743,2,2.64,3.46,139.74,-0.8675813674926758,0.21202082931995392,-0.0765359103679657,-0.14871461689472198,0.5037278532981873,-0.15949618816375732,-4.150249004364014,0.0,0.01,0.02,257.64
1682373566.99860215,125121737,2,2.42,3.33,138.74,-0.8702688217163086,0.18427538871765137,-0.0491240993142128,-0.11211858689785004,0.4239034652709961,-0.12279478460550308,-4.16029167175293,0.0,0.01,0.02,257.64
1682373567.09861326,125221748,2,2.09,3.0,138.06,-0.8627188205718994,0.16303598880767822,-0.04963226243853569,-0.08445275574922562,0.34646278619766235,-0.08770257234573364,-4.1689043045043945,0.0,0.01,0.02,257.64
1682373567.19866204,125321797,2,1.78,2.64,137.70000000000002,-0.8711068630218506,0.1292652040719986,-0.06679724156856537,-0.0925246849656105,0.2665621042251587,-0.06033240631222725,-4.178410053253174,0.0,0.01,0.02,257.64
1682373567.29870415,125421839,2,1.6400000000000001,2.31,137.55,-0.8753450512886047,0.10369431972503662,-0.07240168005228043,-0.08559159934520721,0.18398885428905487,-0.030287889763712883,-4.185364723205566,0.0,0.01,0.02,257.64
1682373567.39867806,125521813,2,1.31,2.1,137.64000000000001,-0.8804492950439453,0.08831251412630081,-0.0722435712814331,-0.07045075297355652,0.10021268576383591,-0.0064629800617694855,-4.189695358276367,0.0,0.01,0.02,257.64
1682373567.49867606,125621811,2,1.1,2.02,137.92000000000002,-0.8707759380340576,0.10547652840614319,-0.03619115427136421,0.005958806723356247,0.006683113053441048,0.015448175370693207,-4.188893795013428,0.0,0.01,0.02,257.64
1682373567.59877110,125721906,2,0.78,1.8,138.4,-0.8766788244247437,0.09642466902732849,-0.012173566967248917,0.038254693150520325,-0.08515054732561111,0.03262941539287567,-4.18902587890625,0.0,0.01,0.02,257.64
1682373567.69863415,125821769,2,0.45,1.7,139.05,-0.8700215220451355,0.10372477769851685,-0.035752516239881516,0.055826105177402496,-0.18074344098567963,0.05266796052455902,-4.181838035583496,0.0,0.01,0.02,257.64
1682373567.79860020,125921735,2,0.28,1.59,139.9,-0.8813914060592651,0.1009228453040123,-0.004201039671897888,0.11920328438282013,-0.2741709351539612,0.06930024176836014,-4.172867298126221,0.0,0.01,0.02,257.64
1682373567.89859819,126021733,2,0.16,1.5,140.84,-0.8809557557106018,0.10095102339982986,-0.0030313129536807537,0.14221598207950592,-0.368173748254776,0.08771952986717224,-4.160986423492432,0.0,0.01,0.02,257.64
1682373567.99860120,126121736,2,0.05,1.3900000000000001,141.91,-0.85474693775177,0.1172248125076294,-0.021174777299165726,0.06780452281236649,-0.45993196964263916,0.1043814867734909,-4.155855655670166,0.0,0.01,0.02,257.64
1682373568.09866309,126221798,2,0.0,1.3,143.05,-0.8525969982147217,0.13900060951709747,-0.024489637464284897,0.05074062570929527,-0.5521824359893799,0.1256455034017563,-4.147498607635498,0.0,0.01,0.02,257.64
1682373568.19864416,126321779,2,0.01,1.28,144.22,-0.8464328050613403,0.1463737189769745,0.006427894812077284,0.07930287718772888,-0.6407113075256348,0.14400699734687805,-4.142256259918213,0.0,0.01,0.02,257.64
1682373568.29869318,126421828,2,0.0,1.1300000000000001,145.35,-0.8546961545944214,0.15618179738521576,-0.01889604516327381,0.05951111391186714,-0.7386373281478882,0.16602039337158203,-4.135496616363525,0.0,0.02,0.02,257.64
1682373568.39868021,126521815,2,-0.2,1.05,146.48,-0.853594183921814,0.1776994913816452,-0.02387986332178116,0.03172232210636139,-0.8332856893539429,0.1872105896472931,-4.1323933601379395,0.0,0.02,0.02,257.64
1682373568.49865007,126621785,2,-0.45,0.99,147.61,-0.8559086322784424,0.19536399841308594,-0.03485136851668358,0.02735297568142414,-0.9275786876678467,0.2100871503353119,-4.128135681152344,0.0,0.02,0.02,257.64
1682373568.59863925,126721774,2,-0.76,0.79,148.73,-0.8451201915740967,0.22348597645759583,-0.026443611830472946,0.03117789328098297,-1.0196633338928223,0.23321743309497833,-4.126554489135742,0.0,0.02,0.02,257.64
1682373568.69860625,126821741,2,-0.9400000000000001,0.8,149.84,-0.8387908339500427,0.2509198784828186,-0.053275588899850845,0.01403108425438404,-1.1068123579025269,0.26199647784233093,-4.1251678466796875,0.0,0.01,0.02,257.64
1682373568.79859710,126921732,2,-0.79,0.74,150.92000000000002,-0.828991174697876,0.28007498383522034,-0.07832999527454376,-0.03543590381741524,-1.192792534828186,0.2913309633731842,-4.128486156463623,0.0,0.01,0.02,257.64
1682373568.89860225,127021737,2,-0.44,0.74,151.94,-0.8383470177650452,0.31493404507637024,-0.08295118063688278,-0.046004585921764374,-1.281039834022522,0.3243420422077179,-4.131871223449707,0.0,0.02,0.02,257.64
1682373568.99865603,127121791,2,-0.14,0.8,152.86,-0.8369779586791992,0.3280413746833801,-0.09796065092086792,-0.07796240597963333,-1.367753505706787,0.35825031995773315,-4.137912273406982,0.0,0.02,0.02,257.64
1682373569.09864116,127221776,2,0.13,0.81,153.65,-0.8451038599014282,0.35281747579574585,-0.08668480813503265,-0.0560467354953289,-1.458598017692566,0.3933608829975128,-4.141449928283691,0.0,0.02,0.02,257.64
1682373569.19868803,127321823,2,0.39,0.79,154.33,-0.8342484831809998,0.36735644936561584,-0.0830904021859169,-0.05152561888098717,-1.5488241910934448,0.42903876304626465,-4.146217346191406,0.0,0.02,0.02,257.64
1682373569.29869223,127421827,2,0.54,0.87,154.86,-0.8494987487792969,0.37118595838546753,-0.07734723389148712,-0.06778561323881149,-1.6427797079086304,0.46415042877197266,-4.152622222900391,0.0,0.02,0.02,257.64
1682373569.39859509,127521730,2,0.65,0.91,155.29,-0.8660590052604675,0.38164323568344116,-0.05627492070198059,-0.06261534243822098,-1.7353742122650146,0.49962693452835083,-4.158964157104492,0.0,0.02,0.02,257.64
1682373569.49862814,127621763,2,0.59,0.97,155.6,-0.8580619096755981,0.39128419756889343,-0.0667065903544426,-0.07640419900417328,-1.8241119384765625,0.5375308394432068,-4.165621757507324,0.0,0.02,0.02,257.64
1682373569.59859514,127721730,2,0.67,0.92,155.8,-0.8695622086524963,0.40798985958099365,-0.0497777983546257,-0.0713682696223259,-1.9125032424926758,0.5759904980659485,-4.172610759735107,0.0,0.02,0.02,257.64
1682373569.69860125,127821736,2,0.62,0.81,155.95000000000002,-0.8873183727264404,0.3928791284561157,-0.02856087125837803,-0.037528444081544876,-2.0031189918518066,0.6152364015579224,-4.177210330963135,0.0,0.02,0.02,257.64
1682373569.79860520,127921740,2,0.77,0.78,156.01,-0.872248113155365,0.4246767461299896,-0.04352248087525368,-0.04608762264251709,-2.0930962562561035,0.6547526121139526,-4.181187629699707,0.0,0.02,0.02,257.64
1682373569.89867306,128021808,2,0.87,0.73,155.94,-0.8827206492424011,0.4173632860183716,-0.028103532269597054,-0.0443115197122097,-2.1807665824890137,0.694853663444519,-4.1859130859375,0.0,0.01,0.02,257.64
1682373569.99867320,128121808,2,1.01,0.67,155.8,-0.8988063931465149,0.41843104362487793,-0.033613789826631546,-0.06300730258226395,-2.267916440963745,0.7350426912307739,-4.190298557281494,0.0,0.01,0.02,257.64
1682373570.09868908,128221824,2,1.17,0.64,155.62,-0.8956610560417175,0.42448505759239197,-0.0035052441526204348,-0.01868862845003605,-2.3536875247955322,0.7759155035018921,-4.192238807678223,0.0,0.01,0.02,257.64
1682373570.19868612,128321821,2,1.23,0.6,155.43,-0.8997796177864075,0.4302932024002075,0.016397124156355858,0.015194232575595379,-2.4407687187194824,0.8168067932128906,-4.192984104156494,0.0,0.01,0.02,257.64
1682373570.29868221,128421817,2,1.33,0.6,155.18,-0.9297164678573608,0.42461898922920227,-0.007548603694885969,0.0035823462530970573,-2.529332399368286,0.8578317761421204,-4.19163703918457,0.0,0.01,0.02,257.64
1682373570.39864016,128521775,2,1.42,0.56,154.98,-0.9325886964797974,0.4329521954059601,0.008156229741871357,0.026075104251503944,-2.619143486022949,0.8988606929779053,-4.189680576324463,0.0,0.01,0.02,257.64
1682373570.49860406,128621739,2,1.55,0.6,154.74,-0.9413260817527771,0.43956831097602844,-0.003631430910900235,0.03889033570885658,-2.714935541152954,0.9399063587188721,-4.184507369995117,0.0,0.01,0.02,257.64
1682373570.59860325,128721738,2,1.54,0.78,154.53,-0.9490260481834412,0.4335591793060303,0.0054807355627417564,0.05026952177286148,-2.8110971450805664,0.9806824922561646,-4.180363178253174,0.0,0.01,0.02,257.64
1682373570.69862413,128821759,2,1.43,0.99,154.33,-0.9691479802131653,0.412572979927063,-0.0050749219954013824,0.007437809370458126,-2.9131011962890625,1.019508957862854,-4.179525852203369,0.0,0.01,0.02,257.64
1682373570.79865813,128921793,2,1.29,1.17,154.18,-0.9760013222694397,0.4137071371078491,0.020508700981736183,0.005944897420704365,-3.0144999027252197,1.0582739114761353,-4.180059909820557,0.0,0.01,0.02,257.64
1682373570.89872718,129021862,2,1.08,1.31,154.04,-0.9857921600341797,0.40835145115852356,-0.009098105132579803,-0.01804661564528942,-3.1172935962677,1.0966538190841675,-4.17879056930542,0.0,0.01,0.02,257.64
1682373570.99868107,129121816,2,0.98,1.42,153.95000000000002,-0.9878395795822144,0.4106914699077606,0.022785242646932602,0.015124200843274593,-3.2206454277038574,1.1351827383041382,-4.178635120391846,0.0,0.01,0.02,257.64
1682373571.09866810,129221803,2,1.02,1.51,153.92000000000002,-0.9821863770484924,0.3962612450122833,0.013713154941797256,0.0012441427679732442,-3.3248629570007324,1.1719934940338135,-4.178950309753418,0.0,0.01,0.02,257.64
1682373571.19868922,129321824,2,0.97,1.59,153.89000000000001,-0.9868811964988708,0.4143877923488617,0.003036260372027755,0.010536341927945614,-3.4275217056274414,1.2089133262634277,-4.177175045013428,0.0,0.01,0.02,257.64
1682373571.29863715,129421772,2,1.02,1.6500000000000001,153.92000000000002,-0.9762498140335083,0.39895686507225037,0.01509643904864788,0.04604126140475273,-3.5289347171783447,1.2485827207565308,-4.174053192138672,0.0,0.01,0.02,257.64
1682373571.39859509,129521730,2,1.01,1.7,153.97,-0.9663328528404236,0.4089093506336212,0.014888101257383823,0.05676538497209549,-3.628896951675415,1.2876542806625366,-4.170102596282959,0.0,0.01,0.02,257.64
1682373571.49860620,129621741,2,1.11,1.81,154.03,-0.968769371509552,0.39121147990226746,0.02817433699965477,0.09338004142045975,-3.7301909923553467,1.3218004703521729,-4.162815570831299,0.0,0.01,0.02,257.64
1682373571.59860015,129721735,2,0.97,1.76,154.11,-0.9652707576751709,0.36840906739234924,-0.01637464202940464,0.0708930492401123,-3.8294315338134766,1.356587529182434,-4.15349817276001,0.0,0.01,0.02,257.64
1682373571.69867611,129821811,2,0.92,1.72,154.20000000000002,-0.96781986951828,0.35629895329475403,0.007329288404434919,0.13081681728363037,-3.9299700260162354,1.388706922531128,-4.140267372131348,0.0,0.01,0.02,257.64
1682373571.79871321,129921848,2,0.92,1.6500000000000001,154.32,-0.9479580521583557,0.3843575716018677,0.02104838192462921,0.1333969235420227,-4.02763557434082,1.4211715459823608,-4.129958629608154,0.0,0.01,0.02,257.64
1682373571.89869809,130021833,2,0.84,1.55,154.43,-0.9380994439125061,0.37638428807258606,-0.01288551278412342,0.05178150162100792,-4.1295166015625,1.4530497789382935,-4.124524116516113,0.0,0.01,0.02,257.64
1682373571.99868727,130121822,2,0.66,1.57,154.57,-0.9274440407752991,0.37757939100265503,-0.0008729323162697256,0.03976446017622948,-4.228277206420898,1.4861648082733154,-4.120746612548828,0.0,0.01,0.02,257.64
1682373572.09867620,130221811,2,0.45,1.56,154.75,-0.9252416491508484,0.36572346091270447,-0.03608354926109314,0.011702829040586948,-4.325260639190674,1.5196785926818848,-4.116219520568848,0.0,0.01,0.02,257.64
1682373572.19863510,130321770,2,0.52,1.56,154.93,-0.9200406074523926,0.3797892928123474,-0.026062382385134697,0.01138429343700409,-4.420176982879639,1.554309368133545,-4.114816665649414,0.0,0.01,0.02,257.64
1682373572.29860520,130421740,2,0.5700000000000001,1.47,155.12,-0.9077240228652954,0.39275896549224854,-0.03093656338751316,0.0041824751533567905,-4.513491630554199,1.5884279012680054,-4.113930702209473,0.0,0.01,0.02,257.64
1682373572.39860821,130521743,2,0.6,1.35,155.31,-0.8989028334617615,0.3909459114074707,-0.05520547181367874,-0.026615532115101814,-4.604802131652832,1.6240156888961792,-4.114749431610107,0.0,0.01,0.02,257.64
1682373572.49860406,130621739,2,0.74,1.21,155.52,-0.8994488716125488,0.3722236454486847,-0.07694055140018463,-0.0734633281826973,-4.697104454040527,1.6591768264770508,-4.119322299957275,0.0,0.01,0.02,257.64
1682373572.59864211,130721777,2,0.7000000000000001,1.1300000000000001,155.72,-0.8932534456253052,0.40268003940582275,-0.04248875752091408,-0.04448680207133293,-4.788012504577637,1.6954095363616943,-4.123908996582031,0.0,0.01,0.02,257.64
1682373572.69870806,130821843,2,0.6900000000000001,1.07,155.9,-0.8853526711463928,0.3972768485546112,-0.04182734340429306,-0.06483276188373566,-4.87946891784668,1.7298226356506348,-4.131268501281738,-0.01,0.01,0.02,257.64
1682373572.79868507,130921820,2,0.72,1.02,156.1,-0.8861278891563416,0.39495745301246643,-0.04840250685811043,-0.07121498882770538,-4.970284461975098,1.7660244703292847,-4.136662006378174,-0.01,0.01,0.02,257.64
1682373572.89867616,131021811,2,0.72,0.99,156.26,-0.8820365071296692,0.4079776406288147,-0.04691826552152634,-0.020127922296524048,-5.0574164390563965,1.8047975301742554,-4.137192249298096,0.0,0.01,0.02,257.64
1682373572.99867225,131121807,2,0.8200000000000001,0.92,156.42000000000002,-0.8875564336776733,0.3937636613845825,-0.05179218947887421,-0.01985878124833107,-5.144187927246094,1.8441849946975708,-4.13882303237915,0.0,0.01,0.02,257.64
1682373573.09863305,131221768,2,0.86,0.8,156.53,-0.8776824474334717,0.4176885485649109,-0.010817687958478928,0.04517873004078865,-5.2395548820495605,1.8831735849380493,-4.135451793670654,-0.01,0.01,0.02,257.64
1682373573.19861126,131321746,2,0.86,0.93,156.62,-0.8842224478721619,0.42108938097953796,-0.022616928443312645,0.04047267884016037,-5.333466529846191,1.9227972030639648,-4.132440567016602,-0.01,0.01,0.02,257.64
1682373573.29860210,131421737,2,0.77,1.09,156.69,-0.8929030895233154,0.42687374353408813,-0.0031207529827952385,0.060575202107429504,-5.429386615753174,1.9625494480133057,-4.128387451171875,-0.01,0.01,0.02,257.64
1682373573.39860010,131521735,2,0.78,1.2,156.70000000000002,-0.8921823501586914,0.42682674527168274,-0.015766266733407974,0.028554953634738922,-5.523981094360352,2.0028960704803467,-4.12648868560791,-0.01,0.01,0.02,257.64
1682373573.49866319,131621798,2,0.79,1.3,156.69,-0.9048542380332947,0.414629727602005,-0.010919058695435524,0.04950534179806709,-5.61682653427124,2.0434131622314453,-4.121172904968262,-0.01,0.01,0.02,257.64
1682373573.59865713,131721792,2,0.86,1.19,156.62,-0.8924323320388794,0.42233914136886597,-0.035022541880607605,0.04834797605872154,-5.708054542541504,2.0840108394622803,-4.115838527679443,-0.01,0.01,0.02,257.64
1682373573.69868326,131821818,2,1.02,1.1500000000000001,156.55,-0.9000397324562073,0.4091818034648895,-0.039183881133794785,0.04750286415219307,-5.8042802810668945,2.1253767013549805,-4.1112847328186035,-0.01,0.01,0.02,257.64
1682373573.79867721,131921812,2,1.1300000000000001,1.25,156.43,-0.9034521579742432,0.4161797761917114,-0.03473811596632004,0.02524358034133911,-5.898698329925537,2.166774272918701,-4.109588146209717,-0.01,0.01,0.02,257.64
1682373573.89865112,132021786,2,1.19,1.33,156.25,-0.9148877859115601,0.4087308347225189,-0.03943086043000221,-0.012134304270148277,-5.99497127532959,2.1984097957611084,-4.111058235168457,-0.01,0.01,0.02,257.64
1682373573.99863720,132121772,2,0.97,1.32,156.05,-0.9101839065551758,0.3905474841594696,-0.05126209929585457,-0.042141880840063095,-6.089612007141113,2.2316205501556396,-4.114348888397217,-0.01,0.01,0.02,257.64
1682373574.09860826,132221743,2,0.71,1.27,155.82,-0.9060525894165039,0.39912286400794983,-0.05554470419883728,-0.03508106991648674,-6.186469554901123,2.2657272815704346,-4.116086959838867,-0.01,0.01,0.02,257.64
1682373574.19860315,132321738,2,0.59,1.34,155.63,-0.9014624953269958,0.3923833668231964,-0.032937321811914444,-0.017840728163719177,-6.281339168548584,2.3006958961486816,-4.118701457977295,-0.01,0.01,0.02,257.64
1682373574.29860425,132421739,2,0.51,1.36,155.43,-0.9040866494178772,0.3887767791748047,-0.016098424792289734,0.016282597556710243,-6.380922794342041,2.3354201316833496,-4.118422031402588,-0.01,0.01,0.02,257.64
1682373574.39865303,132521788,2,0.61,1.45,155.23,-0.9043616652488708,0.39282962679862976,-0.05405893176794052,-0.029841549694538116,-6.4781012535095215,2.3710248470306396,-4.120325565338135,-0.01,0.01,0.02,257.64
1682373574.49872017,132621855,2,0.6900000000000001,1.47,155.04,-0.8969208002090454,0.4090937077999115,-0.023109273985028267,-0.03548436239361763,-6.575054168701172,2.4055089950561523,-4.125311374664307,-0.01,0.01,0.02,257.64
1682373574.59868407,132721819,2,0.63,1.47,154.91,-0.9030449390411377,0.3712320923805237,-0.0457039475440979,-0.07641374319791794,-6.670888900756836,2.4421133995056152,-4.13065767288208,-0.01,0.01,0.02,257.64
1682373574.69866824,132821803,2,0.66,1.5,154.78,-0.9123510122299194,0.3916238248348236,-0.03381284326314926,-0.05004791170358658,-6.768623352050781,2.4803671836853027,-4.133487224578857,-0.01,0.01,0.02,257.64
1682373574.79867220,132921807,2,0.7000000000000001,1.44,154.68,-0.8869895935058594,0.40911778807640076,-0.02515140175819397,-0.026140278205275536,-6.8640241622924805,2.5189664363861084,-4.135892868041992,-0.01,0.01,0.02,257.64
1682373574.89863014,133021765,2,0.6900000000000001,1.42,154.61,-0.8893252611160278,0.38660719990730286,-0.03275525942444801,-0.01671810820698738,-6.96081018447876,2.556201696395874,-4.136335372924805,-0.01,0.01,0.02,257.64
1682373574.99860215,133121737,2,0.7000000000000001,1.45,154.55,-0.8910016417503357,0.39143475890159607,-0.014982547610998154,0.02041894942522049,-7.05504846572876,2.594331741333008,-4.134448051452637,-0.01,0.01,0.02,257.64
1682373575.09859705,133221732,2,0.63,1.49,154.51,-0.8877127170562744,0.3929683268070221,-0.01637536846101284,0.02921389602124691,-7.149455547332764,2.62853741645813,-4.132319450378418,-0.01,0.01,0.02,257.64
1682373575.19860721,133321742,2,0.54,1.4000000000000001,154.48,-0.8857652544975281,0.3986608386039734,-0.013010066002607346,0.029530294239521027,-7.241909503936768,2.663743019104004,-4.130077838897705,-0.01,0.01,0.02,257.64
1682373575.29865623,133421791,2,0.53,1.29,154.48,-0.8785915970802307,0.39495429396629333,-0.011536158621311188,0.02933378890156746,-7.332539081573486,2.701910972595215,-4.127725124359131,-0.01,0.01,0.02,257.64
1682373575.39871216,133521847,2,0.62,1.17,154.53,-0.8827599883079529,0.38146722316741943,-0.009123692288994789,0.017654135823249817,-7.42108678817749,2.7399611473083496,-4.126714706420898,-0.01,0.01,0.02,257.64
1682373575.49869108,133621826,2,0.71,1.08,154.59,-0.8745534420013428,0.3886255919933319,-0.015844888985157013,0.009422177448868752,-7.5068278312683105,2.780806303024292,-4.124581813812256,-0.01,0.01,0.02,257.64
1682373575.59867120,133721806,2,0.8,1.01,154.67000000000002,-0.8684723377227783,0.39750662446022034,-0.023342536762356758,0.0028218619991093874,-7.592251777648926,2.8215749263763428,-4.123147010803223,-0.01,0.01,0.02,257.64
1682373575.69867611,133821811,2,0.96,1.0,154.78,-0.8779937624931335,0.3935936987400055,0.00042902855784632266,-0.011812918819487095,-7.680948257446289,2.860898971557617,-4.1266889572143555,-0.01,0.01,0.02,257.64
1682373575.79864907,133921784,2,0.84,1.01,154.89000000000001,-0.8831170797348022,0.38722875714302063,-0.01590595953166485,-0.04921884834766388,-7.7691216468811035,2.9000985622406006,-4.13046932220459,-0.01,0.01,0.02,257.64
1682373575.89860415,134021739,2,0.72,1.0,155.01,-0.869666337966919,0.3929881751537323,-0.02357739396393299,-0.06441731005907059,-7.857629299163818,2.935786485671997,-4.135774612426758,-0.01,0.01,0.02,257.64
1682373575.99861026,134121745,2,0.62,0.93,155.14000000000001,-0.8850858807563782,0.37357863783836365,-0.03364814817905426,-0.0635182112455368,-7.9459686279296875,2.9718151092529297,-4.13939094543457,-0.01,0.01,0.02,257.64
1682373576.09860110,134221736,2,0.51,0.84,155.26,-0.8841027617454529,0.3913087546825409,-0.017927054315805435,-0.049840960651636124,-8.032577514648438,3.0075230598449707,-4.144282341003418,-0.01,0.01,0.02,257.64
1682373576.19866514,134321800,2,0.53,0.71,155.38,-0.878056526184082,0.3808150887489319,-0.01510107796639204,-0.06588204950094223,-8.1187162399292,3.0434865951538086,-4.150667667388916,-0.01,0.01,0.02,257.64
1682373576.29871726,134421852,2,0.63,0.59,155.52,-0.8870871067047119,0.39616629481315613,0.0030865215230733156,-0.03053412400186062,-8.207245826721191,3.081455945968628,-4.153814792633057,-0.01,0.01,0.02,257.64
1682373576.39868426,134521819,2,0.67,0.64,155.67000000000002,-0.8841912746429443,0.39373883605003357,0.00792103074491024,-0.0077413469552993774,-8.296368598937988,3.1197776794433594,-4.1556501388549805,-0.01,0.01,0.02,257.64
1682373576.49868226,134621817,2,0.67,0.7000000000000001,155.81,-0.8960420489311218,0.3897635042667389,0.011667636223137379,0.002091704634949565,-8.385187149047852,3.1591713428497314,-4.156452655792236,-0.01,0.01,0.02,257.64
1682373576.59868121,134721816,2,0.67,0.74,155.94,-0.8969715237617493,0.38359805941581726,0.013850659132003784,0.021393142640590668,-8.474225997924805,3.1984152793884277,-4.154660701751709,-0.01,0.01,0.02,257.64
1682373576.69863915,134821774,2,0.6,0.73,156.07,-0.903869092464447,0.3892168402671814,0.019221622496843338,0.06583009660243988,-8.565877914428711,3.240281343460083,-4.148451805114746,-0.01,0.01,0.02,257.64
1682373576.79860020,134921735,2,0.61,0.8,156.18,-0.9015036225318909,0.39765074849128723,0.024973807856440544,0.08793870359659195,-8.657347679138184,3.2813737392425537,-4.141795635223389,-0.01,0.01,0.02,257.64
1682373576.89860225,135021737,2,0.66,0.84,156.26,-0.8988805413246155,0.39462292194366455,-0.0006742301629856229,0.050515078008174896,-8.747498512268066,3.3197360038757324,-4.136714935302734,-0.01,0.01,0.02,257.64
1682373576.99859524,135121730,2,0.63,0.78,156.32,-0.9045836925506592,0.3925289809703827,0.017616236582398415,0.04121416434645653,-8.837506294250488,3.3582730293273926,-4.1331682205200195,-0.01,0.01,0.02,257.64
1682373577.09865904,135221794,2,0.6900000000000001,0.7000000000000001,156.37,-0.9035638570785522,0.4011729657649994,0.018605515360832214,0.0401189811527729,-8.925493240356445,3.4017984867095947,-4.129244327545166,-0.01,0.01,0.02,257.64
1682373577.19872618,135321861,2,0.79,0.5700000000000001,156.43,-0.9117430448532104,0.387263685464859,0.020371612161397934,0.0382428802549839,-9.012389183044434,3.4437062740325928,-4.126348972320557,-0.01,0.01,0.02,257.64
1682373577.29868126,135421816,2,0.8200000000000001,0.53,156.47,-0.9158696532249451,0.38705092668533325,-0.0004864252114202827,-0.009985581040382385,-9.10470962524414,3.4856090545654297,-4.127007961273193,-0.01,0.01,0.02,257.64
1682373577.39868021,135521815,2,0.8,0.58,156.51,-0.9109572172164917,0.39537936449050903,0.016423992812633514,-0.011616997420787811,-9.196746826171875,3.527078151702881,-4.128509521484375,-0.01,0.01,0.02,257.64
1682373577.49867105,135621806,2,0.72,0.66,156.52,-0.9210139513015747,0.392884761095047,0.012875148095190525,-0.038866035640239716,-9.289820671081543,3.567117214202881,-4.1325364112854,-0.01,0.01,0.02,257.64
1682373577.59862804,135721763,2,0.67,0.67,156.47,-0.9231920838356018,0.40265199542045593,-0.0002832426398526877,-0.060256365686655045,-9.38262939453125,3.606999158859253,-4.136586666107178,-0.01,0.01,0.02,257.64
1682373577.69859624,135821731,2,0.6900000000000001,0.68,156.4,-0.9209238290786743,0.3935841917991638,0.008053074590861797,-0.05033143609762192,-9.475132942199707,3.646920919418335,-4.1406731605529785,-0.01,0.01,0.02,257.64
1682373577.79860115,135921736,2,0.74,0.63,156.3,-0.9248458743095398,0.3970547318458557,-0.001715273829177022,-0.04963036999106407,-9.567426681518555,3.686826705932617,-4.1435136795043945,-0.01,0.01,0.02,257.64
1682373577.89859819,136021733,2,0.77,0.5700000000000001,156.18,-0.933820903301239,0.3892756402492523,0.010884309187531471,-0.013346321880817413,-9.662353515625,3.733215093612671,-4.144469261169434,-0.01,0.01,0.02,257.64
1682373577.99865723,136121792,2,0.87,0.62,156.03,-0.9292502403259277,0.3904086947441101,0.007792127784341574,-0.011490988545119762,-9.756814002990723,3.7780513763427734,-4.145502090454102,-0.01,0.01,0.02,257.64
1682373578.09871221,136221847,2,0.93,0.72,155.89000000000001,-0.9370790719985962,0.388547420501709,0.0055322363041341305,0.015372312627732754,-9.852328300476074,3.8226120471954346,-4.142030715942383,-0.01,0.01,0.02,257.64
1682373578.19868803,136321823,2,0.89,0.85,155.73,-0.9315191507339478,0.3965999186038971,0.020365823060274124,0.06260738521814346,-9.948036193847656,3.8663880825042725,-4.136686325073242,-0.01,0.01,0.02,257.64
1682373578.29868722,136421822,2,0.78,0.9500000000000001,155.58,-0.9378495812416077,0.38849911093711853,-0.00037076740409247577,0.033179428428411484,-10.042211532592773,3.911498546600342,-4.13368034362793,-0.01,0.01,0.02,257.64
1682373578.39867210,136521807,2,0.7000000000000001,0.9500000000000001,155.37,-0.9297167658805847,0.3963773250579834,0.005174944177269936,0.03239127993583679,-10.136091232299805,3.95499849319458,-4.130068302154541,-0.01,0.01,0.02,257.64
1682373578.49863720,136621772,2,0.68,1.04,155.18,-0.9383125901222229,0.3814171552658081,0.001728409668430686,0.027320725843310356,-10.230087280273438,3.996901035308838,-4.126857280731201,-0.01,0.01,0.02,257.64
1682373578.59859824,136721733,2,0.55,1.07,154.98,-0.9255062937736511,0.38523587584495544,0.006103807128965855,0.03041079081594944,-10.323465347290039,4.037823677062988,-4.123645782470703,-0.01,0.01,0.02,257.64
1682373578.69859719,136821732,2,0.46,1.12,154.76,-0.9224666953086853,0.39277172088623047,0.00019560338114388287,0.05577990412712097,-10.417218208312988,4.079482078552246,-4.117131233215332,-0.01,0.01,0.02,257.64
1682373578.79860210,136921737,2,0.38,1.11,154.53,-0.9164328575134277,0.3954266607761383,0.02368818037211895,0.07731185853481293,-10.510263442993164,4.119952201843262,-4.112785816192627,-0.01,0.01,0.02,257.64
1682373578.89866114,137021796,2,0.38,1.07,154.33,-0.9222079515457153,0.36260807514190674,-0.009835364297032356,0.017156297340989113,-10.602168083190918,4.164647102355957,-4.1106414794921875,-0.01,0.01,0.02,257.64
1682373578.99870324,137121838,2,0.5,1.1,154.13,-0.9204204678535461,0.374428391456604,-0.00522734597325325,-0.016322974115610123,-10.692708969116211,4.207055568695068,-4.112625598907471,-0.01,0.01,0.02,257.64
1682373579.09869218,137221827,2,0.6,1.1500000000000001,153.95000000000002,-0.9085997343063354,0.3775222897529602,-0.020605318248271942,-0.06228890269994736,-10.786368370056152,4.248184680938721,-4.116528511047363,-0.01,0.01,0.02,257.64
1682373579.19867325,137321808,2,0.63,1.22,153.78,-0.9010696411132812,0.38349825143814087,0.008426981046795845,-0.037325162440538406,-10.87899398803711,4.287595748901367,-4.12094259262085,-0.01,0.01,0.02,257.64
1682373579.29877424,137421909,2,0.59,1.23,153.63,-0.903479814529419,0.35832732915878296,-0.02162807621061802,-0.05634542554616928,-10.974263191223145,4.3284831047058105,-4.12442684173584,-0.01,0.01,0.02,257.64
1682373579.39863610,137521771,2,0.66,1.27,153.5,-0.8959095478057861,0.3470396101474762,0.015009998343884945,-0.025915848091244698,-11.067936897277832,4.367461204528809,-4.129619121551514,-0.01,0.01,0.02,257.64
1682373579.49859810,137621733,2,0.65,1.33,153.39000000000001,-0.9068436622619629,0.347763329744339,-0.004409714601933956,-0.05034501478075981,-11.169715881347656,4.405772686004639,-4.134491920471191,-0.01,0.01,0.02,257.64
1682373579.59860110,137721736,2,0.51,1.5,153.3,-0.8936585783958435,0.3389091193675995,0.018008770421147346,-0.052905965596437454,-11.268369674682617,4.442319393157959,-4.142711162567139,-0.01,0.01,0.02,257.64
1682373579.69860506,137821740,2,0.41000000000000003,1.6600000000000001,153.24,-0.8834530115127563,0.32928019762039185,0.0019860120955854654,-0.08525298535823822,-11.359820365905762,4.479203224182129,-4.150367259979248,-0.01,0.01,0.02,257.64
1682373579.79865813,137921793,2,0.31,1.55,153.19,-0.8667922616004944,0.3337763249874115,-0.0016716144746169448,-0.06435364484786987,-11.449666976928711,4.514605522155762,-4.154855251312256,-0.01,0.01,0.02,257.64
1682373579.89870405,138021839,2,0.27,1.34,153.15,-0.8574587106704712,0.3243514597415924,0.01580168679356575,-0.013201440684497356,-11.538392066955566,4.5488176345825195,-4.155623912811279,-0.01,0.01,0.02,257.64
1682373579.99868917,138121824,2,0.26,1.06,153.16,-0.8518988490104675,0.3179261088371277,0.025283044204115868,-0.00018739255028776824,-11.62630844116211,4.583046913146973,-4.15678071975708,-0.01,0.01,0.02,257.64
1682373580.09867406,138221809,2,0.3,0.8200000000000001,153.18,-0.8457943201065063,0.32438990473747253,0.03640972450375557,0.007350345607846975,-11.710938453674316,4.6198811531066895,-4.157670021057129,-0.01,0.01,0.02,257.64
1682373580.19867206,138321807,2,0.38,0.68,153.24,-0.8439109921455383,0.32537126541137695,0.02912612445652485,0.0023866714909672737,-11.794670104980469,4.65607213973999,-4.1580705642700195,-0.01,0.01,0.02,257.64
1682373580.29862809,138421763,2,0.45,0.62,153.29,-0.8389453887939453,0.33879730105400085,0.04289109259843826,0.004709369968622923,-11.881523132324219,4.693068027496338,-4.1592230796813965,-0.01,0.01,0.02,257.64
1682373580.39859509,138521730,2,0.47000000000000003,0.64,153.35,-0.8340712785720825,0.34496504068374634,0.05297612398862839,0.008515318855643272,-11.967337608337402,4.729101657867432,-4.159872055053711,-0.01,0.01,0.02,257.64
1682373580.49859810,138621733,2,0.45,0.63,153.43,-0.8483157753944397,0.33524569869041443,0.030270442366600037,-0.0035886927507817745,-12.054265975952148,4.7657389640808105,-4.158769130706787,-0.01,0.01,0.02,257.64
1682373580.59859920,138721734,2,0.34,0.5,153.49,-0.84360271692276,0.32655173540115356,0.024173667654395103,-0.00853612832725048,-12.140652656555176,4.8018574714660645,-4.1582865715026855,-0.01,0.01,0.02,257.64
1682373580.69865608,138821791,2,0.33,0.47000000000000003,153.55,-0.8461103439331055,0.3481569290161133,0.03470714017748833,0.007064316421747208,-12.230854988098145,4.839390277862549,-4.156289577484131,-0.01,0.01,0.02,257.64
1682373580.79867721,138921812,2,0.29,0.4,153.6,-0.8533419370651245,0.34602591395378113,0.04654308781027794,0.02179221622645855,-12.318391799926758,4.875859260559082,-4.154295921325684,-0.01,0.01,0.02,257.64
1682373580.89869118,139021826,2,0.23,0.44,153.66,-0.8521738052368164,0.3495117723941803,0.043303463608026505,0.025474587455391884,-12.408496856689453,4.912353992462158,-4.151427268981934,-0.01,0.01,0.02,257.64
1682373580.99868226,139121817,2,0.2,0.46,153.69,-0.860287070274353,0.36045047640800476,0.05104772001504898,0.01514528226107359,-12.497699737548828,4.948697090148926,-4.15022611618042,-0.01,0.01,0.02,257.64
1682373581.09859610,139221731,2,0.16,0.44,153.72,-0.8643920421600342,0.3573053479194641,0.048539482057094574,0.008739029988646507,-12.58742618560791,4.985725402832031,-4.147976875305176,-0.01,0.01,0.02,257.64
1682373581.19864106,139321776,2,0.21,0.46,153.74,-0.8629248142242432,0.37363287806510925,0.051492925733327866,0.011818796396255493,-12.676192283630371,5.022880554199219,-4.145895957946777,-0.01,0.01,0.02,257.64
1682373581.29859805,139421733,2,0.27,0.39,153.75,-0.8675135970115662,0.3819301724433899,0.059078726917505264,0.04023614153265953,-12.768538475036621,5.059634208679199,-4.141156196594238,-0.01,0.01,0.02,257.64
1682373581.39860415,139521739,2,0.33,0.41000000000000003,153.76,-0.8616505861282349,0.38212499022483826,0.07950519025325775,0.05328938737511635,-12.859540939331055,5.0965576171875,-4.1385674476623535,-0.01,0.01,0.02,257.64
1682373581.49860406,139621739,2,0.44,0.44,153.75,-0.8755174279212952,0.38507354259490967,0.06989140063524246,0.01831955648958683,-12.951889038085938,5.138599872589111,-4.137866020202637,-0.01,0.01,0.02,257.64
1682373581.59865022,139721785,2,0.54,0.5,153.75,-0.8692397475242615,0.3802050054073334,0.050024986267089844,-0.02141057886183262,-13.042940139770508,5.17991828918457,-4.138823986053467,-0.01,0.01,0.02,257.64
