timestamp,TimeUS,DesRoll,Roll,DesPitch,Pitch,DesYaw,Yaw,ErrRP,ErrYaw,AEKF
10.51010800,10510108,0.0,-0.09,0.0,0.34,359.99,0.0,1.0,1.0,0
10.60992500,10609925,0.0,-0.09,0.0,0.34,137.25,137.25,1.0,0.8,0
10.70997000,10709970,0.0,-0.08,0.0,0.34,137.20000000000002,137.20000000000002,0.8,0.64,0
10.80989100,10809891,0.0,-0.08,0.0,0.34,137.19,137.19,0.8,0.51,0
10.90981700,10909817,0.0,-0.08,0.0,0.35000000000000003,137.36,137.36,0.64,0.41000000000000003,0
11.00976500,11009765,0.0,-0.07,0.0,0.35000000000000003,137.36,137.36,0.64,0.33,0
11.10971100,11109711,0.0,-0.07,0.0,0.36,137.38,137.38,0.51,0.26,0
11.20971300,11209713,0.0,-0.06,0.0,0.36,137.35,137.35,0.51,0.21,0
11.30983900,11309839,0.0,-0.06,0.0,0.36,137.37,137.37,0.4,0.17,0
11.40990800,11409908,0.0,-0.05,0.0,0.37,137.31,137.31,0.4,0.14,0
11.50999600,11509996,0.0,-0.05,0.0,0.37,137.31,137.31,0.32,0.11,0
11.60998700,11609987,0.0,-0.06,0.0,0.36,136.75,136.75,0.32,0.11,0
11.70999600,11709996,0.0,-0.07,0.0,0.36,135.11,135.11,0.26,0.16,0
11.80996300,11809963,0.0,-0.08,0.0,0.36,134.47,134.47,0.26,0.15,0
11.90985200,11909852,0.0,-0.07,0.0,0.36,134.69,134.69,0.21,0.13,0
12.00986700,12009867,0.0,-0.07,0.0,0.37,134.99,134.99,0.21,0.11,0
12.10982200,12109822,0.0,-0.07,0.0,0.37,135.24,135.24,0.16,0.1,0
12.20992700,12209927,0.0,-0.07,0.0,0.37,135.4,135.4,0.16,0.09,0
12.30997700,12309977,0.0,-0.06,0.0,0.37,135.53,135.53,0.13,0.07,0
12.41008000,12410080,0.0,-0.06,0.0,0.37,135.71,135.71,0.13,0.07,0
12.51019500,12510195,0.04,0.01,0.04,0.45,359.99,0.0,0.1,0.06,3
12.61023700,12610237,0.02,0.01,0.02,0.45,359.99,0.0,0.1,0.05,3
12.71025500,12710255,0.01,0.01,0.01,0.45,359.99,0.0,0.08,0.04,3
12.80999100,12809991,0.0,0.01,0.0,0.45,0.0,0.0,0.08,0.04,3
12.90996000,12909960,0.0,0.01,0.0,0.45,0.0,0.0,0.06,0.03,3
13.00986900,13009869,0.0,0.01,0.0,0.45,0.01,0.01,0.06,0.03,3
13.10997300,13109973,0.0,0.01,0.0,0.45,0.01,0.01,0.05,0.02,3
13.21001700,13210017,0.0,0.01,0.0,0.45,0.01,0.01,0.05,0.02,3
13.31007500,13310075,0.0,0.0,0.0,0.45,0.02,0.02,0.04,0.02,3
13.41007300,13410073,0.0,0.0,0.0,0.45,0.02,0.02,0.04,0.02,3
13.51002300,13510023,0.0,0.0,0.0,0.45,0.02,0.02,0.03,0.02,3
13.61001000,13610010,0.0,0.0,0.0,0.45,0.02,0.02,0.03,0.01,3
13.70996600,13709966,0.0,0.0,0.0,0.45,0.02,0.02,0.02,0.01,3
13.80991600,13809916,0.0,-0.01,0.0,0.45,0.02,0.02,0.02,0.01,3
13.90986200,13909862,0.0,-0.02,0.0,0.44,0.02,0.02,0.02,0.01,3
14.01000100,14010001,-0.02,-0.05,0.0,0.44,137.79,137.79,0.02,0.01,3
14.11005000,14110050,-0.01,-0.04,0.0,0.44,137.76,137.76,0.01,0.01,3
14.21009600,14210096,0.0,-0.04,0.0,0.44,137.74,137.74,0.01,0.01,3
14.31006100,14310061,0.0,-0.02,0.0,0.44,137.72,137.72,0.01,0.01,3
14.41008000,14410080,0.0,-0.02,0.0,0.44,137.66,137.68,0.01,0.01,3
14.51010400,14510104,0.0,-0.01,0.0,0.44,137.58,137.61,0.01,0.07,3
14.61000100,14610001,0.0,-0.02,0.0,0.44,137.14000000000001,137.17000000000002,0.01,0.1,3
14.70994400,14709944,0.0,-0.02,0.0,0.44,136.26,136.27,0.0,0.09,3
14.80989700,14809897,0.0,-0.02,0.0,0.45,135.32,135.31,0.0,0.08,3
14.90997100,14909971,0.0,-0.03,0.0,0.45,134.61,134.61,0.0,0.07,3
15.01002900,15010029,0.0,-0.02,0.0,0.45,134.22,134.22,0.0,0.06,3
15.11008900,15110089,0.0,-0.02,0.0,0.45,134.09,134.09,0.0,0.06,3
15.21005300,15210053,0.0,-0.02,0.0,0.45,134.18,134.18,0.0,0.05,3
15.31004500,15310045,0.0,-0.02,0.0,0.46,134.37,134.37,0.0,0.05,3
15.41005600,15410056,0.0,-0.02,0.0,0.46,134.61,134.61,0.0,0.04,3
15.51025400,15510254,0.0,-0.03,0.0,0.46,134.85,134.85,0.0,0.03,3
15.61026300,15610263,0.0,-0.03,0.0,0.47000000000000003,135.05,135.05,0.0,0.03,3
15.71012700,15710127,0.0,-0.03,0.0,0.47000000000000003,135.22,135.23,0.0,0.03,3
15.81023700,15810237,0.0,-0.03,0.0,0.46,135.37,135.37,0.0,0.02,3
15.91026000,15910260,0.0,-0.04,0.0,0.46,135.48,135.48,0.0,0.02,3
16.01031100,16010311,0.0,-0.04,0.0,0.46,135.58,135.58,0.0,0.02,3
16.11026300,16110263,0.0,-0.05,0.0,0.47000000000000003,135.66,135.66,0.0,0.02,3
16.21025600,16210256,0.0,-0.05,0.0,0.46,135.73,135.73,0.0,0.01,3
16.31025600,16310256,0.0,-0.05,0.0,0.46,135.79,135.79,0.0,0.01,3
16.41030000,16410300,0.0,-0.06,0.0,0.46,135.86,135.86,0.0,0.01,3
16.50994000,16509940,0.0,-0.06,0.0,0.46,135.92000000000002,135.92000000000002,0.0,0.01,3
16.60997300,16609973,0.0,-0.06,0.0,0.46,136.0,136.0,0.0,0.01,3
16.70999200,16709992,0.0,-0.06,0.0,0.45,136.07,136.07,0.0,0.01,3
16.81001500,16810015,0.0,-0.07,0.0,0.45,136.14000000000001,136.14000000000001,0.0,0.01,3
16.91009700,16910097,0.0,-0.07,0.0,0.44,136.19,136.2,0.0,0.01,3
17.01006400,17010064,0.0,-0.08,0.0,0.44,136.23,136.26,0.0,0.01,3
17.11003600,17110036,0.0,-0.08,0.0,0.43,136.31,136.32,0.0,0.01,3
17.21001900,17210019,0.0,-0.08,0.0,0.43,136.38,136.38,0.0,0.01,3
17.30999500,17309995,0.0,-0.09,0.0,0.43,136.44,136.44,0.0,0.05,3
17.40997000,17409970,0.0,-0.09,0.0,0.43,136.41,136.41,0.0,0.1,3
17.50987400,17509874,0.0,-0.09,0.0,0.42,136.16,136.16,0.0,0.08,3
17.60998900,17609989,0.0,-0.09,0.0,0.42,135.8,135.8,0.0,0.08,3
17.71001000,17710010,0.0,-0.09,0.0,0.42,135.49,135.49,0.0,0.07,3
17.81009300,17810093,0.0,-0.09,0.0,0.42,135.29,135.29,0.0,0.06,3
17.91004700,17910047,0.0,-0.09,0.0,0.42,135.2,135.2,0.0,0.06,3
18.01005400,18010054,0.0,-0.09,0.0,0.42,135.19,135.19,0.0,0.05,3
18.11002500,18110025,0.0,-0.09,0.0,0.42,135.25,135.25,0.0,0.05,3
18.20998200,18209982,0.0,-0.08,0.0,0.42,135.34,135.34,0.0,0.04,3
18.30994500,18309945,0.0,-0.08,0.0,0.42,135.45,135.45,0.0,0.04,3
18.40990800,18409908,0.0,-0.08,0.0,0.42,135.57,135.56,0.0,0.04,3
18.50999300,18509993,0.0,-0.07,0.0,0.42,135.7,135.67000000000002,0.0,0.03,3
18.61003200,18610032,0.0,-0.07,0.0,0.42,135.81,135.78,0.0,0.03,3
18.71009100,18710091,0.0,-0.07,0.0,0.42,135.87,135.87,0.0,0.02,3
18.81005300,18810053,0.0,-0.07,0.0,0.42,135.94,135.94,0.0,0.02,3
18.91004800,18910048,0.0,-0.07,0.0,0.42,136.0,136.0,0.0,0.02,3
19.01002200,19010022,0.0,-0.07,0.0,0.42,136.04,136.04,0.0,0.02,3
19.10999700,19109997,0.0,-0.06,0.0,0.42,136.09,136.09,0.0,0.01,3
19.20994400,19209944,0.0,-0.07,0.0,0.42,136.16,136.14000000000001,0.0,0.01,3
19.30988300,19309883,0.0,-0.06,0.0,0.42,136.24,136.2,0.0,0.01,3
19.41001000,19410010,0.0,-0.06,0.0,0.42,136.29,136.25,0.0,0.01,3
19.51001700,19510017,0.0,-0.06,0.0,0.42,136.33,136.29,0.0,0.01,3
19.61009100,19610091,0.0,-0.06,0.0,0.42,136.37,136.34,0.0,0.01,3
19.71003700,19710037,0.0,-0.06,0.0,0.42,136.41,136.38,0.0,0.01,3
19.81026400,19810264,0.0,-0.06,0.0,0.42,136.49,136.44,0.0,0.01,3
19.91026100,19910261,0.0,-0.07,0.0,0.42,136.56,136.49,0.0,0.01,3
20.01028300,20010283,0.0,-0.06,0.0,0.42,136.62,136.55,0.0,0.01,3
20.11027300,20110273,0.0,-0.06,0.0,0.42,136.70000000000002,136.6,0.0,0.03,3
20.21012000,20210120,0.0,-0.06,0.0,0.42,136.69,136.59,0.0,0.1,3
20.31022900,20310229,0.0,-0.07,0.0,0.42,136.47,136.4,0.0,0.12,3
20.41034000,20410340,0.0,-0.07,0.0,0.42,136.04,135.99,0.0,0.1,3
20.51030500,20510305,0.0,-0.07,0.0,0.42,135.57,135.54,0.0,0.09,3
20.61026000,20610260,0.0,-0.07,0.0,0.42,135.18,135.18,0.0,0.08,3
20.71026400,20710264,0.0,-0.07,0.0,0.42,134.95,134.95,0.0,0.07,3
20.81035300,20810353,0.0,-0.08,0.0,0.42,134.85,134.85,0.0,0.07,3
20.91028300,20910283,0.0,-0.08,0.0,0.43,134.85,134.84,0.0,0.07,3
21.01028500,21010285,0.0,-0.08,0.0,0.43,134.91,134.91,0.0,0.06,3
21.11012200,21110122,0.0,-0.08,0.0,0.43,135.01,135.01,0.0,0.05,3
21.21023500,21210235,0.0,-0.08,0.0,0.43,135.13,135.13,0.0,0.05,3
21.31023900,21310239,0.0,-0.08,0.0,0.44,135.24,135.24,0.0,0.04,3
21.41012500,21410125,0.0,-0.08,0.0,0.44,135.33,135.33,0.0,0.04,3
21.51005500,21510055,0.0,-0.08,0.0,0.44,135.42000000000002,135.42000000000002,0.0,0.03,3
21.61018400,21610184,0.0,-0.09,0.0,0.44,135.49,135.49,0.0,0.03,3
21.71018400,21710184,0.0,-0.09,0.0,0.44,135.55,135.55,0.0,0.03,3
21.81024900,21810249,0.0,-0.08,0.0,0.44,135.62,135.62,0.0,0.03,3
21.91019200,21910192,0.0,-0.08,0.0,0.44,135.68,135.68,0.0,0.02,3
22.01008400,22010084,0.0,-0.08,0.0,0.44,135.74,135.74,0.0,0.02,3
22.11020500,22110205,0.0,-0.08,0.0,0.44,135.8,135.8,0.0,0.02,3
22.21019000,22210190,0.0,-0.08,0.0,0.44,135.86,135.86,0.0,0.02,3
22.31027400,22310274,0.0,-0.08,0.0,0.44,135.93,135.93,0.0,0.02,3
22.41028100,22410281,0.0,-0.09,0.0,0.44,136.0,136.0,0.0,0.02,3
22.51020500,22510205,0.0,-0.08,0.0,0.45,136.07,136.07,0.0,0.02,3
22.61024900,22610249,0.0,-0.09,0.0,0.45,136.14000000000001,136.14000000000001,0.0,0.02,3
22.71028200,22710282,0.0,-0.08,0.0,0.45,136.21,136.21,0.0,0.01,3
22.81023500,22810235,0.0,-0.08,0.0,0.45,136.27,136.27,0.0,0.01,3
22.91043700,22910437,0.0,-0.08,0.0,0.45,136.34,136.34,0.0,0.01,3
23.01018100,23010181,0.0,-0.09,0.0,0.45,136.38,136.38,0.0,0.08,3
23.11017000,23110170,0.0,-0.09,0.0,0.45,136.31,136.31,0.0,0.1,3
23.21025400,23210254,0.0,-0.08,0.0,0.45,136.06,136.06,0.0,0.09,3
23.31020600,23310206,0.0,-0.09,0.0,0.46,135.77,135.77,0.0,0.08,3
23.41025500,23410255,0.0,-0.08,0.0,0.46,135.52,135.52,0.0,0.07,3
23.51018700,23510187,0.0,-0.09,0.0,0.46,135.36,135.36,0.0,0.06,3
23.61023700,23610237,0.0,-0.08,0.0,0.46,135.28,135.28,0.0,0.06,3
23.71021200,23710212,0.0,-0.09,0.0,0.46,135.27,135.27,0.0,0.05,3
23.81009800,23810098,0.0,-0.09,0.0,0.46,135.3,135.3,0.0,0.04,3
23.91019700,23910197,0.0,-0.09,0.0,0.46,135.36,135.36,0.0,0.04,3
24.01053100,24010531,0.0,-0.09,0.0,0.47000000000000003,135.43,135.43,0.0,0.04,3
24.11030900,24110309,0.0,-0.09,0.0,0.47000000000000003,135.51,135.51,0.0,0.03,3
24.21025100,24210251,0.0,-0.09,0.0,0.47000000000000003,135.58,135.58,0.0,0.03,3
24.31026600,24310266,0.0,-0.09,0.0,0.46,135.64000000000001,135.64000000000001,0.0,0.03,3
24.41030600,24410306,0.0,-0.09,0.0,0.47000000000000003,135.7,135.7,0.0,0.02,3
24.51027300,24510273,0.0,-0.09,0.0,0.47000000000000003,135.76,135.76,0.0,0.02,3
24.61024100,24610241,0.0,-0.09,0.0,0.47000000000000003,135.81,135.81,0.0,0.02,3
24.71011500,24710115,0.0,-0.09,0.0,0.47000000000000003,135.86,135.86,0.0,0.02,3
24.81021900,24810219,0.0,-0.09,0.0,0.47000000000000003,135.92000000000002,135.92000000000002,0.0,0.02,3
24.91023100,24910231,0.0,-0.09,0.0,0.47000000000000003,135.97,135.97,0.0,0.02,3
25.01012000,25010120,0.0,-0.09,0.0,0.47000000000000003,136.03,136.03,0.0,0.02,3
25.11004800,25110048,0.0,-0.09,0.0,0.48,136.09,136.09,0.0,0.01,3
25.21003700,25210037,0.0,-0.09,0.0,0.48,136.12,136.12,0.0,0.01,3
25.31002300,25310023,0.0,-0.09,0.0,0.48,136.16,136.16,0.0,0.01,3
25.41003000,25410030,0.0,-0.09,0.0,0.48,136.19,136.19,0.0,0.01,3
25.50994100,25509941,0.0,-0.09,0.0,0.48,136.23,136.23,0.0,0.01,3
25.60987700,25609877,0.0,-0.09,0.0,0.48,136.25,136.25,0.0,0.01,3
25.70998000,25709980,0.0,-0.09,0.0,0.48,136.27,136.27,0.0,0.0,3
25.81004800,25810048,0.0,-0.09,0.0,0.48,136.29,136.29,0.0,0.06,3
25.91008200,25910082,0.0,-0.1,0.0,0.48,136.24,136.24,0.0,0.11,3
26.01005100,26010051,0.0,-0.09,0.0,0.48,136.03,136.03,0.0,0.09,3
26.11005500,26110055,0.0,-0.08,0.0,0.47000000000000003,135.74,135.74,0.0,0.08,3
26.21002400,26210024,0.0,-0.08,0.0,0.47000000000000003,135.47,135.47,0.0,0.07,3
26.30999100,26309991,0.0,-0.08,0.0,0.47000000000000003,135.28,135.28,0.0,0.07,3
26.40997700,26409977,0.0,-0.08,0.0,0.47000000000000003,135.17000000000002,135.17000000000002,0.0,0.06,3
26.50987300,26509873,0.0,-0.09,0.0,0.47000000000000003,135.13,135.13,0.0,0.06,3
26.60996800,26609968,0.0,-0.09,0.0,0.47000000000000003,135.14000000000001,135.14000000000001,0.0,0.05,3
26.71002600,26710026,0.0,-0.09,0.0,0.47000000000000003,135.18,135.18,0.0,0.05,3
26.81009700,26810097,0.0,-0.08,0.0,0.47000000000000003,135.24,135.24,0.0,0.05,3
26.91005600,26910056,0.0,-0.09,0.0,0.47000000000000003,135.31,135.31,0.0,0.05,3
27.01006000,27010060,0.0,-0.08,0.0,0.47000000000000003,135.38,135.38,0.0,0.04,3
27.11011800,27110118,0.0,-0.09,0.0,0.47000000000000003,135.45,135.45,0.0,0.04,3
27.21000000,27210000,0.0,-0.08,0.0,0.47000000000000003,135.51,135.51,0.0,0.04,3
27.30993900,27309939,0.0,-0.08,0.0,0.47000000000000003,135.58,135.58,0.0,0.03,3
27.40991300,27409913,0.0,-0.08,0.0,0.47000000000000003,135.63,135.63,0.0,0.03,3
27.50997600,27509976,0.0,-0.08,0.0,0.47000000000000003,135.69,135.69,0.0,0.02,3
27.61002300,27610023,0.0,-0.08,0.0,0.47000000000000003,135.73,135.73,0.0,0.02,3
27.71010100,27710101,0.0,-0.08,0.0,0.47000000000000003,135.77,135.77,0.0,0.02,3
27.81005300,27810053,0.0,-0.08,0.0,0.47000000000000003,135.81,135.81,0.0,0.02,3
27.91005000,27910050,0.0,-0.08,0.0,0.47000000000000003,135.84,135.84,0.0,0.01,3
28.01001700,28010017,0.0,-0.08,0.0,0.47000000000000003,135.87,135.87,0.0,0.01,3
28.10998200,28109982,0.0,-0.08,0.0,0.47000000000000003,135.9,135.9,0.0,0.01,3
28.20994900,28209949,0.0,-0.09,0.0,0.47000000000000003,135.92000000000002,135.92000000000002,0.0,0.01,3
28.31011400,28310114,0.0,-0.09,0.0,0.46,135.94,135.94,0.0,0.01,3
28.41031200,28410312,0.0,-0.09,0.0,0.47000000000000003,135.96,135.96,0.0,0.01,3
28.51028900,28510289,0.0,-0.09,0.0,0.47000000000000003,135.99,135.99,0.0,0.01,3
28.61029800,28610298,0.0,-0.09,0.0,0.47000000000000003,136.01,136.01,0.0,0.03,3
28.71026400,28710264,0.0,-0.09,0.0,0.47000000000000003,136.01,136.01,0.0,0.1,3
28.81026100,28810261,0.0,-0.09,0.0,0.47000000000000003,135.91,135.91,0.0,0.09,3
28.91027700,28910277,0.0,-0.1,0.0,0.47000000000000003,135.72,135.72,0.0,0.08,3
29.01000800,29010008,0.0,-0.1,0.0,0.47000000000000003,135.52,135.52,0.0,0.07,3
29.10993200,29109932,0.0,-0.09,0.0,0.47000000000000003,135.36,135.36,0.0,0.07,3
29.20988700,29209887,0.0,-0.1,0.0,0.47000000000000003,135.27,135.27,0.0,0.07,3
29.30998200,29309982,0.0,-0.1,0.0,0.47000000000000003,135.23,135.23,0.0,0.06,3
29.41007100,29410071,0.0,-0.1,0.0,0.47000000000000003,135.25,135.25,0.0,0.05,3
29.51010300,29510103,0.0,-0.1,0.0,0.46,135.28,135.28,0.0,0.05,3
29.61005100,29610051,0.0,-0.1,0.0,0.46,135.33,135.33,0.0,0.04,3
29.71004800,29710048,0.0,-0.1,0.0,0.46,135.37,135.37,0.0,0.03,3
29.81002200,29810022,0.0,-0.1,0.0,0.46,135.41,135.41,0.0,0.03,3
29.90998400,29909984,0.0,-0.11,0.0,0.46,135.44,135.44,0.0,0.03,3
30.00993100,30009931,0.0,-0.11,0.0,0.47000000000000003,135.47,135.47,0.0,0.03,3
30.10986800,30109868,0.0,-0.11,0.0,0.46,135.51,135.51,0.0,0.03,3
30.20997700,30209977,0.0,-0.11,0.0,0.46,135.55,135.55,0.0,0.03,3
30.31003300,30310033,0.0,-0.11,0.0,0.46,135.6,135.6,0.0,0.03,3
30.41014300,30410143,0.0,-0.12,0.0,0.46,135.65,135.65,0.0,0.02,3
30.51006800,30510068,0.0,-0.11,0.0,0.46,135.69,135.69,0.0,0.02,3
30.61004100,30610041,0.0,-0.11,0.0,0.46,135.74,135.74,0.0,0.02,3
30.71001500,30710015,0.0,-0.11,0.0,0.46,135.77,135.77,0.0,0.01,3
30.80998600,30809986,0.0,-0.11,0.0,0.46,135.81,135.81,0.0,0.01,3
30.90993200,30909932,0.0,-0.11,0.0,0.45,135.83,135.83,0.0,0.01,3
31.00988500,31009885,0.0,-0.11,0.0,0.45,135.85,135.85,0.0,0.01,3
31.11019800,31110198,0.0,-0.12,0.0,0.45,135.87,135.87,0.0,0.01,3
31.21021800,31210218,0.0,-0.12,0.0,0.44,135.89000000000001,135.89000000000001,0.0,0.01,3
31.31030700,31310307,0.0,-0.12,0.0,0.44,135.91,135.91,0.0,0.01,3
31.41029300,31410293,0.0,-0.12,0.0,0.44,135.94,135.94,0.0,0.02,3
31.51025500,31510255,0.0,-0.11,0.0,0.44,135.95,135.95,0.0,0.08,3
31.61025900,31610259,0.0,-0.11,0.0,0.44,135.9,135.9,0.0,0.11,3
31.71025800,31710258,0.0,-0.11,0.0,0.44,135.74,135.74,0.0,0.09,3
31.81025200,31810252,0.0,-0.11,0.0,0.44,135.57,135.57,0.0,0.07,3
31.91012100,31910121,0.0,-0.11,0.0,0.43,135.42000000000002,135.42000000000002,0.0,0.06,3
32.01023000,32010230,0.0,-0.1,0.0,0.44,135.33,135.33,0.0,0.05,3
32.11029000,32110290,0.0,-0.1,0.0,0.44,135.29,135.29,0.0,0.05,3
32.21030000,32210300,0.0,-0.1,0.0,0.44,135.29,135.29,0.0,0.04,3
32.31025400,32310254,0.0,-0.1,0.0,0.43,135.32,135.32,0.0,0.04,3
32.41028600,32410286,0.0,-0.1,0.0,0.43,135.36,135.36,0.0,0.03,3
32.51024500,32510245,0.0,-0.1,0.0,0.43,135.41,135.41,0.0,0.03,3
32.61026900,32610269,0.0,-0.1,0.0,0.43,135.46,135.46,0.0,0.03,3
32.71024300,32710243,0.0,-0.1,0.0,0.43,135.51,135.51,0.0,0.02,3
32.81011100,32810111,0.0,-0.1,0.0,0.43,135.55,135.55,0.0,0.02,3
32.91022400,32910224,0.0,-0.09,0.0,0.43,135.58,135.58,0.0,0.01,3
33.01018900,33010189,0.0,-0.09,0.0,0.43,135.61,135.61,0.0,0.01,3
33.11030400,33110304,0.0,-0.09,0.0,0.43,135.62,135.62,0.0,0.01,3
33.21025700,33210257,0.0,-0.09,0.0,0.42,135.65,135.65,0.0,0.02,3
33.31003000,33310030,0.0,-0.09,0.0,0.43,135.68,135.68,0.0,0.01,3
33.41013300,33410133,0.0,-0.09,0.0,0.42,135.71,135.71,0.0,0.01,3
33.50998400,33509984,0.0,-0.09,0.0,0.43,135.74,135.74,0.0,0.01,3
33.60993200,33609932,0.0,-0.09,0.0,0.43,135.76,135.76,0.0,0.01,3
33.70986700,33709867,0.0,-0.09,0.0,0.44,135.79,135.79,0.0,0.01,3
33.80996200,33809962,0.0,-0.09,0.0,0.44,135.81,135.81,0.0,0.01,3
33.91001800,33910018,0.0,-0.09,0.0,0.44,135.84,135.84,0.0,0.01,3
34.01011000,34010110,0.0,-0.09,0.0,0.44,135.86,135.86,0.0,0.01,3
34.11004400,34110044,0.0,-0.08,0.0,0.45,135.88,135.88,0.0,0.01,3
34.21017700,34210177,0.0,-0.09,0.0,0.45,135.91,135.91,0.0,0.01,3
34.31017900,34310179,0.0,-0.09,0.0,0.45,135.93,135.93,0.0,0.06,3
34.41024600,34410246,0.0,-0.08,0.0,0.45,135.92000000000002,135.92000000000002,0.0,0.11,3
34.51020600,34510206,0.0,-0.08,0.0,0.45,135.82,135.82,0.0,0.09,3
34.61008800,34610088,0.0,-0.09,0.0,0.46,135.66,135.66,0.0,0.08,3
34.71020700,34710207,0.0,-0.09,0.0,0.46,135.53,135.53,0.0,0.06,3
34.81016600,34810166,0.0,-0.08,0.0,0.47000000000000003,135.44,135.44,0.0,0.05,3
34.91030600,34910306,0.0,-0.08,0.0,0.47000000000000003,135.39000000000001,135.39000000000001,0.0,0.04,3
35.01023700,35010237,0.0,-0.08,0.0,0.48,135.38,135.38,0.0,0.04,3
35.11021900,35110219,0.0,-0.09,0.0,0.48,135.39000000000001,135.39000000000001,0.0,0.03,3
35.21049700,35210497,0.0,-0.09,0.0,0.48,135.42000000000002,135.42000000000002,0.0,0.03,3
35.31017000,35310170,0.0,-0.08,0.0,0.48,135.45,135.45,0.0,0.02,3
35.41031000,35410310,0.0,-0.08,0.0,0.48,135.47,135.47,0.0,0.02,3
35.51031900,35510319,0.0,-0.08,0.0,0.49,135.5,135.5,0.0,0.02,3
35.61023900,35610239,0.0,-0.08,0.0,0.49,135.53,135.53,0.0,0.02,3
35.71023900,35710239,0.0,-0.08,0.0,0.49,135.56,135.56,0.0,0.02,3
35.81028300,35810283,0.0,-0.08,0.0,0.5,135.59,135.59,0.0,0.01,3
35.91025500,35910255,0.0,-0.08,0.0,0.5,135.61,135.61,0.0,0.01,3
36.01025000,36010250,0.0,-0.08,0.0,0.5,135.63,135.63,0.0,0.01,3
36.11025100,36110251,0.0,-0.07,0.0,0.51,135.65,135.65,0.0,0.01,3
36.21054200,36210542,0.0,-0.07,0.0,0.51,135.66,135.66,0.0,0.01,3
36.31022500,36310225,0.0,-0.07,0.0,0.51,135.69,135.69,0.0,0.01,3
36.41019900,36410199,0.0,-0.07,0.0,0.51,135.71,135.71,0.0,0.01,3
36.51021400,36510214,0.0,-0.07,0.0,0.51,135.73,135.73,0.0,0.01,3
36.61027000,36610270,0.0,-0.07,0.0,0.52,135.75,135.75,0.0,0.01,3
36.71030700,36710307,0.0,-0.07,0.0,0.52,135.77,135.77,0.0,0.01,3
36.81025100,36810251,0.0,-0.07,0.0,0.53,135.78,135.78,0.0,0.01,3
36.91026400,36910264,0.0,-0.07,0.0,0.53,135.79,135.79,0.0,0.01,3
37.01026700,37010267,0.0,-0.07,0.0,0.53,135.8,135.8,0.0,0.01,3
37.11028200,37110282,0.0,-0.07,0.0,0.53,135.81,135.81,0.0,0.04,3
37.21058000,37210580,0.0,-0.06,0.0,0.53,135.8,135.8,0.0,0.1,3
37.31010100,37310101,0.0,-0.06,0.0,0.53,135.73,135.73,0.0,0.09,3
37.41029900,37410299,0.0,-0.06,0.0,0.53,135.6,135.6,0.0,0.08,3
37.51002900,37510029,0.0,-0.06,0.0,0.53,135.47,135.47,0.0,0.07,3
37.61010200,37610102,0.0,-0.06,0.0,0.53,135.38,135.38,0.0,0.06,3
37.71004900,37710049,0.0,-0.06,0.0,0.54,135.33,135.33,0.0,0.05,3
37.81002600,37810026,0.0,-0.05,0.0,0.54,135.31,135.31,0.0,0.05,3
37.91002700,37910027,0.0,-0.05,0.0,0.55,135.32,135.32,0.0,0.04,3
38.00999100,38009991,0.0,-0.05,0.0,0.55,135.33,135.33,0.0,0.03,3
38.10993200,38109932,0.0,-0.05,0.0,0.55,135.36,135.36,0.0,0.03,3
38.20987800,38209878,0.0,-0.05,0.0,0.55,135.38,135.38,0.0,0.03,3
38.30997300,38309973,0.0,-0.05,0.0,0.55,135.41,135.41,0.0,0.02,3
38.41008000,38410080,0.0,-0.05,0.0,0.55,135.44,135.44,0.0,0.02,3
38.51007900,38510079,0.0,-0.05,0.0,0.55,135.46,135.46,0.0,0.02,3
38.61005400,38610054,0.0,-0.05,0.0,0.55,135.48,135.48,0.0,0.02,3
38.71003900,38710039,0.0,-0.05,0.0,0.55,135.5,135.5,0.0,0.02,3
38.81000800,38810008,0.0,-0.05,0.0,0.55,135.52,135.52,0.0,0.02,3
38.91001500,38910015,0.0,-0.05,0.0,0.56,135.54,135.54,0.0,0.02,3
39.00994500,39009945,0.0,-0.05,0.0,0.56,135.57,135.57,0.0,0.02,3
39.10986700,39109867,0.0,-0.05,0.0,0.55,135.59,135.59,0.0,0.02,3
39.20995700,39209957,0.0,-0.06,0.0,0.56,135.62,135.62,0.0,0.02,3
39.31000500,39310005,0.0,-0.05,0.0,0.55,135.65,135.65,0.0,0.02,3
39.41010600,39410106,0.0,-0.05,0.0,0.56,135.68,135.68,0.0,0.02,3
39.51005600,39510056,0.0,-0.04,0.0,0.55,135.71,135.71,0.0,0.02,3
39.61005200,39610052,0.0,-0.04,0.0,0.55,135.73,135.73,0.0,0.02,3
39.71010200,39710102,0.0,-0.04,0.0,0.55,135.75,135.75,0.0,0.02,3
39.80997100,39809971,0.0,-0.04,0.0,0.55,135.77,135.77,0.0,0.01,3
39.90993900,39909939,0.0,-0.05,0.0,0.55,135.79,135.79,0.0,0.03,3
40.00987000,40009870,0.0,-0.05,0.0,0.55,135.79,135.79,0.0,0.09,3
40.10997500,40109975,0.0,-0.05,0.0,0.56,135.73,135.73,0.0,0.11,3
40.21021800,40210218,0.0,-0.05,0.0,0.56,135.62,135.62,0.0,0.09,3
40.31029600,40310296,0.0,-0.05,0.0,0.56,135.48,135.48,0.0,0.08,3
40.41027700,40410277,0.0,-0.05,0.0,0.56,135.35,135.38,0.0,0.06,3
40.51025900,40510259,0.0,-0.05,0.0,0.56,135.3,135.31,0.0,0.06,3
40.61027800,40610278,0.0,-0.05,0.0,0.56,135.27,135.27,0.0,0.05,3
40.71027300,40710273,0.0,-0.04,0.0,0.56,135.26,135.26,0.0,0.04,3
40.81020500,40810205,0.0,-0.04,0.0,0.56,135.27,135.27,0.0,0.04,3
40.91012500,40910125,0.0,-0.04,0.0,0.56,135.3,135.3,0.0,0.03,3
41.01022600,41010226,0.0,-0.04,0.0,0.56,135.32,135.32,0.0,0.03,3
41.11021800,41110218,0.0,-0.04,0.0,0.56,135.35,135.35,0.0,0.03,3
41.21030900,41210309,0.0,-0.03,0.0,0.55,135.37,135.37,0.0,0.02,3
41.31025200,41310252,0.0,-0.03,0.0,0.56,135.39000000000001,135.39000000000001,0.0,0.02,3
41.41029000,41410290,0.0,-0.03,0.0,0.56,135.39000000000001,135.4,0.0,0.02,3
41.51028000,41510280,0.0,-0.03,0.0,0.55,135.42000000000002,135.42000000000002,0.0,0.02,3
41.61028400,41610284,0.0,-0.03,0.0,0.55,135.44,135.44,0.0,0.02,3
41.71022200,41710222,0.0,-0.03,0.0,0.55,135.45,135.45,0.0,0.02,3
41.80986800,41809868,0.0,-0.03,0.0,0.55,135.47,135.47,0.0,0.02,3
41.90996900,41909969,0.0,-0.03,0.0,0.55,135.49,135.49,0.0,0.02,3
42.01001700,42010017,0.0,-0.03,0.0,0.55,135.51,135.51,0.0,0.02,3
42.11008100,42110081,0.0,-0.03,0.0,0.55,135.54,135.54,0.0,0.02,3
42.21004400,42210044,0.0,-0.03,0.0,0.55,135.56,135.56,0.0,0.02,3
42.31003100,42310031,0.0,-0.03,0.0,0.55,135.58,135.58,0.0,0.02,3
42.41007300,42410073,0.0,-0.03,0.0,0.55,135.59,135.59,0.0,0.02,3
42.50998700,42509987,0.0,-0.03,0.0,0.55,135.61,135.61,0.0,0.02,3
42.60994300,42609943,0.0,-0.03,0.0,0.55,135.63,135.63,0.0,0.02,3
42.70988600,42709886,0.0,-0.03,0.0,0.55,135.65,135.65,0.0,0.02,3
42.80998000,42809980,0.0,-0.03,0.0,0.54,135.67000000000002,135.67000000000002,0.0,0.06,3
42.91002800,42910028,0.0,-0.03,0.0,0.54,135.66,135.66,0.0,0.1,3
43.01009900,43010099,0.0,-0.03,0.0,0.54,135.59,135.59,0.0,0.08,3
43.11004500,43110045,0.0,-0.03,0.0,0.54,135.48,135.48,0.0,0.07,3
43.21003600,43210036,0.0,-0.03,0.0,0.54,135.4,135.4,0.0,0.06,3
43.31001200,43310012,0.0,-0.03,0.0,0.54,135.33,135.33,0.0,0.05,3
43.41005300,43410053,0.0,-0.03,0.0,0.54,135.29,135.29,0.0,0.05,3
43.50994500,43509945,0.0,-0.03,0.0,0.53,135.29,135.29,0.0,0.05,3
43.61012400,43610124,0.0,-0.03,0.0,0.53,135.29,135.29,0.0,0.04,3
43.71022100,43710221,0.0,-0.03,0.0,0.53,135.31,135.31,0.0,0.03,3
43.81018700,43810187,0.0,-0.03,0.0,0.53,135.34,135.34,0.0,0.03,3
43.91031500,43910315,0.0,-0.03,0.0,0.53,135.36,135.36,0.0,0.02,3
44.01025400,44010254,0.0,-0.03,0.0,0.53,135.37,135.37,0.0,0.02,3
44.11026100,44110261,0.0,-0.02,0.0,0.53,135.39000000000001,135.39000000000001,0.0,0.02,3
44.21025300,44210253,0.0,-0.02,0.0,0.53,135.41,135.41,0.0,0.02,3
44.31027500,44310275,0.0,-0.02,0.0,0.53,135.42000000000002,135.42000000000002,0.0,0.02,3
44.41031600,44410316,0.0,-0.02,0.0,0.52,135.44,135.43,0.0,0.02,3
44.51011800,44510118,0.0,-0.02,0.0,0.52,135.46,135.44,0.0,0.02,3
44.61022000,44610220,0.0,-0.02,0.0,0.52,135.45,135.45,0.0,0.02,3
44.71019200,44710192,0.0,-0.02,0.0,0.53,135.47,135.47,0.0,0.02,3
44.81027700,44810277,0.0,-0.02,0.0,0.53,135.48,135.48,0.0,0.02,3
44.91026600,44910266,0.0,-0.02,0.0,0.52,135.49,135.49,0.0,0.02,3
45.01026100,45010261,0.0,-0.02,0.0,0.52,135.51,135.51,0.0,0.02,3
45.11025900,45110259,0.0,-0.02,0.0,0.52,135.52,135.52,0.0,0.02,3
45.20999300,45209993,0.0,-0.02,0.0,0.52,135.53,135.53,0.0,0.01,3
45.30992700,45309927,0.0,-0.02,0.0,0.53,135.55,135.55,0.0,0.01,3
45.40990500,45409905,0.0,-0.02,0.0,0.52,135.56,135.56,0.0,0.01,3
45.50998400,45509984,0.0,-0.02,0.0,0.52,135.56,135.56,0.0,0.01,3
45.61003400,45610034,0.0,-0.02,0.0,0.52,135.57,135.57,0.0,0.03,3
45.71013100,45710131,0.0,-0.02,0.0,0.52,135.58,135.58,0.0,0.09,3
45.81005700,45810057,0.0,-0.02,0.0,0.52,135.53,135.53,0.0,0.08,3
45.91025100,45910251,0.0,-0.02,0.0,0.52,135.45,135.45,0.0,0.07,3
46.01032300,46010323,0.0,-0.02,0.0,0.52,135.36,135.36,0.0,0.07,3
46.11018900,46110189,0.0,-0.02,0.0,0.52,135.3,135.3,0.0,0.06,3
46.21022100,46210221,0.0,-0.03,0.0,0.51,135.27,135.27,0.0,0.05,3
46.31007900,46310079,0.0,-0.03,0.0,0.51,135.26,135.26,0.0,0.05,3
46.41021900,46410219,0.0,-0.02,0.0,0.52,135.28,135.28,0.0,0.04,3
46.51016900,46510169,0.0,-0.02,0.0,0.51,135.29,135.29,0.0,0.04,3
46.61026000,46610260,0.0,-0.02,0.0,0.52,135.31,135.31,0.0,0.04,3
46.71017500,46710175,0.0,-0.02,0.0,0.51,135.34,135.34,0.0,0.03,3
46.81017500,46810175,0.0,-0.02,0.0,0.52,135.36,135.36,0.0,0.03,3
46.91019100,46910191,0.0,-0.02,0.0,0.52,135.37,135.37,0.0,0.03,3
47.01044800,47010448,0.0,-0.02,0.0,0.52,135.39000000000001,135.39000000000001,0.0,0.03,3
47.11027100,47110271,0.0,-0.02,0.0,0.52,135.41,135.41,0.0,0.02,3
47.21012300,47210123,0.0,-0.02,0.0,0.52,135.43,135.43,0.0,0.02,3
47.31022300,47310223,0.0,-0.02,0.0,0.52,135.44,135.44,0.0,0.02,3
47.41029500,47410295,0.0,-0.02,0.0,0.52,135.46,135.46,0.0,0.02,3
47.51029900,47510299,0.0,-0.02,0.0,0.52,135.47,135.47,0.0,0.02,3
47.61027200,47610272,0.0,-0.02,0.0,0.52,135.49,135.49,0.0,0.02,3
47.71024600,47710246,0.0,-0.02,0.0,0.51,135.5,135.5,0.0,0.01,3
47.81024300,47810243,0.0,-0.02,0.0,0.51,135.51,135.51,0.0,0.01,3
47.91026700,47910267,0.0,-0.02,0.0,0.52,135.51,135.51,0.0,0.02,3
48.01027600,48010276,0.0,-0.02,0.0,0.52,135.52,135.52,0.0,0.02,3
48.11031600,48110316,0.0,-0.02,0.0,0.52,135.53,135.53,0.0,0.02,3
48.21022300,48210223,0.0,-0.02,0.0,0.52,135.55,135.55,0.0,0.02,3
48.31018800,48310188,0.0,-0.02,0.0,0.52,135.56,135.56,0.0,0.02,3
48.41033700,48410337,0.0,-0.02,0.0,0.52,135.58,135.58,0.0,0.03,3
48.51025000,48510250,0.0,-0.02,0.0,0.52,135.59,135.59,0.0,0.09,3
48.61024900,48610249,0.0,-0.02,0.0,0.52,135.56,135.56,0.0,0.11,3
48.71024800,48710248,0.0,-0.03,0.0,0.52,135.48,135.48,0.0,0.09,3
48.81025700,48810257,0.0,-0.03,0.0,0.52,135.39000000000001,135.39000000000001,0.0,0.07,3
48.91029200,48910292,0.0,-0.03,0.0,0.52,135.31,135.31,0.0,0.06,3
49.01012300,49010123,0.0,-0.03,0.0,0.52,135.26,135.26,0.0,0.06,3
49.11023200,49110232,0.0,-0.03,0.0,0.51,135.23,135.23,0.0,0.05,3
49.21018600,49210186,0.0,-0.03,0.0,0.51,135.23,135.23,0.0,0.04,3
49.31029300,49310293,0.0,-0.04,0.0,0.52,135.24,135.24,0.0,0.04,3
49.41007400,49410074,0.0,-0.04,0.0,0.52,135.26,135.26,0.0,0.04,3
49.51003800,49510038,0.0,-0.03,0.0,0.52,135.28,135.28,0.0,0.03,3
49.61002300,49610023,0.0,-0.03,0.0,0.52,135.3,135.3,0.0,0.03,3
49.70998700,49709987,0.0,-0.04,0.0,0.52,135.32,135.32,0.0,0.03,3
49.80993700,49809937,0.0,-0.04,0.0,0.51,135.34,135.34,0.0,0.03,3
49.90988000,49909880,0.0,-0.04,0.0,0.51,135.36,135.36,0.0,0.03,3
50.00997400,50009974,0.0,-0.04,0.0,0.5,135.37,135.37,0.0,0.03,3
50.11002200,50110022,0.0,-0.04,0.0,0.5,135.39000000000001,135.39000000000001,0.0,0.03,3
50.21011700,50210117,0.0,-0.04,0.0,0.5,135.41,135.41,0.0,0.03,3
50.31005400,50310054,0.0,-0.04,0.0,0.49,135.42000000000002,135.42000000000002,0.0,0.02,3
50.41008500,50410085,0.0,-0.04,0.0,0.49,135.44,135.44,0.0,0.02,3
50.51003000,50510030,0.0,-0.04,0.0,0.49,135.45,135.45,0.0,0.02,3
50.60999300,50609993,0.0,-0.04,0.0,0.49,135.46,135.46,0.0,0.02,3
50.70992900,50709929,0.0,-0.04,0.0,0.49,135.48,135.48,0.0,0.02,3
50.80986100,50809861,0.0,-0.04,0.0,0.49,135.49,135.49,0.0,0.02,3
50.90997500,50909975,0.0,-0.05,0.0,0.48,135.51,135.51,0.0,0.02,3
51.01002600,51010026,0.0,-0.05,0.0,0.48,135.53,135.53,0.0,0.02,3
51.11010100,51110101,0.0,-0.05,0.0,0.48,135.54,135.54,0.0,0.02,3
51.21006500,51210065,0.0,-0.05,0.0,0.48,135.56,135.56,0.0,0.02,3
51.31003200,51310032,0.0,-0.05,0.0,0.48,135.57,135.57,0.0,0.07,3
51.41004400,51410044,0.0,-0.05,0.0,0.48,135.55,135.55,0.0,0.1,3
51.50998300,51509983,0.0,-0.05,0.0,0.48,135.49,135.49,0.0,0.08,3
51.60994400,51609944,0.0,-0.05,0.0,0.48,135.42000000000002,135.42000000000002,0.0,0.07,3
51.70986400,51709864,0.0,-0.05,0.0,0.48,135.35,135.35,0.0,0.06,3
51.80998400,51809984,0.0,-0.05,0.0,0.48,135.31,135.31,0.0,0.06,3
51.91003000,51910030,0.0,-0.05,0.0,0.47000000000000003,135.29,135.29,0.0,0.05,3
52.01009700,52010097,0.0,-0.06,0.0,0.47000000000000003,135.29,135.29,0.0,0.05,3
52.11005700,52110057,0.0,-0.06,0.0,0.47000000000000003,135.3,135.3,0.0,0.04,3
52.21004000,52210040,0.0,-0.06,0.0,0.48,135.32,135.32,0.0,0.04,3
52.31007600,52310076,0.0,-0.06,0.0,0.47000000000000003,135.34,135.34,0.0,0.03,3
52.41002600,52410026,0.0,-0.06,0.0,0.47000000000000003,135.35,135.35,0.0,0.03,3
52.50993500,52509935,0.0,-0.06,0.0,0.47000000000000003,135.37,135.37,0.0,0.03,3
52.60987700,52609877,0.0,-0.06,0.0,0.47000000000000003,135.38,135.38,0.0,0.03,3
52.70997100,52709971,0.0,-0.06,0.0,0.47000000000000003,135.39000000000001,135.39000000000001,0.0,0.03,3
52.81000800,52810008,0.0,-0.06,0.0,0.47000000000000003,135.4,135.4,0.0,0.03,3
52.91008600,52910086,0.0,-0.06,0.0,0.47000000000000003,135.42000000000002,135.42000000000002,0.0,0.03,3
53.01003500,53010035,0.0,-0.06,0.0,0.47000000000000003,135.44,135.44,0.0,0.03,3
53.11005700,53110057,0.0,-0.06,0.0,0.47000000000000003,135.46,135.46,0.0,0.02,3
53.21002200,53210022,0.0,-0.05,0.0,0.47000000000000003,135.47,135.47,0.0,0.02,3
53.31000500,53310005,0.0,-0.05,0.0,0.48,135.48,135.48,0.0,0.02,3
53.40996400,53409964,0.0,-0.06,0.0,0.48,135.49,135.49,0.0,0.02,3
53.51011900,53510119,0.0,-0.06,0.0,0.48,135.5,135.5,0.0,0.02,3
53.61022800,53610228,0.0,-0.06,0.0,0.48,135.51,135.51,0.0,0.02,3
53.71002400,53710024,0.0,-0.06,0.0,0.48,135.53,135.53,0.0,0.02,3
53.81007700,53810077,0.0,-0.06,0.0,0.47000000000000003,135.53,135.53,0.0,0.02,3
53.91004500,53910045,0.0,-0.05,0.0,0.48,135.55,135.55,0.0,0.03,3
54.01004600,54010046,0.0,-0.06,0.0,0.48,135.56,135.56,0.0,0.03,3
54.11002400,54110024,0.0,-0.05,0.0,0.48,135.58,135.58,0.0,0.07,3
54.21000400,54210004,0.0,-0.06,0.0,0.48,135.57,135.57,0.0,0.12,3
54.30993100,54309931,0.0,-0.05,0.0,0.48,135.52,135.52,0.0,0.11,3
54.41002000,54410020,0.0,-0.05,0.0,0.48,135.44,135.44,0.0,0.09,3
54.50997400,54509974,0.0,-0.05,0.0,0.48,135.36,135.36,0.0,0.08,3
54.61004700,54610047,0.0,-0.06,0.0,0.48,135.29,135.29,0.0,0.07,3
54.71008200,54710082,0.0,-0.06,0.0,0.48,135.25,135.25,0.0,0.06,3
54.81004000,54810040,0.0,-0.06,0.0,0.48,135.24,135.24,0.0,0.05,3
54.91007000,54910070,0.0,-0.06,0.0,0.48,135.23,135.23,0.0,0.05,3
55.01004000,55010040,0.0,-0.06,0.0,0.48,135.24,135.24,0.0,0.04,3
55.11001600,55110016,0.0,-0.06,0.0,0.48,135.26,135.26,0.0,0.04,3
55.20992800,55209928,0.0,-0.06,0.0,0.48,135.28,135.28,0.0,0.03,3
55.30986600,55309866,0.0,-0.05,0.0,0.48,135.29,135.29,0.0,0.03,3
55.40998400,55409984,0.0,-0.05,0.0,0.48,135.31,135.31,0.0,0.03,3
55.51001800,55510018,0.0,-0.05,0.0,0.48,135.32,135.32,0.0,0.03,3
55.61009100,55610091,0.0,-0.05,0.0,0.48,135.33,135.33,0.0,0.03,3
55.71003800,55710038,0.0,-0.05,0.0,0.48,135.35,135.35,0.0,0.03,3
55.81002900,55810029,0.0,-0.05,0.0,0.48,135.36,135.36,0.0,0.03,3
55.91011200,55910112,0.0,-0.05,0.0,0.48,135.37,135.37,0.0,0.03,3
56.00997100,56009971,0.0,-0.05,0.0,0.48,135.39000000000001,135.39000000000001,0.0,0.03,3
56.10992900,56109929,0.0,-0.05,0.0,0.48,135.4,135.4,0.0,0.03,3
56.20986700,56209867,0.0,-0.05,0.0,0.48,135.41,135.41,0.0,0.02,3
56.30997500,56309975,0.0,-0.05,0.0,0.47000000000000003,135.42000000000002,135.42000000000002,0.0,0.02,3
56.41030600,56410306,0.0,-0.05,0.0,0.48,135.44,135.44,0.0,0.02,3
56.51032700,56510327,0.0,-0.05,0.0,0.48,135.45,135.45,0.0,0.02,3
56.61025800,56610258,0.0,-0.05,0.0,0.48,135.46,135.46,0.0,0.02,3
56.71024000,56710240,0.0,-0.05,0.0,0.48,135.47,135.47,0.0,0.02,3
56.81023800,56810238,0.0,-0.05,0.0,0.48,135.48,135.48,0.0,0.02,3
56.91028900,56910289,0.0,-0.05,0.0,0.48,135.49,135.49,0.0,0.04,3
57.01023300,57010233,0.0,-0.05,0.0,0.48,135.5,135.5,0.0,0.09,3
57.10986500,57109865,0.0,-0.05,0.0,0.48,135.46,135.46,0.0,0.09,3
57.20997300,57209973,0.0,-0.05,0.0,0.48,135.4,135.4,0.0,0.08,3
57.31002000,57310020,0.0,-0.05,0.0,0.48,135.33,135.33,0.0,0.07,3
57.41011100,57410111,0.0,-0.05,0.0,0.47000000000000003,135.28,135.28,0.0,0.06,3
57.51004500,57510045,0.0,-0.05,0.0,0.47000000000000003,135.25,135.25,0.0,0.05,3
57.61003700,57610037,0.0,-0.05,0.0,0.47000000000000003,135.24,135.24,0.0,0.05,3
57.71003800,57710038,0.0,-0.05,0.0,0.46,135.24,135.24,0.0,0.04,3
57.80996700,57809967,0.0,-0.06,0.0,0.46,135.25,135.25,0.0,0.04,3
57.90993000,57909930,0.0,-0.06,0.0,0.45,135.26,135.26,0.0,0.04,3
58.00990000,58009900,0.0,-0.06,0.0,0.45,135.28,135.28,0.0,0.03,3
58.10996500,58109965,0.0,-0.06,0.0,0.45,135.3,135.3,0.0,0.03,3
58.21001200,58210012,0.0,-0.06,0.0,0.45,135.31,135.31,0.0,0.03,3
58.31006800,58310068,0.0,-0.06,0.0,0.45,135.32,135.32,0.0,0.03,3
58.41007600,58410076,0.0,-0.06,0.0,0.44,135.33,135.33,0.0,0.03,3
58.51018800,58510188,0.0,-0.06,0.0,0.44,135.34,135.34,0.0,0.03,3
58.61031600,58610316,0.0,-0.06,0.0,0.44,135.36,135.36,0.0,0.03,3
58.71018600,58710186,0.0,-0.06,0.0,0.44,135.37,135.37,0.0,0.02,3
58.81017100,58810171,0.0,-0.06,0.0,0.44,135.38,135.38,0.0,0.02,3
58.91008200,58910082,0.0,-0.06,0.0,0.44,135.39000000000001,135.39000000000001,0.0,0.02,3
59.01018300,59010183,0.0,-0.06,0.0,0.44,135.4,135.4,0.0,0.02,3
59.11017000,59110170,0.0,-0.06,0.0,0.43,135.41,135.41,0.0,0.02,3
59.21028900,59210289,0.0,-0.06,0.0,0.43,135.42000000000002,135.42000000000002,0.0,0.02,3
59.31020600,59310206,0.0,-0.06,0.0,0.43,135.43,135.43,0.0,0.02,3
59.41026400,59410264,0.0,-0.06,0.0,0.43,135.44,135.44,0.0,0.02,3
59.51024200,59510242,0.0,-0.06,0.0,0.44,135.45,135.45,0.0,0.02,3
59.61019000,59610190,0.0,-0.06,0.0,0.43,135.46,135.46,0.0,0.02,3
59.71018900,59710189,0.0,-0.06,0.0,0.43,135.47,135.47,0.0,0.02,3
59.81007800,59810078,0.0,-0.06,0.0,0.43,135.48,135.48,0.0,0.07,3
59.91019200,59910192,0.0,-0.06,0.0,0.42,135.47,135.47,0.0,0.1,3
60.01017100,60010171,0.0,-0.06,0.0,0.42,135.43,135.43,0.0,0.08,3
60.11026500,60110265,0.0,-0.05,0.0,0.42,135.38,135.38,0.0,0.07,3
60.21018800,60210188,0.0,-0.06,0.0,0.42,135.33,135.33,0.0,0.06,3
60.31019000,60310190,0.0,-0.05,0.0,0.43,135.3,135.3,0.0,0.05,3
60.41026000,60410260,0.0,-0.05,0.0,0.43,135.28,135.28,0.0,0.05,3
60.51019200,60510192,0.0,-0.05,0.0,0.42,135.28,135.28,0.0,0.04,3
60.61018400,60610184,0.0,-0.06,0.0,0.42,135.29,135.29,0.0,0.04,3
60.71018500,60710185,0.0,-0.06,0.0,0.42,135.3,135.3,0.0,0.04,3
60.81016800,60810168,0.0,-0.06,0.0,0.42,135.32,135.32,0.0,0.03,3
60.91017100,60910171,0.0,-0.06,0.0,0.42,135.33,135.33,0.0,0.03,3
61.01026100,61010261,0.0,-0.06,0.0,0.42,135.34,135.34,0.0,0.03,3
61.11018400,61110184,0.0,-0.06,0.0,0.42,135.36,135.36,0.0,0.03,3
61.21023300,61210233,0.0,-0.06,0.0,0.42,135.37,135.37,0.0,0.03,3
61.31018800,61310188,0.0,-0.06,0.0,0.41000000000000003,135.38,135.38,0.0,0.03,3
61.41025700,61410257,0.0,-0.06,0.0,0.41000000000000003,135.4,135.4,0.0,0.03,3
61.51024100,61510241,0.0,-0.06,0.0,0.41000000000000003,135.42000000000002,135.42000000000002,0.0,0.02,3
61.61008300,61610083,0.0,-0.06,0.0,0.41000000000000003,135.43,135.43,0.0,0.02,3
61.71049600,61710496,0.0,-0.06,0.0,0.41000000000000003,135.44,135.44,0.0,0.02,3
61.81023300,61810233,0.0,-0.05,0.0,0.41000000000000003,135.45,135.45,0.0,0.02,3
61.91030300,61910303,0.0,-0.06,0.0,0.41000000000000003,135.46,135.46,0.0,0.02,3
62.01025800,62010258,0.0,-0.06,0.0,0.41000000000000003,135.47,135.47,0.0,0.02,3
62.11027200,62110272,0.0,-0.06,0.0,0.41000000000000003,135.48,135.48,0.0,0.02,3
62.21026300,62210263,0.0,-0.06,0.0,0.41000000000000003,135.49,135.49,0.0,0.03,3
62.30998300,62309983,0.0,-0.06,0.0,0.41000000000000003,135.5,135.5,0.0,0.03,3
62.40995900,62409959,0.0,-0.06,0.0,0.41000000000000003,135.52,135.52,0.0,0.03,3
62.50986500,62509865,0.0,-0.06,0.0,0.4,135.53,135.53,0.0,0.03,3
62.60997000,62609970,0.0,-0.06,0.0,0.41000000000000003,135.54,135.54,0.0,0.06,3
62.71003300,62710033,0.0,-0.06,0.0,0.41000000000000003,135.54,135.54,0.0,0.11,3
62.81009400,62810094,0.0,-0.06,0.0,0.41000000000000003,135.51,135.51,0.0,0.1,3
62.91013700,62910137,0.0,-0.06,0.0,0.41000000000000003,135.45,135.45,0.0,0.08,3
63.01004800,63010048,0.0,-0.06,0.0,0.41000000000000003,135.39000000000001,135.39000000000001,0.0,0.07,3
63.11002300,63110023,0.0,-0.06,0.0,0.4,135.35,135.35,0.0,0.06,3
63.20998400,63209984,0.0,-0.06,0.0,0.4,135.33,135.33,0.0,0.06,3
63.30993200,63309932,0.0,-0.05,0.0,0.4,135.32,135.32,0.0,0.05,3
63.40989300,63409893,0.0,-0.05,0.0,0.4,135.32,135.32,0.0,0.04,3
63.50998200,63509982,0.0,-0.05,0.0,0.4,135.33,135.33,0.0,0.04,3
63.61004300,63610043,0.0,-0.05,0.0,0.4,135.34,135.34,0.0,0.04,3
63.71007600,63710076,0.0,-0.05,0.0,0.4,135.36,135.36,0.0,0.04,3
63.81004500,63810045,0.0,-0.05,0.0,0.4,135.37,135.37,0.0,0.04,3
63.91005100,63910051,0.0,-0.05,0.0,0.4,135.39000000000001,135.39000000000001,0.0,0.03,3
64.01002600,64010026,0.0,-0.05,0.0,0.41000000000000003,135.41,135.41,0.0,0.03,3
64.10999500,64109995,0.0,-0.05,0.0,0.41000000000000003,135.42000000000002,135.42000000000002,0.0,0.03,3
64.20994100,64209941,0.0,-0.05,0.0,0.41000000000000003,135.44,135.44,0.0,0.03,3
64.30986800,64309868,0.0,-0.05,0.0,0.41000000000000003,135.45,135.45,0.0,0.02,3
64.41000500,64410005,0.0,-0.05,0.0,0.41000000000000003,135.46,135.46,0.0,0.02,3
64.51001600,64510016,0.0,-0.06,0.0,0.42,135.47,135.47,0.0,0.02,3
64.61010900,64610109,0.0,-0.06,0.0,0.42,135.49,135.49,0.0,0.02,3
64.71005000,64710050,0.0,-0.06,0.0,0.42,135.49,135.49,0.0,0.02,3
64.81003700,64810037,0.0,-0.06,0.0,0.42,135.5,135.5,0.0,0.02,3
64.91015400,64910154,0.0,-0.06,0.0,0.42,135.51,135.51,0.0,0.02,3
65.00999400,65009994,0.0,-0.06,0.0,0.42,135.52,135.52,0.0,0.02,3
65.10993400,65109934,0.0,-0.06,0.0,0.42,135.52,135.52,0.0,0.02,3
65.20988000,65209880,0.0,-0.06,0.0,0.42,135.53,135.53,0.0,0.02,3
65.30997200,65309972,0.0,-0.06,0.0,0.42,135.54,135.54,0.0,0.02,3
65.41030700,65410307,0.0,-0.06,0.0,0.42,135.55,135.55,0.0,0.04,3
65.51029800,65510298,0.0,-0.06,0.0,0.43,135.54,135.54,0.0,0.09,3
65.61004900,65610049,0.0,-0.06,0.0,0.43,135.52,135.52,0.0,0.09,3
65.71003500,65710035,0.0,-0.06,0.0,0.43,135.46,135.46,0.0,0.08,3
65.81001900,65810019,0.0,-0.06,0.0,0.43,135.41,135.41,0.0,0.06,3
65.90999300,65909993,0.0,-0.05,0.0,0.44,135.37,135.37,0.0,0.06,3
66.00993900,66009939,0.0,-0.05,0.0,0.44,135.34,135.34,0.0,0.05,3
66.10987300,66109873,0.0,-0.05,0.0,0.44,135.33,135.33,0.0,0.04,3
66.20998500,66209985,0.0,-0.06,0.0,0.44,135.34,135.34,0.0,0.04,3
66.31002000,66310020,0.0,-0.06,0.0,0.44,135.34,135.34,0.0,0.03,3
66.41013100,66410131,0.0,-0.05,0.0,0.44,135.36,135.36,0.0,0.03,3
66.51005600,66510056,0.0,-0.06,0.0,0.45,135.37,135.37,0.0,0.03,3
66.61004600,66610046,0.0,-0.06,0.0,0.45,135.38,135.38,0.0,0.03,3
66.71003000,66710030,0.0,-0.06,0.0,0.45,135.4,135.4,0.0,0.03,3
66.80996900,66809969,0.0,-0.06,0.0,0.45,135.41,135.41,0.0,0.03,3
66.90993900,66909939,0.0,-0.06,0.0,0.45,135.43,135.43,0.0,0.03,3
67.00993400,67009934,0.0,-0.06,0.0,0.45,135.44,135.44,0.0,0.03,3
67.10998200,67109982,0.0,-0.07,0.0,0.46,135.45,135.45,0.0,0.02,3
67.21001400,67210014,0.0,-0.07,0.0,0.46,135.46,135.46,0.0,0.02,3
67.31009900,67310099,0.0,-0.07,0.0,0.45,135.48,135.48,0.0,0.02,3
67.41006300,67410063,0.0,-0.07,0.0,0.46,135.49,135.49,0.0,0.02,3
67.51024700,67510247,0.0,-0.07,0.0,0.46,135.5,135.5,0.0,0.02,3
67.61025300,67610253,0.0,-0.07,0.0,0.46,135.51,135.51,0.0,0.02,3
67.71025000,67710250,0.0,-0.06,0.0,0.46,135.52,135.52,0.0,0.02,3
67.81024000,67810240,0.0,-0.06,0.0,0.47000000000000003,135.53,135.53,0.0,0.02,3
67.91012300,67910123,0.0,-0.06,0.0,0.47000000000000003,135.54,135.54,0.0,0.02,3
68.01024100,68010241,0.0,-0.07,0.0,0.47000000000000003,135.55,135.55,0.0,0.02,3
68.11024500,68110245,0.0,-0.07,0.0,0.47000000000000003,135.56,135.56,0.0,0.02,3
68.21030400,68210304,0.0,-0.07,0.0,0.47000000000000003,135.56,135.56,0.0,0.01,3
68.31024700,68310247,0.0,-0.08,0.0,0.47000000000000003,135.57,135.57,0.0,0.06,3
68.41007200,68410072,0.0,-0.08,0.0,0.47000000000000003,135.56,135.56,0.0,0.09,3
68.51030800,68510308,0.0,-0.08,0.0,0.48,135.53,135.53,0.0,0.07,3
68.60998400,68609984,0.0,-0.08,0.0,0.48,135.49,135.49,0.0,0.06,3
68.70993500,68709935,0.0,-0.08,0.0,0.48,135.45,135.45,0.0,0.06,3
68.80986600,68809866,0.0,-0.08,0.0,0.48,135.43,135.43,0.0,0.05,3
68.90996400,68909964,0.0,-0.08,0.0,0.48,135.42000000000002,135.42000000000002,0.0,0.05,3
69.01003800,69010038,0.0,-0.09,0.0,0.48,135.41,135.41,0.0,0.04,3
69.11010500,69110105,0.0,-0.09,0.0,0.48,135.42000000000002,135.42000000000002,0.0,0.04,3
69.21005200,69210052,0.0,-0.09,0.0,0.48,135.43,135.43,0.0,0.03,3
69.31003900,69310039,0.0,-0.09,0.0,0.48,135.45,135.45,0.0,0.03,3
69.41006500,69410065,0.0,-0.09,0.0,0.48,135.46,135.46,0.0,0.03,3
69.51028300,69510283,0.0,-0.09,0.0,0.48,135.48,135.48,0.0,0.03,3
69.60992800,69609928,0.0,-0.09,0.0,0.49,135.49,135.49,0.0,0.03,3
69.70989100,69709891,0.0,-0.09,0.0,0.48,135.5,135.5,0.0,0.02,3
69.80996600,69809966,0.0,-0.09,0.0,0.48,135.51,135.51,0.0,0.02,3
69.91002900,69910029,0.0,-0.09,0.0,0.48,135.51,135.51,0.0,0.01,3
70.01008900,70010089,0.0,-0.09,0.0,0.47000000000000003,135.52,135.52,0.0,0.02,3
70.11004200,70110042,0.0,-0.09,0.0,0.48,135.52,135.52,0.0,0.02,3
70.21021800,70210218,0.0,-0.09,0.0,0.47000000000000003,135.53,135.53,0.0,0.02,3
70.31018800,70310188,0.0,-0.1,0.0,0.47000000000000003,135.54,135.54,0.0,0.02,3
70.41026900,70410269,0.0,-0.1,0.0,0.48,135.55,135.55,0.0,0.02,3
70.51048800,70510488,0.0,-0.1,0.0,0.48,135.56,135.56,0.0,0.02,3
70.61008700,70610087,0.0,-0.1,0.0,0.48,135.57,135.57,0.0,0.02,3
70.71019800,70710198,0.0,-0.1,0.0,0.48,135.58,135.58,0.0,0.01,3
70.81017400,70810174,0.0,-0.1,0.0,0.49,135.59,135.59,0.0,0.02,3
70.91027600,70910276,0.0,-0.1,0.0,0.48,135.6,135.6,0.0,0.02,3
71.01025200,71010252,0.0,-0.1,0.0,0.48,135.61,135.61,0.0,0.02,3
71.11024300,71110243,0.0,-0.1,0.0,0.49,135.62,135.62,0.0,0.07,3
71.21031900,71210319,0.0,-0.1,0.0,0.48,135.62,135.62,0.0,0.12,3
71.31018700,71310187,0.0,-0.1,0.0,0.48,135.57,135.57,0.0,0.1,3
71.41023800,71410238,0.0,-0.1,0.0,0.48,135.51,135.51,0.0,0.08,3
71.51008900,71510089,0.0,-0.1,0.0,0.48,135.46,135.46,0.0,0.07,3
71.61017600,71610176,0.0,-0.1,0.0,0.48,135.43,135.43,0.0,0.06,3
71.71042200,71710422,0.0,-0.1,0.0,0.48,135.41,135.41,0.0,0.05,3
71.81027800,71810278,0.0,-0.1,0.0,0.48,135.4,135.4,0.0,0.04,3
71.91026400,71910264,0.0,-0.11,0.0,0.48,135.4,135.4,0.0,0.04,3
72.01025200,72010252,0.0,-0.11,0.0,0.48,135.41,135.41,0.0,0.04,3
72.11027500,72110275,0.0,-0.11,0.0,0.48,135.42000000000002,135.42000000000002,0.0,0.04,3
72.21030000,72210300,0.0,-0.1,0.0,0.48,135.43,135.43,0.0,0.03,3
72.31024200,72310242,0.0,-0.1,0.0,0.47000000000000003,135.45,135.45,0.0,0.03,3
72.41020100,72410201,0.0,-0.1,0.0,0.48,135.46,135.46,0.0,0.03,3
72.51023300,72510233,0.0,-0.1,0.0,0.47000000000000003,135.47,135.47,0.0,0.02,3
72.61023400,72610234,0.0,-0.1,0.0,0.47000000000000003,135.48,135.48,0.0,0.02,3
72.71008500,72710085,0.0,-0.1,0.0,0.47000000000000003,135.49,135.49,0.0,0.02,3
72.81003900,72810039,0.0,-0.1,0.0,0.47000000000000003,135.5,135.5,0.0,0.02,3
72.91004400,72910044,0.0,-0.1,0.0,0.47000000000000003,135.51,135.51,0.0,0.02,3
73.01002800,73010028,0.0,-0.1,0.0,0.47000000000000003,135.52,135.52,0.0,0.02,3
73.10999600,73109996,0.0,-0.1,0.0,0.47000000000000003,135.52,135.52,0.0,0.02,3
73.20993300,73209933,0.0,-0.1,0.0,0.47000000000000003,135.53,135.53,0.0,0.02,3
73.30988200,73309882,0.0,-0.1,0.0,0.46,135.54,135.54,0.0,0.02,3
73.41000300,73410003,0.0,-0.1,0.0,0.46,135.55,135.55,0.0,0.02,3
73.51003900,73510039,0.0,-0.1,0.0,0.46,135.56,135.56,0.0,0.02,3
73.61009100,73610091,0.0,-0.1,0.0,0.46,135.56,135.56,0.0,0.02,3
73.71005900,73710059,0.0,-0.1,0.0,0.46,135.57,135.57,0.0,0.01,3
73.81005000,73810050,0.0,-0.09,0.0,0.45,135.58,135.58,0.0,0.01,3
73.91003200,73910032,0.0,-0.09,0.0,0.45,135.59,135.59,0.0,0.03,3
74.00998000,74009980,0.0,-0.09,0.0,0.45,135.59,135.59,0.0,0.09,3
74.10993400,74109934,0.0,-0.09,0.0,0.45,135.56,135.56,0.0,0.09,3
74.20987500,74209875,0.0,-0.09,0.0,0.45,135.52,135.52,0.0,0.08,3
74.30996800,74309968,0.0,-0.09,0.0,0.44,135.47,135.47,0.0,0.06,3
74.41005100,74410051,0.0,-0.08,0.0,0.44,135.43,135.43,0.0,0.06,3
74.51008500,74510085,0.0,-0.08,0.0,0.44,135.41,135.41,0.0,0.05,3
74.61003900,74610039,0.0,-0.08,0.0,0.44,135.4,135.4,0.0,0.05,3
74.71002700,74710027,0.0,-0.08,0.0,0.44,135.4,135.4,0.0,0.04,3
74.81001400,74810014,0.0,-0.08,0.0,0.44,135.41,135.41,0.0,0.03,3
74.91000400,74910004,0.0,-0.08,0.0,0.44,135.42000000000002,135.42000000000002,0.0,0.03,3
75.00993800,75009938,0.0,-0.08,0.0,0.44,135.43,135.43,0.0,0.03,3
75.10988400,75109884,0.0,-0.08,0.0,0.44,135.44,135.44,0.0,0.03,3
75.20998100,75209981,0.0,-0.07,0.0,0.44,135.45,135.45,0.0,0.02,3
75.31001100,75310011,0.0,-0.07,0.0,0.44,135.47,135.47,0.0,0.02,3
75.41013000,75410130,0.0,-0.08,0.0,0.44,135.47,135.47,0.0,0.02,3
75.51006100,75510061,0.0,-0.07,0.0,0.44,135.48,135.48,0.0,0.02,3
75.61003200,75610032,0.0,-0.07,0.0,0.44,135.49,135.49,0.0,0.02,3
75.71002200,75710022,0.0,-0.07,0.0,0.44,135.51,135.51,0.0,0.02,3
75.80999500,75809995,0.0,-0.08,0.0,0.44,135.52,135.52,0.0,0.02,3
75.90995500,75909955,0.0,-0.08,0.0,0.44,135.53,135.53,0.0,0.02,3
76.00988000,76009880,0.0,-0.07,0.0,0.44,135.54,135.54,0.0,0.02,3
76.10998300,76109983,0.0,-0.07,0.0,0.44,135.55,135.55,0.0,0.01,3
76.21001900,76210019,0.0,-0.07,0.0,0.45,135.56,135.56,0.0,0.01,3
76.31006300,76310063,0.0,-0.07,0.0,0.45,135.56,135.56,0.0,0.01,3
76.41008800,76410088,0.0,-0.07,0.0,0.45,135.57,135.57,0.0,0.01,3
76.51007000,76510070,0.0,-0.07,0.0,0.45,135.57,135.57,0.0,0.01,3
76.61003300,76610033,0.0,-0.07,0.0,0.45,135.58,135.58,0.0,0.01,3
76.71000000,76710000,0.0,-0.06,0.0,0.45,135.58,135.58,0.0,0.02,3
76.80993100,76809931,0.0,-0.06,0.0,0.45,135.59,135.59,0.0,0.07,3
76.90988000,76909880,0.0,-0.07,0.0,0.45,135.58,135.58,0.0,0.11,3
77.00996200,77009962,0.0,-0.07,0.0,0.45,135.54,135.54,0.0,0.09,3
77.11002900,77110029,0.0,-0.06,0.0,0.45,135.48,135.48,0.0,0.07,3
77.21008500,77210085,0.0,-0.06,0.0,0.45,135.44,135.44,0.0,0.06,3
77.31024800,77310248,0.0,-0.06,0.0,0.45,135.42000000000002,135.42000000000002,0.0,0.05,3
77.41029600,77410296,0.0,-0.06,0.0,0.45,135.41,135.41,0.0,0.05,3
77.51036000,77510360,0.0,-0.06,0.0,0.46,135.4,135.4,0.0,0.04,3
77.60999900,77609999,0.0,-0.06,0.0,0.45,135.41,135.41,0.0,0.04,3
77.70991900,77709919,0.0,-0.05,0.0,0.45,135.42000000000002,135.42000000000002,0.0,0.03,3
77.80985500,77809855,0.0,-0.05,0.0,0.45,135.43,135.43,0.0,0.03,3
77.90998300,77909983,0.0,-0.05,0.0,0.45,135.45,135.45,0.0,0.03,3
78.01004100,78010041,0.0,-0.05,0.0,0.45,135.46,135.46,0.0,0.03,3
78.11011400,78110114,0.0,-0.05,0.0,0.44,135.47,135.47,0.0,0.02,3
78.21005500,78210055,0.0,-0.05,0.0,0.44,135.48,135.48,0.0,0.02,3
78.31003600,78310036,0.0,-0.05,0.0,0.44,135.48,135.48,0.0,0.02,3
78.41007500,78410075,0.0,-0.05,0.0,0.44,135.49,135.49,0.0,0.02,3
78.50999100,78509991,0.0,-0.05,0.0,0.44,135.5,135.5,0.0,0.02,3
78.60992800,78609928,0.0,-0.05,0.0,0.44,135.51,135.51,0.0,0.02,3
78.70985900,78709859,0.0,-0.05,0.0,0.44,135.52,135.52,0.0,0.02,3
78.80997000,78809970,0.0,-0.05,0.0,0.44,135.53,135.53,0.0,0.02,3
78.91002300,78910023,0.0,-0.05,0.0,0.43,135.54,135.54,0.0,0.02,3
79.01008700,79010087,0.0,-0.05,0.0,0.43,135.54,135.54,0.0,0.02,3
79.11004800,79110048,0.0,-0.05,0.0,0.43,135.55,135.55,0.0,0.02,3
79.21005500,79210055,0.0,-0.05,0.0,0.43,135.56,135.56,0.0,0.01,3
79.31001600,79310016,0.0,-0.05,0.0,0.43,135.57,135.57,0.0,0.01,3
79.41002700,79410027,0.0,-0.05,0.0,0.43,135.57,135.57,0.0,0.01,3
79.50994400,79509944,0.0,-0.05,0.0,0.43,135.58,135.58,0.0,0.02,3
79.60993600,79609936,0.0,-0.05,0.0,0.43,135.59,135.59,0.0,0.07,3
79.70996200,79709962,0.0,-0.05,0.0,0.43,135.59,135.59,0.0,0.11,3
79.81003400,79810034,0.0,-0.05,0.0,0.43,135.55,135.55,0.0,0.09,3
79.91009100,79910091,0.0,-0.05,0.0,0.43,135.5,135.5,0.0,0.07,3
80.01006000,80010060,0.0,-0.04,0.0,0.43,135.47,135.47,0.0,0.07,3
80.11004900,80110049,0.0,-0.05,0.0,0.44,135.44,135.44,0.0,0.05,3
80.21001100,80210011,0.0,-0.05,0.0,0.44,135.43,135.43,0.0,0.05,3
80.30999300,80309993,0.0,-0.05,0.0,0.44,135.43,135.43,0.0,0.04,3
80.40997300,80409973,0.0,-0.05,0.0,0.44,135.43,135.43,0.0,0.03,3
80.50987100,80509871,0.0,-0.05,0.0,0.45,135.44,135.44,0.0,0.03,3
80.60999000,80609990,0.0,-0.05,0.0,0.45,135.45,135.45,0.0,0.03,3
80.71004100,80710041,0.0,-0.05,0.0,0.45,135.46,135.46,0.0,0.02,3
80.81009900,80810099,0.0,-0.06,0.0,0.45,135.46,135.46,0.0,0.02,3
80.91007000,80910070,0.0,-0.06,0.0,0.46,135.47,135.47,0.0,0.02,3
81.01004800,81010048,0.0,-0.05,0.0,0.46,135.48,135.48,0.0,0.02,3
81.11003300,81110033,0.0,-0.06,0.0,0.46,135.49,135.49,0.0,0.02,3
81.20997500,81209975,0.0,-0.06,0.0,0.46,135.5,135.5,0.0,0.02,3
81.31021900,81310219,0.0,-0.06,0.0,0.46,135.5,135.5,0.0,0.02,3
81.41019800,81410198,0.0,-0.06,0.0,0.45,135.51,135.51,0.0,0.02,3
81.51024300,81510243,0.0,-0.05,0.0,0.45,135.52,135.52,0.0,0.02,3
81.61001900,81610019,0.0,-0.05,0.0,0.45,135.53,135.53,0.0,0.02,3
81.71011500,81710115,0.0,-0.06,0.0,0.45,135.54,135.54,0.0,0.01,3
81.81006400,81810064,0.0,-0.05,0.0,0.45,135.55,135.55,0.0,0.01,3
81.91003800,81910038,0.0,-0.05,0.0,0.46,135.56,135.56,0.0,0.01,3
82.01003500,82010035,0.0,-0.05,0.0,0.46,135.57,135.57,0.0,0.01,3
82.11000100,82110001,0.0,-0.05,0.0,0.46,135.58,135.58,0.0,0.01,3
82.20992800,82209928,0.0,-0.06,0.0,0.46,135.58,135.58,0.0,0.01,3
82.30986600,82309866,0.0,-0.06,0.0,0.46,135.58,135.58,0.0,0.01,3
82.41002900,82410029,0.0,-0.06,0.0,0.46,135.59,135.59,0.0,0.04,3
82.51004500,82510045,0.0,-0.06,0.0,0.45,135.58,135.58,0.0,0.1,3
82.61010200,82610102,0.0,-0.07,0.0,0.45,135.54,135.54,0.0,0.09,3
82.71006000,82710060,0.0,-0.07,0.0,0.46,135.5,135.5,0.0,0.07,3
82.81003400,82810034,0.0,-0.07,0.0,0.45,135.46,135.46,0.0,0.06,3
82.91007700,82910077,0.0,-0.07,0.0,0.45,135.42000000000002,135.42000000000002,0.0,0.05,3
83.00999800,83009998,0.0,-0.07,0.0,0.45,135.41,135.41,0.0,0.05,3
83.11014300,83110143,0.0,-0.07,0.0,0.45,135.4,135.4,0.0,0.04,3
83.20987600,83209876,0.0,-0.07,0.0,0.45,135.4,135.4,0.0,0.03,3
83.30998800,83309988,0.0,-0.07,0.0,0.45,135.41,135.41,0.0,0.03,3
83.41007100,83410071,0.0,-0.07,0.0,0.45,135.41,135.41,0.0,0.03,3
83.51013000,83510130,0.0,-0.07,0.0,0.45,135.43,135.43,0.0,0.02,3
83.61006000,83610060,0.0,-0.07,0.0,0.45,135.44,135.44,0.0,0.02,3
83.71020400,83710204,0.0,-0.07,0.0,0.45,135.45,135.45,0.0,0.02,3
83.81031100,83810311,0.0,-0.07,0.0,0.44,135.45,135.45,0.0,0.02,3
83.91018500,83910185,0.0,-0.07,0.0,0.45,135.46,135.46,0.0,0.02,3
84.01020400,84010204,0.0,-0.07,0.0,0.45,135.47,135.47,0.0,0.02,3
84.11009000,84110090,0.0,-0.06,0.0,0.45,135.47,135.47,0.0,0.02,3
84.21020300,84210203,0.0,-0.06,0.0,0.45,135.48,135.48,0.0,0.02,3
84.31017000,84310170,0.0,-0.07,0.0,0.45,135.49,135.49,0.0,0.02,3
84.41030600,84410306,0.0,-0.07,0.0,0.45,135.5,135.5,0.0,0.01,3
84.51023800,84510238,0.0,-0.07,0.0,0.45,135.5,135.5,0.0,0.01,3
84.61019000,84610190,0.0,-0.07,0.0,0.45,135.51,135.51,0.0,0.01,3
84.71024500,84710245,0.0,-0.07,0.0,0.45,135.52,135.52,0.0,0.01,3
84.81017400,84810174,0.0,-0.07,0.0,0.45,135.52,135.52,0.0,0.01,3
84.91018900,84910189,0.0,-0.07,0.0,0.46,135.52,135.52,0.0,0.01,3
85.01012100,85010121,0.0,-0.07,0.0,0.46,135.53,135.53,0.0,0.01,3
85.11022400,85110224,0.0,-0.07,0.0,0.46,135.54,135.54,0.0,0.01,3
85.21002300,85210023,0.0,-0.07,0.0,0.46,135.54,135.54,0.0,0.02,3
85.31009400,85310094,0.0,-0.07,0.0,0.46,135.54,135.54,0.0,0.08,3
85.41007900,85410079,0.0,-0.07,0.0,0.46,135.52,135.52,0.0,0.11,3
85.51003900,85510039,0.0,-0.07,0.0,0.46,135.48,135.48,0.0,0.09,3
85.61001300,85610013,0.0,-0.07,0.0,0.46,135.43,135.43,0.0,0.08,3
85.70998800,85709988,0.0,-0.07,0.0,0.46,135.4,135.4,0.0,0.06,3
85.80993400,85809934,0.0,-0.07,0.0,0.46,135.37,135.37,0.0,0.05,3
85.90993600,85909936,0.0,-0.06,0.0,0.46,135.36,135.36,0.0,0.04,3
86.00998900,86009989,0.0,-0.06,0.0,0.46,135.36,135.36,0.0,0.04,3
86.11002900,86110029,0.0,-0.06,0.0,0.47000000000000003,135.36,135.36,0.0,0.04,3
86.21009900,86210099,0.0,-0.06,0.0,0.47000000000000003,135.37,135.37,0.0,0.03,3
86.31004700,86310047,0.0,-0.07,0.0,0.47000000000000003,135.39000000000001,135.39000000000001,0.0,0.03,3
86.41008400,86410084,0.0,-0.07,0.0,0.47000000000000003,135.4,135.4,0.0,0.03,3
86.51003100,86510031,0.0,-0.07,0.0,0.48,135.41,135.41,0.0,0.03,3
86.61000300,86610003,0.0,-0.06,0.0,0.48,135.42000000000002,135.42000000000002,0.0,0.02,3
86.70993600,86709936,0.0,-0.06,0.0,0.48,135.43,135.43,0.0,0.02,3
86.80986900,86809869,0.0,-0.06,0.0,0.47000000000000003,135.43,135.43,0.0,0.02,3
86.90998000,86909980,0.0,-0.07,0.0,0.47000000000000003,135.44,135.44,0.0,0.02,3
87.01020800,87010208,0.0,-0.06,0.0,0.48,135.44,135.44,0.0,0.02,3
87.11029900,87110299,0.0,-0.06,0.0,0.48,135.45,135.45,0.0,0.02,3
87.21025600,87210256,0.0,-0.06,0.0,0.48,135.46,135.46,0.0,0.02,3
87.31023500,87310235,0.0,-0.06,0.0,0.48,135.47,135.47,0.0,0.01,3
87.41029400,87410294,0.0,-0.06,0.0,0.48,135.47,135.47,0.0,0.01,3
87.51027500,87510275,0.0,-0.05,0.0,0.48,135.48,135.48,0.0,0.01,3
87.61024200,87610242,0.0,-0.05,0.0,0.48,135.48,135.48,0.0,0.01,3
87.70985800,87709858,0.0,-0.05,0.0,0.47000000000000003,135.49,135.49,0.0,0.01,3
87.80998000,87809980,0.0,-0.05,0.0,0.48,135.49,135.49,0.0,0.02,3
87.91000800,87910008,0.0,-0.05,0.0,0.48,135.5,135.5,0.0,0.01,3
88.01011700,88010117,0.0,-0.05,0.0,0.48,135.51,135.51,0.0,0.01,3
88.11005000,88110050,0.0,-0.05,0.0,0.47000000000000003,135.52,135.52,0.0,0.07,3
88.21003900,88210039,0.0,-0.05,0.0,0.47000000000000003,135.51,135.51,0.0,0.1,3
88.31001500,88310015,0.0,-0.05,0.0,0.47000000000000003,135.48,135.48,0.0,0.08,3
88.41003500,88410035,0.0,-0.05,0.0,0.48,135.44,135.44,0.0,0.07,3
88.50994000,88509940,0.0,-0.04,0.0,0.48,135.4,135.4,0.0,0.06,3
88.60987900,88609879,0.0,-0.04,0.0,0.48,135.37,135.37,0.0,0.05,3
88.70997600,88709976,0.0,-0.04,0.0,0.48,135.36,135.36,0.0,0.04,3
88.81001500,88810015,0.0,-0.04,0.0,0.48,135.36,135.36,0.0,0.04,3
88.91008800,88910088,0.0,-0.04,0.0,0.47000000000000003,135.36,135.36,0.0,0.04,3
89.01005600,89010056,0.0,-0.03,0.0,0.47000000000000003,135.37,135.37,0.0,0.04,3
89.11010200,89110102,0.0,-0.03,0.0,0.47000000000000003,135.38,135.38,0.0,0.03,3
89.21002600,89210026,0.0,-0.03,0.0,0.48,135.39000000000001,135.39000000000001,0.0,0.03,3
89.30997600,89309976,0.0,-0.03,0.0,0.48,135.4,135.4,0.0,0.03,3
89.40996700,89409967,0.0,-0.03,0.0,0.48,135.41,135.41,0.0,0.02,3
89.50987600,89509876,0.0,-0.03,0.0,0.48,135.42000000000002,135.42000000000002,0.0,0.02,3
89.60998900,89609989,0.0,-0.03,0.0,0.48,135.43,135.43,0.0,0.02,3
89.71001300,89710013,0.0,-0.03,0.0,0.48,135.44,135.44,0.0,0.02,3
89.81007400,89810074,0.0,-0.03,0.0,0.48,135.44,135.44,0.0,0.02,3
89.91004100,89910041,0.0,-0.03,0.0,0.49,135.45,135.45,0.0,0.02,3
90.01004200,90010042,0.0,-0.03,0.0,0.49,135.45,135.45,0.0,0.02,3
90.11008700,90110087,0.0,-0.03,0.0,0.49,135.45,135.45,0.0,0.02,3
90.21002400,90210024,0.0,-0.03,0.0,0.49,135.46,135.46,0.0,0.02,3
90.30993300,90309933,0.0,-0.02,0.0,0.49,135.47,135.47,0.0,0.02,3
90.40990800,90409908,0.0,-0.02,0.0,0.49,135.47,135.47,0.0,0.02,3
90.50998800,90509988,0.0,-0.02,0.0,0.48,135.48,135.48,0.0,0.02,3
90.61001900,90610019,0.0,-0.02,0.0,0.48,135.48,135.48,0.0,0.01,3
90.71030700,90710307,0.0,-0.02,0.0,0.48,135.49,135.49,0.0,0.01,3
90.81025300,90810253,0.0,-0.03,0.0,0.48,135.49,135.49,0.0,0.01,3
90.91025500,90910255,0.0,-0.02,0.0,0.48,135.5,135.5,0.0,0.06,3
91.01025600,91010256,0.0,-0.03,0.0,0.47000000000000003,135.49,135.49,0.0,0.1,3
91.11028700,91110287,0.0,-0.02,0.0,0.47000000000000003,135.46,135.46,0.0,0.08,3
91.21027300,91210273,0.0,-0.02,0.0,0.46,135.42000000000002,135.42000000000002,0.0,0.07,3
91.31011100,91310111,0.0,-0.02,0.0,0.46,135.38,135.38,0.0,0.06,3
91.41030400,91410304,0.0,-0.02,0.0,0.46,135.36,135.36,0.0,0.05,3
91.51020700,91510207,0.0,-0.02,0.0,0.45,135.35,135.35,0.0,0.05,3
91.61028400,91610284,0.0,-0.02,0.0,0.45,135.34,135.34,0.0,0.04,3
91.71025600,91710256,0.0,-0.02,0.0,0.45,135.35,135.35,0.0,0.04,3
91.81024900,91810249,0.0,-0.02,0.0,0.44,135.36,135.36,0.0,0.03,3
91.91027500,91910275,0.0,-0.02,0.0,0.44,135.37,135.37,0.0,0.03,3
92.01000400,92010004,0.0,-0.02,0.0,0.44,135.38,135.38,0.0,0.03,3
92.10993100,92109931,0.0,-0.03,0.0,0.44,135.39000000000001,135.39000000000001,0.0,0.02,3
92.20987700,92209877,0.0,-0.03,0.0,0.45,135.39000000000001,135.39000000000001,0.0,0.02,3
92.30997100,92309971,0.0,-0.03,0.0,0.44,135.39000000000001,135.39000000000001,0.0,0.02,3
92.41006000,92410060,0.0,-0.03,0.0,0.44,135.4,135.4,0.0,0.02,3
92.51007700,92510077,0.0,-0.03,0.0,0.44,135.41,135.41,0.0,0.02,3
92.61005200,92610052,0.0,-0.03,0.0,0.44,135.41,135.41,0.0,0.02,3
92.71018200,92710182,0.0,-0.03,0.0,0.44,135.41,135.41,0.0,0.01,3
92.81018800,92810188,0.0,-0.03,0.0,0.45,135.42000000000002,135.42000000000002,0.0,0.01,3
92.91020500,92910205,0.0,-0.04,0.0,0.45,135.42000000000002,135.42000000000002,0.0,0.01,3
93.01020400,93010204,0.0,-0.04,0.0,0.44,135.42000000000002,135.42000000000002,0.0,0.01,3
93.11010200,93110102,0.0,-0.04,0.0,0.44,135.42000000000002,135.42000000000002,0.0,0.01,3
93.21018100,93210181,0.0,-0.04,0.0,0.44,135.43,135.43,0.0,0.01,3
93.31017100,93310171,0.0,-0.04,0.0,0.43,135.43,135.43,0.0,0.01,3
93.41030000,93410300,0.0,-0.04,0.0,0.44,135.44,135.44,0.0,0.01,3
93.51025000,93510250,0.0,-0.04,0.0,0.43,135.45,135.45,0.0,0.01,3
93.61016500,93610165,0.0,-0.04,0.0,0.44,135.46,135.46,0.0,0.02,3
93.71021800,93710218,0.0,-0.04,0.0,0.44,135.46,135.46,0.0,0.03,3
93.81019000,93810190,0.0,-0.04,0.0,0.44,135.46,135.46,0.0,0.09,3
93.91019900,93910199,0.0,-0.05,0.0,0.44,135.45,135.45,0.0,0.09,3
94.01009700,94010097,0.0,-0.05,0.0,0.44,135.42000000000002,135.42000000000002,0.0,0.08,3
94.11019200,94110192,0.0,-0.05,0.0,0.45,135.38,135.38,0.0,0.07,3
94.21017200,94210172,0.0,-0.06,0.0,0.45,135.36,135.36,0.0,0.06,3
94.31027500,94310275,0.0,-0.06,0.0,0.45,135.34,135.34,0.0,0.05,3
94.41025400,94410254,0.0,-0.06,0.0,0.46,135.33,135.33,0.0,0.04,3
94.51022900,94510229,0.0,-0.06,0.0,0.46,135.33,135.33,0.0,0.04,3
94.61023600,94610236,0.0,-0.06,0.0,0.47000000000000003,135.33,135.33,0.0,0.04,3
94.71018500,94710185,0.0,-0.06,0.0,0.46,135.34,135.34,0.0,0.04,3
94.81018100,94810181,0.0,-0.06,0.0,0.46,135.35,135.35,0.0,0.03,3
94.91010200,94910102,0.0,-0.06,0.0,0.46,135.36,135.36,0.0,0.03,3
95.01019500,95010195,0.0,-0.06,0.0,0.46,135.36,135.36,0.0,0.02,3
95.11016100,95110161,0.0,-0.06,0.0,0.46,135.36,135.36,0.0,0.02,3
95.21027700,95210277,0.0,-0.06,0.0,0.46,135.37,135.37,0.0,0.02,3
95.31017700,95310177,0.0,-0.06,0.0,0.46,135.37,135.37,0.0,0.02,3
95.41027000,95410270,0.0,-0.06,0.0,0.46,135.38,135.38,0.0,0.02,3
95.51021800,95510218,0.0,-0.06,0.0,0.46,135.39000000000001,135.39000000000001,0.0,0.02,3
95.61020300,95610203,0.0,-0.06,0.0,0.46,135.39000000000001,135.39000000000001,0.0,0.02,3
95.71018800,95710188,0.0,-0.06,0.0,0.46,135.4,135.4,0.0,0.02,3
95.81008100,95810081,0.0,-0.06,0.0,0.46,135.41,135.41,0.0,0.02,3
95.91018900,95910189,0.0,-0.06,0.0,0.46,135.42000000000002,135.42000000000002,0.0,0.02,3
96.01018800,96010188,0.0,-0.06,0.0,0.46,135.42000000000002,135.42000000000002,0.0,0.02,3
96.11029400,96110294,0.0,-0.06,0.0,0.46,135.43,135.43,0.0,0.02,3
96.21024500,96210245,0.0,-0.06,0.0,0.46,135.44,135.44,0.0,0.02,3
96.31020800,96310208,0.0,-0.06,0.0,0.46,135.45,135.45,0.0,0.02,3
96.41035600,96410356,0.0,-0.05,0.0,0.46,135.45,135.45,0.0,0.02,3
96.51019000,96510190,0.0,-0.05,0.0,0.46,135.46,135.46,0.0,0.02,3
96.61040200,96610402,0.0,-0.05,0.0,0.47000000000000003,135.47,135.47,0.0,0.07,3
96.71011000,96710110,0.0,-0.06,0.0,0.47000000000000003,135.46,135.46,0.0,0.11,3
96.81021300,96810213,0.0,-0.06,0.0,0.47000000000000003,135.43,135.43,0.0,0.09,3
96.91003000,96910030,0.0,-0.06,0.0,0.47000000000000003,135.39000000000001,135.39000000000001,0.0,0.08,3
97.01010900,97010109,0.0,-0.06,0.0,0.47000000000000003,135.35,135.35,0.0,0.06,3
97.11005600,97110056,0.0,-0.06,0.0,0.48,135.33,135.33,0.0,0.06,3
97.21006600,97210066,0.0,-0.06,0.0,0.48,135.32,135.32,0.0,0.05,3
97.31002500,97310025,0.0,-0.06,0.0,0.48,135.31,135.31,0.0,0.04,3
97.41001500,97410015,0.0,-0.06,0.0,0.48,135.32,135.32,0.0,0.04,3
97.50992700,97509927,0.0,-0.05,0.0,0.48,135.32,135.32,0.0,0.03,3
