timestamp,TimeUS,C,Q1,Q2,Q3,Q4
11.50943700,11509437,2,1.0,0.0,0.0,0.0
11.60947300,11609473,2,1.0,0.0,0.0,0.0
11.70944900,11709449,2,1.0,0.0,0.0,0.0
11.80944900,11809449,2,1.0,0.0,0.0,0.0
11.90944600,11909446,2,1.0,0.0,0.0,0.0
12.00944700,12009447,2,1.0,0.0,0.0,0.0
12.10944900,12109449,2,1.0,0.0,0.0,0.0
12.20947100,12209471,2,1.0,0.0,0.0,0.0
12.30946900,12309469,2,1.0,0.0,0.0,0.0
12.40944700,12409447,2,1.0,0.0,0.0,0.0
12.50947500,12509475,2,0.9999887347221375,-0.000481339986436069,0.004718077834695578,-2.3243415853357874e-05
12.60945800,12609458,2,0.9999889135360718,-0.00045802086242474616,0.004684892948716879,-9.98928226181306e-05
12.70945700,12709457,2,0.9999889135360718,-0.00046161081991158426,0.004687323700636625,-0.00011537592217791826
12.80943600,12809436,2,0.999988853931427,-0.00046784436563029885,0.004703248385339975,-0.00010590017336653545
12.90944100,12909441,2,0.9999886751174927,-0.00045288499677553773,0.004734629765152931,-0.00010197988740401343
13.00944100,13009441,2,0.999988853931427,-0.00042607056093402207,0.004696056712418795,-0.0001580616517458111
13.10945000,13109450,2,0.9999885559082031,-0.00044797477312386036,0.004755436442792416,-0.00015287287533283234
13.20950000,13209500,2,0.9999885559082031,-0.0004368343797978014,0.004766033496707678,-0.00016705923189874738
13.30943400,13309434,2,0.9999885559082031,-0.0004605793801601976,0.004758657421916723,-0.0001921969815157354
13.40948300,13409483,2,0.9999887943267822,-0.00047976814676076174,0.004709504544734955,-0.00023870330187492073
13.50944300,13509443,2,0.9999886751174927,-0.0004493610467761755,0.004736173432320356,-0.000189032347407192
13.60944800,13609448,2,0.9999886751174927,-0.00042432534974068403,0.004729503765702248,-0.00021117230062372983
13.70944700,13709447,2,0.9999891519546509,-0.00043181993532925844,0.004630580078810453,-0.00016970481374301016
13.80945000,13809450,2,0.9999892711639404,-0.00043838503188453615,0.004609327297657728,-0.00017782488430384547
13.90939800,13909398,2,0.9999894499778748,-0.00042400413076393306,0.004573161248117685,-0.00018991410615853965
14.00940500,14009405,2,0.36022165417671204,-0.004114537965506315,0.001206246088258922,0.9328569173812866
14.10949800,14109498,2,0.3603999614715576,-0.004231125582009554,0.0011724956566467881,0.9327875375747681
14.20944200,14209442,2,0.36058101058006287,-0.0042509823106229305,0.0011598244309425354,0.932717502117157
14.30947700,14309477,2,0.3607887625694275,-0.004270139150321484,0.0011433098698034883,0.932637095451355
14.40945600,14409456,2,0.3611290752887726,-0.0043039266020059586,0.001145799527876079,0.932505190372467
14.50944500,14509445,2,0.36165013909339905,-0.004343866836279631,0.0011758324690163136,0.9323030114173889
14.60944800,14609448,2,0.3651644289493561,-0.004345487337559462,0.001166817150078714,0.9309321641921997
14.70945200,14709452,2,0.3724590837955475,-0.0044107697904109955,0.0011844412656500936,0.9280374050140381
14.80943900,14809439,2,0.38022345304489136,-0.004433301277458668,0.0011470385361462831,0.9248833060264587
14.90945100,14909451,2,0.3860182762145996,-0.004458509851247072,0.001158404746092856,0.9224796295166016
15.00946400,15009464,2,0.3892456889152527,-0.004487418569624424,0.0011379530187696218,0.9211223125457764
15.10943700,15109437,2,0.39027297496795654,-0.004504460841417313,0.0010979982325807214,0.9206874966621399
15.20947700,15209477,2,0.3896840810775757,-0.004476923495531082,0.0011342110810801387,0.9209370017051697
15.30945100,15309451,2,0.3881675899028778,-0.004426126834005117,0.001118502113968134,0.921577513217926
15.40945200,15409452,2,0.38618919253349304,-0.004400849342346191,0.0011507910676300526,0.922408401966095
15.50944700,15509447,2,0.38426852226257324,-0.0044011748395860195,0.0011706623481586576,0.9232101440429688
15.60945000,15609450,2,0.38258129358291626,-0.004386253654956818,0.0012022648006677628,0.9239106178283691
15.70944300,15709443,2,0.38118651509284973,-0.004412325564771891,0.0012150348629802465,0.9244868159294128
15.80947000,15809470,2,0.3800589442253113,-0.004372789058834314,0.0012214399175718427,0.9249511361122131
15.90946700,15909467,2,0.37913307547569275,-0.004366214387118816,0.0012565552024170756,0.9253309965133667
16.00943900,16009439,2,0.37831518054008484,-0.004323888104408979,0.0012042520102113485,0.9256659746170044
16.10947500,16109475,2,0.37767493724823,-0.004227422643452883,0.0011712772538885474,0.9259278774261475
16.20945800,16209458,2,0.3771108090877533,-0.004180219490081072,0.001216428354382515,0.9261578917503357
16.30944700,16309447,2,0.37658363580703735,-0.004147942177951336,0.0012467765482142568,0.9263724684715271
16.40945300,16409453,2,0.3759930431842804,-0.00412542000412941,0.001257892232388258,0.9266124367713928
16.50944000,16509440,2,0.37545856833457947,-0.003993370570242405,0.0012732832692563534,0.9268296957015991
16.60944000,16609440,2,0.37484967708587646,-0.00390838086605072,0.0012392974458634853,0.927076518535614
16.70945700,16709457,2,0.37429913878440857,-0.003828532062470913,0.0012662373483181,0.9272992610931396
16.80949500,16809495,2,0.37378454208374023,-0.003769415430724621,0.001274826587177813,0.9275070428848267
16.90944600,16909446,2,0.3732803761959076,-0.003726949682459235,0.0013000719482079148,0.9277101755142212
17.00947100,17009471,2,0.37285083532333374,-0.0036795148625969887,0.0012529045343399048,0.9278831481933594
17.10943500,17109435,2,0.37242671847343445,-0.0036491500213742256,0.001238255761563778,0.928053617477417
17.20943500,17209435,2,0.37194928526878357,-0.0035686541814357042,0.0012688110582530499,0.9282453060150146
17.30944700,17309447,2,0.37144753336906433,-0.0035046597477048635,0.0012618316104635596,0.9284464716911316
17.40944100,17409441,2,0.3715938627719879,-0.0034526896197348833,0.0012438322883099318,0.9283881187438965
17.50943600,17509436,2,0.37349385023117065,-0.0034492886625230312,0.0011939204996451735,0.9276254773139954
17.60945300,17609453,2,0.37644094228744507,-0.003421253990381956,0.0012171148555353284,0.9264335036277771
17.70946500,17709465,2,0.3790401816368103,-0.0033458236139267683,0.0011926539009436965,0.925373375415802
17.80944600,17809446,2,0.380755215883255,-0.003351449267938733,0.001208947622217238,0.9246690273284912
17.90946600,17909466,2,0.3815789520740509,-0.003315333742648363,0.0011778505286201835,0.9243295788764954
18.00944500,18009445,2,0.3816472887992859,-0.0032830305863171816,0.001160734798759222,0.9243014454841614
18.10944300,18109443,2,0.3812319040298462,-0.003276275936514139,0.0011144946329295635,0.924472987651825
18.20943600,18209436,2,0.38054123520851135,-0.0032791011035442352,0.001052017672918737,0.9247575402259827
18.30944000,18309440,2,0.37974101305007935,-0.0032830070704221725,0.0010594474151730537,0.9250863790512085
18.40944800,18409448,2,0.37882837653160095,-0.003257181029766798,0.0010519518982619047,0.9254606366157532
18.50945100,18509451,2,0.37791934609413147,-0.003188331611454487,0.000987652107141912,0.9258325099945068
18.60946800,18609468,2,0.3770579993724823,-0.0031885532662272453,0.0009906450286507607,0.9261836409568787
18.70945400,18709454,2,0.37632396817207336,-0.003217084798961878,0.0009574499563314021,0.926482081413269
18.80946300,18809463,2,0.3757822513580322,-0.0031315498054027557,0.0009253154858015478,0.9267022609710693
18.90943800,18909438,2,0.3753187358379364,-0.003076123772189021,0.0009036903502419591,0.9268902540206909
19.00944100,19009441,2,0.3749578893184662,-0.0030791282188147306,0.0009034095564857125,0.9270362854003906
19.10943600,19109436,2,0.37452179193496704,-0.003068444784730673,0.0009054990950971842,0.9272125959396362
19.20943500,19209435,2,0.3740585744380951,-0.0030703451484441757,0.0008823164971545339,0.9273995757102966
19.30943700,19309437,2,0.37364107370376587,-0.0030766429845243692,0.0008612850797362626,0.9275678396224976
19.40945600,19409456,2,0.37326544523239136,-0.0030707691330462694,0.0008544689044356346,0.9277191162109375
19.50946600,19509466,2,0.37293562293052673,-0.0030943204183131456,0.000845332455355674,0.927851676940918
19.60944600,19609446,2,0.37259727716445923,-0.0031323155853897333,0.0008496673544868827,0.9279874563217163
19.70946600,19709466,2,0.37220093607902527,-0.0031807636842131615,0.0008014360209926963,0.9281463623046875
19.80944600,19809446,2,0.3717699646949768,-0.003215114353224635,0.0008144661551341414,0.928318977355957
19.90943900,19909439,2,0.3712540864944458,-0.0032309459056705236,0.0008078364189714193,0.9285253286361694
20.00943800,20009438,2,0.37077856063842773,-0.003223906271159649,0.0008151995716616511,0.9287153482437134
20.10945000,20109450,2,0.37027880549430847,-0.0032071394380182028,0.0007929073763079941,0.9289147853851318
20.20943500,20209435,2,0.370311439037323,-0.0031887528020888567,0.0007464271038770676,0.9289019107818604
20.30945400,20309454,2,0.3717784285545349,-0.0031911542173475027,0.0007780447485856712,0.9283156991004944
20.40947500,20409475,2,0.3749609589576721,-0.0031941195484250784,0.0007670702179893851,0.9270347952842712
20.50945200,20509452,2,0.37861156463623047,-0.0031874312553554773,0.000818624917883426,0.9255498051643372
20.60946600,20609466,2,0.3816101551055908,-0.003178745973855257,0.0008158946875482798,0.9243175387382507
20.70944200,20709442,2,0.3835037648677826,-0.003180033527314663,0.0008184463949874043,0.9235334992408752
20.80943700,20809437,2,0.38439247012138367,-0.003171744989231229,0.0008438653312623501,0.9231639504432678
20.90943500,20909435,2,0.38448581099510193,-0.0030900773126631975,0.0008776702452450991,0.9231253266334534
21.00944200,21009442,2,0.38397470116615295,-0.0031085298396646976,0.0008976001408882439,0.9233379364013672
21.10939400,21109394,2,0.38317644596099854,-0.00311272032558918,0.0008935484802350402,0.9236695170402527
21.20945000,21209450,2,0.38224685192108154,-0.0030767463613301516,0.0008640483720228076,0.924054741859436
21.30947300,21309473,2,0.3813323676586151,-0.0031212365720421076,0.0008805902325548232,0.9244323372840881
21.40945100,21409451,2,0.3805128335952759,-0.0031642639078199863,0.0008764932863414288,0.9247698187828064
21.50946800,21509468,2,0.37984752655029297,-0.003152155317366123,0.0008705011568963528,0.9250433444976807
21.60944700,21609447,2,0.37932127714157104,-0.003178986720740795,0.0009093082626350224,0.9252591133117676
21.70944900,21709449,2,0.3788300156593323,-0.0031967104878276587,0.0009322931873612106,0.9254602789878845
21.80944900,21809449,2,0.3783104717731476,-0.0032301845494657755,0.0009312579059042037,0.9256726503372192
21.90944600,21909446,2,0.3777942657470703,-0.0032406526152044535,0.0009455956169404089,0.925883412361145
22.00944000,22009440,2,0.37729567289352417,-0.003243861487135291,0.0009412805084139109,0.9260867238044739
22.10947600,22109476,2,0.37678438425064087,-0.003240631427615881,0.0009508603252470493,0.9262948632240295
22.20946400,22209464,2,0.37627020478248596,-0.0033191624097526073,0.0009586398955434561,0.9265035390853882
22.30944600,22309446,2,0.3757309019565582,-0.0033691811840981245,0.0009813846554607153,0.9267221689224243
22.40948600,22409486,2,0.3751421868801117,-0.0033287086989730597,0.0009818457765504718,0.9269607663154602
22.50944500,22509445,2,0.37456128001213074,-0.0032784563954919577,0.0009745535207912326,0.9271958470344543
22.60944700,22609447,2,0.37392157316207886,-0.0032971014734357595,0.0009849558118730783,0.9274539351463318
22.70945500,22709455,2,0.3733043372631073,-0.0033415707293897867,0.000977685209363699,0.9277024269104004
22.80944000,22809440,2,0.3727598488330841,-0.003366252640262246,0.0009986583609133959,0.9279212355613708
22.90939600,22909396,2,0.37225261330604553,-0.0034174553584307432,0.0009843045845627785,0.9281246662139893
23.00945000,23009450,2,0.3718152940273285,-0.00340742664411664,0.001005830243229866,0.9282999634742737
23.10947000,23109470,2,0.37235239148139954,-0.0034103745128959417,0.0009644371457397938,0.928084671497345
23.20944700,23209447,2,0.37425482273101807,-0.0034473997075110674,0.0009598210453987122,0.9273189902305603
23.30947600,23309476,2,0.3766574561595917,-0.00348206446506083,0.0009747300646267831,0.9263455271720886
23.40944700,23409447,2,0.3787480592727661,-0.003524572355672717,0.0009519056184217334,0.9254926443099976
23.50944800,23509448,2,0.38002869486808777,-0.0034906284417957067,0.0009204086964018643,0.9249676465988159
23.60945500,23609455,2,0.38065895438194275,-0.0035009083803743124,0.0009062056778930128,0.9247084259986877
23.70944000,23709440,2,0.38078823685646057,-0.003482127794995904,0.0008680007886141539,0.9246553182601929
23.80944500,23809445,2,0.38047924637794495,-0.003494167234748602,0.0008463813574053347,0.9247824549674988
23.90946900,23909469,2,0.3799986243247986,-0.0034847056958824396,0.000780693138949573,0.9249801635742188
24.00946500,24009465,2,0.37948229908943176,-0.0034633856266736984,0.0007290685316547751,0.9251922369003296
24.10945300,24109453,2,0.3788708448410034,-0.0034421440213918686,0.0007288067718036473,0.9254428744316101
24.20947400,24209474,2,0.3783230781555176,-0.0035156540106981993,0.0007143250550143421,0.9256666898727417
24.30946400,24309464,2,0.37778154015541077,-0.003546831663697958,0.0007175180944614112,0.9258877038955688
24.40945300,24409453,2,0.3773359954357147,-0.003607243997976184,0.000724559708032757,0.9260691404342651
24.50944400,24509444,2,0.3768990933895111,-0.0035941654350608587,0.0006972863338887691,0.9262471199035645
24.60944900,24609449,2,0.376430481672287,-0.0035996856167912483,0.0007226518937386572,0.9264376163482666
24.70944500,24709445,2,0.3759426176548004,-0.003629351267591119,0.0007564424886368215,0.9266355037689209
24.80945300,24809453,2,0.37551477551460266,-0.0036683380603790283,0.0006920825107954443,0.9268088936805725
24.90949500,24909495,2,0.3750283122062683,-0.003745205933228135,0.0006880069267936051,0.9270055294036865
25.00945700,25009457,2,0.3745308816432953,-0.003795033320784569,0.0006152549176476896,0.9272064566612244
25.10946600,25109466,2,0.3741113543510437,-0.003863942576572299,0.0006243151728995144,0.9273755550384521
25.20943600,25209436,2,0.37376388907432556,-0.0038915856275707483,0.0006522664916701615,0.9275155067443848
25.30944500,25309445,2,0.3734227120876312,-0.003911042585968971,0.0006080293678678572,0.9276528358459473
25.40944400,25409444,2,0.37313413619995117,-0.003913398832082748,0.0006202907534316182,0.9277689456939697
25.50943400,25509434,2,0.3728628158569336,-0.003950553480535746,0.0005526612512767315,0.9278779029846191
25.60943800,25609438,2,0.3726634681224823,-0.004044369328767061,0.0005849946173839271,0.9279575943946838
25.70945600,25709456,2,0.37248262763023376,-0.00405113585293293,0.0004962455714121461,0.9280301928520203
25.80946500,25809465,2,0.372297078371048,-0.004008444957435131,0.00045206150389276445,0.928104817867279
25.90943900,25909439,2,0.3727633059024811,-0.0040154969319701195,0.00042357674101367593,0.9279176592826843
26.00947100,26009471,2,0.3745468258857727,-0.004047068767249584,0.00044587504817172885,0.9271990656852722
26.10944900,26109449,2,0.37693464756011963,-0.004007608629763126,0.00045727117685601115,0.9262310862541199
26.20943500,26209435,2,0.37903451919555664,-0.004064727574586868,0.000445004174252972,0.9253734946250916
26.30943900,26309439,2,0.38046544790267944,-0.004087394569069147,0.00048623268958181143,0.9247859716415405
26.40944000,26409440,2,0.3813004791736603,-0.004084577783942223,0.0004926981055177748,0.9244419932365417
26.50943500,26509435,2,0.38155248761177063,-0.004043102730065584,0.0004937292542308569,0.9243382215499878
26.60945400,26609454,2,0.3813958168029785,-0.004069930408149958,0.0005243571940809488,0.9244027137756348
26.70947500,26709475,2,0.3809819519519806,-0.004109193105250597,0.00052399723790586,0.9245731830596924
26.80943800,26809438,2,0.38045206665992737,-0.004121574107557535,0.0005433505866676569,0.9247912764549255
26.90946600,26909466,2,0.37983790040016174,-0.004139958415180445,0.0005749810952693224,0.9250436425209045
27.00944100,27009441,2,0.379300594329834,-0.004215570166707039,0.0006030727527104318,0.9252637028694153
27.10943600,27109436,2,0.3787394165992737,-0.004217919893562794,0.0006094790296629071,0.9254935383796692
27.20944400,27209444,2,0.3782043159008026,-0.0042259227484464645,0.0006245098193176091,0.9257122874259949
27.30943800,27309438,2,0.377742201089859,-0.004208533558994532,0.0006027186755090952,0.9259010553359985
27.40943900,27409439,2,0.3772489130496979,-0.004225785378366709,0.0006024999893270433,0.9261020421981812
27.50945500,27509455,2,0.3768400549888611,-0.004193779546767473,0.0005837276112288237,0.9262686371803284
27.60946300,27609463,2,0.3765202760696411,-0.004193707834929228,0.0005302396020852029,0.926398754119873
27.70945300,27709453,2,0.37623143196105957,-0.004205843433737755,0.0005138583364896476,0.926516056060791
27.80946700,27809467,2,0.3759499490261078,-0.004187011159956455,0.0005319751799106598,0.9266303777694702
27.90943700,27909437,2,0.375631183385849,-0.004216305911540985,0.0005255001597106457,0.9267594814300537
28.00944300,28009443,2,0.3753630816936493,-0.004236310254782438,0.0005191267118789256,0.9268680214881897
28.10944100,28109441,2,0.3751603662967682,-0.004284941125661135,0.000456258247140795,0.9269499182701111
28.20943400,28209434,2,0.37497884035110474,-0.004270386416465044,0.00048081090790219605,0.9270234107971191
28.30943700,28309437,2,0.37481561303138733,-0.004261700436472893,0.0005107648903504014,0.9270894527435303
28.40946000,28409460,2,0.3747430145740509,-0.004271249752491713,0.0005004031118005514,0.9271187782287598
28.50946100,28509461,2,0.3745298683643341,-0.0042553008534014225,0.0004677436372730881,0.927204966545105
28.60943200,28609432,2,0.37431907653808594,-0.004210944753140211,0.00045476166997104883,0.9272903203964233
28.70947300,28709473,2,0.3743482828140259,-0.004196280613541603,0.00042816309724003077,0.9272785782814026
28.80943700,28809437,2,0.3752177655696869,-0.0042040362022817135,0.0004257116816006601,0.9269270896911621
28.90943700,28909437,2,0.3767521381378174,-0.0041792020201683044,0.0004375488788355142,0.9263045787811279
29.00945400,29009454,2,0.3783261179924011,-0.0041634198278188705,0.0004455540329217911,0.9256629347801208
29.10943400,29109434,2,0.3795773684978485,-0.004141699988394976,0.00043765531154349446,0.9251506328582764
29.20943700,29209437,2,0.38030293583869934,-0.004227721597999334,0.00046253876644186676,0.924852192401886
29.30945700,29309457,2,0.38054990768432617,-0.004192706663161516,0.0004420285113155842,0.9247507452964783
29.40947700,29409477,2,0.38044625520706177,-0.004205863457173109,0.0004508395795710385,0.9247933626174927
29.50943100,29509431,2,0.38014376163482666,-0.004202236887067556,0.00044921357766725123,0.9249177575111389
29.60946700,29609467,2,0.37978655099868774,-0.004227155353873968,0.00044945295667275786,0.9250643849372864
29.70944400,29709444,2,0.3794059753417969,-0.004176297225058079,0.00044546092976816,0.925220787525177
29.80943900,29809439,2,0.379108190536499,-0.004195609595626593,0.00048526449245400727,0.9253427386283875
29.90943700,29909437,2,0.378791868686676,-0.004203775431960821,0.00046256231144070625,0.9254721999168396
30.00943300,30009433,2,0.3784903883934021,-0.004184933379292488,0.0004780851013492793,0.9255956411361694
30.10943500,30109435,2,0.3781801462173462,-0.004220274277031422,0.00050343171460554,0.9257222414016724
30.20945400,30209454,2,0.3777783215045929,-0.004196091089397669,0.0004690040077548474,0.9258864521980286
30.30945500,30309455,2,0.3774140179157257,-0.0042024822905659676,0.0004506043333094567,0.9260349869728088
30.40943600,30409436,2,0.3770448565483093,-0.004196754191070795,0.00042070975177921355,0.9261853694915771
30.50945900,30509459,2,0.3766961693763733,-0.00419987179338932,0.0004226770543027669,0.9263272285461426
30.60942800,30609428,2,0.37636926770210266,-0.004238103982061148,0.0003792951174546033,0.9264599680900574
30.70943000,30709430,2,0.37604665756225586,-0.004234382417052984,0.00037378535489551723,0.9265909790992737
30.80942500,30809425,2,0.37578338384628296,-0.004245811142027378,0.000347233290085569,0.9266977310180664
30.90942500,30909425,2,0.3756079077720642,-0.004255191422998905,0.0003260171215515584,0.9267688393592834
31.00939200,31009392,2,0.37544554471969604,-0.004208887927234173,0.00034381457953713834,0.9268348217010498
31.10943100,31109431,2,0.3752496838569641,-0.004229574464261532,0.0003827658074442297,0.9269140362739563
31.20944700,31209447,2,0.37507885694503784,-0.0042187804356217384,0.0003372575738467276,0.9269832372665405
31.30943400,31309434,2,0.37492114305496216,-0.004241846036165953,0.00037358119152486324,0.9270469546318054
31.40945800,31409458,2,0.37468037009239197,-0.0042484719306230545,0.00032094790367409587,0.9271442294120789
31.50943800,31509438,2,0.37455275654792786,-0.00424591638147831,0.00035001063952222466,0.9271957874298096
31.60942800,31609428,2,0.37498465180397034,-0.004254307132214308,0.0003453988174442202,0.9270212054252625
31.70942600,31709426,2,0.37619736790657043,-0.00427267886698246,0.0003298160736449063,0.9265296459197998
31.80942700,31809427,2,0.3776036500930786,-0.004291953984647989,0.0003315074136480689,0.9259573221206665
31.90938500,31909385,2,0.3787318170070648,-0.00434405030682683,0.0003473450487945229,0.9254962205886841
32.00945000,32009450,2,0.3794799745082855,-0.004357630852609873,0.0003355664375703782,0.9251896142959595
32.10945500,32109455,2,0.37977853417396545,-0.004384636413305998,0.00032640976132825017,0.9250670075416565
32.20942400,32209424,2,0.37976330518722534,-0.004414533264935017,0.0003488298680167645,0.9250730872154236
32.30946000,32309460,2,0.3795314431190491,-0.004431299399584532,0.00029782892670482397,0.9251681566238403
32.40943900,32409439,2,0.3791649341583252,-0.004488908685743809,0.0003143424401059747,0.92531818151474
32.50942700,32509427,2,0.37871214747428894,-0.004527530167251825,0.0002925836306530982,0.9255033731460571
32.60943200,32609432,2,0.37823188304901123,-0.0045618293806910515,0.000314531906042248,0.9256995916366577
32.70943100,32709431,2,0.37782225012779236,-0.004521076567471027,0.0003382573486305773,0.9258670210838318
32.80942600,32809426,2,0.3775174617767334,-0.004530623555183411,0.000346837769029662,0.9259912967681885
32.90944400,32909444,2,0.3773043155670166,-0.004544797819107771,0.00033877306850627065,0.9260781407356262
33.00945500,33009455,2,0.37705540657043457,-0.004576664883643389,0.0003220322832930833,0.9261793494224548
33.10943800,33109438,2,0.3768748641014099,-0.004628101829439402,0.000329786678776145,0.926252543926239
33.20945300,33209453,2,0.3767319619655609,-0.0046815648674964905,0.00028399439179338515,0.9263104200363159
33.30942800,33309428,2,0.3765009045600891,-0.004659134428948164,0.00028948317049071193,0.9264044761657715
33.40943000,33409430,2,0.37621381878852844,-0.004670155234634876,0.0002838768996298313,0.9265210628509521
33.50942600,33509426,2,0.3760063946247101,-0.004623540677130222,0.0002976587857119739,0.9266054630279541
33.60942900,33609429,2,0.3757246136665344,-0.004641377832740545,0.00030989531660452485,0.9267196655273438
33.70938700,33709387,2,0.37546366453170776,-0.004618112463504076,0.0003603085351642221,0.9268255233764648
33.80943400,33809434,2,0.37524744868278503,-0.004670795518904924,0.0003766668669413775,0.9269128441810608
33.90945900,33909459,2,0.37505942583084106,-0.004660693928599358,0.00035411270800977945,0.926988959312439
34.00943800,34009438,2,0.3749139904975891,-0.004640167113393545,0.0003098120796494186,0.9270479083061218
34.10946300,34109463,2,0.3747119903564453,-0.004612906835973263,0.00029059010557830334,0.9271297454833984
34.20943300,34209433,2,0.3745415210723877,-0.004611172713339329,0.0002528165641706437,0.9271986484527588
34.30942800,34309428,2,0.3743930459022522,-0.004644943866878748,0.00028605261468328536,0.9272584319114685
34.40943200,34409432,2,0.37457403540611267,-0.004622866865247488,0.00028705448494292796,0.9271854162216187
34.50942700,34509427,2,0.3753412365913391,-0.004657663404941559,0.0002839846129063517,0.9268749356269836
34.60942800,34609428,2,0.3765676021575928,-0.0046239495277404785,0.0002557149273343384,0.926377534866333
34.70945500,34709455,2,0.3776661455631256,-0.004621351137757301,0.00026020006043836474,0.9259302616119385
34.80945100,34809451,2,0.3784310221672058,-0.004642969463020563,0.000285261106910184,0.9256178140640259
34.90944200,34909442,2,0.37880903482437134,-0.0046445284970104694,0.0002859071537386626,0.9254631400108337
35.00946100,35009461,2,0.3788999915122986,-0.004725615493953228,0.00028541963547468185,0.9254255294799805
35.10943600,35109436,2,0.3787899315357208,-0.004725662060081959,0.0002761824580375105,0.9254705905914307
35.20943100,35209431,2,0.37851765751838684,-0.004770893603563309,0.0002650748356245458,0.9255817532539368
35.30942700,35309427,2,0.3782716393470764,-0.004724803380668163,0.0003169993287883699,0.925682544708252
35.40942900,35409429,2,0.3779800534248352,-0.004768144804984331,0.0003635783796198666,0.9258013963699341
35.50942600,35509426,2,0.37774407863616943,-0.004755410365760326,0.0003156682359986007,0.9258977770805359
35.60944300,35609443,2,0.37753739953041077,-0.004728212486952543,0.0002829557633958757,0.9259822368621826
35.70946900,35709469,2,0.37730541825294495,-0.0047261398285627365,0.0003366378368809819,0.9260767698287964
35.80943700,35809437,2,0.37714478373527527,-0.004685754422098398,0.00029535850626416504,0.9261423945426941
35.90945900,35909459,2,0.3769911527633667,-0.004685395397245884,0.00029517250368371606,0.9262049794197083
36.00942900,36009429,2,0.3768842816352844,-0.004670575261116028,0.00030313522438518703,0.9262485504150391
36.10942800,36109428,2,0.37671756744384766,-0.004730886314064264,0.0002666540676727891,0.9263160228729248
36.20943100,36209431,2,0.376571923494339,-0.0047373841516673565,0.00024541563470847905,0.9263752102851868
36.30942900,36309429,2,0.37637853622436523,-0.004779872018843889,0.00024622015189379454,0.9264535903930664
36.40942700,36409427,2,0.3762267529964447,-0.004803377203643322,0.000204204858164303,0.9265151619911194
36.50944500,36509445,2,0.3760630786418915,-0.004801987670361996,0.00020909271552227437,0.926581621170044
36.60946800,36609468,2,0.3759598731994629,-0.004877009894698858,0.00020655350817833096,0.9266231060028076
36.70944100,36709441,2,0.37584152817726135,-0.004863291047513485,0.000263782509136945,0.9266711473464966
36.80945100,36809451,2,0.37572890520095825,-0.004907509777694941,0.000250499346293509,0.9267165660858154
36.90943200,36909432,2,0.37559112906455994,-0.004933686461299658,0.0002562708395998925,0.9267722964286804
37.00943200,37009432,2,0.3755605220794678,-0.004960773047059774,0.0003098496235907078,0.9267845153808594
37.10942600,37109426,2,0.37544071674346924,-0.004946331027895212,0.00030978090944699943,0.9268331527709961
37.20943200,37209432,2,0.37552008032798767,-0.004971584305167198,0.00038126803701743484,0.9268008470535278
37.30942900,37309429,2,0.37616071105003357,-0.004945963621139526,0.00034706047154031694,0.9265411496162415
37.40944400,37409444,2,0.37723439931869507,-0.004970706533640623,0.00031780244898982346,0.9261044263839722
37.50945100,37509451,2,0.37823787331581116,-0.004960118792951107,0.00033307314151898026,0.9256951212882996
37.60943900,37609439,2,0.37901800870895386,-0.0049649314023554325,0.0003660897200461477,0.9253758788108826
37.70945900,37709459,2,0.3794606029987335,-0.004929044283926487,0.00039149521035142243,0.9251946806907654
37.80942700,37809427,2,0.3795497715473175,-0.004888513125479221,0.0003973752027377486,0.9251583218574524
37.90944000,37909440,2,0.37948232889175415,-0.004907612688839436,0.0003551332338247448,0.9251859188079834
38.00942900,38009429,2,0.37928539514541626,-0.004957463126629591,0.00031467663939110935,0.9252663850784302
38.10943300,38109433,2,0.37909483909606934,-0.004999101161956787,0.00029505937709473073,0.9253442883491516
38.20942900,38209429,2,0.37881624698638916,-0.00500749284401536,0.00023909597075544298,0.9254583120346069
38.30944800,38309448,2,0.3785546123981476,-0.005031435284763575,0.00021742857643403113,0.925565242767334
38.40946000,38409460,2,0.37831711769104004,-0.005051109939813614,0.00021650105190929025,0.9256622195243835
38.50943500,38509435,2,0.3781082332134247,-0.005057069472968578,0.00022509292466565967,0.9257475733757019
38.60945700,38609457,2,0.3779202699661255,-0.005054055247455835,0.00020433834288269281,0.9258243441581726
38.70943200,38709432,2,0.377702921628952,-0.005106653086841106,0.00021646852837875485,0.9259127378463745
38.80942600,38809426,2,0.37749332189559937,-0.0051164752803742886,0.00022140260261949152,0.9259981513023376
38.90942900,38909429,2,0.37732791900634766,-0.005165357608348131,0.00022684580471832305,0.9260652661323547
39.00943200,39009432,2,0.37713032960891724,-0.00523860240355134,0.00022468874522019178,0.9261453747749329
39.10938400,39109384,2,0.3768745958805084,-0.00521613284945488,0.00021028467745054513,0.9262495636940002
39.20943500,39209435,2,0.37661370635032654,-0.005207466427236795,0.00017836700135376304,0.9263557195663452
39.30945300,39309453,2,0.3764038681983948,-0.005222712643444538,0.00019008976232726127,0.926440954208374
39.40943700,39409437,2,0.37613460421562195,-0.0052025034092366695,0.00016389969096053392,0.9265503883361816
39.50946400,39509464,2,0.3758692741394043,-0.005219139624387026,0.00020476285135373473,0.9266579747200012
39.60943200,39609432,2,0.3756577670574188,-0.0052363015711307526,0.00018515282135922462,0.9267436265945435
39.70942900,39709429,2,0.37546271085739136,-0.00518614798784256,0.00021419901167973876,0.9268229603767395
39.80942900,39809429,2,0.37528517842292786,-0.005206659436225891,0.00018966862990055233,0.9268947839736938
39.90942800,39909428,2,0.37511444091796875,-0.005181744694709778,0.00017362598737236112,0.9269639849662781
40.00943000,40009430,2,0.37514162063598633,-0.005172364413738251,0.00018042213923763484,0.9269530773162842
40.10944600,40109446,2,0.37561339139938354,-0.005174573045223951,0.00016519830387551337,0.9267619848251343
40.20944900,40209449,2,0.37656012177467346,-0.00518147274851799,0.00020181690342724323,0.9263776540756226
40.30943500,40309435,2,0.3776165246963501,-0.005205965600907803,0.0002585402980912477,0.9259474277496338
40.40946200,40409462,2,0.37842556834220886,-0.005180485546588898,0.00029661416192539036,0.9256171584129333
40.50943800,40509438,2,0.3789745569229126,-0.0052087679505348206,0.00028558404301293194,0.9253923892974854
40.60942700,40609427,2,0.3792040944099426,-0.005221187137067318,0.00031944195507094264,0.925298273563385
40.70944200,40709442,2,0.37921610474586487,-0.005198156926780939,0.0003083496121689677,0.925293505191803
40.80942500,40809425,2,0.379096120595932,-0.005208233371376991,0.0003307052538730204,0.9253425598144531
40.90942800,40909428,2,0.37892553210258484,-0.00518984068185091,0.0003419970744289458,0.9254125356674194
41.00945200,41009452,2,0.3787725567817688,-0.005200541578233242,0.0003743123379535973,0.9254751205444336
41.10946900,41109469,2,0.37857457995414734,-0.005161995999515057,0.00038728112122043967,0.9255563020706177
41.20943800,41209438,2,0.37838083505630493,-0.0051231468096375465,0.0003454422694630921,0.9256357550621033
41.30945600,41309456,2,0.37820759415626526,-0.005095305852591991,0.00041107667493633926,0.925706684589386
41.40942700,41409427,2,0.37808772921562195,-0.005095392931252718,0.0004308881761971861,0.9257556200027466
41.50943400,41509434,2,0.3779536485671997,-0.005048907827585936,0.00045784865505993366,0.9258106350898743
41.60942900,41609429,2,0.3778299391269684,-0.005075804423540831,0.00046254880726337433,0.9258610010147095
41.70942900,41709429,2,0.37767714262008667,-0.005049086641520262,0.0004206029698252678,0.9259234666824341
41.80942700,41809427,2,0.3775170147418976,-0.004987769294530153,0.00040963859646581113,0.9259890913963318
41.90943100,41909431,2,0.37736713886260986,-0.004987845662981272,0.00040257847285829484,0.9260502457618713
42.00945500,42009455,2,0.377144455909729,-0.0049906522035598755,0.00041075836634263396,0.9261409044265747
42.10943500,42109435,2,0.3769358992576599,-0.004950833506882191,0.00038458750350400805,0.926226019859314
42.20945600,42209456,2,0.37677788734436035,-0.004942919127643108,0.00037735525984317064,0.9262903928756714
42.30942500,42309425,2,0.37662380933761597,-0.0049705589190125465,0.0003041400632355362,0.9263529181480408
42.40943400,42409434,2,0.3764559328556061,-0.004967958200722933,0.00028945357189513743,0.9264211654663086
42.50942600,42509426,2,0.37631261348724365,-0.00493664899840951,0.00025586530682630837,0.9264795780181885
42.60942800,42609428,2,0.37615635991096497,-0.004927780944854021,0.0002460713149048388,0.9265430569648743
42.70943400,42709434,2,0.3760537803173065,-0.004899412393569946,0.00021540616580750793,0.9265848398208618
42.80946200,42809462,2,0.37593352794647217,-0.004910916090011597,0.0002253289130749181,0.9266335964202881
42.90944900,42909449,2,0.37600743770599365,-0.004889506381005049,0.0002305967063875869,0.9266037344932556
43.00943400,43009434,2,0.3766113817691803,-0.00489979749545455,0.00023959197278600186,0.9263583421707153
43.10945900,43109459,2,0.3773670494556427,-0.00489934254437685,0.00022205918503459543,0.9260507822036743
43.20942600,43209426,2,0.37809714674949646,-0.004877288360148668,0.0002533658407628536,0.9257530570030212
43.30942800,43309428,2,0.3786107003688812,-0.004877864383161068,0.0002291811688337475,0.9255431294441223
43.40942800,43409428,2,0.3788643181324005,-0.004886205308139324,0.000251647928962484,0.9254392981529236
43.50943000,43509430,2,0.37893372774124146,-0.004910369869321585,0.0002798408386297524,0.9254107475280762
43.60942900,43609429,2,0.37883463501930237,-0.004910925403237343,0.0003108119999524206,0.9254512786865234
43.70944400,43709444,2,0.378639817237854,-0.004927595146000385,0.00031852780375629663,0.9255309104919434
43.80945100,43809451,2,0.37840336561203003,-0.004945317283272743,0.0003107803640887141,0.9256275296211243
43.90943000,43909430,2,0.37820127606391907,-0.004920308943837881,0.0002746364916674793,0.9257102608680725
44.00945700,44009457,2,0.378044456243515,-0.004863879643380642,0.0002470832841936499,0.9257746338844299
44.10943300,44109433,2,0.3779226243495941,-0.004841895774006844,0.00021361479593906552,0.9258245229721069
44.20942600,44209426,2,0.3778172731399536,-0.004791497718542814,0.00026196212274953723,0.9258677363395691
44.30942900,44309429,2,0.3777042031288147,-0.004803507123142481,0.00029891205485910177,0.9259138107299805
44.40944100,44409441,2,0.3776756227016449,-0.004801827948540449,0.0002924894215539098,0.9259254932403564
44.50942500,44509425,2,0.37757018208503723,-0.00479686027392745,0.0002545164606999606,0.9259685277938843
44.60943500,44609435,2,0.37746110558509827,-0.0047765313647687435,0.0002553175436332822,0.9260131120681763
44.70945600,44709456,2,0.3773518204689026,-0.004785554483532906,0.000274732883553952,0.9260575771331787
44.80941900,44809419,2,0.3772260546684265,-0.004774677567183971,0.0002972734218928963,0.9261088371276855
44.90945800,44909458,2,0.3770981729030609,-0.004740597680211067,0.000302299449685961,0.9261611104011536
45.00943800,45009438,2,0.37696027755737305,-0.004734644666314125,0.00028780748834833503,0.926217257976532
45.10943400,45109434,2,0.37683114409446716,-0.004712856840342283,0.00033999179140664637,0.9262699484825134
45.20942600,45209426,2,0.37675365805625916,-0.004724825266748667,0.0003417945990804583,0.9263013601303101
45.30942800,45309428,2,0.3766821622848511,-0.00474235275760293,0.00034807430347427726,0.9263303875923157
45.40940100,45409401,2,0.37658458948135376,-0.0047342111356556416,0.0003370332415215671,0.9263700842857361
45.50944900,45509449,2,0.3765072822570801,-0.004742233548313379,0.0003508161171339452,0.9264014363288879
45.60945800,45609458,2,0.37645211815834045,-0.004736718256026506,0.00035091472091153264,0.9264239072799683
45.70942200,45709422,2,0.3764215409755707,-0.004655882250517607,0.00039233590359799564,0.926436722278595
45.80946300,45809463,2,0.3768065571784973,-0.0046996730379760265,0.00039224926149472594,0.9262799620628357
45.90943500,45909435,2,0.37748152017593384,-0.004699485842138529,0.00044803510536439717,0.9260050654411316
46.00942900,46009429,2,0.3781993091106415,-0.004708301275968552,0.0004262190777808428,0.9257121086120605
46.10943700,46109437,2,0.37867113947868347,-0.004711768124252558,0.00039625493809580803,0.9255192279815674
46.20942600,46209426,2,0.3789324462413788,-0.004768287297338247,0.0004138581862207502,0.9254119396209717
46.30942800,46309428,2,0.3790101706981659,-0.004750236868858337,0.00042915166704915464,0.9253802299499512
46.40944900,46409449,2,0.3789391815662384,-0.00477183610200882,0.00045035939547233284,0.925409197807312
46.50945000,46509450,2,0.37882235646247864,-0.004748778883367777,0.0004527785931713879,0.9254571199417114
46.60942200,46609422,2,0.37861815094947815,-0.004735222086310387,0.0005326124373823404,0.9255406856536865
46.70946000,46709460,2,0.37843260169029236,-0.004688316024839878,0.0005175132537260652,0.9256168603897095
46.80943000,46809430,2,0.37825557589530945,-0.004722714424133301,0.0005082949064671993,0.9256890416145325
46.90942500,46909425,2,0.37806928157806396,-0.0047103469260036945,0.0004995417548343539,0.9257651567459106
47.00943100,47009431,2,0.3779139518737793,-0.004645826295018196,0.0005097540561109781,0.9258289337158203
47.10943000,47109430,2,0.37776896357536316,-0.004646444693207741,0.0005098120309412479,0.9258880615234375
47.20938300,47209383,2,0.37759408354759216,-0.004599562846124172,0.000524111557751894,0.9259596467018127
47.30944900,47309449,2,0.3774853050708771,-0.004624904599040747,0.0005183024914003909,0.9260038733482361
47.40945900,47409459,2,0.3773362934589386,-0.0046073575504124165,0.0005270924302749336,0.926064670085907
47.50943100,47509431,2,0.3772077262401581,-0.004613335710018873,0.0005390240694396198,0.9261170625686646
47.60945800,47609458,2,0.3770694136619568,-0.00462738424539566,0.0005479030078276992,0.9261732697486877
47.70943700,47709437,2,0.3769468367099762,-0.004649462644010782,0.0005307038663886487,0.92622309923172
47.80942800,47809428,2,0.37690654397010803,-0.004678977653384209,0.0005378774367272854,0.9262393116950989
47.90942600,47909426,2,0.3768669664859772,-0.004671287257224321,0.0005004042177461088,0.926255464553833
48.00943600,48009436,2,0.37677884101867676,-0.004698263946920633,0.0004983968683518469,0.9262912273406982
48.10943200,48109432,2,0.3766669034957886,-0.0047120628878474236,0.0005013277987018228,0.9263366460800171
48.20943900,48209439,2,0.3765960931777954,-0.0047605885192751884,0.000496831547934562,0.9263651967048645
48.30945100,48309451,2,0.3764668405056,-0.004805439617484808,0.0005182016757316887,0.9264174699783325
48.40943300,48409433,2,0.3763268291950226,-0.0047957319766283035,0.0004778095753863454,0.9264744520187378
48.50945400,48509454,2,0.37623751163482666,-0.004797750618308783,0.0004776035202667117,0.9265106916427612
48.60943400,48609434,2,0.376517653465271,-0.004803062416613102,0.0004668036999646574,0.9263968467712402
48.70943100,48709431,2,0.37714138627052307,-0.004798422567546368,0.0004901894135400653,0.9261431097984314
48.80942400,48809424,2,0.37791281938552856,-0.004792885389178991,0.0005224018241278827,0.9258286356925964
48.90942700,48909427,2,0.37854135036468506,-0.004769697319716215,0.0005091216880828142,0.9255719780921936
49.00943600,49009436,2,0.37893587350845337,-0.004777056630700827,0.00044750404777005315,0.9254105091094971
49.10944300,49109443,2,0.37916308641433716,-0.004776097368448973,0.00046606408432126045,0.9253174066543579
49.20945300,49209453,2,0.37917476892471313,-0.0047684889286756516,0.00042537535773590207,0.9253126978874207
49.30943700,49309437,2,0.3791281580924988,-0.004771543201059103,0.0004532852035481483,0.9253317713737488
49.40945800,49409458,2,0.37900179624557495,-0.004760985262691975,0.0005078525864519179,0.9253835678100586
49.50942500,49509425,2,0.3788185715675354,-0.004733341280370951,0.0005053108907304704,0.9254587292671204
49.60942700,49609427,2,0.3786507546901703,-0.004729737062007189,0.0005392602761276066,0.9255273938179016
49.70942900,49709429,2,0.3784731328487396,-0.004717378877103329,0.0005492030177265406,0.9256001114845276
49.80942900,49809429,2,0.3783450126647949,-0.004692093934863806,0.0005286307423375547,0.9256526231765747
49.90939200,49909392,2,0.37821948528289795,-0.004612564574927092,0.0005064045544713736,0.925704300403595
50.00944500,50009445,2,0.3780936002731323,-0.00458757346495986,0.0004906366812065244,0.9257558584213257
50.10946200,50109462,2,0.37798529863357544,-0.004582563880831003,0.00046527484664693475,0.9258001446723938
50.20943200,50209432,2,0.3778288960456848,-0.004550564102828503,0.0004678258846979588,0.9258641600608826
50.30945900,50309459,2,0.3776857852935791,-0.004527771845459938,0.0004423494392540306,0.9259226322174072
50.40943300,50409433,2,0.3775452673435211,-0.004529310390353203,0.00046333452337421477,0.9259799122810364
50.50942500,50509425,2,0.3774178624153137,-0.00452831108123064,0.00045931627391837537,0.9260318875312805
50.60943200,50609432,2,0.37729132175445557,-0.004566172603517771,0.0004462630022317171,0.9260832667350769
50.70943100,50709431,2,0.3771820664405823,-0.004529319237917662,0.00043357699178159237,0.9261279702186584
50.80938300,50809383,2,0.3770422339439392,-0.00459489319473505,0.0004255190142430365,0.9261845946311951
50.90944300,50909443,2,0.37689557671546936,-0.004592124372720718,0.0003988764074165374,0.9262442588806152
51.00946100,51009461,2,0.3767124116420746,-0.004553189035505056,0.000421863078372553,0.9263190031051636
51.10943800,51109438,2,0.37659507989883423,-0.0045357816852629185,0.0004518121131695807,0.9263667464256287
51.20946900,51209469,2,0.3765496015548706,-0.004509781487286091,0.0004889151896350086,0.9263853430747986
51.30942700,51309427,2,0.37641826272010803,-0.004502974916249514,0.0005247358931228518,0.9264387488365173
51.40943000,51409430,2,0.3765098452568054,-0.004480350762605667,0.0005040488904342055,0.9264016151428223
51.50942900,51509429,2,0.3770076632499695,-0.004417782183736563,0.0005381280789151788,0.9261994361877441
51.60943000,51609430,2,0.3776599168777466,-0.0043840836733579636,0.0005825456464663148,0.925933837890625
51.70938600,51709386,2,0.37814974784851074,-0.004358684178441763,0.0005627407226711512,0.9257339835166931
51.80946100,51809461,2,0.3784911632537842,-0.004353947471827269,0.0005639587179757655,0.9255945086479187
51.90946300,51909463,2,0.378624826669693,-0.004333139397203922,0.0005561155849136412,0.9255399107933044
52.00943600,52009436,2,0.37864449620246887,-0.004354638513177633,0.0005197160062380135,0.925531804561615
52.10946000,52109460,2,0.3785826861858368,-0.004366154316812754,0.0004653498763218522,0.9255570769309998
52.20942700,52209427,2,0.37844133377075195,-0.004335510544478893,0.0004703992453869432,0.9256150126457214
52.30942700,52309427,2,0.3782704174518585,-0.004325143527239561,0.0005074833170510828,0.9256848692893982
52.40943300,52409433,2,0.3781217336654663,-0.00430934177711606,0.0005278861499391496,0.9257457256317139
52.50942700,52509427,2,0.37798961997032166,-0.004341703839600086,0.0005517919198609889,0.9257994890213013
52.60943100,52609431,2,0.37785956263542175,-0.0043858676217496395,0.0005227525252848864,0.925852358341217
52.70943800,52709438,2,0.3777671456336975,-0.004471580032259226,0.0005565806059166789,0.9258896708488464
52.80945200,52809452,2,0.3776605427265167,-0.00451450003311038,0.0005907326121814549,0.9259329438209534
52.90943700,52909437,2,0.3775499761104584,-0.004539255518466234,0.0005986531614325941,0.925977885723114
53.00945700,53009457,2,0.37741556763648987,-0.004567184951156378,0.0006086842040531337,0.926032543182373
53.10943600,53109436,2,0.37723734974861145,-0.0045882221311330795,0.0006371354102157056,0.9261050224304199
53.20942500,53209425,2,0.3770553171634674,-0.004592953249812126,0.0006235226755961776,0.9261791706085205
53.30943100,53309431,2,0.37692663073539734,-0.004572649486362934,0.0006162048084661365,0.9262316226959229
53.40942800,53409428,2,0.3768378496170044,-0.004563197027891874,0.0005871719331480563,0.9262678027153015
53.50943000,53509430,2,0.376745343208313,-0.004588781856000423,0.000521348905749619,0.92630535364151
53.60944400,53609444,2,0.37666141986846924,-0.0046081580221652985,0.0004948837449774146,0.9263393878936768
53.70945000,53709450,2,0.3765718936920166,-0.004607366863638163,0.0004686123866122216,0.9263758063316345
53.80943700,53809437,2,0.37648335099220276,-0.00463322177529335,0.0004954566829837859,0.9264116883277893
53.90945600,53909456,2,0.3763796389102936,-0.004640355706214905,0.00045295231393538415,0.9264537692070007
54.00943400,54009434,2,0.37626415491104126,-0.0045775133185088634,0.0003875327529385686,0.9265010356903076
54.10943300,54109433,2,0.37612488865852356,-0.00455970223993063,0.00039322616066783667,0.9265576601028442
54.20942500,54209425,2,0.37613019347190857,-0.004575853236019611,0.00033431051997467875,0.9265554547309875
54.30943000,54309430,2,0.37654536962509155,-0.004547016229480505,0.0002922929124906659,0.9263869524002075
54.40943500,54409435,2,0.3772379755973816,-0.004531149752438068,0.00031486927764490247,0.9261052012443542
54.50944700,54509447,2,0.37793853878974915,-0.004581095650792122,0.0003001049626618624,0.9258192777633667
54.60945700,54609457,2,0.37841689586639404,-0.004559862893074751,0.0003100285248365253,0.9256240129470825
54.70944000,54709440,2,0.37870731949806213,-0.004571083001792431,0.0003313777269795537,0.9255051612854004
54.80945400,54809454,2,0.3788459897041321,-0.004624758847057819,0.0002973030786961317,0.9254481196403503
54.90943300,54909433,2,0.378864049911499,-0.004640078172087669,0.0002852650941349566,0.9254406690597534
55.00943100,55009431,2,0.3788176476955414,-0.004664026666432619,0.00030531256925314665,0.9254595637321472
55.10942800,55109428,2,0.37867072224617004,-0.0046809762716293335,0.00031027471413835883,0.925519585609436
55.20942500,55209425,2,0.3784746825695038,-0.004646040499210358,0.0002626631176099181,0.9255999326705933
55.30943300,55309433,2,0.37831830978393555,-0.004687950015068054,0.00023621991567779332,0.9256636500358582
55.40943200,55409432,2,0.37820708751678467,-0.004681878257542849,0.0001898563205031678,0.9257091283798218
55.50946000,55509460,2,0.37805283069610596,-0.004673356655985117,0.00017959873366635293,0.9257721900939941
55.60944100,55609441,2,0.3779936730861664,-0.00463717570528388,0.0001908868580358103,0.9257965683937073
55.70945600,55709456,2,0.3778412342071533,-0.004664265085011721,0.00014672694669570774,0.9258586168289185
55.80942800,55809428,2,0.377725213766098,-0.004690513946115971,0.00016938938642852008,0.9259058237075806
55.90943100,55909431,2,0.3775809407234192,-0.0046518840827047825,0.0001364371128147468,0.925964891910553
56.00942800,56009428,2,0.3774571120738983,-0.00467646075412631,0.00015556838479824364,0.9260152578353882
56.10943200,56109432,2,0.3773691654205322,-0.004730789456516504,0.00012085295747965574,0.9260508418083191
56.20938400,56209384,2,0.37720823287963867,-0.004703071899712086,0.00011689467646647245,0.9261165261268616
56.30945200,56309452,2,0.37708133459091187,-0.004737837240099907,0.00010126010602107272,0.9261680245399475
56.40945900,56409459,2,0.37697362899780273,-0.004747716244310141,9.791432967176661e-05,0.9262118339538574
56.50943500,56509435,2,0.37688514590263367,-0.00480584567412734,9.52288755797781e-05,0.9262475371360779
56.60945700,56609457,2,0.37677595019340515,-0.004820822272449732,4.9536531150806695e-05,0.9262918829917908
56.70943200,56709432,2,0.3766305148601532,-0.004830740857869387,9.935311936715152e-06,0.9263509511947632
56.80942500,56809425,2,0.3764989376068115,-0.0048466892912983894,3.786814340855926e-05,0.9264043569564819
56.90942800,56909428,2,0.3763982653617859,-0.004829517100006342,1.7696237364361878e-06,0.9264453649520874
57.00942800,57009428,2,0.3763781487941742,-0.004851289559155703,-3.408303018659353e-05,0.9264534115791321
57.10943000,57109430,2,0.376638263463974,-0.004859426058828831,4.102649199921871e-06,0.9263476729393005
57.20944300,57209443,2,0.37712740898132324,-0.0048702373169362545,1.285738471779041e-05,0.9261485934257507
57.30945200,57309452,2,0.3776662349700928,-0.004910933319479227,2.5234301574528217e-05,0.9259287714958191
57.40943800,57409438,2,0.3780919015407562,-0.004893539473414421,3.3322743547614664e-05,0.9257551431655884
57.50946000,57509460,2,0.3783508539199829,-0.004894796758890152,4.4905671529704705e-05,0.9256493449211121
57.60942700,57609427,2,0.3784446716308594,-0.004905685316771269,3.835437019006349e-05,0.9256108999252319
57.70942800,57709428,2,0.3784664571285248,-0.004877147264778614,4.1691280785016716e-05,0.92560213804245
57.80942800,57809428,2,0.37841886281967163,-0.004866232164204121,-1.8007885955739766e-05,0.9256216883659363
57.90943200,57909432,2,0.37827664613723755,-0.0048829056322574615,-3.4197921195300296e-05,0.9256796836853027
58.00938700,58009387,2,0.37813717126846313,-0.004879257641732693,-4.79002983411192e-06,0.9257367253303528
58.10943800,58109438,2,0.37798309326171875,-0.004834964405745268,6.445125109166838e-06,0.9257999062538147
58.20945200,58209452,2,0.37788131833076477,-0.004814761225134134,2.9937931685708463e-05,0.9258415102958679
58.30942900,58309429,2,0.37776002287864685,-0.0047935135662555695,2.1859588741790503e-05,0.925891101360321
58.40946400,58409464,2,0.3776211142539978,-0.004761098884046078,-6.839388515800238e-05,0.9259479641914368
58.50943400,58509434,2,0.37749192118644714,-0.004734789486974478,-8.233827247750014e-05,0.9260007739067078
58.60942600,58609426,2,0.3773939609527588,-0.004740261938422918,-0.00011665773490676656,0.9260406494140625
58.70943100,58709431,2,0.3772621750831604,-0.004754160530865192,-0.0001053791493177414,0.9260942935943604
58.80942300,58809423,2,0.377125084400177,-0.004783726762980223,-0.00013011731789447367,0.9261499643325806
58.90942800,58909428,2,0.37705713510513306,-0.004716022405773401,-0.00015275622718036175,0.926177978515625
59.00945900,59009459,2,0.3769846260547638,-0.004700453486293554,-0.0001732281525619328,0.9262076020240784
59.10946900,59109469,2,0.37692198157310486,-0.004619713872671127,-0.00017766290693543851,0.9262334704399109
59.20943400,59209434,2,0.37683743238449097,-0.004595194943249226,-0.00019791752856690437,0.9262679815292358
59.30945700,59309457,2,0.3767525851726532,-0.00456579914316535,-0.0002522305876482278,0.9263026118278503
59.40943000,59409430,2,0.37666070461273193,-0.004527861252427101,-0.0002773874148260802,0.9263401627540588
59.50943300,59509433,2,0.37661415338516235,-0.004527842625975609,-0.00029998982790857553,0.9263591170310974
59.60943500,59609435,2,0.3765389025211334,-0.004538333043456078,-0.00029616645770147443,0.9263896346092224
59.70943400,59709434,2,0.3764311671257019,-0.0045548370108008385,-0.0002921692212112248,0.9264333248138428
59.80944000,59809440,2,0.3763316869735718,-0.004550080746412277,-0.00026850769063457847,0.9264737963676453
59.90944100,59909441,2,0.3763973116874695,-0.004520414862781763,-0.0003043220203835517,0.9264472723007202
60.00945800,60009458,2,0.3767249882221222,-0.0044740596786141396,-0.00023965012223925442,0.9263142943382263
60.10942500,60109425,2,0.37721696496009827,-0.004434674046933651,-0.0002093292132485658,0.9261142611503601
60.20945500,60209455,2,0.37764522433280945,-0.004386840388178825,-0.00021274668688420206,0.9259399771690369
60.30942700,60309427,2,0.3779115676879883,-0.004362734965980053,-0.00017516872321721166,0.9258313775062561
60.40943200,60409432,2,0.3780277371406555,-0.0043278709053993225,-0.00017170235514640808,0.9257841110229492
60.50943100,60509431,2,0.37803828716278076,-0.004332287237048149,-0.0001988190779229626,0.9257798194885254
60.60942500,60609425,2,0.37801578640937805,-0.004343775566667318,-0.00022998079657554626,0.925788938999176
60.70943100,60709431,2,0.37787294387817383,-0.0043143583461642265,-0.00026801301282830536,0.9258473515510559
60.80944000,60809440,2,0.3777419328689575,-0.004358123987913132,-0.00021417680545710027,0.9259006381034851
60.90945200,60909452,2,0.3776366114616394,-0.0043586925603449345,-0.0002204043121309951,0.9259436130523682
61.00942200,61009422,2,0.37752392888069153,-0.0043418011628091335,-0.00020828205742873251,0.9259896278381348
61.10945700,61109457,2,0.37736764550209045,-0.004343945067375898,-0.0002436359936837107,0.9260532855987549
61.20942100,61209421,2,0.37718886137008667,-0.004298106767237186,-0.0002355349133722484,0.9261263608932495
61.30943300,61309433,2,0.3770727217197418,-0.004229597747325897,-0.0002646528300829232,0.926173985004425
61.40942900,61409429,2,0.37700098752975464,-0.004234852269291878,-0.00026471252203918993,0.9262031316757202
61.50943400,61509434,2,0.37688422203063965,-0.0041761500760912895,-0.00023974319628905505,0.9262509346008301
61.60942600,61609426,2,0.3767372667789459,-0.004224639851599932,-0.0002672050322871655,0.9263104796409607
61.70944100,61709441,2,0.3766595125198364,-0.004218699410557747,-0.0002794866159092635,0.9263421297073364
61.80945900,61809459,2,0.376553475856781,-0.004214252345263958,-0.0001860669144662097,0.9263852834701538
61.90942000,61909420,2,0.37644070386886597,-0.004248467274010181,-0.00015111647371668369,0.9264309406280518
62.00945700,62009457,2,0.37641406059265137,-0.004219089634716511,-0.00018662349611986428,0.9264419078826904
62.10942800,62109428,2,0.376289963722229,-0.004243755247443914,-0.00012374715879559517,0.9264922142028809
62.20943300,62209433,2,0.37622806429862976,-0.004215112421661615,-0.00011733267456293106,0.9265174865722656
62.30943600,62309436,2,0.37614747881889343,-0.004189938772469759,-9.8889009677805e-05,0.9265503287315369
62.40943400,62409434,2,0.37599071860313416,-0.004211217164993286,-0.00010682848369469866,0.9266138672828674
62.50942600,62509426,2,0.3758419454097748,-0.004206774290651083,-8.501360571244732e-05,0.9266742467880249
62.60944000,62609440,2,0.3757167160511017,-0.0042444150894880295,-7.110918522812426e-05,0.9267248511314392
62.70949300,62709493,2,0.3757132887840271,-0.0042267004027962685,-6.107099761720747e-05,0.9267262816429138
62.80942700,62809427,2,0.3760474622249603,-0.004207275342196226,-9.049951040651649e-05,0.9265908598899841
62.90945800,62909458,2,0.37649205327033997,-0.004199238494038582,-0.00010068830306408927,0.9264103174209595
63.00943200,63009432,2,0.37692689895629883,-0.0041514066979289055,-6.19809070485644e-05,0.92623370885849
63.10944000,63109440,2,0.37723085284233093,-0.004158817231655121,-2.992622830788605e-05,0.9261099100112915
63.20942700,63209427,2,0.3773868978023529,-0.00416962243616581,-1.7260552340303548e-05,0.9260463118553162
63.30942900,63309429,2,0.37742879986763,-0.004162590950727463,4.281119799998123e-06,0.9260292649269104
63.40938700,63409387,2,0.3773915469646454,-0.0041464148089289665,2.40488752751844e-05,0.9260445237159729
63.50944900,63509449,2,0.3772757649421692,-0.004135011695325375,1.1188311873411294e-05,0.926091730594635
63.60945300,63609453,2,0.37718671560287476,-0.004044999834150076,2.1282270608935505e-05,0.9261283874511719
63.70942800,63709428,2,0.3770192861557007,-0.0040426719933748245,4.124480255995877e-05,0.9261965751647949
63.80946500,63809465,2,0.3768703043460846,-0.004058343358337879,7.328324863919988e-05,0.9262571334838867
63.90943300,63909433,2,0.3767377436161041,-0.004015329293906689,9.682400559540838e-05,0.9263112545013428
64.00942800,64009428,2,0.37659770250320435,-0.003945081494748592,8.444724517175928e-05,0.9263684749603271
64.10943700,64109437,2,0.37646421790122986,-0.003958269953727722,0.00010712300718296319,0.9264227151870728
64.20942600,64209426,2,0.37633344531059265,-0.003971133381128311,0.00010717988334363326,0.9264757633209229
64.30939100,64309391,2,0.3762609660625458,-0.003984733019024134,9.136195876635611e-05,0.9265051484107971
64.40945100,64409451,2,0.37617871165275574,-0.0039738854393363,8.810350846033543e-05,0.9265385866165161
64.50945400,64509454,2,0.37610113620758057,-0.003964604809880257,0.00010951334843412042,0.9265701174736023
64.60944000,64609440,2,0.3760475814342499,-0.00397216621786356,0.00011275921860942617,0.9265918135643005
64.70946300,64709463,2,0.37598729133605957,-0.003932621330022812,0.0001342800969723612,0.9266164302825928
64.80943400,64809434,2,0.37587884068489075,-0.003872115397825837,0.00012896537373308092,0.9266607165336609
64.90942800,64909428,2,0.3758404552936554,-0.003802949097007513,0.00012009082274744287,0.9266765713691711
65.00943100,65009431,2,0.37582072615623474,-0.00377897871658206,9.593090362614021e-05,0.9266846776008606
65.10943000,65109430,2,0.37577173113822937,-0.003736782819032669,0.00011548968177521601,0.9267047047615051
65.20942700,65209427,2,0.3756575584411621,-0.003717597806826234,0.00011656581773422658,0.9267510771751404
65.30943900,65309439,2,0.3755837082862854,-0.0036932467482984066,0.00012759020319208503,0.9267811179161072
65.40946100,65409461,2,0.37550923228263855,-0.0036903582513332367,0.00011594815441640094,0.9268112778663635
65.50943700,65509437,2,0.3754957616329193,-0.0036811453755944967,8.8433240307495e-05,0.9268168210983276
65.60946800,65609468,2,0.3757053017616272,-0.00369800953194499,9.67654850683175e-05,0.9267318248748779
65.70943200,65709432,2,0.37615102529525757,-0.00371952005662024,0.00011150234058732167,0.9265508651733398
65.80942800,65809428,2,0.37661027908325195,-0.003748770337551832,0.00012306097778491676,0.9263641834259033
65.90942600,65909426,2,0.37691059708595276,-0.003798051970079541,0.00012068700743839145,0.9262418746948242
66.00943300,66009433,2,0.3770783245563507,-0.0037935185246169567,0.00015879247803241014,0.9261735677719116
66.10943300,66109433,2,0.3771747052669525,-0.0037752140779048204,0.00012197745672892779,0.9261344075202942
66.20944700,66209447,2,0.3771824836730957,-0.0038343658670783043,0.0001675395033089444,0.926131010055542
66.30945100,66309451,2,0.37716132402420044,-0.0038225322496145964,0.00021963527251500636,0.9261396527290344
66.40944000,66409440,2,0.37702274322509766,-0.0038355577271431684,0.0002136522816726938,0.9261960387229919
66.50945600,66509456,2,0.37693583965301514,-0.003842731937766075,0.00022085479577071965,0.9262313842773438
66.60943200,66609432,2,0.3768717348575592,-0.0038259406574070454,0.00028775117243640125,0.9262574911117554
66.70943200,66709432,2,0.37679368257522583,-0.0038764020428061485,0.0002451565524097532,0.9262890815734863
66.80942400,66809424,2,0.3767167627811432,-0.0038516768254339695,0.0002830741577781737,0.9263204336166382
66.90942500,66909425,2,0.3766586482524872,-0.003913618624210358,0.00030631752451881766,0.9263437986373901
67.00943300,67009433,2,0.37657538056373596,-0.003882772522047162,0.00032436626497656107,0.9263777732849121
67.10944200,67109442,2,0.3764887750148773,-0.0038599460385739803,0.00030376194627024233,0.9264131188392639
67.20945400,67209454,2,0.3764673173427582,-0.003867605235427618,0.00025692471535876393,0.9264218211174011
67.30943800,67309438,2,0.37638890743255615,-0.003916451707482338,0.0003132432757411152,0.9264534115791321
67.40945800,67409458,2,0.3763546943664551,-0.003910432104021311,0.0003050995001103729,0.9264673590660095
67.50943500,67509435,2,0.3762715756893158,-0.00391782820224762,0.0002839494845829904,0.9265010952949524
67.60942400,67609424,2,0.37616777420043945,-0.0039433944039046764,0.0003122580819763243,0.926543116569519
67.70942800,67709428,2,0.3760850429534912,-0.003866852493956685,0.0003201137878932059,0.9265770316123962
67.80943200,67809432,2,0.37601155042648315,-0.003902137279510498,0.0003059747687075287,0.9266067147254944
67.90942800,67909428,2,0.37590599060058594,-0.003888992825523019,0.0003097860317211598,0.9266495704650879
68.00945500,68009455,2,0.37585899233818054,-0.0039122742600739,0.0003446619666647166,0.9266685247421265
68.10945800,68109458,2,0.37580764293670654,-0.003935154993087053,0.0003345399454701692,0.9266892671585083
68.20943800,68209438,2,0.3757495880126953,-0.003874962916597724,0.0003274782793596387,0.9267130494117737
68.30946000,68309460,2,0.37566646933555603,-0.0038880929350852966,0.00035661019501276314,0.9267467260360718
68.40943800,68409438,2,0.3757385313510895,-0.003842410398647189,0.0004055826284456998,0.9267176389694214
68.50942700,68509427,2,0.3760640621185303,-0.003842734731733799,0.00042129328357987106,0.9265856146812439
68.60943000,68609430,2,0.3763929605484009,-0.0038533906918019056,0.00046560182818211615,0.9264519810676575
