timestamp,TimeUS,C,Roll,Pitch,Yaw,VN,VE,VD,dPD,PN,PE,PD,GX,GY,GZ,OH
11.50943700,11509437,2,0.0,0.0,0.0,0.0,0.0,0.0,0.0,0.0,0.0,0.0,0.0,0.0,0.0,0.0
11.60947300,11609473,2,0.0,0.0,0.0,0.0,0.0,0.0,0.0,0.0,0.0,0.0,0.0,0.0,0.0,0.0
11.70944900,11709449,2,0.0,0.0,0.0,0.0,0.0,0.0,0.0,0.0,0.0,0.0,0.0,0.0,0.0,0.0
11.80944900,11809449,2,0.0,0.0,0.0,0.0,0.0,0.0,0.0,0.0,0.0,0.0,0.0,0.0,0.0,0.0
11.90944600,11909446,2,0.0,0.0,0.0,0.0,0.0,0.0,0.0,0.0,0.0,0.0,0.0,0.0,0.0,0.0
12.00944700,12009447,2,0.0,0.0,0.0,0.0,0.0,0.0,0.0,0.0,0.0,0.0,0.0,0.0,0.0,0.0
12.10944900,12109449,2,0.0,0.0,0.0,0.0,0.0,0.0,0.0,0.0,0.0,0.0,0.0,0.0,0.0,0.0
12.20947100,12209471,2,0.0,0.0,0.0,0.0,0.0,0.0,0.0,0.0,0.0,0.0,0.0,0.0,0.0,0.0
12.30946900,12309469,2,0.0,0.0,0.0,0.0,0.0,0.0,0.0,0.0,0.0,0.0,0.0,0.0,0.0,0.0
12.40944700,12409447,2,0.0,0.0,0.0,0.0,0.0,0.0,0.0,0.0,0.0,0.0,0.0,0.0,0.0,0.0
12.50947500,12509475,2,-0.05,0.54,359.99,-0.0005543476436287165,0.0004802603798452765,0.013454926200211048,0.002394106239080429,0.0,0.0,0.0005046497099101543,0.0,0.0,0.0,0.0
12.60945800,12609458,2,-0.05,0.53,359.98,-0.002043674699962139,0.0009562838822603226,0.05362413078546524,0.029358111321926117,0.0,0.0,0.004206807352602482,0.0,0.0,0.0,0.0
12.70945700,12709457,2,-0.05,0.53,359.98,-0.003560103476047516,0.0011487703304737806,0.09882649779319763,-0.44512033462524414,0.0,0.0,-0.04869746416807175,0.0,0.0,0.0,0.0
12.80943600,12809436,2,-0.05,0.53,359.98,-0.004953102208673954,0.0012028749333694577,0.12976698577404022,-0.4902559518814087,0.0,0.0,-0.08095378428697586,0.0,0.0,0.0,0.0
12.90944100,12909441,2,-0.05,0.54,359.98,-0.006199258379638195,0.0008902991539798677,0.15086716413497925,-0.16734349727630615,0.0,0.0,-0.08887408673763275,0.0,0.0,0.0,0.0
13.00944100,13009441,2,-0.04,0.53,359.98,-0.007913499139249325,0.0011307726381346583,0.16521528363227844,0.09278636425733566,0.0,0.0,-0.08203033357858658,0.0,0.0,0.0,0.0
13.10945000,13109450,2,-0.05,0.54,359.98,-0.009455610997974873,0.0014856787165626884,0.17350296676158905,0.19784300029277802,0.0,0.0,-0.06973343342542648,0.0,0.0,0.0,0.0
13.20950000,13209500,2,-0.05,0.54,359.98,-0.011318210512399673,0.001720762811601162,0.17802515625953674,0.18543438613414764,0.0,0.0,-0.05835694819688797,0.0,0.0,0.0,0.0
13.30943400,13309434,2,-0.05,0.54,359.97,-0.013594081625342369,0.0018049890641123056,0.18089266121387482,0.1512669175863266,0.0,0.0,-0.046748459339141846,0.0,0.0,0.0,0.0
13.40948300,13409483,2,-0.05,0.53,359.97,-0.01526885386556387,0.0023031902965158224,0.18147343397140503,0.13039332628250122,0.0,0.0,-0.03539791703224182,0.0,0.0,0.0,0.0
13.50944300,13509443,2,-0.05,0.54,359.97,-0.01589088886976242,0.001794547657482326,0.17975318431854248,0.11350516229867935,0.0,0.0,-0.024499142542481422,0.0,0.0,0.0,0.0
13.60944800,13609448,2,-0.04,0.54,359.97,-0.016770461574196815,0.0014831525040790439,0.17755000293254852,0.09094785153865814,0.0,0.0,-0.01573820784687996,0.0,0.0,0.0,0.0
13.70944700,13709447,2,-0.04,0.53,359.98,-0.017429344356060028,0.0013916472671553493,0.17433734238147736,0.06658659130334854,0.0,0.0,-0.008448688313364983,0.0,0.0,0.0,0.0
13.80945000,13809450,2,-0.05,0.52,359.97,-0.01685524731874466,0.001373671810142696,0.17029893398284912,0.06213700771331787,0.0,0.0,-0.001128061325289309,0.0,0.0,0.0,0.0
13.90939800,13909398,2,-0.04,0.52,359.97,-0.015711134299635887,0.0012258834904059768,0.16453543305397034,0.019413284957408905,0.0,0.0,0.0004087098641321063,0.0,0.0,0.0,0.0
14.00940500,14009405,2,-0.04,0.48,137.77,-0.013332342728972435,0.0009622929501347244,0.15788941085338593,-0.0015598624013364315,0.0,0.0,0.002837492385879159,0.0,0.0,0.0,0.0
14.10949800,14109498,2,-0.04,0.5,137.74,-0.01014671940356493,-0.00028044276405125856,0.15511612594127655,0.056852832436561584,0.0,0.0,0.010323109105229378,0.0,0.0,0.0,0.0
14.20944200,14209442,2,-0.05,0.5,137.72,-0.006587957963347435,-0.0020843902602791786,0.15218937397003174,0.0953245535492897,0.0,0.0,0.019187534227967262,0.0,0.0,0.0,0.0
14.30947700,14309477,2,-0.05,0.5,137.70000000000002,-0.004109253641217947,-0.003455606522038579,0.14799465239048004,0.07665061205625534,0.0,0.0,0.02529461309313774,0.0,0.0,0.0,0.0
14.40945600,14409456,2,-0.05,0.5,137.66,-0.0018307154532521963,-0.00389471254311502,0.14141328632831573,0.018802715465426445,0.0,0.0,0.026575304567813873,0.0,0.0,0.0,0.0
14.50944500,14509445,2,-0.05,0.51,137.59,0.0004318318678997457,-0.005477316677570343,0.13305875658988953,-0.015446745790541172,0.0,0.0,0.026866132393479347,0.0,0.0,0.0,0.0
14.60944800,14609448,2,-0.05,0.51,137.16,0.0017960213590413332,-0.0057871281169354916,0.12538541853427887,-0.023533707484602928,0.0,0.0,0.025821497663855553,0.0,0.0,0.05,0.0
14.70945200,14709452,2,-0.06,0.51,136.26,0.0038583867717534304,-0.005727902986109257,0.1159341111779213,-0.047059495002031326,0.0,0.0,0.022115275263786316,0.0,0.0,0.09,0.0
14.80943900,14809439,2,-0.07,0.51,135.3,0.005285247694700956,-0.0056624687276780605,0.10567430406808853,-0.09334628283977509,0.0,0.0,0.013458272442221642,0.0,0.0,0.08,0.0
14.90945100,14909451,2,-0.07,0.52,134.58,0.00668063061311841,-0.005300308112055063,0.09524107724428177,-0.12172947078943253,0.0,0.0,0.0036781190428882837,0.0,0.0,0.06,0.0
15.00946400,15009464,2,-0.08,0.52,134.18,0.008844712749123573,-0.005140550900250673,0.08427557349205017,-0.12146759033203125,0.0,0.0,-0.0074293469078838825,0.0,0.0,0.05,0.0
15.10943700,15109437,2,-0.08,0.52,134.05,0.010504343546926975,-0.0045707919634878635,0.07491917163133621,-0.11682999134063721,0.0,0.0,-0.017262039706110954,0.0,0.0,0.04,0.0
15.20947700,15209477,2,-0.08,0.52,134.12,0.012078638188540936,-0.004058113321661949,0.0667782798409462,-0.08752170205116272,0.0,0.0,-0.025133972987532616,0.0,0.0,0.02,0.0
15.30945100,15309451,2,-0.07,0.51,134.31,0.012263189069926739,-0.0038947982247918844,0.05750484764575958,-0.08563805371522903,0.0,0.0,-0.034272775053977966,0.0,0.0,0.01,0.0
15.40945200,15409452,2,-0.07,0.51,134.56,0.011974243447184563,-0.004263426177203655,0.049638595432043076,-0.0955512747168541,0.0,0.0,-0.04368879273533821,0.0,0.0,0.0,0.0
15.50944700,15509447,2,-0.06,0.51,134.8,0.012042516842484474,-0.004684829153120518,0.04111823812127113,-0.10010955482721329,0.0,0.0,-0.05356105417013168,0.0,0.0,0.0,0.0
15.60945000,15609450,2,-0.06,0.51,135.01,0.012311665341258049,-0.004185288678854704,0.029152613133192062,-0.15543684363365173,0.0,0.0,-0.07011603564023972,0.0,0.0,-0.01,0.0
15.70944300,15709443,2,-0.06,0.52,135.18,0.011756890453398228,-0.004131271503865719,0.014821313321590424,-0.24069112539291382,0.0,0.0,-0.0929916724562645,0.0,0.0,-0.02,0.0
15.80947000,15809470,2,-0.06,0.51,135.32,0.011028246954083443,-0.004190650302916765,0.0012820432893931866,-0.27418699860572815,0.0,0.0,-0.11724979430437088,0.0,0.01,-0.03,0.0
15.90946700,15909467,2,-0.05,0.51,135.43,0.01032083947211504,-0.00443984055891633,-0.009663624688982964,-0.22925496101379395,0.0,0.0,-0.1362297683954239,0.0,0.01,-0.05,0.0
16.00943900,16009439,2,-0.05,0.51,135.54,0.009074520319700241,-0.0036642607301473618,-0.01842275634407997,-0.14851348102092743,0.0,0.0,-0.15008825063705444,0.0,0.01,-0.05,0.0
16.10947500,16109475,2,-0.05,0.49,135.61,0.008882086724042892,-0.0028511141426861286,-0.025063227862119675,-0.10489729046821594,0.0,0.0,-0.16210994124412537,0.0,0.01,-0.06,0.0
16.20945800,16209458,2,-0.05,0.49,135.68,0.008789464831352234,-0.0025051150005310774,-0.031575173139572144,-0.09490257501602173,0.0,0.0,-0.17332567274570465,0.0,0.01,-0.07,0.0
16.30944700,16309447,2,-0.04,0.49,135.75,0.007621101103723049,-0.0025250324979424477,-0.03818781301379204,-0.09021029621362686,0.0,0.0,-0.1834728866815567,0.0,0.01,-0.08,0.0
16.40945300,16409453,2,-0.04,0.49,135.82,0.0064401268027722836,-0.0024399624671787024,-0.043600644916296005,-0.08837631344795227,0.0,0.0,-0.19337581098079681,0.0,0.01,-0.09,0.0
16.50944000,16509440,2,-0.03,0.47000000000000003,135.89000000000001,0.005220363847911358,-0.0028412642423063517,-0.046867016702890396,-0.0759606882929802,0.0,0.0,-0.20120757818222046,0.0,0.02,-0.1,0.0
16.60944000,16609440,2,-0.03,0.46,135.96,0.00460677407681942,-0.0028992830775678158,-0.05132526904344559,-0.06946084648370743,0.0,0.0,-0.20929637551307678,0.0,0.02,-0.12,0.0
16.70945700,16709457,2,-0.02,0.46,136.03,0.0032271246891468763,-0.0037210367154330015,-0.055010534822940826,-0.08268113434314728,0.0,0.0,-0.218284472823143,0.0,0.02,-0.13,0.0
16.80949500,16809495,2,-0.02,0.45,136.1,0.0013688248582184315,-0.004629205446690321,-0.05908697098493576,-0.09149540960788727,0.0,0.0,-0.22750084102153778,0.0,0.02,-0.13,0.0
16.90944600,16909446,2,-0.02,0.45,136.16,0.00038840604247525334,-0.005764968693256378,-0.063742995262146,-0.10299859941005707,0.0,0.0,-0.23790952563285828,0.0,0.02,-0.14,0.0
17.00947100,17009471,2,-0.02,0.44,136.21,-0.0005990754580125213,-0.006695070303976536,-0.06684643775224686,-0.09488918632268906,0.0,0.0,-0.2464989572763443,0.0,0.02,-0.15,0.0
17.10943500,17109435,2,-0.02,0.44,136.26,-0.0017595087410882115,-0.00766735291108489,-0.0709143653512001,-0.090159110724926,0.0,0.0,-0.25627627968788147,0.0,0.02,-0.16,0.0
17.20943500,17209435,2,-0.01,0.43,136.32,-0.002111090114340186,-0.00794648751616478,-0.07347114384174347,-0.0806911513209343,0.0,0.0,-0.263215035200119,0.0,0.02,-0.17,0.0
17.30944700,17309447,2,-0.01,0.42,136.38,-0.0033342866227030754,-0.007455586921423674,-0.07517040520906448,-0.0470760278403759,0.0,0.0,-0.26841288805007935,0.0,0.02,-0.18,0.0
17.40944100,17409441,2,-0.01,0.42,136.37,-0.0041929809376597404,-0.007163236849009991,-0.07365068793296814,-0.009029069915413857,0.0,0.0,-0.2693745791912079,0.0,0.02,-0.05,0.0
17.50943600,17509436,2,-0.02,0.41000000000000003,136.13,-0.004889786709100008,-0.005583188496530056,-0.07147030532360077,0.0261493269354105,0.0,0.0,-0.26837411522865295,0.0,0.02,0.14,0.0
17.60945300,17609453,2,-0.01,0.41000000000000003,135.77,-0.0055929808877408504,-0.004491723142564297,-0.07419966161251068,-0.025864282622933388,0.0,0.0,-0.27442795038223267,0.0,0.02,0.13,0.0
17.70946500,17709465,2,-0.01,0.4,135.45,-0.0060897874645888805,-0.004217725247144699,-0.0774022564291954,-0.08833177387714386,0.0,0.0,-0.28289350867271423,0.0,0.02,0.11,0.0
17.80944600,17809446,2,-0.01,0.4,135.23,-0.0076761916279792786,-0.0040830993093550205,-0.07839269191026688,-0.07205173373222351,0.0,0.0,-0.28764423727989197,0.0,0.02,0.08,0.0
17.90946600,17909466,2,-0.02,0.4,135.13,-0.008220580406486988,-0.004392278380692005,-0.07780351489782333,-0.02185566909611225,0.0,0.0,-0.28903937339782715,0.0,0.02,0.06,0.0
18.00944500,18009445,2,-0.02,0.39,135.12,-0.009287984110414982,-0.002951699774712324,-0.07659974694252014,-9.859698184300214e-05,0.0,0.0,-0.29027101397514343,0.0,0.02,0.04,0.0
18.10944300,18109443,2,-0.02,0.39,135.17000000000002,-0.009425661526620388,-0.0016078826738521457,-0.07526832818984985,0.006583010777831078,0.0,0.0,-0.290353924036026,0.0,0.02,0.02,0.0
18.20943600,18209436,2,-0.03,0.39,135.26,-0.009960411116480827,-0.0012813700595870614,-0.0742867961525917,-0.0014203571481630206,0.0,0.0,-0.291802316904068,0.0,0.02,0.0,0.0
18.30944000,18309440,2,-0.03,0.39,135.36,-0.009885160252451897,-0.0009098625741899014,-0.0732116848230362,-0.013479129411280155,0.0,0.0,-0.2934185564517975,0.0,0.02,-0.01,0.0
18.40944800,18409448,2,-0.02,0.39,135.47,-0.010028121992945671,0.00012416360550560057,-0.07355937361717224,-0.033402178436517715,0.0,0.0,-0.297283411026001,0.0,0.02,-0.03,0.0
18.50945100,18509451,2,-0.03,0.38,135.58,-0.011036757379770279,0.0007947977865114808,-0.07357566803693771,-0.035810746252536774,0.0,0.0,-0.2999221682548523,0.0,0.02,-0.05,0.0
18.60946800,18609468,2,-0.03,0.38,135.69,-0.010961184278130531,0.002315591322258115,-0.07370267808437347,-0.02754228189587593,0.0,0.0,-0.30250808596611023,0.01,0.02,-0.07,0.0
18.70945400,18709454,2,-0.03,0.38,135.78,-0.011187512427568436,0.0029991939663887024,-0.07478572428226471,-0.039036672562360764,0.0,0.0,-0.3067541718482971,0.01,0.02,-0.07,0.0
18.80946300,18809463,2,-0.03,0.37,135.85,-0.011182263493537903,0.004233882762491703,-0.07530239969491959,-0.027019817382097244,0.0,0.0,-0.30824509263038635,0.01,0.02,-0.08,0.0
18.90943800,18909438,2,-0.03,0.36,135.91,-0.0116678262129426,0.004288814030587673,-0.07087676227092743,0.04281061515212059,0.0,0.0,-0.3027932643890381,0.01,0.02,-0.09,0.0
19.00944100,19009441,2,-0.03,0.36,135.95,-0.011786489747464657,0.004467901308089495,-0.06549877673387527,0.07947710901498795,0.0,0.0,-0.2975079119205475,0.01,0.02,-0.1,0.0
19.10943600,19109436,2,-0.03,0.36,136.01,-0.011792883276939392,0.005288360640406609,-0.06559032946825027,0.011335060000419617,0.0,0.0,-0.30001023411750793,0.01,0.02,-0.12,0.0
19.20943500,19209435,2,-0.03,0.36,136.06,-0.011936555616557598,0.005337459966540337,-0.06505858153104782,-0.02763397805392742,0.0,0.0,-0.30118075013160706,0.01,0.02,-0.12,0.0
19.30943700,19309437,2,-0.04,0.36,136.11,-0.012421662919223309,0.0053171515464782715,-0.06288307905197144,-0.007736168801784515,0.0,0.0,-0.30097830295562744,0.01,0.02,-0.13,0.0
19.40945600,19409456,2,-0.04,0.36,136.16,-0.012951075099408627,0.0056127444840967655,-0.060317639261484146,0.007965544238686562,0.0,0.0,-0.30003300309181213,0.01,0.02,-0.13,0.0
19.50946600,19509466,2,-0.04,0.36,136.2,-0.01337171345949173,0.0058326455764472485,-0.05788074806332588,0.02161410264670849,0.0,0.0,-0.29793575406074524,0.01,0.02,-0.14,0.0
19.60944600,19609446,2,-0.04,0.36,136.24,-0.012977028265595436,0.006535034626722336,-0.056059423834085464,0.007470575161278248,0.0,0.0,-0.2984631657600403,0.01,0.02,-0.15,0.0
19.70946600,19709466,2,-0.05,0.37,136.29,-0.012619801796972752,0.006740805227309465,-0.055069368332624435,-0.004232269246131182,0.0,0.0,-0.2983904182910919,0.01,0.01,-0.16,0.0
19.80944600,19809446,2,-0.05,0.37,136.34,-0.012615969404578209,0.007139468099921942,-0.0533711239695549,0.007174183614552021,0.0,0.0,-0.2973259687423706,0.01,0.01,-0.18,0.0
19.90943900,19909439,2,-0.05,0.37,136.41,-0.012041346170008183,0.008044029586017132,-0.05347571149468422,-0.001657456741668284,0.0,0.0,-0.2980952262878418,0.01,0.01,-0.18,0.0
20.00943800,20009438,2,-0.05,0.37,136.47,-0.01126850675791502,0.00839413795620203,-0.05114377662539482,0.021530743688344955,0.0,0.0,-0.2946680784225464,0.01,0.01,-0.19,0.0
20.10945000,20109450,2,-0.05,0.37,136.53,-0.011156619526445866,0.009359363466501236,-0.046524953097105026,0.068150095641613,0.0,0.0,-0.28832516074180603,0.01,0.01,-0.19,0.0
20.20943500,20209435,2,-0.05,0.37,136.52,-0.010286926291882992,0.009229238145053387,-0.0434042327105999,0.0824303925037384,0.0,0.0,-0.28171560168266296,0.01,0.01,-0.13,0.0
20.30945400,20309454,2,-0.05,0.37,136.34,-0.009711666032671928,0.010032584890723228,-0.040141940116882324,0.06595179438591003,0.0,0.0,-0.27679985761642456,0.01,0.01,0.05,0.0
20.40947500,20409475,2,-0.05,0.37,135.95,-0.009732489474117756,0.011188995093107224,-0.03684446960687637,0.04335760325193405,0.0,0.0,-0.27299970388412476,0.01,0.01,0.17,0.0
20.50945200,20509452,2,-0.05,0.37,135.5,-0.010061320848762989,0.010270878672599792,-0.03574458137154579,0.01557681430131197,0.0,0.0,-0.2717234790325165,0.01,0.01,0.16,0.0
20.60946600,20609466,2,-0.05,0.37,135.13,-0.00972714927047491,0.009983492083847523,-0.032211195677518845,0.03746682032942772,0.0,0.0,-0.26586437225341797,0.01,0.01,0.14,0.0
20.70944200,20709442,2,-0.05,0.37,134.89000000000001,-0.008871779777109623,0.009697457775473595,-0.030049514025449753,0.02996237389743328,0.0,0.0,-0.2647778391838074,0.01,0.01,0.12,0.0
20.80943700,20809437,2,-0.05,0.37,134.78,-0.009051126427948475,0.009323974139988422,-0.028172116726636887,0.018596217036247253,0.0,0.0,-0.26153838634490967,0.01,0.01,0.11,0.0
20.90943500,20909435,2,-0.04,0.36,134.77,-0.008821477182209492,0.009085290133953094,-0.025979023426771164,0.02879633940756321,0.0,0.0,-0.25886282324790955,0.01,0.01,0.08,0.0
21.00944200,21009442,2,-0.04,0.36,134.83,-0.009043124504387379,0.00871390849351883,-0.02493756078183651,0.025447335094213486,0.0,0.0,-0.25623956322669983,0.01,0.01,0.06,0.0
21.10939400,21109394,2,-0.04,0.36,134.93,-0.009935037232935429,0.009789364412426949,-0.02340853400528431,0.02345208451151848,0.0,0.0,-0.2540290355682373,0.01,0.01,0.05,0.0
21.20945000,21209450,2,-0.04,0.36,135.05,-0.009670108556747437,0.00932004302740097,-0.023507993668317795,-0.0033124282490462065,0.0,0.0,-0.25493302941322327,0.01,0.0,0.03,0.0
21.30947300,21309473,2,-0.04,0.36,135.16,-0.009399686940014362,0.009151559323072433,-0.02246517315506935,-0.011885003186762333,0.0,0.0,-0.2549130618572235,0.01,0.0,0.02,0.0
21.40945100,21409451,2,-0.04,0.37,135.26,-0.00993749126791954,0.008546466939151287,-0.020444631576538086,0.012189755216240883,0.0,0.0,-0.2528347969055176,0.01,0.0,0.01,0.0
21.50946800,21509468,2,-0.04,0.37,135.35,-0.011161436326801777,0.008641882799565792,-0.022243879735469818,-0.019757738336920738,0.0,0.0,-0.25651511549949646,0.01,0.0,0.0,0.0
21.60944700,21609447,2,-0.04,0.37,135.41,-0.01104747224599123,0.008607178926467896,-0.024085119366645813,-0.06058637052774429,0.0,0.0,-0.26161989569664,0.01,0.0,0.0,0.0
21.70944900,21709449,2,-0.03,0.37,135.47,-0.011240868829190731,0.008832975290715694,-0.0242779478430748,-0.04213562607765198,0.0,0.0,-0.2636728584766388,0.01,0.0,-0.01,0.0
21.80944900,21809449,2,-0.04,0.38,135.54,-0.01180190872400999,0.008697845973074436,-0.02501760981976986,-0.01974942348897457,0.0,0.0,-0.2655574381351471,0.01,0.0,-0.03,0.0
21.90944600,21909446,2,-0.03,0.38,135.6,-0.012090623378753662,0.008253194391727448,-0.024882860481739044,-0.004979489371180534,0.0,0.0,-0.26582375168800354,0.01,0.0,-0.04,0.0
22.00944000,22009440,2,-0.04,0.38,135.66,-0.01180141419172287,0.00797207374125719,-0.02500862628221512,-0.011205935850739479,0.0,0.0,-0.26825186610221863,0.01,0.0,-0.05,0.0
22.10947600,22109476,2,-0.03,0.38,135.73,-0.011169971898198128,0.008221087045967579,-0.024214478209614754,-0.009151782840490341,0.0,0.0,-0.2684312164783478,0.01,0.0,-0.06,0.0
22.20946400,22209464,2,-0.04,0.39,135.79,-0.01131047960370779,0.007575907278805971,-0.02317112125456333,0.012152566574513912,0.0,0.0,-0.26736876368522644,0.01,0.0,-0.07,0.0
22.30944600,22309446,2,-0.04,0.4,135.86,-0.011270812712609768,0.007177208084613085,-0.02262469194829464,-0.003262030426412821,0.0,0.0,-0.2692841589450836,0.01,0.0,-0.08,0.0
22.40948600,22409486,2,-0.03,0.39,135.93,-0.011543648317456245,0.006764187943190336,-0.021826131269335747,-0.015087759122252464,0.0,0.0,-0.2702135741710663,0.01,0.0,-0.09,0.0
22.50944500,22509445,2,-0.03,0.39,136.0,-0.012543625198304653,0.006395322736352682,-0.022098852321505547,-0.010966739617288113,0.0,0.0,-0.2712225615978241,0.01,0.0,-0.1,0.0
22.60944700,22609447,2,-0.03,0.39,136.08,-0.012681006453931332,0.005649907514452934,-0.02321501448750496,-0.048199355602264404,0.0,0.0,-0.2773699164390564,0.01,0.0,-0.11,0.0
22.70945500,22709455,2,-0.03,0.39,136.16,-0.01310897059738636,0.004578668624162674,-0.025213882327079773,-0.09107914566993713,0.0,0.0,-0.285456120967865,0.01,0.0,-0.12,0.0
22.80944000,22809440,2,-0.03,0.4,136.22,-0.012756706215441227,0.0042026713490486145,-0.027420299127697945,-0.0947791188955307,0.0,0.0,-0.2930842638015747,0.01,0.0,-0.12,0.0
22.90939600,22909396,2,-0.04,0.4,136.29,-0.012408532202243805,0.0037765949964523315,-0.026760248467326164,-0.04774750769138336,0.0,0.0,-0.29558101296424866,0.01,0.0,-0.13,0.0
23.00945000,23009450,2,-0.03,0.4,136.34,-0.011690933257341385,0.0032090831082314253,-0.027067862451076508,-0.010218284092843533,0.0,0.0,-0.29747071862220764,0.01,0.0,-0.13,0.0
23.10947000,23109470,2,-0.04,0.4,136.27,-0.011315367184579372,0.002009304706007242,-0.026020191609859467,-0.008288439363241196,0.0,0.0,-0.29947373270988464,0.01,0.0,-0.01,0.0
23.20944700,23209447,2,-0.04,0.4,136.04,-0.009781076572835445,0.001986043993383646,-0.02621455490589142,-0.013615612871944904,0.0,0.0,-0.30155542492866516,0.01,0.0,0.04,0.0
23.30947600,23309476,2,-0.04,0.41000000000000003,135.74,-0.009050553664565086,0.0005585793405771255,-0.025299541652202606,-0.019638676196336746,0.0,0.0,-0.3040056526660919,0.01,0.0,0.04,0.0
23.40944700,23409447,2,-0.05,0.41000000000000003,135.48,-0.008205972611904144,-0.0003343406424392015,-0.023692889139056206,-0.01322644017636776,0.0,0.0,-0.3050769865512848,0.01,0.0,0.03,0.0
23.50944800,23509448,2,-0.05,0.41000000000000003,135.32,-0.007823442108929157,-0.0011061677942052484,-0.022913111373782158,-0.0021284762769937515,0.0,0.0,-0.3054821193218231,0.01,0.0,0.02,0.0
23.60945500,23609455,2,-0.05,0.41000000000000003,135.25,-0.007545677479356527,-0.0011997733963653445,-0.02109704539179802,0.018182596191763878,0.0,0.0,-0.303451806306839,0.01,0.0,0.01,0.0
23.70944000,23709440,2,-0.05,0.4,135.23,-0.006774045526981354,-0.0008120933780446649,-0.019413238391280174,0.040008340030908585,0.0,0.0,-0.3001086711883545,0.01,0.0,0.0,0.0
23.80944500,23809445,2,-0.06,0.4,135.27,-0.006258813198655844,-0.0009116842993535101,-0.018302178010344505,0.039553187787532806,0.0,0.0,-0.2973495423793793,0.01,0.0,0.0,0.0
23.90946900,23909469,2,-0.06,0.4,135.33,-0.005993397906422615,0.0008994280942715704,-0.017330683767795563,0.04222524166107178,0.0,0.0,-0.2932274341583252,0.01,0.0,0.0,0.0
24.00946500,24009465,2,-0.07,0.39,135.39000000000001,-0.006065309979021549,0.0017767885001376271,-0.016878115013241768,0.03266260027885437,0.0,0.0,-0.291126012802124,0.01,0.0,-0.01,0.0
24.10945300,24109453,2,-0.07,0.39,135.47,-0.006491810083389282,0.0024606985971331596,-0.015187292359769344,0.0253498125821352,0.0,0.0,-0.2887161076068878,0.01,0.0,-0.02,0.0
24.20947400,24209474,2,-0.07,0.4,135.53,-0.006930162664502859,0.0032472810707986355,-0.014099899679422379,0.02130478248000145,0.0,0.0,-0.28680798411369324,0.01,0.0,-0.03,0.0
24.30946400,24309464,2,-0.07,0.4,135.6,-0.005186449736356735,0.003276142058894038,-0.013113263063132763,0.012356119230389595,0.0,0.0,-0.28531888127326965,0.02,0.0,-0.03,0.0
24.40945300,24409453,2,-0.07,0.41000000000000003,135.66,-0.004933346528559923,0.004350587259978056,-0.011730019934475422,0.030112940818071365,0.0,0.0,-0.2816929519176483,0.02,0.0,-0.04,0.0
24.50944400,24509444,2,-0.08,0.41000000000000003,135.71,-0.004133688751608133,0.005281323101371527,-0.0104057053104043,0.042501840740442276,0.0,0.0,-0.2779671549797058,0.02,0.0,-0.04,0.0
24.60944900,24609449,2,-0.07,0.41000000000000003,135.77,-0.0036035331431776285,0.006109387148171663,-0.007404078263789415,0.05888262763619423,0.0,0.0,-0.27214398980140686,0.02,0.0,-0.05,0.0
24.70944500,24709445,2,-0.07,0.41000000000000003,135.83,-0.003587242215871811,0.006300015840679407,-0.005919684190303087,0.05519961193203926,0.0,0.0,-0.267888605594635,0.02,0.0,-0.06,0.0
24.80945300,24809453,2,-0.08,0.41000000000000003,135.88,-0.00378152122721076,0.005454055964946747,-0.003596170339733362,0.045915160328149796,0.0,0.0,-0.26329728960990906,0.02,0.0,-0.07,0.0
24.90949500,24909495,2,-0.08,0.42,135.94,-0.0031048681121319532,0.005986097734421492,-0.001983247697353363,0.06042163819074631,0.0,0.0,-0.2572038769721985,0.02,0.0,-0.08,0.0
25.00945700,25009457,2,-0.09,0.42,136.0,-0.002051661955192685,0.006181685719639063,0.0011719927424564958,0.07173343747854233,0.0,0.0,-0.25051000714302063,0.02,0.0,-0.08,0.0
25.10946600,25109466,2,-0.09,0.43,136.06,-0.000518525717779994,0.007138250861316919,0.0023207985796034336,0.06020438298583031,0.0,0.0,-0.24525998532772064,0.02,0.0,-0.08,0.0
25.20943600,25209436,2,-0.09,0.44,136.1,-0.00020815520838368684,0.007974416017532349,0.0035551628097891808,0.023350713774561882,0.0,0.0,-0.24336124956607819,0.02,0.0,-0.09,0.0
25.30944500,25309445,2,-0.1,0.44,136.14000000000001,0.0009562851628288627,0.007201282307505608,0.004635145887732506,0.005005696322768927,0.0,0.0,-0.241750106215477,0.02,0.0,-0.09,0.0
25.40944400,25409444,2,-0.1,0.44,136.18,0.0019157042261213064,0.0066659520380198956,0.005614978726953268,-0.0010568920988589525,0.0,0.0,-0.24125131964683533,0.02,0.0,-0.09,0.0
25.50943400,25509434,2,-0.11,0.44,136.21,0.0031320813577622175,0.007546545471996069,0.005579581018537283,-0.02379363588988781,0.0,0.0,-0.24311073124408722,0.02,0.0,-0.09,0.0
25.60943800,25609438,2,-0.11,0.45,136.23,0.0035774176940321922,0.007900875061750412,0.005805420223623514,-0.036700744181871414,0.0,0.0,-0.2457156926393509,0.02,0.0,-0.09,0.0
25.70945600,25709456,2,-0.12,0.45,136.26,0.003832216141745448,0.007045088801532984,0.0053568133153021336,-0.03281140327453613,0.0,0.0,-0.2479390949010849,0.02,0.0,-0.1,0.0
25.80946500,25809465,2,-0.12,0.44,136.28,0.0049836658872663975,0.0062712449580430984,0.00655309809371829,-0.027351709082722664,0.0,0.0,-0.2502981424331665,0.02,0.0,-0.1,0.0
25.90943900,25909439,2,-0.12,0.44,136.22,0.006653609685599804,0.006610248703509569,0.006773574743419886,-0.016681481152772903,0.0,0.0,-0.2514813244342804,0.02,0.0,-0.03,0.0
26.00947100,26009471,2,-0.12,0.44,136.0,0.00781327299773693,0.006112236995249987,0.007999432273209095,0.001487978734076023,0.0,0.0,-0.25140291452407837,0.01,0.0,0.03,0.0
26.10944900,26109449,2,-0.12,0.44,135.71,0.008638802915811539,0.006559927947819233,0.008831372484564781,0.005904254969209433,0.0,0.0,-0.2513892352581024,0.01,0.0,0.03,0.0
26.20943500,26209435,2,-0.12,0.45,135.45,0.009675203822553158,0.007229105103760958,0.008549346588551998,0.001000836375169456,0.0,0.0,-0.25160396099090576,0.01,0.0,0.03,0.0
26.30943900,26309439,2,-0.12,0.45,135.27,0.010185823775827885,0.006977752782404423,0.010023370385169983,0.021463269367814064,0.0,0.0,-0.2491520196199417,0.01,0.0,0.02,0.0
26.40944000,26409440,2,-0.12,0.45,135.17000000000002,0.011506658978760242,0.006491625681519508,0.011371552012860775,0.04477318003773689,0.0,0.0,-0.24541375041007996,0.01,0.0,0.02,0.0
26.50943500,26509435,2,-0.12,0.44,135.13,0.011679613031446934,0.005962036084383726,0.013860927894711494,0.057722099125385284,0.0,0.0,-0.24043044447898865,0.01,0.0,0.01,0.0
26.60945400,26609454,2,-0.12,0.45,135.15,0.012062071822583675,0.006190786603838205,0.015624758787453175,0.04491952434182167,0.0,0.0,-0.23730804026126862,0.01,0.0,0.01,0.0
26.70947500,26709475,2,-0.12,0.45,135.21,0.011669911444187164,0.005753564182668924,0.016729310154914856,0.0038921814411878586,0.0,0.0,-0.23741015791893005,0.01,0.0,0.0,0.0
26.80943800,26809438,2,-0.12,0.46,135.27,0.013125667348504066,0.003470543073490262,0.016100242733955383,-0.0337497740983963,0.0,0.0,-0.24003121256828308,0.01,0.0,0.0,0.0
26.90946600,26909466,2,-0.11,0.46,135.35,0.01417668629437685,0.0029833191074430943,0.015124556608498096,-0.04476248845458031,0.0,0.0,-0.2428956776857376,0.01,0.0,0.0,0.0
27.00944100,27009441,2,-0.11,0.47000000000000003,135.41,0.015502297319471836,0.003015090012922883,0.015786882489919662,0.001491315197199583,0.0,0.0,-0.2408239245414734,0.01,0.0,-0.01,0.0
27.10943600,27109436,2,-0.11,0.47000000000000003,135.48,0.015724068507552147,0.0024790423922240734,0.016460079699754715,0.037630729377269745,0.0,0.0,-0.23795735836029053,0.01,0.0,-0.02,0.0
27.20944400,27209444,2,-0.11,0.47000000000000003,135.55,0.016691673547029495,0.0012756831711158156,0.017983857542276382,0.028836548328399658,0.0,0.0,-0.23621883988380432,0.01,0.0,-0.02,0.0
27.30943800,27309438,2,-0.11,0.47000000000000003,135.61,0.016899943351745605,0.0017604988534003496,0.017862042412161827,0.02720639854669571,0.0,0.0,-0.2335960566997528,0.01,0.0,-0.03,0.0
27.40943900,27409439,2,-0.11,0.47000000000000003,135.67000000000002,0.017664829269051552,0.0007411905680783093,0.01851767860352993,0.03408125042915344,0.0,0.0,-0.2304677516222,0.01,0.0,-0.03,0.0
27.50945500,27509455,2,-0.11,0.47000000000000003,135.72,0.01876024156808853,0.0007062318618409336,0.019554486498236656,0.026977848261594772,0.0,0.0,-0.22830843925476074,0.01,0.0,-0.04,0.0
27.60946300,27609463,2,-0.12,0.46,135.76,0.018927939236164093,0.0002668194065336138,0.019310416653752327,0.006276692729443312,0.0,0.0,-0.22783951461315155,0.01,0.0,-0.04,0.0
27.70945300,27709453,2,-0.12,0.46,135.79,0.01905268058180809,-0.000259035819908604,0.019958430901169777,-0.010153730399906635,0.0,0.0,-0.2284429967403412,0.01,0.0,-0.04,0.0
27.80946700,27809467,2,-0.12,0.46,135.83,0.019053511321544647,-0.0006148704560473561,0.01955566182732582,-0.018603306263685226,0.0,0.0,-0.22963282465934753,0.01,0.0,-0.05,0.0
27.90943700,27909437,2,-0.12,0.47000000000000003,135.87,0.018991760909557343,-0.001509562018327415,0.01850978285074234,-0.02278268150985241,0.0,0.0,-0.2312488555908203,0.01,0.0,-0.05,0.0
28.00944300,28009443,2,-0.12,0.47000000000000003,135.9,0.019129140302538872,-0.0018238293705508113,0.01984158717095852,-0.003558323485776782,0.0,0.0,-0.23080860078334808,0.01,0.0,-0.05,0.0
28.10944100,28109441,2,-0.13,0.47000000000000003,135.93,0.01907644048333168,-0.0025855691637843847,0.020755410194396973,0.015914544463157654,0.0,0.0,-0.22952601313591003,0.01,0.0,-0.05,0.0
28.20943400,28209434,2,-0.13,0.47000000000000003,135.95,0.020499784499406815,-0.003286715131253004,0.02233002707362175,0.03564276546239853,0.0,0.0,-0.22603945434093475,0.01,0.0,-0.05,0.0
28.30943700,28309437,2,-0.12,0.47000000000000003,135.97,0.020388785749673843,-0.0035323877818882465,0.022976933047175407,0.036332521587610245,0.0,0.0,-0.22371447086334229,0.01,0.0,-0.06,0.0
28.40946000,28409460,2,-0.13,0.47000000000000003,135.98,0.020670196041464806,-0.002809596247971058,0.023523671552538872,0.01113250944763422,0.0,0.0,-0.2231200933456421,0.01,0.0,-0.06,0.0
28.50946100,28509461,2,-0.13,0.47000000000000003,136.0,0.021144820377230644,-0.003362582065165043,0.023466292768716812,0.0007633641944266856,0.0,0.0,-0.22265774011611938,0.01,0.0,-0.06,0.0
28.60943200,28609432,2,-0.13,0.46,136.03,0.02093060500919819,-0.003846528008580208,0.02318464405834675,-0.012285358272492886,0.0,0.0,-0.22383466362953186,0.01,0.0,-0.06,0.0
28.70947300,28709473,2,-0.13,0.46,136.03,0.0203265193849802,-0.0040762536227703094,0.022939637303352356,-0.030365565791726112,0.0,0.0,-0.22627201676368713,0.01,0.0,-0.05,0.0
28.80943700,28809437,2,-0.13,0.46,135.92000000000002,0.02090737409889698,-0.004098090808838606,0.02362879551947117,-0.02066054381430149,0.0,0.0,-0.22713181376457214,0.01,0.0,0.0,0.0
28.90943700,28909437,2,-0.13,0.46,135.73,0.02081581950187683,-0.005225660279393196,0.024570899084210396,0.004551250021904707,0.0,0.0,-0.22635115683078766,0.01,0.0,0.01,0.0
29.00945400,29009454,2,-0.13,0.46,135.53,0.020369697362184525,-0.005039060954004526,0.025371234863996506,0.01661565899848938,0.0,0.0,-0.22514235973358154,0.01,0.0,0.01,0.0
29.10943400,29109434,2,-0.13,0.45,135.38,0.020490828901529312,-0.0040851980447769165,0.025689298287034035,0.010320513509213924,0.0,0.0,-0.2247675061225891,0.01,0.0,0.0,0.0
29.20943700,29209437,2,-0.13,0.46,135.29,0.02101544663310051,-0.003937034867703915,0.02699563466012478,0.023586785420775414,0.0,0.0,-0.221933051943779,0.01,0.0,0.0,0.0
29.30945700,29309457,2,-0.13,0.46,135.26,0.020776020362973213,-0.004375987220555544,0.028100047260522842,0.02784710004925728,0.0,0.0,-0.2202214151620865,0.01,0.0,0.0,0.0
29.40947700,29409477,2,-0.13,0.46,135.27,0.020611165091395378,-0.0044786641374230385,0.02761148475110531,0.007375393528491259,0.0,0.0,-0.2196575105190277,0.01,0.0,0.0,0.0
29.50943100,29509431,2,-0.13,0.46,135.31,0.020281536504626274,-0.0046958718448877335,0.028062181547284126,-0.0071801370941102505,0.0,0.0,-0.22038881480693817,0.01,0.0,0.0,0.0
29.60946700,29609467,2,-0.13,0.46,135.35,0.019704414531588554,-0.005464368034154177,0.02752845361828804,-0.03233243152499199,0.0,0.0,-0.2232854962348938,0.01,0.0,-0.01,0.0
29.70944400,29709444,2,-0.13,0.46,135.4,0.020532740280032158,-0.004847157746553421,0.027529045939445496,-0.04112264886498451,0.0,0.0,-0.22621379792690277,0.01,0.0,-0.01,0.0
29.80943900,29809439,2,-0.13,0.46,135.44,0.020112419500947,-0.004024419002234936,0.02672751247882843,-0.03720824420452118,0.0,0.0,-0.2291843295097351,0.01,0.0,-0.01,0.0
29.90943700,29909437,2,-0.13,0.46,135.48,0.020406577736139297,-0.003410940058529377,0.02654237486422062,-0.019124619662761688,0.0,0.0,-0.23025473952293396,0.01,0.0,-0.01,0.0
30.00943300,30009433,2,-0.13,0.46,135.51,0.02074684575200081,-0.0031328783370554447,0.025539765134453773,-0.009107495658099651,0.0,0.0,-0.2316393107175827,0.01,0.0,-0.02,0.0
30.10943500,30109435,2,-0.12,0.46,135.55,0.019702309742569923,-0.002409118227660656,0.024073844775557518,-0.019438588991761208,0.0,0.0,-0.233737513422966,0.01,0.0,-0.02,0.0
30.20945400,30209454,2,-0.13,0.46,135.6,0.019789567217230797,-0.0009580772020854056,0.022418968379497528,-0.03643663227558136,0.0,0.0,-0.23764878511428833,0.01,0.0,-0.03,0.0
30.30945500,30309455,2,-0.13,0.46,135.65,0.02006474696099758,8.824848191579804e-05,0.021600669249892235,-0.046750590205192566,0.0,0.0,-0.24156752228736877,0.01,0.0,-0.03,0.0
30.40943600,30409436,2,-0.13,0.46,135.69,0.019955666735768318,0.0006938198348507285,0.020883500576019287,-0.04519618675112724,0.0,0.0,-0.2457708716392517,0.01,0.0,-0.03,0.0
30.50945900,30509459,2,-0.13,0.46,135.74,0.020376451313495636,0.0012624897062778473,0.019740961492061615,-0.061522405594587326,0.0,0.0,-0.2519761621952057,0.01,0.0,-0.04,0.0
30.60942800,30609428,2,-0.14,0.46,135.78,0.02056938037276268,0.0012042690068483353,0.01849990524351597,-0.07160753756761551,0.0,0.0,-0.25820183753967285,0.01,0.0,-0.04,0.0
30.70943000,30709430,2,-0.14,0.46,135.82,0.020502114668488503,0.0016549365827813745,0.01809035614132881,-0.053832534700632095,0.0,0.0,-0.26259946823120117,0.01,0.0,-0.04,0.0
30.80942500,30809425,2,-0.14,0.46,135.85,0.02151995152235031,0.002233335981145501,0.018253615126013756,-0.013377014547586441,0.0,0.0,-0.26329872012138367,0.01,0.0,-0.04,0.0
30.90942500,30909425,2,-0.14,0.46,135.87,0.022079037502408028,0.0037778865080326796,0.016526633873581886,0.006487381644546986,0.0,0.0,-0.2639932930469513,0.01,0.0,-0.04,0.0
31.00939200,31009392,2,-0.14,0.46,135.89000000000001,0.022469758987426758,0.005258055869489908,0.016503240913152695,0.005929857492446899,0.0,0.0,-0.26405802369117737,0.01,0.0,-0.05,0.0
31.10943100,31109431,2,-0.14,0.46,135.91,0.022224800661206245,0.005674362648278475,0.017207719385623932,0.023667609319090843,0.0,0.0,-0.26202815771102905,0.01,0.0,-0.05,0.0
31.20944700,31209447,2,-0.14,0.46,135.94,0.02241852879524231,0.006027588155120611,0.01831919141113758,0.05680815503001213,0.0,0.0,-0.25660091638565063,0.01,0.0,-0.05,0.0
31.30943400,31309434,2,-0.14,0.46,135.96,0.02275930531322956,0.005732609424740076,0.019509343430399895,0.06464910507202148,0.0,0.0,-0.2522255480289459,0.01,0.0,-0.05,0.0
31.40945800,31409458,2,-0.14,0.46,135.98,0.0228891521692276,0.005360253155231476,0.020981894806027412,0.0276341550052166,0.0,0.0,-0.2508397400379181,0.01,0.0,-0.06,0.0
31.50943800,31509438,2,-0.14,0.46,136.0,0.02366904728114605,0.005811295937746763,0.0213292445987463,-0.008670934475958347,0.0,0.0,-0.2516065835952759,0.01,0.0,-0.05,0.0
31.60942800,31609428,2,-0.14,0.46,135.95,0.024213997647166252,0.005331098567694426,0.020930614322423935,-0.037259541451931,0.0,0.0,-0.2545902729034424,0.01,0.0,-0.01,0.0
31.70942600,31709426,2,-0.14,0.46,135.8,0.02462502010166645,0.005387469660490751,0.020139366388320923,-0.03820404037833214,0.0,0.0,-0.25652387738227844,0.01,0.0,0.0,0.0
31.80942700,31809427,2,-0.15,0.46,135.62,0.02465791255235672,0.0062930467538535595,0.01964561827480793,-0.0068940962664783,0.0,0.0,-0.25606033205986023,0.01,0.0,0.0,0.0
31.90938500,31909385,2,-0.15,0.47000000000000003,135.48,0.025164399296045303,0.0065544662065804005,0.018219154328107834,-0.00483020581305027,0.0,0.0,-0.2573390603065491,0.01,0.0,0.0,0.0
32.00945000,32009450,2,-0.15,0.47000000000000003,135.39000000000001,0.0253240168094635,0.006740786600857973,0.018431616947054863,-0.009885434061288834,0.0,0.0,-0.2579638957977295,0.01,0.0,0.0,0.0
32.10945500,32109455,2,-0.15,0.47000000000000003,135.35,0.025732478126883507,0.007468446157872677,0.01829911395907402,0.0018465417670086026,0.0,0.0,-0.2578512132167816,0.01,0.0,0.0,0.0
32.20942400,32209424,2,-0.15,0.48,135.36,0.026157760992646217,0.008991817943751812,0.017860742285847664,0.008545287884771824,0.0,0.0,-0.257005900144577,0.01,0.0,-0.01,0.0
32.30946000,32309460,2,-0.16,0.48,135.38,0.02603810839354992,0.009431433863937855,0.01797097735106945,0.016590258106589317,0.0,0.0,-0.25566184520721436,0.01,0.0,-0.01,0.0
32.40943900,32409439,2,-0.16,0.48,135.43,0.026509201154112816,0.009092186577618122,0.01854255609214306,0.01798958331346512,0.0,0.0,-0.2542802393436432,0.01,0.0,-0.01,0.0
32.50942700,32509427,2,-0.16,0.49,135.49,0.02713589556515217,0.008869579993188381,0.018644554540514946,0.028254445642232895,0.0,0.0,-0.25130727887153625,0.01,0.0,-0.02,0.0
32.60943200,32609432,2,-0.16,0.49,135.55,0.027587756514549255,0.008903115056455135,0.019199306145310402,0.03435570374131203,0.0,0.0,-0.24865326285362244,0.01,0.0,-0.02,0.0
32.70943100,32709431,2,-0.15,0.49,135.6,0.028401292860507965,0.009029237553477287,0.01946459338068962,0.013777028769254684,0.0,0.0,-0.24798829853534698,0.01,0.0,-0.02,0.0
32.80942600,32809426,2,-0.15,0.49,135.63,0.028869621455669403,0.009396161884069443,0.01844034157693386,-0.010852978564798832,0.0,0.0,-0.24883787333965302,0.01,0.0,-0.02,0.0
32.90944400,32909444,2,-0.16,0.49,135.66,0.02972518466413021,0.009325261227786541,0.01720612123608589,-0.009918266907334328,0.0,0.0,-0.24862165749073029,0.01,0.0,-0.02,0.0
33.00945500,33009455,2,-0.16,0.49,135.69,0.03038453310728073,0.009334930218756199,0.01784011535346508,0.003884723177179694,0.0,0.0,-0.24802660942077637,0.01,0.0,-0.03,0.0
33.10943800,33109438,2,-0.16,0.5,135.71,0.030405255034565926,0.00931093655526638,0.017833232879638672,0.015634866431355476,0.0,0.0,-0.24617774784564972,0.01,0.0,-0.03,0.0
33.20945300,33209453,2,-0.17,0.5,135.73,0.03220229968428612,0.009666727855801582,0.019239462912082672,0.04218871146440506,0.0,0.0,-0.24199095368385315,0.01,0.0,-0.03,0.0
33.30942800,33309428,2,-0.17,0.5,135.76,0.03320980444550514,0.00924945529550314,0.01973939873278141,0.05992528796195984,0.0,0.0,-0.2368839830160141,0.01,0.0,-0.03,0.0
33.40943000,33409430,2,-0.17,0.5,135.8,0.03376690298318863,0.009577070362865925,0.02048128843307495,0.0528297945857048,0.0,0.0,-0.23285944759845734,0.01,0.0,-0.04,0.0
33.50942600,33509426,2,-0.16,0.5,135.82,0.03373876214027405,0.009516840800642967,0.02231876365840435,0.05358782038092613,0.0,0.0,-0.22747525572776794,0.01,0.0,-0.04,0.0
33.60942900,33609429,2,-0.16,0.5,135.86,0.03448086231946945,0.009607716463506222,0.022671222686767578,0.052625466138124466,0.0,0.0,-0.22303299605846405,0.01,0.0,-0.04,0.0
33.70938700,33709387,2,-0.16,0.5,135.89000000000001,0.0360836386680603,0.009985602460801601,0.02280348353087902,0.015583736822009087,0.0,0.0,-0.22219546139240265,0.01,0.0,-0.04,0.0
33.80943400,33809434,2,-0.16,0.51,135.91,0.03562179207801819,0.009310045279562473,0.02272542379796505,-0.02117989957332611,0.0,0.0,-0.2235802859067917,0.01,0.0,-0.04,0.0
33.90945900,33909459,2,-0.16,0.51,135.94,0.03612976893782616,0.008925313130021095,0.02289559319615364,-0.02132808230817318,0.0,0.0,-0.22396428883075714,0.01,0.0,-0.04,0.0
34.00943800,34009438,2,-0.16,0.5,135.96,0.03649631887674332,0.007515773177146912,0.022959263995289803,-0.009270577691495419,0.0,0.0,-0.22430123388767242,0.01,0.0,-0.04,0.0
34.10946300,34109463,2,-0.16,0.5,135.98,0.03725191578269005,0.006552224513143301,0.022257186472415924,-0.010784853249788284,0.0,0.0,-0.225190669298172,0.01,0.0,-0.05,0.0
34.20943300,34209433,2,-0.17,0.5,136.0,0.036859285086393356,0.00590753136202693,0.022082407027482986,-0.007048752624541521,0.0,0.0,-0.22551286220550537,0.01,0.0,-0.05,0.0
34.30942800,34309428,2,-0.16,0.5,136.02,0.03754802420735359,0.005957503337413073,0.021198570728302002,-0.001024629338644445,0.0,0.0,-0.22551724314689636,0.01,0.0,-0.05,0.0
34.40943200,34409432,2,-0.16,0.5,136.0,0.037991736084222794,0.006495377514511347,0.020443368703126907,-0.015720153227448463,0.0,0.0,-0.22776217758655548,0.01,0.0,-0.03,0.0
34.50942700,34509427,2,-0.17,0.5,135.9,0.037530507892370224,0.006559169385582209,0.019617430865764618,-0.03757212683558464,0.0,0.0,-0.23131106793880463,0.01,0.0,0.0,0.0
34.60942800,34609428,2,-0.17,0.5,135.75,0.037948668003082275,0.007394065149128437,0.02011864446103573,-0.03258407860994339,0.0,0.0,-0.23342148959636688,0.01,0.0,0.0,0.0
34.70945500,34709455,2,-0.17,0.5,135.62,0.037342265248298645,0.006919281091541052,0.020397065207362175,0.00020893500186502934,0.0,0.0,-0.23243845999240875,0.01,0.0,-0.01,0.0
34.80945100,34809451,2,-0.17,0.5,135.52,0.03765680268406868,0.006227455101907253,0.022551020607352257,0.04132501408457756,0.0,0.0,-0.22846746444702148,0.01,0.0,-0.01,0.0
34.90944200,34909442,2,-0.17,0.5,135.47,0.038240835070610046,0.006289808079600334,0.024334637448191643,0.055734146386384964,0.0,0.0,-0.2245403677225113,0.01,0.0,-0.01,0.0
35.00946100,35009461,2,-0.17,0.51,135.46,0.03854408487677574,0.0067631835117936134,0.025049250572919846,0.04157852753996849,0.0,0.0,-0.22171080112457275,0.01,0.0,-0.01,0.0
35.10943600,35109436,2,-0.17,0.51,135.48,0.03950268775224686,0.007331260945647955,0.025098169222474098,0.028618313372135162,0.0,0.0,-0.2190585732460022,0.01,0.0,-0.01,0.0
35.20943100,35209431,2,-0.17,0.51,135.51,0.03892950341105461,0.006784956902265549,0.024836819618940353,0.028722301125526428,0.0,0.0,-0.21594426035881042,0.01,0.0,-0.02,0.0
35.30942700,35309427,2,-0.17,0.51,135.54,0.03902195766568184,0.007370775565505028,0.024691510945558548,0.021969953551888466,0.0,0.0,-0.2141377031803131,0.01,0.0,-0.02,0.0
35.40942900,35409429,2,-0.16,0.52,135.58,0.03912646323442459,0.006690504960715771,0.024302300065755844,0.001950612524524331,0.0,0.0,-0.2138068526983261,0.01,0.0,-0.02,0.0
35.50942600,35509426,2,-0.17,0.51,135.61,0.039653975516557693,0.005961258430033922,0.024068593978881836,-0.013649748638272285,0.0,0.0,-0.21458441019058228,0.01,0.0,-0.02,0.0
35.60944300,35609443,2,-0.17,0.51,135.63,0.04086580500006676,0.005019994452595711,0.023429373279213905,-0.02682974562048912,0.0,0.0,-0.21673618257045746,0.01,0.0,-0.02,0.0
35.70946900,35709469,2,-0.16,0.51,135.66,0.04096730425953865,0.004286597482860088,0.023362942039966583,-0.014095038175582886,0.0,0.0,-0.21685901284217834,0.01,0.0,-0.02,0.0
35.80943700,35809437,2,-0.17,0.51,135.68,0.041292428970336914,0.00451679527759552,0.02308848313987255,-0.004014054778963327,0.0,0.0,-0.21745644509792328,0.0,0.0,-0.02,0.0
35.90945900,35909459,2,-0.17,0.51,135.7,0.0410548560321331,0.0033003087155520916,0.022914189845323563,-0.014563120901584625,0.0,0.0,-0.21893621981143951,0.0,0.0,-0.02,0.0
36.00942900,36009429,2,-0.16,0.5,135.71,0.041472382843494415,0.002452709712088108,0.02287434972822666,-0.0355219729244709,0.0,0.0,-0.22262614965438843,0.0,0.0,-0.03,0.0
36.10942800,36109428,2,-0.17,0.51,135.73,0.0413387157022953,0.001742159016430378,0.02176058106124401,-0.06669270247220993,0.0,0.0,-0.22868575155735016,0.0,0.0,-0.03,0.0
36.20943100,36209431,2,-0.17,0.51,135.75,0.0412919782102108,0.0007998539949767292,0.02116556465625763,-0.07325001060962677,0.0,0.0,-0.23463110625743866,0.0,0.0,-0.03,0.0
36.30942900,36309429,2,-0.18,0.51,135.77,0.041625916957855225,0.0003507239744067192,0.020184388384222984,-0.06485920399427414,0.0,0.0,-0.24023577570915222,0.0,0.0,-0.03,0.0
36.40942700,36409427,2,-0.18,0.51,135.79,0.04190850630402565,0.0010354939149692655,0.019149595871567726,-0.0407019779086113,0.0,0.0,-0.24347008764743805,0.0,0.0,-0.03,0.0
36.50944500,36509445,2,-0.18,0.51,135.81,0.04244021698832512,0.0015391209162771702,0.019514048472046852,-0.010079552419483662,0.0,0.0,-0.24482589960098267,0.0,0.0,-0.03,0.0
36.60946800,36609468,2,-0.18,0.52,135.83,0.04324396327137947,0.001664852723479271,0.01923372782766819,-0.025877557694911957,0.0,0.0,-0.2489423006772995,0.0,0.0,-0.03,0.0
36.70944100,36709441,2,-0.18,0.52,135.84,0.04314427077770233,0.0018513778923079371,0.019174115732312202,-0.05122922360897064,0.0,0.0,-0.253910094499588,0.0,0.0,-0.03,0.0
36.80945100,36809451,2,-0.18,0.53,135.85,0.04327470436692238,0.002292481018230319,0.017594454810023308,-0.039115577936172485,0.0,0.0,-0.2568815350532532,0.0,0.0,-0.03,0.0
36.90943200,36909432,2,-0.18,0.53,135.87,0.04262730851769447,0.0027083049062639475,0.017328249290585518,-0.02524423971772194,0.0,0.0,-0.2595690190792084,0.0,0.0,-0.04,0.0
37.00943200,37009432,2,-0.18,0.54,135.88,0.04321492463350296,0.0023966250009834766,0.017094546929001808,-0.026524903252720833,0.0,0.0,-0.2625170350074768,0.0,0.0,-0.04,0.0
37.10942600,37109426,2,-0.17,0.53,135.89000000000001,0.04376962035894394,0.0024775832425802946,0.01642444357275963,-0.02330736629664898,0.0,0.0,-0.26476889848709106,0.0,0.0,-0.04,0.0
37.20943200,37209432,2,-0.17,0.54,135.88,0.04458296671509743,0.002631828421726823,0.015897953882813454,-0.01674368605017662,0.0,0.0,-0.2666134238243103,0.0,0.0,-0.03,0.0
37.30942900,37309429,2,-0.17,0.54,135.8,0.04502032697200775,0.003227075096219778,0.01531324815005064,-0.00609905831515789,0.0,0.0,-0.26726266741752625,0.0,0.0,-0.01,0.0
37.40944400,37409444,2,-0.18,0.54,135.67000000000002,0.0456174835562706,0.004161474760621786,0.015146669000387192,-0.012265500612556934,0.0,0.0,-0.26926329731941223,0.0,0.0,0.0,0.0
37.50945100,37509451,2,-0.17,0.54,135.54,0.046630632132291794,0.004140367731451988,0.01568411849439144,-0.013986329548060894,0.0,0.0,-0.2703987658023834,0.0,0.0,0.0,0.0
37.60943900,37609439,2,-0.17,0.54,135.45,0.04707524552941322,0.004166386555880308,0.01565667800605297,-0.010242319665849209,0.0,0.0,-0.27167898416519165,0.0,0.0,0.0,0.0
37.70945900,37709459,2,-0.17,0.53,135.39000000000001,0.04737056419253349,0.004584199283272028,0.01421575527638197,-0.024925703182816505,0.0,0.0,-0.27427470684051514,0.0,0.0,-0.01,0.0
37.80942700,37809427,2,-0.17,0.53,135.38,0.04781563952565193,0.00473626796156168,0.01286308839917183,-0.0194147489964962,0.0,0.0,-0.2754913568496704,0.0,0.0,-0.01,0.0
37.90944000,37909440,2,-0.17,0.53,135.39000000000001,0.04845190793275833,0.004890484269708395,0.013139976188540459,0.013348080217838287,0.0,0.0,-0.27388668060302734,0.0,0.0,-0.01,0.0
38.00942900,38009429,2,-0.18,0.53,135.41,0.04825415834784508,0.004835817497223616,0.013973800465464592,0.02603418193757534,0.0,0.0,-0.2723577916622162,0.0,0.0,-0.01,0.0
38.10943300,38109433,2,-0.18,0.54,135.44,0.04892224445939064,0.004778913222253323,0.014541637152433395,0.03592575713992119,0.0,0.0,-0.2690878212451935,0.0,0.0,-0.01,0.0
38.20942900,38209429,2,-0.19,0.54,135.47,0.049570050090551376,0.004796667490154505,0.015679018571972847,0.023921944200992584,0.0,0.0,-0.268137663602829,0.0,0.0,-0.01,0.0
38.30944800,38309448,2,-0.19,0.54,135.51,0.050052110105752945,0.0054266504012048244,0.014451966620981693,-0.021772412583231926,0.0,0.0,-0.27049827575683594,0.0,0.0,-0.02,0.0
38.40946000,38409460,2,-0.19,0.54,135.53,0.05084911361336708,0.005665297154337168,0.013944530859589577,-0.03740905597805977,0.0,0.0,-0.273004412651062,0.0,0.0,-0.02,0.0
38.50943500,38509435,2,-0.19,0.54,135.56,0.051740098744630814,0.005415813066065311,0.013543214648962021,-0.03278205916285515,0.0,0.0,-0.27536818385124207,0.0,0.0,-0.02,0.0
38.60945700,38609457,2,-0.19,0.54,135.58,0.052152469754219055,0.0057999612763524055,0.013659152202308178,-0.02328815683722496,0.0,0.0,-0.27707570791244507,0.0,0.0,-0.02,0.0
38.70943200,38709432,2,-0.19,0.55,135.61,0.052033681422472,0.006173313595354557,0.014280506409704685,-0.001772947609424591,0.0,0.0,-0.2769200801849365,0.0,0.0,-0.02,0.0
38.80942600,38809426,2,-0.19,0.55,135.64000000000001,0.05232970416545868,0.005732630845159292,0.014707953669130802,0.015253144316375256,0.0,0.0,-0.2758525311946869,0.0,0.0,-0.02,0.0
38.90942900,38909429,2,-0.19,0.55,135.66,0.05234348401427269,0.0058450340293347836,0.015795161947607994,0.014904922805726528,0.0,0.0,-0.2751437723636627,0.0,0.0,-0.02,0.0
39.00943200,39009432,2,-0.2,0.56,135.68,0.0526326559484005,0.0053968229331076145,0.015439971350133419,-0.001565695507451892,0.0,0.0,-0.27579665184020996,0.0,0.0,-0.03,0.0
39.10938400,39109384,2,-0.2,0.56,135.71,0.05296507105231285,0.005302839912474155,0.014428224414587021,-0.010357672348618507,0.0,0.0,-0.27642202377319336,0.0,0.0,-0.03,0.0
39.20943500,39209435,2,-0.2,0.56,135.75,0.053333040326833725,0.00435238890349865,0.014308895915746689,-0.009568993002176285,0.0,0.0,-0.27715930342674255,0.0,0.0,-0.03,0.0
39.30945300,39309453,2,-0.2,0.56,135.77,0.05421001836657524,0.004298483952879906,0.014706089161336422,0.006347176618874073,0.0,0.0,-0.27604401111602783,0.0,0.0,-0.03,0.0
39.40943700,39409437,2,-0.2,0.55,135.8,0.054347336292266846,0.003862001234665513,0.015211205929517746,0.02871791087090969,0.0,0.0,-0.27347564697265625,0.0,0.0,-0.03,0.0
39.50946400,39509464,2,-0.2,0.56,135.84,0.05510936304926872,0.0038254279643297195,0.015641111880540848,0.04446020349860191,0.0,0.0,-0.26955094933509827,0.0,0.0,-0.03,0.0
39.60943200,39609432,2,-0.2,0.56,135.86,0.05579550936818123,0.0037234295159578323,0.016498401761054993,0.046233538538217545,0.0,0.0,-0.26599782705307007,0.0,0.0,-0.03,0.0
39.70942900,39709429,2,-0.2,0.56,135.89000000000001,0.05548817291855812,0.0030889231711626053,0.017593195661902428,0.0338965505361557,0.0,0.0,-0.26317736506462097,0.0,0.0,-0.04,0.0
39.80942900,39809429,2,-0.2,0.56,135.91,0.05626523867249489,0.003289260435849428,0.017262596637010574,0.024361271411180496,0.0,0.0,-0.2607666552066803,0.0,0.0,-0.04,0.0
39.90942800,39909428,2,-0.2,0.55,135.93,0.05626194179058075,0.0031368208583444357,0.01701613888144493,0.02083769254386425,0.0,0.0,-0.2584432065486908,0.0,0.0,-0.04,0.0
40.00943000,40009430,2,-0.2,0.55,135.93,0.05558878183364868,0.0027849480975419283,0.017223462462425232,0.0059529016725718975,0.0,0.0,-0.2580859661102295,0.0,0.0,-0.03,0.0
40.10944600,40109446,2,-0.2,0.55,135.87,0.056541893631219864,0.0024011863861232996,0.01660328544676304,-0.014689907431602478,0.0,0.0,-0.2590167820453644,0.0,0.01,-0.01,0.0
40.20944900,40209449,2,-0.2,0.55,135.75,0.056456997990608215,0.002364224521443248,0.01667352207005024,-0.019265098497271538,0.0,0.0,-0.26016709208488464,0.0,0.01,0.0,0.0
40.30943500,40309435,2,-0.19,0.56,135.62,0.056838907301425934,0.0018876857357099652,0.016184857115149498,-0.021742798388004303,0.0,0.0,-0.26181337237358093,0.0,0.01,-0.01,0.0
40.40946200,40409462,2,-0.19,0.56,135.52,0.05698716267943382,0.0011500315740704536,0.01734130270779133,-0.02271425724029541,0.0,0.0,-0.26366496086120605,0.0,0.01,-0.01,0.0
40.50943800,40509438,2,-0.19,0.56,135.45,0.05692124366760254,0.0011972623178735375,0.017082231119275093,-0.0024594063870608807,0.0,0.0,-0.2630128562450409,0.0,0.01,-0.01,0.0
40.60942700,40609427,2,-0.19,0.56,135.42000000000002,0.05680438503623009,0.0008481934200972319,0.017970094457268715,0.0321030355989933,0.0,0.0,-0.2599635124206543,0.0,0.01,-0.01,0.0
40.70944200,40709442,2,-0.19,0.56,135.42000000000002,0.056477949023246765,-0.00018222058133687824,0.018865246325731277,0.04508287087082863,0.0,0.0,-0.2565903663635254,0.0,0.01,-0.01,0.0
40.80942500,40809425,2,-0.19,0.56,135.44,0.056694868952035904,-0.0008398404461331666,0.020294982939958572,0.032576996833086014,0.0,0.0,-0.254505455493927,0.0,0.01,-0.01,0.0
40.90942800,40909428,2,-0.18,0.56,135.46,0.05657529458403587,-0.0018988389056175947,0.019565755501389503,0.011016111820936203,0.0,0.0,-0.25360265374183655,0.0,0.01,-0.01,0.0
41.00945200,41009452,2,-0.18,0.56,135.48,0.056220050901174545,-0.0020448369905352592,0.019147956743836403,0.0008075261721387506,0.0,0.0,-0.253154456615448,0.0,0.01,-0.01,0.0
41.10946900,41109469,2,-0.18,0.56,135.5,0.05598999187350273,-0.0018407359020784497,0.018350573256611824,-0.005180411972105503,0.0,0.0,-0.2533363103866577,0.0,0.01,-0.01,0.0
41.20943800,41209438,2,-0.18,0.55,135.53,0.05524379760026932,-0.001649747951887548,0.018177496269345284,-0.010754525661468506,0.0,0.0,-0.2540292739868164,0.0,0.01,-0.02,0.0
41.30945600,41309456,2,-0.17,0.55,135.55,0.054824113845825195,-0.0017403883393853903,0.018021484836935997,-0.024381540715694427,0.0,0.0,-0.25637105107307434,0.0,0.01,-0.02,0.0
41.40942700,41409427,2,-0.17,0.55,135.56,0.055043693631887436,-0.0013427528319880366,0.01608244515955448,-0.03343875706195831,0.0,0.0,-0.2587575316429138,0.0,0.01,-0.02,0.0
41.50943400,41509434,2,-0.17,0.55,135.58,0.05578123405575752,-0.0009033390670083463,0.014567025937139988,-0.030267266556620598,0.0,0.0,-0.2612515687942505,0.0,0.01,-0.02,0.0
41.60942900,41609429,2,-0.17,0.55,135.59,0.05549372360110283,-0.0008873238111846149,0.014025988057255745,-0.033778488636016846,0.0,0.0,-0.26440802216529846,0.0,0.01,-0.02,0.0
41.70942900,41709429,2,-0.17,0.55,135.61,0.05518578365445137,-0.0016071244608610868,0.014072258956730366,-0.03588991239666939,0.0,0.0,-0.26769423484802246,0.0,0.01,-0.02,0.0
41.80942700,41809427,2,-0.17,0.54,135.63,0.055045634508132935,-0.0017469291342422366,0.013258898630738258,-0.03608639910817146,0.0,0.0,-0.2710143029689789,0.0,0.01,-0.02,0.0
41.90943100,41909431,2,-0.17,0.54,135.65,0.05478516221046448,-0.0016076166648417711,0.01202605664730072,-0.027881326153874397,0.0,0.0,-0.2733164131641388,0.0,0.01,-0.02,0.0
42.00945500,42009455,2,-0.17,0.54,135.68,0.05470682680606842,-0.0013581193052232265,0.01239378284662962,-0.006162463687360287,0.0,0.0,-0.27380093932151794,0.0,0.01,-0.02,0.0
42.10943500,42109435,2,-0.17,0.54,135.71,0.05487675219774246,-0.0005220374441705644,0.012273850850760937,0.006453065201640129,0.0,0.0,-0.2738005220890045,0.0,0.01,-0.02,0.0
42.20945600,42209456,2,-0.17,0.54,135.73,0.05439253896474838,0.0004852157144341618,0.011767610907554626,0.01887960359454155,0.0,0.0,-0.27213701605796814,0.0,0.01,-0.03,0.0
42.30942500,42309425,2,-0.18,0.54,135.74,0.054321177303791046,0.0007201139815151691,0.011598052456974983,0.0320984311401844,0.0,0.0,-0.26968148350715637,0.0,0.01,-0.03,0.0
42.40943400,42409434,2,-0.18,0.53,135.76,0.05395500361919403,0.0012079132720828056,0.012293579056859016,0.0368928536772728,0.0,0.0,-0.266674280166626,0.0,0.01,-0.03,0.0
42.50942600,42509426,2,-0.18,0.53,135.78,0.053628452122211456,0.001366913435049355,0.013008593581616879,0.03887985274195671,0.0,0.0,-0.2634534537792206,0.0,0.01,-0.03,0.0
42.60942800,42609428,2,-0.18,0.53,135.8,0.05339004099369049,0.0016755725955590606,0.013921347446739674,0.03194979578256607,0.0,0.0,-0.26080313324928284,0.0,0.01,-0.03,0.0
42.70943400,42709434,2,-0.18,0.52,135.81,0.05191173404455185,0.002222418785095215,0.014527428895235062,0.011987360194325447,0.0,0.0,-0.26002106070518494,0.0,0.01,-0.03,0.0
42.80946200,42809462,2,-0.18,0.53,135.83,0.051925186067819595,0.002075810916721821,0.01356920599937439,-0.017245441675186157,0.0,0.0,-0.2615359425544739,0.0,0.01,-0.03,0.0
42.90944900,42909449,2,-0.18,0.52,135.82,0.05142770707607269,0.002505382290109992,0.013236290775239468,-0.027017010375857353,0.0,0.0,-0.2630414366722107,0.0,0.01,-0.02,0.0
43.00943400,43009434,2,-0.18,0.53,135.75,0.05190523713827133,0.002369784750044346,0.012138428166508675,-0.007935327477753162,0.0,0.0,-0.26263636350631714,0.0,0.01,-0.01,0.0
43.10945900,43109459,2,-0.18,0.52,135.65,0.05240442976355553,0.002799163805320859,0.012574000284075737,0.021362777799367905,0.0,0.0,-0.26024794578552246,0.0,0.01,-0.01,0.0
43.20942600,43209426,2,-0.18,0.52,135.56,0.052278585731983185,0.003247803309932351,0.01351138111203909,0.038674741983413696,0.0,0.0,-0.2571270763874054,0.0,0.01,-0.01,0.0
43.30942800,43309428,2,-0.18,0.52,135.5,0.051753729581832886,0.003994827624410391,0.01487404853105545,0.04401322826743126,0.0,0.0,-0.25348663330078125,0.0,0.01,-0.01,0.0
43.40942800,43409428,2,-0.18,0.52,135.47,0.051149882376194,0.003972828853875399,0.015814755111932755,0.02570285275578499,0.0,0.0,-0.2522016763687134,0.0,0.01,-0.01,0.0
43.50943000,43509430,2,-0.18,0.53,135.46,0.05010367929935455,0.00436452915892005,0.016003014519810677,0.0010154925985261798,0.0,0.0,-0.25179997086524963,0.0,0.01,-0.01,0.0
43.60942900,43609429,2,-0.18,0.53,135.47,0.049567367881536484,0.003272193716838956,0.0177786722779274,0.007014833856374025,0.0,0.0,-0.250387042760849,0.0,0.01,-0.01,0.0
43.70944400,43709444,2,-0.18,0.53,135.49,0.04989810660481453,0.0029080959502607584,0.01900537498295307,0.013130231760442257,0.0,0.0,-0.24905019998550415,0.0,0.01,-0.02,0.0
43.80945100,43809451,2,-0.18,0.53,135.52,0.04970339685678482,0.0028754803352057934,0.018704816699028015,-0.012687912210822105,0.0,0.0,-0.25099411606788635,0.0,0.01,-0.02,0.0
43.90943000,43909430,2,-0.18,0.53,135.55,0.04997438192367554,0.003403696231544018,0.017498768866062164,-0.03693004325032234,0.0,0.0,-0.25361043214797974,0.0,0.01,-0.02,0.0
44.00945700,44009457,2,-0.18,0.52,135.57,0.04913711175322533,0.00401026988402009,0.017366960644721985,-0.02699306420981884,0.0,0.0,-0.25518926978111267,0.0,0.01,-0.02,0.0
44.10943300,44109433,2,-0.18,0.52,135.58,0.04873116314411163,0.004280044697225094,0.016690177842974663,-0.030597813427448273,0.0,0.0,-0.2583109736442566,0.0,0.01,-0.02,0.0
44.20942600,44209426,2,-0.17,0.51,135.6,0.048149168491363525,0.005106329917907715,0.016064876690506935,-0.04000380262732506,0.0,0.0,-0.26166945695877075,0.0,0.01,-0.02,0.0
44.30942900,44309429,2,-0.17,0.52,135.61,0.0475168377161026,0.004977487958967686,0.015588040463626385,-0.03702862933278084,0.0,0.0,-0.2649606168270111,0.0,0.01,-0.02,0.0
44.40944100,44409441,2,-0.17,0.52,135.61,0.047309622168540955,0.004262407310307026,0.015492227859795094,-0.03974442183971405,0.0,0.0,-0.26877373456954956,0.0,0.01,-0.02,0.0
44.50942500,44509425,2,-0.18,0.52,135.63,0.0472588874399662,0.003785886103287339,0.015644028782844543,-0.04088648036122322,0.0,0.0,-0.2725503742694855,0.0,0.01,-0.02,0.0
44.60943500,44609435,2,-0.17,0.51,135.64000000000001,0.04746469482779503,0.0035319349262863398,0.013977539725601673,-0.05233917385339737,0.0,0.0,-0.2778988182544708,0.0,0.01,-0.02,0.0
44.70945600,44709456,2,-0.17,0.51,135.65,0.046577394008636475,0.00434428546577692,0.012740126810967922,-0.06209072470664978,0.0,0.0,-0.283404141664505,0.0,0.01,-0.02,0.0
44.80941900,44809419,2,-0.17,0.51,135.67000000000002,0.04550900310277939,0.0045865983702242374,0.011179659515619278,-0.049962207674980164,0.0,0.0,-0.28760915994644165,0.0,0.01,-0.02,0.0
44.90945800,44909458,2,-0.17,0.51,135.69,0.045074790716171265,0.004534234758466482,0.010101530700922012,-0.04672536253929138,0.0,0.0,-0.29263031482696533,0.0,0.01,-0.02,0.0
45.00943800,45009438,2,-0.17,0.51,135.7,0.044734787195920944,0.0048972745425999165,0.008562370203435421,-0.06069696322083473,0.0,0.0,-0.29871615767478943,0.0,0.01,-0.02,0.0
45.10943400,45109434,2,-0.16,0.51,135.72,0.04362092912197113,0.004789614584296942,0.00700983963906765,-0.0600648857653141,0.0,0.0,-0.3039935827255249,0.0,0.01,-0.02,0.0
45.20942600,45209426,2,-0.16,0.51,135.73,0.04331309720873833,0.005192757584154606,0.005103121045976877,-0.05858321115374565,0.0,0.0,-0.30985137820243835,0.0,0.01,-0.02,0.0
45.30942800,45309428,2,-0.16,0.51,135.74,0.04307800531387329,0.004119265358895063,0.003999141976237297,-0.06514915078878403,0.0,0.0,-0.31614014506340027,0.0,0.01,-0.02,0.0
45.40940100,45409401,2,-0.16,0.51,135.75,0.04346497729420662,0.003908803686499596,0.0037953245919197798,-0.0419270321726799,0.0,0.0,-0.31940072774887085,0.0,0.01,-0.02,0.0
45.50944900,45509449,2,-0.16,0.51,135.76,0.04386141896247864,0.004067262634634972,0.0031420420855283737,-0.007207653950899839,0.0,0.0,-0.3204178214073181,0.0,0.01,-0.03,0.0
45.60945800,45609458,2,-0.16,0.51,135.77,0.04414263740181923,0.005041441880166531,0.0030351830646395683,0.0031235525384545326,0.0,0.0,-0.3212982714176178,0.0,0.01,-0.03,0.0
45.70942200,45709422,2,-0.15,0.51,135.77,0.04389217123389244,0.004570621997117996,0.0029664647299796343,0.0037106985691934824,0.0,0.0,-0.32160475850105286,0.0,0.01,-0.02,0.0
45.80946300,45809463,2,-0.16,0.51,135.72,0.04325120523571968,0.005123611073940992,0.0036403138656169176,0.008206493221223354,0.0,0.0,-0.32134824991226196,0.0,0.01,-0.01,0.0
45.90943500,45909435,2,-0.15,0.51,135.64000000000001,0.04343574866652489,0.004791554529219866,0.003593090223148465,-0.0036643578205257654,0.0,0.0,-0.3228472173213959,0.0,0.01,-0.01,0.0
46.00942900,46009429,2,-0.15,0.51,135.55,0.042684879153966904,0.004966456443071365,0.003690628334879875,-0.01589192822575569,0.0,0.0,-0.3239404857158661,0.0,0.01,-0.01,0.0
46.10943700,46109437,2,-0.16,0.51,135.49,0.04262946546077728,0.005202802363783121,0.004737572278827429,-0.003792388830333948,0.0,0.0,-0.32404908537864685,0.0,0.01,-0.01,0.0
46.20942600,46209426,2,-0.16,0.52,135.46,0.042915087193250656,0.0055223070085048676,0.00523340655490756,0.01295506116002798,0.0,0.0,-0.3225344121456146,0.0,0.01,-0.01,0.0
46.30942800,46309428,2,-0.16,0.52,135.45,0.04252774640917778,0.0056143891997635365,0.004075678531080484,0.005038997158408165,0.0,0.0,-0.3231734037399292,0.0,0.01,-0.01,0.0
