timestamp,TimeUS,I,Status,GMS,GWk,NSats,HDop,Lat,Lng,Alt,Spd,GCrs,VZ,Yaw,U
1676239794.19899988,809748353,0,3,79812199,2249,15,1.25,42.6879503,-84.49155329999999,261.79,0.030083218589425087,158.55226135253906,-0.026000000536441803,0.0,1
1676239794.37924981,809928603,0,3,79812399,2249,15,1.25,42.6879503,-84.49155329999999,261.78000000000003,0.024331049993634224,189.4623260498047,-0.05700000375509262,0.0,1
1676239794.57887793,810128231,0,3,79812599,2249,15,1.25,42.687950199999996,-84.49155329999999,261.78000000000003,0.028071338310837746,175.91436767578125,-0.007000000216066837,0.0,1
1676239794.77875090,810328104,0,3,79812799,2249,15,1.25,42.687950199999996,-84.49155329999999,261.78000000000003,0.038832977414131165,348.111328125,-0.024000000208616257,0.0,1
1676239794.97874498,810528098,0,3,79812999,2249,15,1.25,42.687950199999996,-84.4915534,261.77,0.014317821711301804,347.9052429199219,-0.009000000543892384,0.0,1
1676239795.17908978,810728443,0,3,79813199,2249,15,1.25,42.687950199999996,-84.49155329999999,261.77,0.019235385581851006,297.89727783203125,0.03100000135600567,0.0,1
1676239795.35881782,810908171,0,3,79813399,2249,15,1.25,42.687950199999996,-84.4915534,261.77,0.018384777009487152,337.619873046875,-0.05900000408291817,0.0,1
1676239795.57878780,811128141,0,3,79813599,2249,15,1.25,42.687950199999996,-84.49155329999999,261.79,0.018027756363153458,33.690067291259766,0.013000000268220901,0.0,1
1676239795.77875996,811328113,0,3,79813799,2249,15,1.25,42.687950199999996,-84.49155329999999,261.79,0.06896375864744186,196.85841369628906,-0.005000000353902578,0.0,1
1676239795.97888279,811528236,0,3,79813999,2249,15,1.25,42.687950099999995,-84.49155329999999,261.79,0.03354102000594139,333.4349365234375,-0.0020000000949949026,0.0,1
1676239796.17921686,811728570,0,3,79814199,2249,15,1.25,42.687950099999995,-84.49155329999999,261.8,0.02340940199792385,19.983104705810547,0.004000000189989805,0.0,1
1676239796.37886477,811928218,0,3,79814399,2249,15,1.25,42.687950199999996,-84.49155329999999,261.8,0.020615529268980026,309.0938720703125,-0.021000001579523087,0.0,1
1676239796.57875180,812128105,0,3,79814599,2249,15,1.25,42.687950199999996,-84.49155329999999,261.8,0.0518844909965992,332.44720458984375,-0.03700000047683716,0.0,1
1676239796.75933599,812308689,0,3,79814799,2249,15,1.25,42.687950099999995,-84.49155329999999,261.79,0.004472136031836271,63.4349479675293,-0.07800000160932541,0.0,1
1676239796.97909188,812528445,0,3,79814999,2249,15,1.25,42.687950099999995,-84.49155329999999,261.79,0.011180340312421322,280.30487060546875,-0.05100000277161598,0.0,1
1676239797.17896390,812728317,0,3,79815199,2249,15,1.25,42.687950099999995,-84.49155329999999,261.8,0.02690725028514862,48.01278305053711,0.02200000174343586,0.0,1
1676239797.37915182,812928505,0,3,79815399,2249,15,1.25,42.68795,-84.4915532,261.8,0.07043436914682388,128.65980529785156,-0.006000000052154064,0.0,1
1676239797.57909989,813128453,0,3,79815599,2249,15,1.25,42.6879499,-84.49155309999999,261.78000000000003,0.008485281839966774,45.0,-0.04200000315904617,0.0,1
1676239797.77909589,813328449,0,3,79815799,2249,15,1.25,42.6879499,-84.49155309999999,261.79,0.017000000923871994,208.072509765625,-0.03500000014901161,0.0,1
1676239797.97948790,813528841,0,3,79815999,2249,15,1.25,42.6879499,-84.49155309999999,261.79,0.02801785245537758,2.0454084873199463,0.0,0.0,1
1676239798.17923379,813728587,0,3,79816199,2249,15,1.25,42.6879499,-84.49155309999999,261.79,0.0213775597512722,10.784296989440918,-0.0650000050663948,0.0,1
1676239798.37875485,813928108,0,3,79816399,2249,15,1.25,42.6879498,-84.491553,261.8,0.027730850502848625,115.64099884033203,0.005000000353902578,0.0,1
1676239798.57876778,814128121,0,3,79816599,2249,15,1.25,42.6879498,-84.491553,261.8,0.023021729663014412,235.61965942382812,0.03500000014901161,0.0,1
1676239798.77910185,814328455,0,3,79816799,2249,15,1.25,42.6879497,-84.491553,261.78000000000003,0.013416407629847527,26.56505012512207,-0.05900000408291817,0.0,1
1676239798.97925782,814528611,0,3,79816999,2249,15,1.25,42.687949599999996,-84.49155309999999,261.79,0.09481033682823181,206.2947998046875,0.08700000494718552,0.0,1
1676239799.17877293,814728126,0,3,79817199,2249,15,1.25,42.687949499999995,-84.49155309999999,261.78000000000003,0.04338202625513077,295.9743957519531,-0.06700000166893005,0.0,1
1676239799.37879586,814928149,0,3,79817399,2249,15,1.25,42.687949499999995,-84.4915532,261.79,0.05661272257566452,305.65533447265625,-0.1380000114440918,0.0,1
1676239799.57889986,815128253,0,3,79817599,2249,15,1.25,42.687949499999995,-84.4915532,261.84000000000003,0.0252982210367918,108.43494415283203,-0.29600000381469727,0.0,1
1676239799.77926993,815328623,0,3,79817799,2249,15,1.25,42.6879494,-84.4915534,261.87,0.1419084370136261,254.88653564453125,-0.30400002002716064,0.0,1
1676239799.97887278,815528226,0,3,79817999,2249,15,1.25,42.6879494,-84.4915535,261.92,0.06220128759741783,36.50143814086914,-0.3840000033378601,0.0,1
1676239800.17876697,815728120,0,3,79818199,2249,15,1.25,42.6879494,-84.4915536,261.95,0.07605919241905212,331.7502746582031,-0.36500000953674316,0.0,1
1676239800.37900782,815928361,0,3,79818399,2249,15,1.25,42.6879493,-84.4915537,262.01,0.08845903724431992,227.29061889648438,-0.2980000078678131,0.0,1
1676239800.57891083,816128264,0,3,79818599,2249,15,1.25,42.6879491,-84.4915534,262.08,0.2726554870605469,124.38947296142578,-0.25300002098083496,0.0,1
1676239800.75890088,816308254,0,3,79818799,2249,15,1.25,42.687948899999995,-84.49155309999999,262.11,0.10662082582712173,66.80140686035156,-0.09200000762939453,0.0,1
1676239800.97879076,816528144,0,3,79818999,2249,15,1.25,42.687948899999995,-84.4915528,262.12,0.1550516039133072,91.478271484375,-0.24400001764297485,0.0,1
1676239801.17877579,816728129,0,3,79819199,2249,15,1.25,42.687948999999996,-84.4915523,262.17,0.19555562734603882,55.41602325439453,0.03200000151991844,0.0,1
1676239801.35879397,816908147,0,3,79819399,2249,15,1.25,42.687948999999996,-84.4915518,262.24,0.19443508982658386,93.83367156982422,-0.3570000231266022,0.0,1
1676239801.57892680,817128280,0,3,79819599,2249,15,1.25,42.687948999999996,-84.4915511,262.28000000000003,0.3706008791923523,75.62628173828125,-0.09700000286102295,0.0,1
1676239801.77885985,817328213,0,3,79819799,2249,15,1.25,42.687948899999995,-84.4915503,262.27,0.36661970615386963,105.66632080078125,-0.06400000303983688,0.0,1
1676239801.97876787,817528121,0,3,79819999,2249,15,1.25,42.6879486,-84.4915494,262.35,0.4275628626346588,125.28842163085938,-0.3700000047683716,0.0,1
1676239802.15875793,817708111,0,3,79820199,2249,15,1.25,42.687948,-84.4915485,262.41,0.5439605116844177,128.95590209960938,-0.25699999928474426,0.0,1
1676239802.37910891,817928462,0,3,79820399,2249,15,1.25,42.6879474,-84.4915474,262.46,0.5146737098693848,121.25013732910156,-0.13600000739097595,0.0,1
1676239802.57896590,818128319,0,3,79820599,2249,15,1.25,42.6879469,-84.49154639999999,262.49,0.4604194164276123,118.40189361572266,-0.18200001120567322,0.0,1
1676239802.77915788,818328511,0,3,79820799,2249,15,1.25,42.687946499999995,-84.4915455,262.52,0.3712034523487091,127.11685943603516,0.030000001192092896,0.0,1
1676239802.97907376,818528427,0,3,79820999,2249,15,1.25,42.6879461,-84.491545,262.54,0.2117404192686081,150.892822265625,-0.13700000941753387,0.0,1
1676239803.17938781,818728741,0,3,79821199,2249,15,1.25,42.6879457,-84.4915449,262.55,0.1991506963968277,166.94068908691406,0.039000000804662704,0.0,1
1676239803.37920380,818928557,0,3,79821399,2249,15,1.25,42.687945299999996,-84.4915448,262.54,0.21298357844352722,187.82574462890625,0.06000000238418579,0.0,1
1676239803.55893493,819108288,0,3,79821599,2249,15,1.25,42.6879449,-84.491545,262.55,0.20756205916404724,219.134033203125,0.07500000298023224,0.0,1
1676239803.77875876,819328112,0,3,79821799,2249,15,1.25,42.6879446,-84.49154539999999,262.52,0.2675556242465973,239.69732666015625,0.1380000114440918,0.0,1
1676239803.97878790,819528141,0,3,79821999,2249,15,1.25,42.6879444,-84.4915461,262.48,0.26655206084251404,246.80142211914062,0.1290000081062317,0.0,1
1676239804.17908096,819728434,0,3,79822199,2249,15,1.25,42.6879442,-84.4915467,262.45,0.22361798584461212,244.00790405273438,0.07800000160932541,0.0,1
1676239804.37898088,819928334,0,3,79822399,2249,15,1.25,42.687943999999995,-84.49154709999999,262.45,0.17982493340969086,242.15243530273438,0.12000000476837158,0.0,1
1676239804.57878995,820128143,0,3,79822599,2249,15,1.25,42.6879438,-84.49154759999999,262.41,0.2042669951915741,248.45904541015625,0.01900000125169754,0.0,1
1676239804.77878594,820328139,0,3,79822799,2249,15,1.25,42.6879437,-84.491548,262.4,0.12809762358665466,272.23699951171875,0.1730000078678131,0.0,1
1676239804.97889590,820528249,0,3,79822999,2249,15,1.25,42.6879436,-84.49154829999999,262.4,0.13928388059139252,254.16763305664062,0.08100000023841858,0.0,1
1676239805.17921782,820728571,0,3,79823199,2249,15,1.25,42.6879436,-84.4915486,262.39,0.11562439054250717,264.0428771972656,0.012000000104308128,0.0,1
1676239805.37887979,820928233,0,3,79823399,2249,15,1.25,42.687943499999996,-84.49154879999999,262.38,0.0454532727599144,230.3558349609375,0.07200000435113907,0.0,1
1676239805.57876992,821128123,0,3,79823599,2249,15,1.25,42.687943499999996,-84.4915489,262.38,0.06403124332427979,284.4703063964844,-0.003000000026077032,0.0,1
1676239805.77904892,821328402,0,3,79823799,2249,15,1.25,42.687943399999995,-84.49154899999999,262.39,0.05916925147175789,210.46556091308594,-0.05400000140070915,0.0,1
1676239805.97889876,821528252,0,3,79823999,2249,15,1.25,42.6879433,-84.4915491,262.4,0.04123105853796005,219.09385681152344,-0.10700000822544098,0.0,1
1676239806.15925980,821708613,0,3,79824199,2249,15,1.25,42.6879432,-84.4915492,262.45,0.046529561281204224,208.2173614501953,-0.2800000011920929,0.0,1
1676239806.37878990,821928143,0,3,79824399,2249,15,1.25,42.6879432,-84.4915493,262.48,0.09794896841049194,319.9697570800781,-0.16300000250339508,0.0,1
1676239806.57910585,822128459,0,3,79824599,2249,15,1.25,42.687943399999995,-84.4915494,262.57,0.11135978251695633,333.8951416015625,-0.34800001978874207,0.0,1
1676239806.77891088,822328264,0,3,79824799,2249,15,1.25,42.687943499999996,-84.49154949999999,262.6,0.08036168664693832,16.630950927734375,-0.09000000357627869,0.0,1
1676239806.97898483,822528338,0,3,79824999,2249,15,1.25,42.6879437,-84.4915494,262.64,0.14757370948791504,5.053825855255127,-0.17500001192092896,0.0,1
1676239807.17885995,822728213,0,3,79825199,2249,15,1.25,42.6879439,-84.4915493,262.67,0.1272006332874298,53.31027603149414,-0.024000000208616257,0.0,1
1676239807.37905383,822928407,0,3,79825399,2249,15,1.25,42.687943999999995,-84.4915489,262.72,0.15667802095413208,75.96375274658203,-0.12400000542402267,0.0,1
1676239807.55877280,823108126,0,3,79825599,2249,15,1.25,42.687944099999996,-84.4915485,262.73,0.21315254271030426,72.24508666992188,-0.13900001347064972,0.0,1
1676239807.77881598,823328169,0,3,79825799,2249,15,1.25,42.687944099999996,-84.4915479,262.76,0.28246062994003296,100.19598388671875,-0.02200000174343586,0.0,1
1676239807.97924399,823528597,0,3,79825999,2249,15,1.25,42.687943999999995,-84.4915473,262.74,0.2533318102359772,109.36476135253906,-0.04500000178813934,0.0,1
1676239808.17921591,823728569,0,3,79826199,2249,15,1.25,42.6879439,-84.4915467,262.73,0.2780395746231079,98.47981262207031,0.04700000211596489,0.0,1
1676239808.37905598,823928409,0,3,79826399,2249,15,1.25,42.6879438,-84.491546,262.72,0.330122709274292,91.56221771240234,0.15400001406669617,0.0,1
1676239808.57910585,824128459,0,3,79826599,2249,15,1.25,42.6879438,-84.49154519999999,262.68,0.36304959654808044,89.05304718017578,0.11000000685453415,0.0,1
1676239808.77920294,824328556,0,3,79826799,2249,15,1.25,42.6879439,-84.4915443,262.66,0.3798855245113373,79.07459259033203,0.08700000494718552,0.0,1
1676239808.95937896,824508732,0,3,79826999,2249,15,1.25,42.6879439,-84.49154329999999,262.65,0.41647329926490784,85.17922973632812,0.125,0.0,1
1676239809.17907095,824728424,0,3,79827199,2249,15,1.25,42.687944099999996,-84.49154229999999,262.65,0.4550274908542633,77.94921112060547,0.05400000140070915,0.0,1
1676239809.35875797,824908111,0,3,79827399,2249,15,1.25,42.6879442,-84.4915412,262.67,0.40329891443252563,79.86034393310547,-0.006000000052154064,0.0,1
1676239809.57883787,825128191,0,3,79827599,2249,15,1.25,42.6879442,-84.4915402,262.69,0.4806506335735321,92.98146057128906,-0.12600000202655792,0.0,1
1676239809.77897477,825328328,0,3,79827799,2249,15,1.25,42.687944099999996,-84.4915391,262.71,0.45170125365257263,109.79887390136719,-0.07700000703334808,0.0,1
1676239809.97878695,825528140,0,3,79827999,2249,15,1.25,42.6879437,-84.49153799999999,262.75,0.5245969891548157,116.12545013427734,-0.03500000014901161,0.0,1
1676239810.17878985,825728143,0,3,79828199,2249,15,1.25,42.6879433,-84.4915369,262.76,0.5103038549423218,115.91226196289062,-0.19500000774860382,0.0,1
1676239810.35937476,825908728,0,3,79828399,2249,15,1.25,42.687942899999996,-84.4915358,262.79,0.5441553592681885,125.50094604492188,-0.05100000277161598,0.0,1
1676239810.57892489,826128278,0,3,79828599,2249,15,1.25,42.687942299999996,-84.4915345,262.81,0.6341679692268372,117.00949096679688,-0.02500000037252903,0.0,1
1676239810.77889991,826328253,0,3,79828799,2249,15,1.25,42.6879418,-84.4915331,262.83,0.6577841639518738,118.51312255859375,0.0690000057220459,0.0,1
1676239810.97875977,826528113,0,3,79828999,2249,15,1.25,42.6879412,-84.4915316,262.82,0.7634409070014954,117.2027587890625,-0.012000000104308128,0.0,1
1676239811.17905593,826728409,0,3,79829199,2249,15,1.25,42.687940499999996,-84.49152989999999,262.81,0.7920991778373718,119.41290283203125,0.10200000554323196,0.0,1
1676239811.37890983,826928263,0,3,79829399,2249,15,1.25,42.687939799999995,-84.4915283,262.8,0.7472141981124878,119.24078369140625,0.01900000125169754,0.0,1
1676239811.57898593,827128339,0,3,79829599,2249,15,1.25,42.687939199999995,-84.4915268,262.83,0.7040490508079529,114.23516082763672,-0.05700000375509262,0.0,1
1676239811.75897384,827308327,0,3,79829799,2249,15,1.25,42.687938599999995,-84.4915252,262.84000000000003,0.7406227588653564,121.86597442626953,0.007000000216066837,0.0,1
1676239811.97877598,827528129,0,3,79829999,2249,15,1.25,42.687937999999995,-84.4915237,262.84000000000003,0.6893860101699829,119.83765411376953,-0.02200000174343586,0.0,1
1676239812.17889690,827728250,0,3,79830199,2249,15,1.25,42.687937399999996,-84.49152219999999,262.85,0.6224443912506104,114.58869171142578,-0.04700000211596489,0.0,1
1676239812.37898588,827928339,0,3,79830399,2249,15,1.25,42.6879369,-84.49152099999999,262.88,0.5322865843772888,127.90330505371094,-0.2110000103712082,0.0,1
1676239812.57889199,828128245,0,3,79830599,2249,15,1.25,42.6879365,-84.4915199,262.89,0.49579131603240967,110.29904174804688,0.006000000052154064,0.0,1
1676239812.77906394,828328417,0,3,79830799,2249,15,1.25,42.687936199999996,-84.4915188,262.91,0.5037747621536255,103.42937469482422,0.014000000432133675,0.0,1
1676239812.95877481,828508128,0,3,79830999,2249,15,1.25,42.687936,-84.4915176,262.91,0.4535835385322571,109.71329498291016,-0.06599999964237213,0.0,1
1676239813.17890477,828728258,0,3,79831199,2249,15,1.25,42.6879358,-84.4915166,262.94,0.4077266454696655,101.17212677001953,0.04000000283122063,0.0,1
1676239813.37899089,828928344,0,3,79831399,2249,15,1.25,42.687935599999996,-84.4915154,262.92,0.5963799357414246,98.38824462890625,0.021000001579523087,0.0,1
1676239813.55899096,829108344,0,3,79831599,2249,15,1.25,42.6879354,-84.491514,262.96,0.5873414874076843,102.68751525878906,-0.018000001087784767,0.0,1
1676239813.77878094,829328134,0,3,79831799,2249,15,1.25,42.6879351,-84.4915128,262.95,0.4670385718345642,105.52410125732422,0.0820000022649765,0.0,1
1676239813.97910595,829528459,0,3,79831999,2249,15,1.25,42.687934899999995,-84.4915118,262.94,0.37350770831108093,104.25946807861328,0.012000000104308128,0.0,1
1676239814.17924285,829728596,0,3,79832199,2249,15,1.25,42.6879347,-84.491511,262.96,0.3109340965747833,103.76808166503906,0.04100000113248825,0.0,1
1676239814.35938478,829908738,0,3,79832399,2249,15,1.25,42.6879346,-84.4915104,262.95,0.2083386778831482,104.16963195800781,-0.05300000309944153,0.0,1
1676239814.57938981,830128743,0,3,79832599,2249,15,1.25,42.6879346,-84.4915099,262.97,0.16115210950374603,87.51044464111328,0.10400000214576721,0.0,1
1676239814.77875090,830328104,0,3,79832799,2249,15,1.25,42.6879346,-84.49150949999999,262.96,0.20206187665462494,91.41791534423828,-0.009000000543892384,0.0,1
1676239814.95876098,830508114,0,3,79832999,2249,15,1.25,42.6879346,-84.491509,262.96,0.1727425903081894,84.6854476928711,0.06599999964237213,0.0,1
1676239815.17897391,830728327,0,3,79833199,2249,15,1.25,42.6879346,-84.4915085,262.94,0.17824141681194305,96.76616668701172,0.22500000894069672,0.0,1
1676239815.35897493,830908328,0,3,79833399,2249,15,1.25,42.6879346,-84.49150809999999,262.91,0.1822800189256668,73.75236511230469,0.24900001287460327,0.0,1
1676239815.57878780,831128141,0,3,79833599,2249,15,1.25,42.6879347,-84.4915077,262.89,0.1368502974510193,63.06047058105469,0.07900000363588333,0.0,1
1676239815.75937390,831308727,0,3,79833799,2249,15,1.25,42.6879348,-84.4915075,262.88,0.08982761949300766,43.64680480957031,0.1510000079870224,0.0,1
1676239815.95928884,831508642,0,3,79833999,2249,15,1.25,42.687934999999996,-84.4915075,262.86,0.0917060598731041,341.5650634765625,0.11900000274181366,0.0,1
1676239816.15944695,831708800,0,3,79834199,2249,15,1.25,42.687934999999996,-84.49150759999999,262.86,0.10208330303430557,240.67282104492188,0.07400000095367432,0.0,1
1676239816.35886383,831908217,0,3,79834399,2249,15,1.25,42.687934899999995,-84.491508,262.86,0.19114916026592255,240.88717651367188,0.09800000488758087,0.0,1
1676239816.55877495,832108128,0,3,79834599,2249,15,1.25,42.6879347,-84.49150829999999,262.87,0.17348487675189972,221.96267700195312,0.03100000135600567,0.0,1
1676239816.77889180,832328245,0,3,79834799,2249,15,1.25,42.687934399999996,-84.4915087,262.89,0.23187066614627838,235.89874267578125,0.09300000220537186,0.0,1
1676239816.97897792,832528331,0,3,79834999,2249,15,1.25,42.6879342,-84.4915092,262.9,0.24602846801280975,235.59942626953125,0.049000002443790436,0.0,1
1676239817.15896082,832708314,0,3,79835199,2249,15,1.25,42.6879339,-84.4915098,262.89,0.2736494243144989,234.21893310546875,0.10300000756978989,0.0,1
1676239817.37877989,832928133,0,3,79835399,2249,15,1.25,42.687933699999995,-84.4915104,262.87,0.29637816548347473,248.62939453125,0.10900000482797623,0.0,1
1676239817.57890987,833128263,0,3,79835599,2249,15,1.25,42.6879334,-84.4915111,262.87,0.3379127085208893,241.15948486328125,0.052000001072883606,0.0,1
1676239817.77898788,833328341,0,3,79835799,2249,15,1.25,42.687933199999996,-84.491512,262.88,0.42280611395835876,251.95074462890625,0.0860000029206276,0.0,1
1676239817.97923589,833528589,0,3,79835999,2249,15,1.25,42.687933,-84.491513,262.89,0.4625246226787567,255.6032257080078,0.030000001192092896,0.0,1
1676239818.17875791,833728111,0,3,79836199,2249,15,1.25,42.6879328,-84.49151409999999,262.9,0.49032747745513916,262.3822021484375,-0.0990000069141388,0.0,1
1676239818.37903595,833928389,0,3,79836399,2249,15,1.25,42.6879328,-84.4915154,262.94,0.5342106819152832,268.3909912109375,0.03400000184774399,0.0,1
1676239818.57909298,834128446,0,3,79836599,2249,15,1.25,42.6879328,-84.4915166,262.94,0.5297943353652954,273.1378479003906,0.0020000000949949026,0.0,1
1676239818.77922988,834328583,0,3,79836799,2249,15,1.25,42.6879328,-84.49151789999999,262.95,0.556129515171051,271.2364196777344,0.06000000238418579,0.0,1
1676239818.97916698,834528520,0,3,79836999,2249,15,1.25,42.6879329,-84.4915192,262.93,0.5387811064720154,266.91455078125,0.03100000135600567,0.0,1
1676239819.17908692,834728440,0,3,79837199,2249,15,1.25,42.6879329,-84.4915204,262.95,0.5070247054100037,270.5650329589844,-0.020000001415610313,0.0,1
1676239819.37908292,834928436,0,3,79837399,2249,15,1.25,42.6879329,-84.4915216,262.98,0.4795049726963043,267.37030029296875,-0.05000000074505806,0.0,1
1676239819.57923388,835128587,0,3,79837599,2249,15,1.25,42.6879329,-84.49152269999999,263.0,0.41993454098701477,280.4268798828125,-0.09100000560283661,0.0,1
1676239819.75897694,835308330,0,3,79837799,2249,15,1.25,42.687933099999995,-84.4915235,263.02,0.32097509503364563,288.7171936035156,-0.04100000113248825,0.0,1
1676239819.97936392,835528717,0,3,79837999,2249,15,1.25,42.6879334,-84.4915242,263.05,0.36688554286956787,298.31134033203125,-0.02500000037252903,0.0,1
1676239820.17875481,835728108,0,3,79838199,2249,15,1.25,42.687933799999996,-84.491525,263.07,0.4174841642379761,304.75592041015625,0.020000001415610313,0.0,1
1676239820.37890387,835928257,0,3,79838399,2249,15,1.25,42.6879342,-84.49152579999999,263.11,0.45145323872566223,301.96502685546875,-0.02800000086426735,0.0,1
1676239820.57898998,836128343,0,3,79838599,2249,15,1.25,42.6879347,-84.4915267,263.13,0.5148640871047974,302.5480041503906,-0.05000000074505806,0.0,1
1676239820.77880192,836328155,0,3,79838799,2249,15,1.25,42.6879352,-84.49152769999999,263.16,0.4825567305088043,296.9898681640625,0.02500000037252903,0.0,1
1676239820.97878098,836528134,0,3,79838999,2249,15,1.25,42.687935499999995,-84.4915288,263.16,0.4704062342643738,291.05499267578125,-0.04000000283122063,0.0,1
1676239821.15935993,836708713,0,3,79839199,2249,15,1.25,42.6879359,-84.4915298,263.19,0.44828230142593384,290.0923156738281,-0.08300000429153442,0.0,1
1676239821.37892199,836928275,0,3,79839399,2249,15,1.25,42.687936,-84.49153059999999,263.2,0.307104229927063,271.49273681640625,0.049000002443790436,0.0,1
1676239821.57886982,837128223,0,3,79839599,2249,15,1.25,42.6879359,-84.4915314,263.2,0.3254427909851074,250.61856079101562,-0.04400000348687172,0.0,1
1676239821.77905178,837328405,0,3,79839799,2249,15,1.25,42.6879357,-84.49153199999999,263.25,0.3286365866661072,256.0906066894531,0.16700001060962677,0.0,1
1676239821.97876382,837528117,0,3,79839999,2249,15,1.25,42.687935599999996,-84.4915328,263.25,0.3521491289138794,260.18994140625,0.16600000858306885,0.0,1
1676239822.17889690,837728250,0,3,79840199,2249,15,1.25,42.687935499999995,-84.4915335,263.25,0.32100626826286316,252.4117431640625,0.04800000041723251,0.0,1
1676239822.37897778,837928331,0,3,79840399,2249,15,1.25,42.6879353,-84.49153419999999,263.25,0.2745906114578247,236.888671875,-0.07200000435113907,0.0,1
1676239822.55897093,838108324,0,3,79840599,2249,15,1.25,42.687934999999996,-84.4915346,263.25,0.2478729635477066,204.8074493408203,-0.0650000050663948,0.0,1
1676239822.77877378,838328127,0,3,79840799,2249,15,1.25,42.6879345,-84.4915347,263.28000000000003,0.3310544192790985,181.0384979248047,0.10900000482797623,0.0,1
1676239822.97909689,838528450,0,3,79840999,2249,15,1.25,42.687933799999996,-84.4915345,263.28000000000003,0.45350635051727295,162.28419494628906,0.03100000135600567,0.0,1
1676239823.17921185,838728565,0,3,79841199,2249,15,1.25,42.687933,-84.49153419999999,263.28000000000003,0.49502527713775635,172.68833923339844,0.1600000113248825,0.0,1
1676239823.37940288,838928756,0,3,79841399,2249,15,1.25,42.6879321,-84.4915339,263.27,0.5472202897071838,160.2405242919922,0.046000003814697266,0.0,1
1676239823.57877088,839128124,0,3,79841599,2249,15,1.25,42.6879312,-84.4915334,263.27,0.5394682884216309,157.66607666015625,0.07100000232458115,0.0,1
1676239823.77875996,839328113,0,3,79841799,2249,15,1.25,42.6879304,-84.4915331,263.25,0.4487638771533966,172.5740966796875,0.19600000977516174,0.0,1
1676239823.95877481,839508128,0,3,79841999,2249,15,1.25,42.6879296,-84.49153299999999,263.25,0.39404571056365967,180.87246704101562,0.030000001192092896,0.0,1
1676239824.17897177,839728325,0,3,79842199,2249,15,1.25,42.687928899999996,-84.49153299999999,263.25,0.46966904401779175,186.11117553710938,0.06100000441074371,0.0,1
1676239824.37896585,839928319,0,3,79842399,2249,15,1.25,42.687928,-84.49153319999999,263.26,0.5317866206169128,196.8334197998047,0.027000000700354576,0.0,1
1676239824.57879496,840128148,0,3,79842599,2249,15,1.25,42.687927099999996,-84.49153369999999,263.27,0.6133718490600586,203.84869384765625,0.0650000050663948,0.0,1
1676239824.77890396,840328257,0,3,79842799,2249,15,1.25,42.687926,-84.49153419999999,263.27,0.6557881236076355,200.81170654296875,-0.014000000432133675,0.0,1
1676239824.97898483,840528338,0,3,79842999,2249,15,1.25,42.687925,-84.4915347,263.25,0.5564243197441101,194.78550720214844,0.01600000075995922,0.0,1
1676239825.17925382,840728607,0,3,79843199,2249,15,1.25,42.6879241,-84.491535,263.26,0.506285548210144,198.18443298339844,0.0820000022649765,0.0,1
1676239825.37875986,840928113,0,3,79843399,2249,15,1.25,42.6879233,-84.4915353,263.27,0.4926104247570038,196.6324005126953,0.06200000271201134,0.0,1
1676239825.57875896,841128112,0,3,79843599,2249,15,1.25,42.6879225,-84.4915355,263.25,0.3996060788631439,183.15597534179688,0.005000000353902578,0.0,1
1676239825.77883577,841328189,0,3,79843799,2249,15,1.25,42.687922,-84.49153539999999,263.28000000000003,0.22823235392570496,165.53753662109375,0.1810000091791153,0.0,1
1676239825.97899079,841528344,0,3,79843999,2249,15,1.25,42.687921599999996,-84.4915353,263.27,0.15316006541252136,177.3804473876953,0.12800000607967377,0.0,1
1676239826.17878079,841728134,0,3,79844199,2249,15,1.25,42.687921499999995,-84.4915353,263.26,0.05900847911834717,179.0289764404297,0.0430000014603138,0.0,1
1676239826.37910080,841928454,0,3,79844399,2249,15,1.25,42.6879214,-84.4915352,263.27,0.020223749801516533,8.53076457977295,0.036000002175569534,0.0,1
1676239826.55879498,842108148,0,3,79844599,2249,15,1.25,42.687921599999996,-84.4915353,263.27,0.12944884598255157,339.1849365234375,0.11700000613927841,0.0,1
1676239826.77925086,842328604,0,3,79844799,2249,15,1.25,42.6879218,-84.49153539999999,263.28000000000003,0.1823321282863617,319.67138671875,0.10700000822544098,0.0,1
1676239826.97945881,842528812,0,3,79844999,2249,15,1.25,42.687922,-84.4915357,263.29,0.2306729406118393,312.89190673828125,0.03800000250339508,0.0,1
1676239827.17907000,842728423,0,3,79845199,2249,15,1.25,42.6879223,-84.491536,263.31,0.22271282970905304,326.167236328125,0.06100000441074371,0.0,1
1676239827.37875986,842928113,0,3,79845399,2249,15,1.25,42.6879227,-84.4915362,263.32,0.18621493875980377,335.91253662109375,-0.05700000375509262,0.0,1
1676239827.57883787,843128191,0,3,79845599,2249,15,1.25,42.6879229,-84.49153629999999,263.33,0.09899495542049408,351.8699035644531,-0.06700000166893005,0.0,1
1676239827.77897882,843328332,0,3,79845799,2249,15,1.25,42.6879232,-84.49153629999999,263.34000000000003,0.1673589050769806,350.36883544921875,-0.0020000000949949026,0.0,1
1676239827.95940399,843508757,0,3,79845999,2249,15,1.25,42.6879235,-84.49153629999999,263.36,0.13503333926200867,358.7269592285156,0.03400000184774399,0.0,1
1676239828.15940380,843708757,0,3,79846199,2249,15,1.25,42.6879237,-84.4915362,263.37,0.13434655964374542,10.724448204040527,0.11900000274181366,0.0,1
1676239828.37888598,843928239,0,3,79846399,2249,15,1.25,42.6879239,-84.49153629999999,263.34000000000003,0.033060550689697266,273.4682312011719,0.09200000762939453,0.0,1
1676239828.55929279,844108646,0,3,79846599,2249,15,1.25,42.6879239,-84.49153629999999,263.34000000000003,0.04295346513390541,335.224853515625,-0.04400000348687172,0.0,1
1676239828.77922297,844328576,0,3,79846799,2249,15,1.25,42.687923999999995,-84.49153629999999,263.35,0.03337663784623146,171.38433837890625,0.015000000596046448,0.0,1
1676239828.97876287,844528116,0,3,79846999,2249,15,1.25,42.6879239,-84.4915364,263.36,0.13364505767822266,224.6968536376953,0.039000000804662704,0.0,1
1676239829.15974879,844709102,0,3,79847199,2249,15,1.25,42.6879237,-84.49153659999999,263.37,0.18976037204265594,219.22567749023438,0.06200000271201134,0.0,1
1676239829.35875177,844908105,0,3,79847399,2249,15,1.25,42.687923399999995,-84.49153679999999,263.38,0.18693582713603973,206.70211791992188,0.10600000619888306,0.0,1
1676239829.57899594,845128349,0,3,79847599,2249,15,1.25,42.6879231,-84.4915369,263.37,0.2240825742483139,174.36572265625,-0.09800000488758087,0.0,1
1676239829.77879095,845328144,0,3,79847799,2249,15,1.25,42.6879226,-84.49153679999999,263.38,0.30828720331192017,166.6849822998047,0.1120000034570694,0.0,1
1676239829.95878291,845508136,0,3,79847999,2249,15,1.25,42.687922,-84.4915365,263.38,0.42695435881614685,160.71627807617188,0.04200000315904617,0.0,1
1676239830.15880489,845708158,0,3,79848199,2249,15,1.25,42.6879212,-84.491536,263.41,0.5043501257896423,156.63731384277344,0.1120000034570694,0.0,1
1676239830.37893081,845928284,0,3,79848399,2249,15,1.25,42.687920399999996,-84.49153559999999,263.41,0.446571409702301,166.92845153808594,0.14600001275539398,0.0,1
1676239830.57919788,846128551,0,3,79848599,2249,15,1.25,42.6879196,-84.49153539999999,263.43,0.4490712881088257,178.97923278808594,0.004000000189989805,0.0,1
1676239830.75887799,846308231,0,3,79848799,2249,15,1.25,42.6879188,-84.49153539999999,263.43,0.45735982060432434,187.9175262451172,0.11400000751018524,0.0,1
1676239830.97905397,846528407,0,3,79848999,2249,15,1.25,42.687917999999996,-84.49153559999999,263.47,0.4602130055427551,200.8766326904297,0.00800000037997961,0.0,1
1676239831.17934799,846728701,0,3,79849199,2249,15,1.25,42.6879172,-84.491536,263.49,0.505676805973053,199.04408264160156,-0.005000000353902578,0.0,1
1676239831.37924886,846928602,0,3,79849399,2249,15,1.25,42.6879164,-84.4915364,263.51,0.46390625834465027,198.47401428222656,-0.20400001108646393,0.0,1
1676239831.57879186,847128145,0,3,79849599,2249,15,1.25,42.6879157,-84.49153679999999,263.54,0.4346262812614441,210.10462951660156,-0.05000000074505806,0.0,1
1676239831.77878785,847328141,0,3,79849799,2249,15,1.25,42.6879151,-84.49153729999999,263.57,0.38339143991470337,209.7078094482422,-0.06599999964237213,0.0,1
1676239831.97890377,847528257,0,3,79849999,2249,15,1.25,42.6879145,-84.49153749999999,263.58,0.40240278840065,177.43621826171875,-0.06000000238418579,0.0,1
1676239832.17921877,847728572,0,3,79850199,2249,15,1.25,42.6879138,-84.49153749999999,263.63,0.28125789761543274,192.10899353027344,0.0020000000949949026,0.0,1
1676239832.37886691,847928220,0,3,79850399,2249,15,1.25,42.6879134,-84.4915376,263.65,0.2684250473976135,187.70748901367188,-0.08500000089406967,0.0,1
1676239832.57876992,848128123,0,3,79850599,2249,15,1.25,42.6879129,-84.4915377,263.67,0.279951810836792,186.76962280273438,-0.09100000560283661,0.0,1
1676239832.77877092,848328124,0,3,79850799,2249,15,1.25,42.687912399999995,-84.4915378,263.71,0.3370282053947449,189.9095001220703,-0.11900000274181366,0.0,1
1676239832.97889400,848528247,0,3,79850999,2249,15,1.25,42.687911899999996,-84.4915378,263.75,0.2720000147819519,180.0,-0.1290000081062317,0.0,1
1676239833.17897797,848728331,0,3,79851199,2249,15,1.25,42.6879115,-84.4915379,263.79,0.19600257277488708,192.97271728515625,-0.07500000298023224,0.0,1
1676239833.37879086,848928144,0,3,79851399,2249,15,1.25,42.687911199999995,-84.49153799999999,263.84000000000003,0.21768096089363098,187.12503051757812,-0.039000000804662704,0.0,1
1676239833.57878995,849128143,0,3,79851599,2249,15,1.25,42.6879109,-84.4915382,263.84000000000003,0.2233293652534485,199.89544677734375,-0.17900000512599945,0.0,1
1676239833.77890992,849328263,0,3,79851799,2249,15,1.25,42.6879105,-84.4915384,263.89,0.24917666614055634,208.00485229492188,-0.2550000250339508,0.0,1
1676239833.97901297,849528366,0,3,79851999,2249,15,1.25,42.6879102,-84.4915388,263.93,0.24972987174987793,223.2151641845703,-0.17000000178813934,0.0,1
1676239834.17923999,849728593,0,3,79852199,2249,15,1.25,42.687909999999995,-84.4915391,263.98,0.19051510095596313,206.8340606689453,-0.15900000929832458,0.0,1
1676239834.37874794,849928101,0,3,79852399,2249,15,1.25,42.6879098,-84.4915395,264.01,0.2921386659145355,249.1455535888672,-0.05100000277161598,0.0,1
1676239834.57875299,850128106,0,3,79852599,2249,15,1.25,42.6879096,-84.4915403,264.04,0.3298484683036804,255.96377563476562,-0.05700000375509262,0.0,1
1676239834.75874996,850308103,0,3,79852799,2249,15,1.25,42.6879096,-84.491541,264.03000000000003,0.30069586634635925,261.007568359375,-0.03400000184774399,0.0,1
1676239834.97896194,850528315,0,3,79852999,2249,15,1.25,42.6879096,-84.4915417,264.04,0.2473701685667038,263.96673583984375,-0.015000000596046448,0.0,1
1676239835.17916393,850728517,0,3,79853199,2249,15,1.25,42.6879097,-84.49154229999999,264.03000000000003,0.1940927654504776,268.2285461425781,-0.03800000250339508,0.0,1
1676239835.37908578,850928439,0,3,79853399,2249,15,1.25,42.6879096,-84.49154279999999,264.03000000000003,0.20359273254871368,245.32315063476562,0.03400000184774399,0.0,1
1676239835.57941389,851128767,0,3,79853599,2249,15,1.25,42.687909399999995,-84.4915432,264.03000000000003,0.2698981463909149,212.74798583984375,0.1290000081062317,0.0,1
1676239835.77946591,851328819,0,3,79853799,2249,15,1.25,42.687908799999995,-84.49154349999999,264.01,0.4506717324256897,186.24192810058594,0.13199999928474426,0.0,1
1676239835.97886491,851528218,0,3,79853999,2249,15,1.25,42.687908,-84.4915437,263.99,0.5510944128036499,184.99676513671875,0.11400000751018524,0.0,1
1676239836.15941286,851708766,0,3,79854199,2249,15,1.25,42.6879069,-84.4915437,263.96,0.7145362496376038,174.29737854003906,0.16300000250339508,0.0,1
1676239836.37900782,851928361,0,3,79854399,2249,15,1.25,42.6879056,-84.4915437,263.93,0.7810057997703552,180.22010803222656,0.08700000494718552,0.0,1
1676239836.57889485,852128248,0,3,79854599,2249,15,1.25,42.6879041,-84.4915436,263.93,0.9158307909965515,177.55935668945312,0.15900000929832458,0.0,1
1676239836.77896595,852328319,0,3,79854799,2249,15,1.25,42.6879023,-84.4915434,263.94,1.0974265336990356,174.29978942871094,0.01600000075995922,0.0,1
1676239836.97880077,852528154,0,3,79854999,2249,15,1.25,42.6879004,-84.4915432,263.98,0.9908487200737,177.62847900390625,0.06000000238418579,0.0,1
1676239837.17878485,852728138,0,3,79855199,2249,15,1.25,42.6878987,-84.4915431,263.96,0.9082698225975037,175.13682556152344,-0.024000000208616257,0.0,1
1676239837.37889481,852928248,0,3,79855399,2249,15,1.25,42.687897199999995,-84.4915429,263.99,0.7869434952735901,175.04286193847656,-0.005000000353902578,0.0,1
1676239837.55891776,853108271,0,3,79855599,2249,15,1.25,42.6878959,-84.4915427,264.01,0.7748509645462036,169.96630859375,-0.0020000000949949026,0.0,1
1676239837.77887583,853328229,0,3,79855799,2249,15,1.25,42.6878946,-84.4915424,264.0,0.7252758741378784,176.60105895996094,0.11300000548362732,0.0,1
1676239837.97905684,853528410,0,3,79855999,2249,15,1.25,42.6878933,-84.49154229999999,263.99,0.6916950345039368,177.43128967285156,0.009000000543892384,0.0,1
1676239838.17876077,853728114,0,3,79856199,2249,15,1.25,42.6878922,-84.4915424,264.0,0.5953696370124817,186.94598388671875,-0.009000000543892384,0.0,1
1676239838.37890792,853928261,0,3,79856399,2249,15,1.25,42.6878913,-84.4915426,264.0,0.5387699007987976,191.9982147216797,-0.003000000026077032,0.0,1
1676239838.57896781,854128321,0,3,79856599,2249,15,1.25,42.687890499999995,-84.4915429,264.0,0.42863157391548157,196.955322265625,-0.005000000353902578,0.0,1
1676239838.77878189,854328135,0,3,79856799,2249,15,1.25,42.687889899999995,-84.4915432,264.01,0.2836706042289734,197.860107421875,-0.02200000174343586,0.0,1
1676239838.95879292,854508146,0,3,79856999,2249,15,1.25,42.6878896,-84.4915434,264.02,0.08188406378030777,278.4269714355469,-0.0020000000949949026,0.0,1
1676239839.17920399,854728557,0,3,79857199,2249,15,1.25,42.687889899999995,-84.49154349999999,264.03000000000003,0.24091701209545135,354.9993591308594,-0.049000002443790436,0.0,1
1676239839.35889578,854908249,0,3,79857399,2249,15,1.25,42.687890599999996,-84.4915436,264.06,0.5134832262992859,355.6440734863281,0.036000002175569534,0.0,1
1676239839.57918882,855128542,0,3,79857599,2249,15,1.25,42.6878917,-84.4915437,264.06,0.6819509267807007,3.0260348320007324,0.06599999964237213,0.0,1
1676239839.77937889,855328732,0,3,79857799,2249,15,1.25,42.6878932,-84.4915437,264.08,0.9333906173706055,358.3423767089844,0.039000000804662704,0.0,1
1676239839.97905684,855528410,0,3,79857999,2249,15,1.25,42.6878952,-84.4915436,264.08,1.1674118041992188,3.683486223220825,0.02800000086426735,0.0,1
1676239840.15875578,855708109,0,3,79858199,2249,15,1.25,42.6878975,-84.4915434,264.07,1.3074039220809937,6.499897003173828,0.17500001192092896,0.0,1
1676239840.37897992,855928333,0,3,79858399,2249,15,1.25,42.6878999,-84.4915431,264.05,1.3241790533065796,5.069072246551514,0.010000000707805157,0.0,1
1676239840.57878900,856128142,0,3,79858599,2249,15,1.25,42.687902199999996,-84.4915429,264.06,1.2413097620010376,5.779485702514648,0.030000001192092896,0.0,1
1676239840.77909684,856328450,0,3,79858799,2249,15,1.25,42.6879044,-84.4915427,264.07,1.156021237373352,359.6530456542969,-0.055000003427267075,0.0,1
1676239840.97889400,856528247,0,3,79858999,2249,15,1.25,42.687906399999996,-84.4915429,264.07,1.0417183637619019,353.9938659667969,-0.02500000037252903,0.0,1
1676239841.17898297,856728336,0,3,79859199,2249,15,1.25,42.687908199999995,-84.49154329999999,264.09000000000003,0.9174584746360779,349.1309814453125,-0.06300000101327896,0.0,1
1676239841.37887478,856928228,0,3,79859399,2249,15,1.25,42.6879097,-84.4915436,264.11,0.7267916202545166,355.9761657714844,-0.004000000189989805,0.0,1
1676239841.55940294,857108756,0,3,79859599,2249,15,1.25,42.6879111,-84.4915437,264.1,0.7132272124290466,358.5538635253906,0.12800000607967377,0.0,1
1676239841.77911091,857328464,0,3,79859799,2249,15,1.25,42.6879123,-84.4915437,264.09000000000003,0.6578274965286255,4.271782398223877,0.012000000104308128,0.0,1
1676239841.97889781,857528251,0,3,79859999,2249,15,1.25,42.6879135,-84.4915436,264.11,0.6649752259254456,3.1033592224121094,0.04700000211596489,0.0,1
1676239842.17898893,857728342,0,3,79860199,2249,15,1.25,42.6879147,-84.4915436,264.13,0.6613993048667908,3.7276382446289062,0.03700000047683716,0.0,1
1676239842.37877083,857928124,0,3,79860399,2249,15,1.25,42.6879158,-84.4915436,264.14,0.5940008759498596,359.9035339355469,0.00800000037997961,0.0,1
1676239842.57877994,858128133,0,3,79860599,2249,15,1.25,42.687917,-84.4915437,264.15,0.6632074117660522,356.542236328125,0.06200000271201134,0.0,1
1676239842.77890992,858328263,0,3,79860799,2249,15,1.25,42.6879182,-84.4915437,264.14,0.6786995530128479,4.055542945861816,0.06200000271201134,0.0,1
1676239842.97929382,858528647,0,3,79860999,2249,15,1.25,42.6879194,-84.4915436,264.15,0.6230096817016602,4.6032562255859375,-0.07800000160932541,0.0,1
1676239843.17925882,858728612,0,3,79861199,2249,15,1.25,42.6879205,-84.49154349999999,264.17,0.5084928870201111,9.165933609008789,0.06400000303983688,0.0,1
1676239843.37905598,858928409,0,3,79861399,2249,15,1.25,42.6879213,-84.49154329999999,264.19,0.42582276463508606,15.668159484863281,0.01100000087171793,0.0,1
1676239843.57905579,859128409,0,3,79861599,2249,15,1.25,42.6879221,-84.4915431,264.2,0.3785049617290497,11.428679466247559,0.049000002443790436,0.0,1
1676239843.77909184,859328445,0,3,79861799,2249,15,1.25,42.6879226,-84.491543,264.21,0.2518829107284546,8.676985740661621,0.052000001072883606,0.0,1
1676239843.97925591,859528609,0,3,79861999,2249,15,1.25,42.6879231,-84.4915429,264.23,0.19549424946308136,16.951892852783203,0.007000000216066837,0.0,1
1676239844.17917585,859728529,0,3,79862199,2249,15,1.25,42.687923399999995,-84.4915427,264.23,0.16147136688232422,35.16643524169922,-0.09100000560283661,0.0,1
1676239844.35877776,859908131,0,3,79862399,2249,15,1.25,42.6879237,-84.4915426,264.25,0.134238600730896,24.65589714050293,-0.04400000348687172,0.0,1
1676239844.57910776,860128461,0,3,79862599,2249,15,1.25,42.6879239,-84.4915425,264.24,0.07655716687440872,23.886499404907227,0.003000000026077032,0.0,1
1676239844.77945495,860328808,0,3,79862799,2249,15,1.25,42.687923999999995,-84.4915425,264.25,0.031144825741648674,132.39743041992188,0.03700000047683716,0.0,1
1676239844.97888088,860528234,0,3,79862999,2249,15,1.25,42.6879239,-84.4915425,264.26,0.06493843346834183,189.75244140625,-0.030000001192092896,0.0,1
1676239845.17876887,860728122,0,3,79863199,2249,15,1.25,42.6879238,-84.4915426,264.28000000000003,0.13206058740615845,181.7357177734375,0.09400000423192978,0.0,1
1676239845.37876678,860928120,0,3,79863399,2249,15,1.25,42.6879235,-84.4915427,264.27,0.19195052981376648,198.52935791015625,0.06700000166893005,0.0,1
1676239845.57909989,861128453,0,3,79863599,2249,15,1.25,42.6879233,-84.4915429,264.28000000000003,0.17646530270576477,234.6887969970703,0.023000001907348633,0.0,1
1676239845.77898884,861328342,0,3,79863799,2249,15,1.25,42.6879231,-84.49154329999999,264.29,0.2528735101222992,228.36647033691406,0.09800000488758087,0.0,1
1676239845.97889090,861528244,0,3,79863999,2249,15,1.25,42.6879229,-84.4915439,264.29,0.26044002175331116,253.72219848632812,0.09300000220537186,0.0,1
1676239846.17878485,861728138,0,3,79864199,2249,15,1.25,42.687922799999996,-84.4915444,264.3,0.24360625445842743,240.48851013183594,0.027000000700354576,0.0,1
1676239846.37890077,861928254,0,3,79864399,2249,15,1.25,42.6879225,-84.4915449,264.29,0.24659481644630432,214.59228515625,0.02500000037252903,0.0,1
1676239846.56002688,862109380,0,3,79864599,2249,15,1.25,42.687922199999996,-84.4915453,264.32,0.25689882040023804,227.3662567138672,0.015000000596046448,0.0,1
1676239846.77886987,862328223,0,3,79864799,2249,15,1.25,42.6879219,-84.4915458,264.3,0.2992824912071228,214.38034057617188,-0.06400000303983688,0.0,1
1676239846.96001697,862509370,0,3,79864999,2249,15,1.25,42.687921499999995,-84.4915462,264.33,0.2794315814971924,217.73110961914062,-0.01100000087171793,0.0,1
1676239847.16044092,862709794,0,3,79865199,2249,15,1.25,42.6879211,-84.49154659999999,264.33,0.24242526292800903,220.98582458496094,0.07500000298023224,0.0,1
1676239847.37911081,862928464,0,3,79865399,2249,15,1.25,42.6879208,-84.491547,264.34000000000003,0.25083261728286743,230.66238403320312,-0.01900000125169754,0.0,1
1676239847.57898283,863128336,0,3,79865599,2249,15,1.25,42.6879206,-84.4915474,264.33,0.18531055748462677,235.1092987060547,0.07400000095367432,0.0,1
1676239847.77877998,863328133,0,3,79865799,2249,15,1.25,42.687920399999996,-84.4915477,264.33,0.17536818981170654,224.5379638671875,-0.04400000348687172,0.0,1
1676239847.95878386,863508137,0,3,79865999,2249,15,1.25,42.6879202,-84.4915479,264.32,0.13865424692630768,205.64100646972656,0.04800000041723251,0.0,1
1676239848.15878677,863708140,0,3,79866199,2249,15,1.25,42.6879201,-84.491548,264.31,0.09087353944778442,204.02651977539062,0.08900000154972076,0.0,1
1676239848.35891080,863908264,0,3,79866399,2249,15,1.25,42.6879199,-84.4915481,264.3,0.0972522497177124,184.12759399414062,0.10900000482797623,0.0,1
1676239848.55943990,864108793,0,3,79866599,2249,15,1.25,42.687919699999995,-84.4915481,264.31,0.10510947555303574,158.80593872070312,0.015000000596046448,0.0,1
1676239848.75885797,864308211,0,3,79866799,2249,15,1.25,42.6879196,-84.4915481,264.35,0.06746850907802582,191.97613525390625,0.08400000631809235,0.0,1
1676239848.95877790,864508131,0,3,79866999,2249,15,1.25,42.6879195,-84.4915481,264.35,0.10031948983669281,175.4260711669922,-0.04700000211596489,0.0,1
1676239849.15876484,864708118,0,3,79867199,2249,15,1.25,42.6879193,-84.4915481,264.37,0.0995037779211998,174.2321014404297,0.08700000494718552,0.0,1
1676239849.35927296,864908626,0,3,79867399,2249,15,1.25,42.687919099999995,-84.4915482,264.39,0.12747548520565033,205.5599822998047,0.026000000536441803,0.0,1
1676239849.55895996,865108313,0,3,79867599,2249,15,1.25,42.6879189,-84.49154829999999,264.4,0.13098092377185822,187.01651000976562,-0.01900000125169754,0.0,1
1676239849.75878882,865308142,0,3,79867799,2249,15,1.25,42.6879187,-84.4915484,264.43,0.12665702402591705,218.5891571044922,0.1510000079870224,0.0,1
1676239849.97910285,865528456,0,3,79867999,2249,15,1.25,42.687918499999995,-84.4915485,264.42,0.15831615030765533,206.24136352539062,0.010000000707805157,0.0,1
1676239850.17925882,865728612,0,3,79868199,2249,15,1.25,42.6879182,-84.4915487,264.43,0.19894975423812866,197.25096130371094,-0.05300000309944153,0.0,1
1676239850.35892081,865908274,0,3,79868399,2249,15,1.25,42.687917899999995,-84.4915489,264.44,0.16763055324554443,215.7760772705078,-0.04000000283122063,0.0,1
1676239850.55939889,866108752,0,3,79868599,2249,15,1.25,42.6879177,-84.49154899999999,264.45,0.18900266289710999,179.69683837890625,-0.014000000432133675,0.0,1
1676239850.75875998,866308113,0,3,79868799,2249,15,1.25,42.687917399999996,-84.4915489,264.46,0.17014405131340027,177.64208984375,-0.007000000216066837,0.0,1
1676239850.95876598,866508119,0,3,79868999,2249,15,1.25,42.6879171,-84.4915489,264.47,0.1650484800338745,181.38873291015625,0.10000000149011612,0.0,1
1676239851.15890479,866708258,0,3,79869199,2249,15,1.25,42.687916799999996,-84.4915489,264.47,0.2202271670103073,177.39743041992188,0.05900000408291817,0.0,1
1676239851.35897088,866908324,0,3,79869399,2249,15,1.25,42.6879164,-84.4915489,264.48,0.2440020740032196,179.76516723632812,-0.01600000075995922,0.0,1
1676239851.55880094,867108154,0,3,79869599,2249,15,1.25,42.6879159,-84.49154879999999,264.51,0.2700166702270508,179.36338806152344,0.07100000232458115,0.0,1
1676239851.75991082,867309264,0,3,79869799,2249,15,1.25,42.6879154,-84.4915487,264.53000000000003,0.2691635191440582,174.670654296875,0.021000001579523087,0.0,1
1676239851.96003795,867509391,0,3,79869999,2249,15,1.25,42.687915,-84.4915487,264.54,0.261047899723053,178.9025115966797,0.0860000029206276,0.0,1
1676239852.17887878,867728232,0,3,79870199,2249,15,1.25,42.6879145,-84.4915486,264.55,0.36498355865478516,174.0238494873047,-0.02200000174343586,0.0,1
1676239852.35938787,867908741,0,3,79870399,2249,15,1.25,42.6879138,-84.4915485,264.56,0.4188961982727051,172.17938232421875,-0.02500000037252903,0.0,1
1676239852.57877588,868128129,0,3,79870599,2249,15,1.25,42.6879132,-84.4915482,264.59000000000003,0.3960808217525482,159.9180145263672,0.0010000000474974513,0.0,1
1676239852.75875187,868308105,0,3,79870799,2249,15,1.25,42.687912499999996,-84.49154779999999,264.65,0.3115204870700836,162.4375,-0.01100000087171793,0.0,1
1676239852.97896385,868528317,0,3,79870999,2249,15,1.25,42.687911899999996,-84.49154759999999,264.63,0.4829120337963104,159.38839721679688,-0.030000001192092896,0.0,1
1676239853.17879677,868728150,0,3,79871199,2249,15,1.25,42.687911199999995,-84.4915473,264.63,0.4334166646003723,168.6900634765625,0.07400000095367432,0.0,1
1676239853.37879395,868928147,0,3,79871399,2249,15,1.25,42.687910599999995,-84.49154709999999,264.65,0.28351014852523804,183.43768310546875,0.11700000613927841,0.0,1
1676239853.55879283,869108146,0,3,79871599,2249,15,1.25,42.687910099999996,-84.49154709999999,264.65,0.3347238004207611,183.76853942871094,0.05400000140070915,0.0,1
1676239853.75889683,869308250,0,3,79871799,2249,15,1.25,42.687909499999996,-84.4915472,264.64,0.3387226164340973,197.52557373046875,0.04000000283122063,0.0,1
1676239853.97887278,869528226,0,3,79871999,2249,15,1.25,42.6879089,-84.4915474,264.66,0.37403878569602966,185.98495483398438,0.06700000166893005,0.0,1
1676239854.15939188,869708745,0,3,79872199,2249,15,1.25,42.6879083,-84.4915474,264.66,0.33634060621261597,174.88267517089844,-0.012000000104308128,0.0,1
1676239854.37876177,869928115,0,3,79872399,2249,15,1.25,42.6879077,-84.4915473,264.69,0.3530580997467041,167.73521423339844,0.021000001579523087,0.0,1
1676239854.55877399,870108127,0,3,79872599,2249,15,1.25,42.6879072,-84.49154709999999,264.7,0.31784430146217346,162.42013549804688,-0.08400000631809235,0.0,1
1676239854.75888395,870308237,0,3,79872799,2249,15,1.25,42.6879067,-84.4915468,264.71,0.2867751717567444,157.0112762451172,0.0690000057220459,0.0,1
1676239854.95897889,870508332,0,3,79872999,2249,15,1.25,42.687906299999995,-84.49154639999999,264.7,0.31484124064445496,133.06939697265625,0.04500000178813934,0.0,1
1676239855.17910576,870728459,0,3,79873199,2249,15,1.25,42.687906,-84.49154589999999,264.71,0.2748818099498749,138.53956604003906,-0.04100000113248825,0.0,1
1676239855.37909579,870928449,0,3,79873399,2249,15,1.25,42.687905699999995,-84.49154539999999,264.72,0.27596014738082886,128.82192993164062,-0.013000000268220901,0.0,1
1676239855.57922292,871128576,0,3,79873599,2249,15,1.25,42.6879053,-84.4915448,264.73,0.3443080186843872,131.4676971435547,0.08300000429153442,0.0,1
1676239855.77887988,871328233,0,3,79873799,2249,15,1.25,42.6879049,-84.49154419999999,264.71,0.3795207440853119,140.77432250976562,0.07500000298023224,0.0,1
1676239855.95887184,871508225,0,3,79873999,2249,15,1.25,42.6879043,-84.4915436,264.71,0.434609055519104,146.16368103027344,0.04200000315904617,0.0,1
1676239856.15936899,871708722,0,3,79874199,2249,15,1.25,42.6879038,-84.4915431,264.74,0.3200624883174896,146.21063232421875,0.0,0.0,1
1676239856.35876584,871908119,0,3,79874399,2249,15,1.25,42.687903399999996,-84.4915427,264.73,0.30387169122695923,144.37464904785156,-0.009000000543892384,0.0,1
1676239856.55997181,872109325,0,3,79874599,2249,15,1.25,42.687903,-84.49154229999999,264.75,0.26354697346687317,145.04359436035156,-0.023000001907348633,0.0,1
1676239856.77879286,872328146,0,3,79874799,2249,15,1.25,42.6879026,-84.491542,264.76,0.27166157960891724,149.4702911376953,0.06400000303983688,0.0,1
1676239856.97879195,872528145,0,3,79874999,2249,15,1.25,42.687902199999996,-84.49154159999999,264.76,0.334248423576355,147.21327209472656,0.024000000208616257,0.0,1
1676239857.17888784,872728241,0,3,79875199,2249,15,1.25,42.6879017,-84.4915412,264.76,0.3421841561794281,152.3116455078125,0.08700000494718552,0.0,1
1676239857.37892699,872928280,0,3,79875399,2249,15,1.25,42.6879012,-84.491541,264.76,0.27630600333213806,182.6967315673828,0.017000000923871994,0.0,1
1676239857.57924485,873128598,0,3,79875599,2249,15,1.25,42.6879007,-84.49154109999999,264.78000000000003,0.27400001883506775,180.0,-0.032999999821186066,0.0,1
1676239857.75889683,873308250,0,3,79875799,2249,15,1.25,42.687900299999995,-84.491541,264.78000000000003,0.23960384726524353,184.06858825683594,0.032999999821186066,0.0,1
1676239857.95936584,873508719,0,3,79875999,2249,15,1.25,42.6878999,-84.49154109999999,264.79,0.2283703237771988,183.2633514404297,0.03100000135600567,0.0,1
1676239858.15877795,873708131,0,3,79876199,2249,15,1.25,42.6878995,-84.49154109999999,264.79,0.27531254291534424,194.94482421875,-0.09600000083446503,0.0,1
1676239858.35884595,873908199,0,3,79876399,2249,15,1.25,42.687899,-84.4915413,264.81,0.2471962869167328,192.85565185546875,-0.036000002175569534,0.0,1
1676239858.55898380,874108337,0,3,79876599,2249,15,1.25,42.6878986,-84.4915414,264.82,0.31593039631843567,195.7959442138672,0.0,0.0,1
1676239858.75877190,874308125,0,3,79876799,2249,15,1.25,42.6878981,-84.49154159999999,264.83,0.29231834411621094,192.84771728515625,0.06100000441074371,0.0,1
1676239858.95879698,874508150,0,3,79876999,2249,15,1.25,42.6878977,-84.4915417,264.84000000000003,0.2568676769733429,193.2788543701172,0.005000000353902578,0.0,1
1676239859.15888381,874708237,0,3,79877199,2249,15,1.25,42.687897199999995,-84.4915418,264.84000000000003,0.3017615079879761,193.02308654785156,-0.03200000151991844,0.0,1
1676239859.35892892,874908282,0,3,79877399,2249,15,1.25,42.687896699999996,-84.4915419,264.85,0.28634247183799744,182.80245971679688,0.08000000566244125,0.0,1
1676239859.55940485,875108758,0,3,79877599,2249,15,1.25,42.6878963,-84.4915419,264.86,0.2636152505874634,176.084716796875,-0.0010000000474974513,0.0,1
1676239859.77900195,875328355,0,3,79877799,2249,15,1.25,42.6878959,-84.4915418,264.87,0.21916434168815613,160.8209686279297,-0.09800000488758087,0.0,1
1676239859.95876193,875508115,0,3,79877999,2249,15,1.25,42.687895499999996,-84.4915417,264.88,0.25776928663253784,162.61944580078125,-0.014000000432133675,0.0,1
1676239860.15889978,875708253,0,3,79878199,2249,15,1.25,42.6878951,-84.4915415,264.88,0.1591540277004242,177.47915649414062,0.039000000804662704,0.0,1
1676239860.35897779,875908331,0,3,79878399,2249,15,1.25,42.687894799999995,-84.4915415,264.88,0.1996997892856598,172.51910400390625,-0.07100000232458115,0.0,1
1676239860.55878377,876108137,0,3,79878599,2249,15,1.25,42.6878944,-84.4915415,264.88,0.2711844742298126,182.11329650878906,0.0560000017285347,0.0,1
1676239860.75990891,876309262,0,3,79878799,2249,15,1.25,42.6878938,-84.49154159999999,264.88,0.3786093294620514,193.59580993652344,0.08700000494718552,0.0,1
1676239860.95997477,876509328,0,3,79878999,2249,15,1.25,42.6878931,-84.4915418,264.87,0.43729284405708313,194.1633758544922,-0.014000000432133675,0.0,1
1676239861.17887783,876728231,0,3,79879199,2249,15,1.25,42.6878923,-84.49154209999999,264.88,0.5311591625213623,192.28311157226562,-0.03200000151991844,0.0,1
1676239861.37876582,876928119,0,3,79879399,2249,15,1.25,42.687891199999996,-84.49154229999999,264.89,0.6729710698127747,186.2273712158203,0.055000003427267075,0.0,1
1676239861.55875492,877108108,0,3,79879599,2249,15,1.25,42.687889899999995,-84.4915426,264.89,0.7874268293380737,191.72378540039062,0.05700000375509262,0.0,1
1676239861.77909184,877328445,0,3,79879799,2249,15,1.25,42.6878884,-84.4915429,264.88,0.9516139626502991,186.75909423828125,0.049000002443790436,0.0,1
1676239861.95891190,877508265,0,3,79879999,2249,15,1.25,42.6878865,-84.4915431,264.88,1.0549602508544922,182.44473266601562,0.01100000087171793,0.0,1
1676239862.17878699,877728140,0,3,79880199,2249,15,1.25,42.6878846,-84.4915432,264.88,1.0971094369888306,183.5535430908203,0.09400000423192978,0.0,1
1676239862.37877297,877928126,0,3,79880399,2249,15,1.25,42.687882699999996,-84.4915434,264.87,1.022330641746521,185.275634765625,0.036000002175569534,0.0,1
1676239862.57888699,878128240,0,3,79880599,2249,15,1.25,42.687880899999996,-84.49154349999999,264.87,1.0063105821609497,181.42356872558594,0.05700000375509262,0.0,1
1676239862.77892494,878328278,0,3,79880799,2249,15,1.25,42.687879099999996,-84.4915436,264.87,0.9559231400489807,182.51820373535156,0.09200000762939453,0.0,1
1676239862.97928476,878528638,0,3,79880999,2249,15,1.25,42.6878775,-84.4915437,264.85,0.82273268699646,184.67111206054688,0.0430000014603138,0.0,1
1676239863.17905879,878728412,0,3,79881199,2249,15,1.25,42.687875999999996,-84.4915438,264.86,0.8140006065368652,179.92959594726562,-0.007000000216066837,0.0,1
1676239863.35931993,878908673,0,3,79881399,2249,15,1.25,42.687874699999995,-84.4915438,264.84000000000003,0.6460773944854736,179.11312866210938,0.07400000095367432,0.0,1
1676239863.57932591,879128679,0,3,79881599,2249,15,1.25,42.687873599999996,-84.4915437,264.84000000000003,0.6202329993247986,181.5706329345703,0.026000000536441803,0.0,1
1676239863.77898479,879328338,0,3,79881799,2249,15,1.25,42.6878725,-84.4915437,264.83,0.49510103464126587,181.15733337402344,0.15200001001358032,0.0,1
1676239863.97878599,879528139,0,3,79881999,2249,15,1.25,42.687871699999995,-84.4915438,264.81,0.42154479026794434,194.56370544433594,-0.0560000017285347,0.0,1
1676239864.17879796,879728151,0,3,79882199,2249,15,1.25,42.687871099999995,-84.4915441,264.82,0.3537513315677643,203.66648864746094,-0.024000000208616257,0.0,1
1676239864.37890577,879928259,0,3,79882399,2249,15,1.25,42.6878706,-84.4915444,264.82,0.21220745146274567,203.9076690673828,0.049000002443790436,0.0,1
1676239864.57924891,880128602,0,3,79882599,2249,15,1.25,42.6878703,-84.49154449999999,264.81,0.15576906502246857,195.6422576904297,0.08900000154972076,0.0,1
1676239864.76013994,880309493,0,3,79882799,2249,15,1.25,42.6878701,-84.49154449999999,264.8,0.1022154688835144,149.42076110839844,0.009000000543892384,0.0,1
1676239864.97876978,880528123,0,3,79882999,2249,15,1.25,42.68787,-84.4915443,264.81,0.06312685459852219,86.36705017089844,0.09700000286102295,0.0,1
1676239865.17876887,880728122,0,3,79883199,2249,15,1.25,42.68787,-84.4915441,264.81,0.07343705743551254,353.7459716796875,0.14300000667572021,0.0,1
1676239865.37907076,880928424,0,3,79883399,2249,15,1.25,42.6878701,-84.49154419999999,264.8,0.10358088463544846,344.8904113769531,0.03700000047683716,0.0,1
1676239865.57896399,881128317,0,3,79883599,2249,15,1.25,42.6878703,-84.49154419999999,264.8,0.14946572482585907,335.4925842285156,0.12300000339746475,0.0,1
1676239865.77877688,881328130,0,3,79883799,2249,15,1.25,42.6878706,-84.4915443,264.81,0.18054363131523132,355.5526123046875,-0.018000001087784767,0.0,1
1676239865.97877979,881528133,0,3,79883999,2249,15,1.25,42.6878709,-84.4915443,264.83,0.24834050238132477,356.99932861328125,-0.023000001907348633,0.0,1
1676239866.17889190,881728245,0,3,79884199,2249,15,1.25,42.6878714,-84.4915443,264.85,0.25563451647758484,4.037710189819336,0.03500000014901161,0.0,1
1676239866.37898278,881928336,0,3,79884399,2249,15,1.25,42.687871799999996,-84.4915441,264.85,0.3024979531764984,15.138832092285156,-0.014000000432133675,0.0,1
1676239866.57922387,882128577,0,3,79884599,2249,15,1.25,42.687872299999995,-84.4915439,264.86,0.3342154920101166,14.202557563781738,-0.017000000923871994,0.0,1
1676239866.77875090,882328104,0,3,79884799,2249,15,1.25,42.687872899999995,-84.4915437,264.85,0.3344622552394867,14.368630409240723,0.058000002056360245,0.0,1
1676239866.97877479,882528128,0,3,79884999,2249,15,1.25,42.687873499999995,-84.49154349999999,264.85,0.2983906865119934,9.841131210327148,-0.0010000000474974513,0.0,1
1676239867.17882586,882728179,0,3,79885199,2249,15,1.25,42.6878739,-84.4915434,264.87,0.20806008577346802,358.6229553222656,0.04500000178813934,0.0,1
1676239867.35884595,882908199,0,3,79885399,2249,15,1.25,42.687874199999996,-84.4915434,264.87,0.1596151739358902,354.96807861328125,0.08000000566244125,0.0,1
1676239867.57878900,883128142,0,3,79885599,2249,15,1.25,42.6878744,-84.49154349999999,264.86,0.08471718430519104,352.5394287109375,0.0010000000474974513,0.0,1
1676239867.77914596,883328499,0,3,79885799,2249,15,1.25,42.6878746,-84.4915436,264.85,0.12369317561388016,337.1663513183594,0.010000000707805157,0.0,1
1676239867.97909093,883528444,0,3,79885999,2249,15,1.25,42.687874799999996,-84.4915436,264.87,0.12709446251392365,328.1857604980469,0.08100000023841858,0.0,1
1676239868.17920995,883728563,0,3,79886199,2249,15,1.25,42.687875,-84.4915438,264.86,0.18047161400318146,330.4520263671875,0.05400000140070915,0.0,1
1676239868.37940097,883928754,0,3,79886399,2249,15,1.25,42.6878752,-84.49154399999999,264.87,0.19723084568977356,337.33544921875,0.11500000208616257,0.0,1
1676239868.57876396,884128117,0,3,79886599,2249,15,1.25,42.6878757,-84.4915441,264.84000000000003,0.270407110452652,352.3493347167969,0.10100000351667404,0.0,1
1676239868.75875878,884308112,0,3,79886799,2249,15,1.25,42.6878761,-84.4915441,264.83,0.22705507278442383,1.261817455291748,0.05400000140070915,0.0,1
1676239868.95930982,884508663,0,3,79886999,2249,15,1.25,42.6878765,-84.49154419999999,264.79,0.22029298543930054,347.4147644042969,0.12800000607967377,0.0,1
1676239869.17897797,884728331,0,3,79887199,2249,15,1.25,42.6878769,-84.4915444,264.78000000000003,0.2942601144313812,336.5713195800781,0.09200000762939453,0.0,1
1676239869.36011577,884909469,0,3,79887399,2249,15,1.25,42.6878774,-84.49154469999999,264.79,0.3473557233810425,324.8458251953125,0.05900000408291817,0.0,1
1676239869.55999780,885109351,0,3,79887599,2249,15,1.25,42.687877799999995,-84.4915451,264.8,0.22631394863128662,316.07415771484375,0.08800000697374344,0.0,1
1676239869.77889681,885328250,0,3,79887799,2249,15,1.25,42.687878,-84.49154539999999,264.81,0.2165386825799942,292.5384521484375,-0.018000001087784767,0.0,1
1676239869.97892284,885528276,0,3,79887999,2249,15,1.25,42.687878,-84.49154589999999,264.82,0.21204246580600739,275.6837158203125,0.052000001072883606,0.0,1
1676239870.15891790,885708271,0,3,79888199,2249,15,1.25,42.687878,-84.49154639999999,264.84000000000003,0.23078344762325287,265.277587890625,0.012000000104308128,0.0,1
1676239870.37875676,885928110,0,3,79888399,2249,15,1.25,42.6878779,-84.4915468,264.85,0.1942472755908966,253.2442626953125,-0.05400000140070915,0.0,1
1676239870.57876182,886128115,0,3,79888599,2249,15,1.25,42.687878,-84.4915472,264.87,0.1533949226140976,296.7320861816406,-0.08100000023841858,0.0,1
