timestamp,TimeUS,Lat,Lng,Alt,RelHomeAlt,RelOriginAlt
1676239794.21998096,809769334,42.687951999999996,-84.4915536,276.79998779296875,0.004854956641793251,0.23485495150089264
1676239794.22018194,809769535,42.687951999999996,-84.4915536,276.79998779296875,0.004854956641793251,0.23485495150089264
1676239794.25931382,809808667,42.687951999999996,-84.4915536,276.79998779296875,0.005066821351647377,0.23506681621074677
1676239794.29923296,809848586,42.687951999999996,-84.4915536,276.79998779296875,0.005372965708374977,0.23537296056747437
1676239794.31944585,809868799,42.687951999999996,-84.4915536,276.79998779296875,0.005471611395478249,0.23547160625457764
1676239794.33905578,809888409,42.687951999999996,-84.4915536,276.79998779296875,0.005729028955101967,0.23572902381420135
1676239794.37949586,809928849,42.687951999999996,-84.4915536,276.79998779296875,0.0060113463550806046,0.23601134121418
1676239794.41925693,809968610,42.687951999999996,-84.4915536,276.79998779296875,0.007013434544205666,0.23701342940330505
1676239794.41938186,809968735,42.687951999999996,-84.4915536,276.79998779296875,0.007013434544205666,0.23701342940330505
1676239794.45955992,810008913,42.6879519,-84.4915536,276.79998779296875,0.007953906431794167,0.23795390129089355
1676239794.49940395,810048757,42.6879519,-84.4915536,276.79998779296875,0.008797431364655495,0.23879742622375488
1676239794.51931977,810068673,42.6879519,-84.4915536,276.79998779296875,0.009221741929650307,0.2392217367887497
1676239794.53907394,810088427,42.6879519,-84.4915536,276.79998779296875,0.009626844897866249,0.23962683975696564
1676239794.57924390,810128597,42.6879519,-84.4915536,276.80999755859375,0.010473469272255898,0.24047346413135529
1676239794.61914396,810168497,42.6879519,-84.4915536,276.80999755859375,0.011097023263573647,0.24109701812267303
1676239794.61930084,810168654,42.6879519,-84.4915536,276.80999755859375,0.011097023263573647,0.24109701812267303
1676239794.65962291,810208976,42.6879519,-84.4915536,276.80999755859375,0.011632794514298439,0.24163278937339783
1676239794.69941187,810248765,42.6879519,-84.4915536,276.80999755859375,0.012158790603280067,0.24215878546237946
1676239794.71922588,810268579,42.6879519,-84.4915536,276.80999755859375,0.012482712045311928,0.24248270690441132
1676239794.73921299,810288566,42.6879518,-84.4915536,276.80999755859375,0.012718195095658302,0.2427181899547577
1676239794.77905679,810328410,42.6879518,-84.4915536,276.80999755859375,0.013164708390831947,0.24316470324993134
1676239794.81957197,810368925,42.6879518,-84.4915536,276.80999755859375,0.013525599613785744,0.24352559447288513
1676239794.81964684,810369000,42.6879518,-84.4915536,276.80999755859375,0.013525599613785744,0.24352559447288513
1676239794.85937881,810408732,42.6879518,-84.4915536,276.80999755859375,0.013955125585198402,0.2439551204442978
1676239794.89971399,810449067,42.6879518,-84.4915536,276.80999755859375,0.014232108369469643,0.24423210322856903
1676239794.91963983,810468993,42.6879518,-84.4915536,276.80999755859375,0.014321589842438698,0.24432158470153809
1676239794.93921685,810488570,42.6879518,-84.4915536,276.80999755859375,0.01458064652979374,0.24458064138889313
1676239794.97899795,810528351,42.6879518,-84.4915536,276.80999755859375,0.014743858948349953,0.24474385380744934
1676239795.01958799,810568941,42.6879518,-84.4915536,276.80999755859375,0.014424899592995644,0.24442489445209503
1676239795.01965880,810569012,42.6879518,-84.4915536,276.80999755859375,0.014424899592995644,0.24442489445209503
1676239795.05905676,810608410,42.6879518,-84.4915536,276.80999755859375,0.014356354251503944,0.24435634911060333
1676239795.09944892,810648802,42.6879518,-84.4915536,276.80999755859375,0.014110798016190529,0.24411079287528992
1676239795.11953497,810668888,42.6879518,-84.4915536,276.80999755859375,0.01387789286673069,0.24387788772583008
1676239795.13902783,810688381,42.6879518,-84.4915536,276.80999755859375,0.013975957408547401,0.2439759522676468
1676239795.17932582,810728679,42.6879518,-84.4915536,276.80999755859375,0.013456026092171669,0.24345602095127106
1676239795.21933484,810768688,42.6879518,-84.4915536,276.80999755859375,0.01251099444925785,0.24251098930835724
1676239795.21944594,810768799,42.6879518,-84.4915536,276.80999755859375,0.01251099444925785,0.24251098930835724
1676239795.25908780,810808441,42.6879518,-84.4915536,276.80999755859375,0.011724987998604774,0.24172498285770416
1676239795.29941082,810848764,42.6879518,-84.4915536,276.80999755859375,0.011065507307648659,0.24106550216674805
1676239795.31925392,810868607,42.6879518,-84.4915536,276.80999755859375,0.010590234771370888,0.24059022963047028
1676239795.33932686,810888680,42.6879518,-84.4915536,276.80999755859375,0.010173315182328224,0.2401733100414276
1676239795.37924194,810928595,42.6879518,-84.4915537,276.80999755859375,0.010385209694504738,0.24038520455360413
1676239795.41930199,810968655,42.6879518,-84.4915537,276.80999755859375,0.010886231437325478,0.24088622629642487
1676239795.41938376,810968737,42.6879518,-84.4915537,276.80999755859375,0.010886231437325478,0.24088622629642487
1676239795.45919895,811008552,42.6879518,-84.4915537,276.80999755859375,0.011263692751526833,0.24126368761062622
1676239795.49982190,811049175,42.6879518,-84.4915537,276.80999755859375,0.011328646913170815,0.2413286417722702
1676239795.51914597,811068499,42.6879518,-84.4915537,276.80999755859375,0.011511484161019325,0.2415114790201187
1676239795.53907299,811088426,42.6879518,-84.4915537,276.80999755859375,0.011586884036660194,0.24158687889575958
1676239795.57924676,811128600,42.6879518,-84.4915537,276.80999755859375,0.012059995904564857,0.24205999076366425
1676239795.61921978,811168573,42.6879518,-84.4915537,276.80999755859375,0.012073764577507973,0.24207375943660736
1676239795.61929178,811168645,42.6879518,-84.4915537,276.80999755859375,0.012073764577507973,0.24207375943660736
1676239795.65958786,811208941,42.6879518,-84.4915537,276.80999755859375,0.011965075507760048,0.24196507036685944
1676239795.69931388,811248667,42.6879518,-84.4915537,276.80999755859375,0.012076595798134804,0.2420765906572342
1676239795.71941590,811268769,42.6879518,-84.4915537,276.80999755859375,0.012074911966919899,0.2420749068260193
1676239795.73923087,811288584,42.6879518,-84.4915537,276.80999755859375,0.012248734012246132,0.24224872887134552
1676239795.77905393,811328407,42.6879518,-84.4915537,276.80999755859375,0.012317085638642311,0.2423170804977417
1676239795.81966281,811369016,42.6879518,-84.4915537,276.80999755859375,0.011987308040261269,0.24198730289936066
1676239795.81974578,811369099,42.6879518,-84.4915537,276.80999755859375,0.011987308040261269,0.24198730289936066
1676239795.85925579,811408609,42.6879518,-84.4915537,276.80999755859375,0.011975253000855446,0.24197524785995483
1676239795.89973783,811449091,42.6879518,-84.4915537,276.80999755859375,0.011987710371613503,0.2419877052307129
1676239795.91959095,811468944,42.6879518,-84.49155379999999,276.80999755859375,0.011926138773560524,0.2419261336326599
1676239795.93916583,811488519,42.6879518,-84.49155379999999,276.80999755859375,0.012063765898346901,0.2420637607574463
1676239795.97908878,811528442,42.6879518,-84.49155379999999,276.80999755859375,0.01203242875635624,0.24203242361545563
1676239796.01957083,811568924,42.6879517,-84.49155379999999,276.80999755859375,0.011467227712273598,0.24146722257137299
1676239796.01967382,811569027,42.6879517,-84.49155379999999,276.80999755859375,0.011467227712273598,0.24146722257137299
1676239796.05899787,811608351,42.6879517,-84.49155379999999,276.80999755859375,0.011197322979569435,0.24119731783866882
1676239796.09944892,811648802,42.6879517,-84.49155379999999,276.80999755859375,0.010848799720406532,0.24084879457950592
1676239796.11931086,811668664,42.6879517,-84.49155379999999,276.80999755859375,0.010590547695755959,0.24059054255485535
1676239796.13905692,811688410,42.6879517,-84.49155379999999,276.80999755859375,0.010603273287415504,0.2406032681465149
1676239796.17946482,811728818,42.6879517,-84.49155379999999,276.80999755859375,0.010117227211594582,0.24011722207069397
1676239796.21931291,811768666,42.6879517,-84.49155379999999,276.79998779296875,0.009632909670472145,0.23963290452957153
1676239796.21938396,811768737,42.6879517,-84.49155379999999,276.79998779296875,0.009632909670472145,0.23963290452957153
1676239796.25907397,811808427,42.6879517,-84.49155379999999,276.79998779296875,0.009215587750077248,0.23921558260917664
1676239796.29942894,811848782,42.6879517,-84.49155379999999,276.79998779296875,0.008824283257126808,0.2388242781162262
1676239796.31923485,811868588,42.6879517,-84.49155379999999,276.79998779296875,0.008531579747796059,0.23853157460689545
1676239796.33908677,811888440,42.6879517,-84.49155379999999,276.79998779296875,0.008282208815217018,0.2382822036743164
1676239796.37922478,811928578,42.6879517,-84.49155379999999,276.79998779296875,0.007699349895119667,0.23769934475421906
1676239796.41929078,811968644,42.6879517,-84.49155379999999,276.79998779296875,0.007393384352326393,0.23739337921142578
1676239796.41945195,811968805,42.6879517,-84.49155379999999,276.79998779296875,0.007393384352326393,0.23739337921142578
1676239796.45924091,812008594,42.6879517,-84.49155379999999,276.79998779296875,0.007191905751824379,0.23719190061092377
1676239796.49958491,812048938,42.6879517,-84.49155379999999,276.79998779296875,0.006388554349541664,0.23638854920864105
1676239796.51924777,812068601,42.6879517,-84.49155379999999,276.79998779296875,0.006340706720948219,0.2363407015800476
1676239796.53946376,812088817,42.6879517,-84.49155379999999,276.79998779296875,0.006037140265107155,0.23603713512420654
1676239796.57907796,812128431,42.6879517,-84.49155379999999,276.79998779296875,0.005625108256936073,0.23562510311603546
1676239796.61918592,812168539,42.6879517,-84.4915539,276.79998779296875,0.005741411820054054,0.23574140667915344
1676239796.61929798,812168651,42.6879517,-84.4915539,276.79998779296875,0.005741411820054054,0.23574140667915344
1676239796.65915895,812208512,42.6879517,-84.4915539,276.79998779296875,0.00590653158724308,0.23590652644634247
1676239796.69907594,812248429,42.6879517,-84.4915539,276.79998779296875,0.005909735336899757,0.23590973019599915
1676239796.71932292,812268676,42.6879518,-84.4915539,276.79998779296875,0.006047854200005531,0.23604784905910492
1676239796.73945498,812288808,42.6879518,-84.4915539,276.79998779296875,0.0060988012701272964,0.23609879612922668
1676239796.77899384,812328347,42.6879517,-84.4915539,276.79998779296875,0.006434807553887367,0.23643480241298676
1676239796.81938577,812368739,42.6879517,-84.4915539,276.79998779296875,0.0075016263872385025,0.2375016212463379
1676239796.81945586,812368809,42.6879517,-84.4915539,276.79998779296875,0.0075016263872385025,0.2375016212463379
1676239796.85912895,812408482,42.6879517,-84.4915539,276.79998779296875,0.008613193407654762,0.23861318826675415
1676239796.89952087,812448874,42.6879517,-84.4915539,276.79998779296875,0.009388262405991554,0.23938825726509094
1676239796.91955090,812468904,42.6879517,-84.4915539,276.79998779296875,0.009815985336899757,0.23981598019599915
1676239796.93940878,812488762,42.6879517,-84.4915539,276.80999755859375,0.010151991620659828,0.24015198647975922
1676239796.97933388,812528687,42.6879517,-84.4915539,276.80999755859375,0.010543221607804298,0.2405432164669037
1676239797.01933384,812568687,42.6879517,-84.4915539,276.80999755859375,0.011644268408417702,0.2416442632675171
1676239797.01942897,812568782,42.6879517,-84.4915539,276.80999755859375,0.011644268408417702,0.2416442632675171
1676239797.05909276,812608446,42.6879517,-84.4915539,276.80999755859375,0.01267976500093937,0.24267975986003876
1676239797.09925079,812648604,42.6879517,-84.4915539,276.80999755859375,0.013721341267228127,0.24372133612632751
1676239797.11927199,812668625,42.6879517,-84.4915539,276.80999755859375,0.014302486553788185,0.24430248141288757
1676239797.13960481,812688958,42.6879517,-84.4915539,276.80999755859375,0.014869386330246925,0.2448693811893463
1676239797.17924786,812728601,42.6879517,-84.4915539,276.80999755859375,0.015366891399025917,0.2453668862581253
1676239797.21931696,812768670,42.6879517,-84.4915539,276.80999755859375,0.015131855383515358,0.24513185024261475
1676239797.21940279,812768756,42.6879517,-84.4915539,276.80999755859375,0.015131855383515358,0.24513185024261475
1676239797.25925398,812808607,42.6879517,-84.4915539,276.80999755859375,0.014978135004639626,0.244978129863739
1676239797.29937577,812848729,42.6879517,-84.4915539,276.80999755859375,0.01469152607023716,0.24469152092933655
1676239797.31914496,812868498,42.6879517,-84.4915539,276.80999755859375,0.014777997508645058,0.24477799236774445
1676239797.33908987,812888443,42.6879517,-84.4915539,276.80999755859375,0.014706188812851906,0.2447061836719513
1676239797.37943697,812928790,42.6879517,-84.4915539,276.80999755859375,0.014534855261445045,0.24453485012054443
1676239797.41923189,812968585,42.6879517,-84.4915539,276.80999755859375,0.014261389151215553,0.24426138401031494
1676239797.41930699,812968660,42.6879517,-84.4915539,276.80999755859375,0.014261389151215553,0.24426138401031494
1676239797.45921779,813008571,42.6879517,-84.4915539,276.80999755859375,0.01407722570002079,0.24407722055912018
1676239797.49959278,813048946,42.6879517,-84.49155379999999,276.80999755859375,0.013241240754723549,0.24324123561382294
1676239797.51920891,813068562,42.6879517,-84.49155379999999,276.80999755859375,0.013197341933846474,0.24319733679294586
1676239797.53923798,813088591,42.6879517,-84.49155379999999,276.80999755859375,0.012835497036576271,0.24283549189567566
1676239797.57942796,813128781,42.6879517,-84.49155379999999,276.80999755859375,0.012333149090409279,0.24233314394950867
1676239797.61935592,813168709,42.6879517,-84.49155379999999,276.80999755859375,0.012564236298203468,0.24256423115730286
1676239797.61946988,813168823,42.6879517,-84.49155379999999,276.80999755859375,0.012564236298203468,0.24256423115730286
1676239797.65953898,813208892,42.6879517,-84.49155379999999,276.80999755859375,0.012655803933739662,0.24265579879283905
1676239797.69908476,813248438,42.6879517,-84.49155379999999,276.80999755859375,0.012490520253777504,0.2424905151128769
1676239797.71934986,813268703,42.6879517,-84.49155379999999,276.80999755859375,0.01244995929300785,0.24244995415210724
1676239797.73916292,813288516,42.6879517,-84.49155379999999,276.80999755859375,0.012395033612847328,0.24239502847194672
1676239797.77940297,813328756,42.6879517,-84.49155379999999,276.80999755859375,0.012168923392891884,0.24216891825199127
1676239797.81961298,813368966,42.6879516,-84.4915537,276.80999755859375,0.012194836512207985,0.24219483137130737
1676239797.81972694,813369080,42.6879516,-84.4915537,276.80999755859375,0.012194836512207985,0.24219483137130737
1676239797.85908079,813408434,42.6879516,-84.4915537,276.80999755859375,0.012273097410798073,0.24227309226989746
1676239797.89947796,813448831,42.6879516,-84.4915537,276.80999755859375,0.012139076367020607,0.24213907122612
1676239797.91932082,813468674,42.6879516,-84.4915537,276.80999755859375,0.012029657140374184,0.24202965199947357
1676239797.93909383,813488447,42.6879516,-84.4915537,276.80999755859375,0.012134367600083351,0.24213436245918274
1676239797.97986197,813529215,42.6879516,-84.4915537,276.80999755859375,0.011761168017983437,0.24176116287708282
1676239798.01950788,813568861,42.6879516,-84.4915537,276.80999755859375,0.011417293921113014,0.2414172887802124
1676239798.01957989,813568933,42.6879516,-84.4915537,276.80999755859375,0.011417293921113014,0.2414172887802124
1676239798.05908680,813608440,42.6879516,-84.4915537,276.80999755859375,0.010950634256005287,0.24095062911510468
1676239798.09923792,813648591,42.6879516,-84.4915537,276.80999755859375,0.010386833921074867,0.24038682878017426
1676239798.11952877,813668882,42.6879516,-84.4915537,276.79998779296875,0.009897658601403236,0.23989765346050262
1676239798.13909483,813688448,42.6879516,-84.4915537,276.79998779296875,0.009869897738099098,0.2398698925971985
1676239798.17943597,813728789,42.6879516,-84.4915537,276.79998779296875,0.00905824638903141,0.2390582412481308
1676239798.21951890,813768872,42.6879516,-84.4915537,276.79998779296875,0.009788701310753822,0.2397886961698532
1676239798.21959090,813768944,42.6879516,-84.4915537,276.79998779296875,0.009788701310753822,0.2397886961698532
1676239798.25926280,813808616,42.6879516,-84.4915537,276.80999755859375,0.010341042652726173,0.24034103751182556
1676239798.29905295,813848406,42.6879516,-84.4915537,276.80999755859375,0.0106301698833704,0.2406301647424698
1676239798.31960177,813868955,42.6879516,-84.4915537,276.80999755859375,0.01076347567141056,0.24076347053050995
1676239798.33946395,813888817,42.6879516,-84.4915537,276.80999755859375,0.010929102078080177,0.24092909693717957
1676239798.37906194,813928415,42.6879516,-84.4915537,276.80999755859375,0.01103975810110569,0.24103975296020508
1676239798.41953897,813968892,42.6879515,-84.4915537,276.80999755859375,0.010844731703400612,0.2408447265625
1676239798.41962290,813968976,42.6879515,-84.4915537,276.80999755859375,0.010844731703400612,0.2408447265625
1676239798.45916581,814008519,42.6879515,-84.4915537,276.80999755859375,0.010668227449059486,0.24066822230815887
1676239798.49945688,814048810,42.6879515,-84.4915537,276.79998779296875,0.009719902649521828,0.23971989750862122
1676239798.52010894,814069462,42.6879515,-84.4915537,276.79998779296875,0.00963025726377964,0.23963025212287903
1676239798.53920484,814088558,42.6879515,-84.4915537,276.79998779296875,0.009353766217827797,0.23935376107692719
1676239798.57906389,814128417,42.6879515,-84.4915537,276.79998779296875,0.008540967479348183,0.23854096233844757
1676239798.61997795,814169331,42.6879515,-84.4915537,276.79998779296875,0.006247410550713539,0.23624740540981293
1676239798.62006497,814169418,42.6879515,-84.4915537,276.79998779296875,0.006247410550713539,0.23624740540981293
1676239798.65905976,814208413,42.6879515,-84.4915537,276.79998779296875,0.004940042272210121,0.2349400371313095
1676239798.69922686,814248580,42.6879515,-84.4915537,276.79998779296875,0.0034775380045175552,0.23347753286361694
1676239798.71979380,814269147,42.6879515,-84.4915537,276.79998779296875,0.0025397632271051407,0.23253975808620453
1676239798.73905993,814288413,42.6879515,-84.4915537,276.79998779296875,0.00226401723921299,0.23226401209831238
1676239798.77933788,814328691,42.6879515,-84.4915537,276.79998779296875,0.0006513390690088272,0.23065133392810822
1676239798.81962299,814368976,42.687951399999996,-84.4915537,276.79998779296875,0.0006140712648630142,0.2306140661239624
1676239798.81972384,814369077,42.687951399999996,-84.4915537,276.79998779296875,0.0006140712648630142,0.2306140661239624
1676239798.85918379,814408537,42.687951399999996,-84.4915537,276.79998779296875,0.0006115380674600601,0.23061153292655945
1676239798.89945984,814448813,42.687951399999996,-84.4915537,276.79998779296875,0.0004314277321100235,0.2304314225912094
1676239798.91951799,814468871,42.687951399999996,-84.4915537,276.79998779296875,0.0002725515514612198,0.2302725464105606
1676239798.93911290,814488466,42.687951399999996,-84.4915537,276.79998779296875,0.00035947002470493317,0.23035946488380432
1676239798.97947192,814528825,42.687951399999996,-84.4915537,276.79998779296875,4.4638291001319885e-05,0.2300446331501007
1676239799.01955891,814568912,42.687951399999996,-84.4915537,276.7900085449219,-0.002455642446875572,0.22754435241222382
1676239799.01963091,814568984,42.687951399999996,-84.4915537,276.7900085449219,-0.002455642446875572,0.22754435241222382
1676239799.05925894,814608612,42.687951399999996,-84.4915537,276.7900085449219,-0.004991685971617699,0.2250083088874817
1676239799.09907389,814648427,42.687951299999995,-84.4915537,276.7900085449219,-0.007492398843169212,0.22250759601593018
1676239799.11949277,814668846,42.687951299999995,-84.4915537,276.7900085449219,-0.009078165516257286,0.2209218293428421
1676239799.13934398,814688697,42.687951299999995,-84.4915537,276.7799987792969,-0.010399451479315758,0.21960054337978363
1676239799.17916679,814728520,42.687951299999995,-84.4915537,276.7799987792969,-0.012400439009070396,0.217599555850029
1676239799.21960497,814768958,42.687951299999995,-84.4915537,276.7799987792969,-0.012713095173239708,0.21728689968585968
1676239799.21973491,814769088,42.687951299999995,-84.4915537,276.7799987792969,-0.012713095173239708,0.21728689968585968
1676239799.25923491,814808588,42.6879512,-84.49155379999999,276.7799987792969,-0.012606894597411156,0.21739310026168823
1676239799.29933786,814848691,42.6879512,-84.49155379999999,276.7799987792969,-0.012849783524870872,0.21715021133422852
1676239799.31952477,814868878,42.6879512,-84.49155379999999,276.7799987792969,-0.011829948052763939,0.21817004680633545
1676239799.33925295,814888606,42.6879512,-84.4915539,276.7799987792969,-0.011154403910040855,0.21884559094905853
1676239799.37911081,814928464,42.6879512,-84.4915539,276.7900085449219,-0.008296733722090721,0.22170326113700867
1676239799.41969180,814969045,42.6879512,-84.4915539,276.7900085449219,-0.0019228067249059677,0.22807718813419342
1676239799.41976380,814969117,42.6879512,-84.4915539,276.7900085449219,-0.0019228067249059677,0.22807718813419342
1676239799.45953989,815008893,42.6879512,-84.491554,276.79998779296875,0.005976954475045204,0.2359769493341446
1676239799.49937081,815048724,42.6879512,-84.491554,276.80999755859375,0.014074886217713356,0.24407488107681274
1676239799.52026892,815069622,42.6879512,-84.491554,276.80999755859375,0.018652448430657387,0.24865244328975677
1676239799.53917980,815088533,42.6879512,-84.4915541,276.82000732421875,0.023628467693924904,0.2536284625530243
1676239799.57910180,815128455,42.6879512,-84.4915541,276.8299865722656,0.03434371203184128,0.2643437087535858
1676239799.61953378,815168887,42.6879512,-84.4915541,276.8500061035156,0.05024295300245285,0.2802429497241974
1676239799.61961389,815168967,42.6879512,-84.4915541,276.8500061035156,0.05024295300245285,0.2802429497241974
1676239799.65939593,815208749,42.6879512,-84.4915541,276.8599853515625,0.06620847433805466,0.2962084710597992
1676239799.69924498,815248598,42.6879512,-84.4915541,276.8800048828125,0.0827779695391655,0.31277796626091003
1676239799.71934986,815268703,42.6879512,-84.4915541,276.8899841308594,0.09157683700323105,0.3215768337249756
1676239799.73909593,815288449,42.6879512,-84.4915541,276.8899841308594,0.0999377891421318,0.32993778586387634
1676239799.77955294,815328906,42.6879512,-84.4915541,276.9100036621094,0.11854379624128342,0.34854379296302795
1676239799.81934595,815368699,42.6879512,-84.4915542,276.92999267578125,0.1382235884666443,0.3682235777378082
1676239799.81941676,815368770,42.6879512,-84.4915542,276.92999267578125,0.1382235884666443,0.3682235777378082
1676239799.85963488,815408988,42.6879512,-84.4915542,276.9499816894531,0.15786314010620117,0.3878631293773651
1676239799.89945984,815448813,42.6879512,-84.4915542,276.9700012207031,0.17854034900665283,0.4085403382778168
1676239799.91931081,815468664,42.6879512,-84.4915542,276.97998046875,0.1891537606716156,0.41915374994277954
1676239799.93910289,815488456,42.6879512,-84.4915542,276.989990234375,0.19995155930519104,0.429951548576355
1676239799.97925496,815528608,42.6879512,-84.4915542,277.0199890136719,0.22234845161437988,0.4523484408855438
1676239800.01916695,815568520,42.6879512,-84.4915542,277.0400085449219,0.24257215857505798,0.4725721478462219
1676239800.01932383,815568677,42.6879512,-84.4915542,277.0400085449219,0.24257215857505798,0.4725721478462219
1676239800.05964684,815609000,42.6879512,-84.4915542,277.05999755859375,0.26272568106651306,0.492725670337677
1676239800.09911489,815648468,42.6879512,-84.4915542,277.0799865722656,0.28251418471336365,0.5125141739845276
1676239800.11923695,815668590,42.6879512,-84.4915542,277.0899963378906,0.29372546076774597,0.5237254500389099
1676239800.13923597,815688589,42.6879512,-84.4915542,277.1000061035156,0.30381038784980774,0.5338103771209717
1676239800.17907190,815728425,42.6879512,-84.4915542,277.1199951171875,0.324430376291275,0.554430365562439
1676239800.21955180,815768905,42.6879512,-84.4915542,277.1300048828125,0.3383840024471283,0.5683839917182922
1676239800.21962285,815768976,42.6879512,-84.4915542,277.1300048828125,0.3383840024471283,0.5683839917182922
1676239800.25914979,815808503,42.6879512,-84.4915542,277.1499938964844,0.3548060953617096,0.5848060846328735
1676239800.29941177,815848765,42.6879512,-84.4915542,277.16998291015625,0.3715032637119293,0.6015032529830933
1676239800.31955981,815868913,42.6879512,-84.4915542,277.16998291015625,0.37907281517982483,0.6090728044509888
1676239800.33920884,815888562,42.6879512,-84.4915541,277.17999267578125,0.3882749378681183,0.6182749271392822
1676239800.37933397,815928687,42.6879512,-84.4915541,277.1999816894531,0.402713805437088,0.632713794708252
1676239800.41936588,815968719,42.6879511,-84.4915541,277.2099914550781,0.4144287407398224,0.6444287300109863
1676239800.41943598,815968789,42.6879511,-84.4915541,277.2099914550781,0.4144287407398224,0.6444287300109863
1676239800.45910192,816008455,42.6879511,-84.491554,277.2200012207031,0.42661145329475403,0.656611442565918
1676239800.49977779,816049131,42.6879511,-84.491554,277.22998046875,0.4389409124851227,0.6689409017562866
1676239800.51960778,816068961,42.6879511,-84.491554,277.239990234375,0.444195419549942,0.674195408821106
1676239800.53938890,816088742,42.6879511,-84.491554,277.239990234375,0.44975367188453674,0.6797536611557007
1676239800.57911491,816128468,42.6879511,-84.4915539,277.2599792480469,0.4628278911113739,0.6928278803825378
1676239800.61944795,816168801,42.6879511,-84.49155379999999,277.2699890136719,0.470232754945755,0.700232744216919
1676239800.61951900,816168872,42.6879511,-84.49155379999999,277.2699890136719,0.470232754945755,0.700232744216919
1676239800.65909886,816208452,42.6879511,-84.4915537,277.2699890136719,0.4776717722415924,0.7076717615127563
1676239800.69967699,816249030,42.6879511,-84.4915536,277.2799987792969,0.4836713373661041,0.7136713266372681
1676239800.71929479,816268648,42.6879511,-84.4915536,277.2799987792969,0.4895494282245636,0.7195494174957275
1676239800.73901081,816288364,42.6879511,-84.4915535,277.2900085449219,0.49244555830955505,0.722445547580719
1676239800.77924895,816328602,42.6879511,-84.4915534,277.2900085449219,0.4970680773258209,0.7270680665969849
1676239800.81940293,816368756,42.687951,-84.49155329999999,277.29998779296875,0.500351071357727,0.7303510904312134
1676239800.81947398,816368827,42.687951,-84.49155329999999,277.29998779296875,0.500351071357727,0.7303510904312134
1676239800.85925579,816408609,42.6879511,-84.49155329999999,277.29998779296875,0.504811704158783,0.7348117232322693
1676239800.89962387,816448977,42.6879511,-84.4915532,277.29998779296875,0.5072148442268372,0.7372148633003235
1676239800.91915584,816468509,42.6879511,-84.49155309999999,277.30999755859375,0.5114702582359314,0.7414702773094177
1676239800.93934298,816488696,42.6879511,-84.49155309999999,277.30999755859375,0.512963056564331,0.7429630756378174
1676239800.97917390,816528527,42.6879512,-84.491553,277.30999755859375,0.5193198919296265,0.7493199110031128
1676239801.01925087,816568604,42.6879512,-84.4915529,277.32000732421875,0.5238296985626221,0.7538297176361084
1676239801.01940894,816568762,42.6879512,-84.4915529,277.32000732421875,0.5238296985626221,0.7538297176361084
1676239801.05952597,816608879,42.6879512,-84.4915527,277.32000732421875,0.5272928476333618,0.7572928667068481
1676239801.09905577,816648409,42.6879512,-84.49155259999999,277.3299865722656,0.5338780283927917,0.7638780474662781
1676239801.11943293,816668786,42.6879512,-84.49155259999999,277.3299865722656,0.5366555452346802,0.7666555643081665
1676239801.13944578,816688799,42.687951299999995,-84.4915525,277.3399963378906,0.5411164164543152,0.7711164355278015
1676239801.17909789,816728451,42.687951299999995,-84.49155239999999,277.3399963378906,0.548546552658081,0.7785465717315674
1676239801.21965480,816769008,42.687951299999995,-84.4915523,277.3399963378906,0.5467926859855652,0.7767927050590515
1676239801.21974587,816769099,42.687951299999995,-84.4915523,277.3399963378906,0.5467926859855652,0.7767927050590515
1676239801.25905991,816808413,42.687951399999996,-84.4915522,277.3399963378906,0.5493900775909424,0.7793900966644287
1676239801.29908991,816848443,42.687951399999996,-84.49155209999999,277.3500061035156,0.5521743893623352,0.7821744084358215
1676239801.31937385,816868727,42.687951399999996,-84.491552,277.3500061035156,0.5527545809745789,0.7827546000480652
1676239801.33944583,816888799,42.687951399999996,-84.49155189999999,277.3500061035156,0.5559948086738586,0.785994827747345
1676239801.37908196,816928435,42.687951399999996,-84.4915518,277.3599853515625,0.5609493851661682,0.7909494042396545
1676239801.41933894,816968692,42.687951399999996,-84.4915517,277.3599853515625,0.5686323046684265,0.7986323237419128
1676239801.41940999,816968763,42.687951399999996,-84.4915517,277.3599853515625,0.5686323046684265,0.7986323237419128
1676239801.45911384,817008467,42.687951399999996,-84.4915515,277.3699951171875,0.5769870281219482,0.8069870471954346
1676239801.49946189,817048815,42.687951399999996,-84.49155139999999,277.3800048828125,0.5862752795219421,0.8162752985954285
1676239801.51942182,817068775,42.687951399999996,-84.4915513,277.3899841308594,0.5906862616539001,0.8206862807273865
1676239801.53942180,817088775,42.687951399999996,-84.49155119999999,277.3899841308594,0.5953205823898315,0.8253206014633179
1676239801.57921481,817128568,42.687951399999996,-84.4915511,277.3999938964844,0.6064114570617676,0.8364114761352539
1676239801.61928892,817168642,42.687951399999996,-84.491551,277.4100036621094,0.6153936982154846,0.845393717288971
1676239801.61935878,817168712,42.687951399999996,-84.491551,277.4100036621094,0.6153936982154846,0.845393717288971
1676239801.65909696,817208450,42.687951399999996,-84.4915508,277.41998291015625,0.6244347095489502,0.8544347286224365
1676239801.69943190,817248785,42.687951299999995,-84.49155069999999,277.42999267578125,0.636239230632782,0.8662392497062683
1676239801.71931577,817268669,42.687951399999996,-84.49155069999999,277.44000244140625,0.6419811248779297,0.871981143951416
1676239801.73942590,817288779,42.687951399999996,-84.4915506,277.44000244140625,0.6477972865104675,0.8777973055839539
1676239801.77922177,817328575,42.687951399999996,-84.4915506,277.4499816894531,0.6593281626701355,0.8893281817436218
1676239801.81931376,817368667,42.687951399999996,-84.4915505,277.4599914550781,0.668624758720398,0.8986247777938843
1676239801.81938577,817368739,42.687951399999996,-84.4915505,277.4599914550781,0.668624758720398,0.8986247777938843
1676239801.85929585,817408649,42.687951399999996,-84.4915504,277.4700012207031,0.6775885820388794,0.9075886011123657
1676239801.89938593,817448739,42.687951399999996,-84.4915504,277.47998046875,0.6873952746391296,0.917395293712616
1676239801.91923594,817468589,42.687951399999996,-84.4915504,277.489990234375,0.6924126744270325,0.9224126935005188
1676239801.93946791,817488821,42.6879515,-84.4915504,277.489990234375,0.6974067091941833,0.9274067282676697
1676239801.97905493,817528408,42.6879516,-84.4915503,277.5,0.7086077928543091,0.9386078119277954
1676239802.01952791,817568881,42.6879515,-84.49155019999999,277.5199890136719,0.7211433053016663,0.9511433243751526
1676239802.01962876,817568982,42.6879515,-84.49155019999999,277.5199890136719,0.7211433053016663,0.9511433243751526
1676239802.05918598,817608539,42.6879515,-84.49155019999999,277.5299987792969,0.7336019277572632,0.9636019468307495
1676239802.09910488,817648458,42.6879515,-84.4915501,277.5400085449219,0.7470652461051941,0.9770652651786804
1676239802.11954999,817668903,42.6879515,-84.4915501,277.54998779296875,0.7539148330688477,0.983914852142334
1676239802.13942099,817688774,42.6879515,-84.4915501,277.54998779296875,0.7594388723373413,0.9894388914108276
1676239802.17932987,817728683,42.687951399999996,-84.4915499,277.57000732421875,0.7722601890563965,1.0022602081298828
1676239802.21937394,817768727,42.687951299999995,-84.4915498,277.5799865722656,0.7827742099761963,1.0127742290496826
1676239802.21944594,817768799,42.687951299999995,-84.4915498,277.5799865722656,0.7827742099761963,1.0127742290496826
1676239802.25909495,817808448,42.687951299999995,-84.4915497,277.5899963378906,0.7930139303207397,1.023013949394226
1676239802.29922199,817848575,42.6879512,-84.49154949999999,277.6000061035156,0.8037320375442505,1.0337320566177368
1676239802.31932998,817868683,42.6879511,-84.49154949999999,277.6000061035156,0.8093359470367432,1.0393359661102295
1676239802.33938193,817888735,42.6879511,-84.4915494,277.6099853515625,0.8131687641143799,1.0431687831878662
1676239802.37934685,817928700,42.687951,-84.4915493,277.6199951171875,0.8230493068695068,1.0530493259429932
1676239802.41935277,817968706,42.6879509,-84.4915491,277.6199951171875,0.8294968605041504,1.0594968795776367
1676239802.41942382,817968777,42.6879509,-84.4915491,277.6199951171875,0.8294968605041504,1.0594968795776367
1676239802.45908380,818008437,42.687950699999995,-84.4915489,277.6300048828125,0.8351033926010132,1.0651034116744995
1676239802.49945378,818048807,42.687950699999995,-84.4915487,277.6399841308594,0.8403497934341431,1.0703498125076294
1676239802.51927876,818068632,42.6879506,-84.4915485,277.6399841308594,0.8429040908813477,1.072904109954834
1676239802.53960180,818088955,42.6879505,-84.4915484,277.6399841308594,0.8451480865478516,1.075148105621338
1676239802.57925797,818128611,42.6879504,-84.4915482,277.6399841308594,0.8485020399093628,1.0785020589828491
1676239802.61932087,818168674,42.687950199999996,-84.4915479,277.6499938964844,0.8521314859390259,1.0821315050125122
1676239802.61941695,818168770,42.687950199999996,-84.4915479,277.6499938964844,0.8521314859390259,1.0821315050125122
1676239802.65922999,818208583,42.687950099999995,-84.49154759999999,277.6499938964844,0.8548558950424194,1.0848559141159058
1676239802.69938087,818248734,42.6879499,-84.4915472,277.6499938964844,0.8578728437423706,1.087872862815857
1676239802.71931791,818268671,42.6879498,-84.49154709999999,277.6499938964844,0.8580652475357056,1.088065266609192
1676239802.73908687,818288440,42.6879497,-84.4915469,277.6499938964844,0.8591287136077881,1.0891287326812744
1676239802.77942896,818328782,42.687949599999996,-84.4915465,277.6600036621094,0.8600554466247559,1.0900554656982422
1676239802.81940293,818368756,42.6879493,-84.4915462,277.6600036621094,0.8602281808853149,1.0902281999588013
1676239802.81949687,818368850,42.6879493,-84.4915462,277.6600036621094,0.8602281808853149,1.0902281999588013
1676239802.85967493,818409028,42.6879491,-84.4915458,277.6600036621094,0.8606220483779907,1.090622067451477
1676239802.89932990,818448683,42.687948999999996,-84.49154539999999,277.6600036621094,0.8603386878967285,1.0903387069702148
1676239802.91952586,818468879,42.687948899999995,-84.49154519999999,277.6600036621094,0.8604433536529541,1.0904433727264404
1676239802.93924999,818488603,42.687948899999995,-84.491545,277.6499938964844,0.8596947193145752,1.0896947383880615
1676239802.97942781,818528781,42.6879488,-84.4915446,277.6499938964844,0.8592038154602051,1.0892038345336914
1676239803.01971388,818569067,42.6879486,-84.4915443,277.6600036621094,0.8629592657089233,1.0929592847824097
1676239803.01986599,818569219,42.6879486,-84.4915443,277.6600036621094,0.8629592657089233,1.0929592847824097
1676239803.05906081,818608414,42.6879485,-84.49154399999999,277.6600036621094,0.8645224571228027,1.094522476196289
1676239803.09908581,818648439,42.687948399999996,-84.4915437,277.6600036621094,0.8658584356307983,1.0958584547042847
1676239803.11936498,818668718,42.687948299999995,-84.49154349999999,277.6600036621094,0.8667722940444946,1.096772313117981
1676239803.13922882,818688582,42.687948299999995,-84.4915434,277.6600036621094,0.8659950494766235,1.0959950685501099
1676239803.17971587,818729069,42.6879481,-84.4915431,277.6600036621094,0.8665218353271484,1.0965218544006348
1676239803.21955895,818768912,42.687948,-84.4915429,277.6600036621094,0.8648072481155396,1.0948072671890259
1676239803.21962976,818768983,42.687948,-84.4915429,277.6600036621094,0.8648072481155396,1.0948072671890259
1676239803.25904679,818808400,42.687947799999996,-84.4915427,277.6600036621094,0.8626350164413452,1.0926350355148315
1676239803.29923081,818848584,42.687947699999995,-84.4915425,277.6600036621094,0.8605095148086548,1.0905095338821411
1676239803.31954479,818868898,42.6879476,-84.4915424,277.6499938964844,0.8598607778549194,1.0898607969284058
1676239803.33908176,818888435,42.6879476,-84.49154229999999,277.6499938964844,0.857846736907959,1.0878467559814453
1676239803.37944388,818928797,42.6879474,-84.49154209999999,277.6499938964844,0.8559694290161133,1.0859694480895996
1676239803.41948986,818968843,42.6879473,-84.491542,277.6499938964844,0.8540277481079102,1.0840277671813965
1676239803.41957092,818968924,42.6879473,-84.491542,277.6499938964844,0.8540277481079102,1.0840277671813965
1676239803.45909286,819008446,42.687947199999996,-84.4915419,277.6499938964844,0.852307915687561,1.0823079347610474
1676239803.49943280,819048786,42.687947,-84.4915418,277.6499938964844,0.8505570888519287,1.080557107925415
1676239803.51954579,819068899,42.6879469,-84.4915418,277.6399841308594,0.849973201751709,1.0799732208251953
1676239803.53911090,819088464,42.6879469,-84.4915417,277.6399841308594,0.8492187261581421,1.0792187452316284
1676239803.57919788,819128551,42.6879467,-84.4915417,277.6399841308594,0.846664309501648,1.0766643285751343
1676239803.61952877,819168882,42.6879466,-84.49154159999999,277.6399841308594,0.8435733318328857,1.073573350906372
1676239803.61960077,819168954,42.6879466,-84.49154159999999,277.6399841308594,0.8435733318328857,1.073573350906372
1676239803.65924978,819208603,42.687946499999995,-84.49154159999999,277.6399841308594,0.8399926424026489,1.0699926614761353
1676239803.69905686,819248410,42.6879463,-84.49154159999999,277.6300048828125,0.8384367227554321,1.0684367418289185
1676239803.71958590,819268939,42.6879463,-84.4915415,277.6300048828125,0.8361532688140869,1.0661532878875732
1676239803.73923087,819288584,42.6879462,-84.4915415,277.6300048828125,0.8348437547683716,1.064843773841858
1676239803.77904892,819328402,42.6879461,-84.4915414,277.6300048828125,0.8312383890151978,1.061238408088684
1676239803.81953597,819368889,42.687945899999995,-84.4915415,277.6199951171875,0.8278994560241699,1.0578994750976562
1676239803.81963491,819368988,42.687945899999995,-84.4915415,277.6199951171875,0.8278994560241699,1.0578994750976562
1676239803.85964489,819408998,42.6879458,-84.4915417,277.6199951171875,0.8254448175430298,1.0554448366165161
1676239803.89948988,819448843,42.6879457,-84.4915418,277.6199951171875,0.8223862648010254,1.0523862838745117
1676239803.91964483,819468998,42.6879456,-84.4915417,277.6199951171875,0.8202612400054932,1.0502612590789795
1676239803.93922782,819488581,42.6879456,-84.4915418,277.6099853515625,0.8189207315444946,1.048920750617981
1676239803.97911882,819528472,42.6879454,-84.4915418,277.6099853515625,0.815056562423706,1.0450565814971924
1676239804.01960278,819568956,42.687945299999996,-84.49154209999999,277.6099853515625,0.8121031522750854,1.0421031713485718
1676239804.01967478,819569028,42.687945299999996,-84.49154209999999,277.6099853515625,0.8121031522750854,1.0421031713485718
1676239804.05910182,819608455,42.6879452,-84.4915424,277.6000061035156,0.8093937635421753,1.0393937826156616
1676239804.09920692,819648560,42.6879451,-84.4915426,277.6000061035156,0.8051855564117432,1.0351855754852295
1676239804.11976385,819669117,42.687945,-84.49154279999999,277.6000061035156,0.8034424781799316,1.033442497253418
1676239804.13905978,819688413,42.687945,-84.49154279999999,277.6000061035156,0.8007668256759644,1.0307668447494507
1676239804.17932391,819728677,42.6879449,-84.4915431,277.5899963378906,0.797438383102417,1.0274384021759033
1676239804.21954894,819768902,42.687944699999996,-84.4915434,277.5899963378906,0.7936490774154663,1.0236490964889526
1676239804.21961999,819768973,42.687944699999996,-84.4915434,277.5899963378906,0.7936490774154663,1.0236490964889526
1676239804.25909090,819808444,42.6879446,-84.4915436,277.5799865722656,0.789778470993042,1.0197784900665283
1676239804.29923081,819848584,42.6879445,-84.4915439,277.5799865722656,0.7859001159667969,1.0159001350402832
1676239804.31947088,819868824,42.6879445,-84.4915441,277.5799865722656,0.784223198890686,1.0142232179641724
1676239804.33932996,819888683,42.6879444,-84.49154419999999,277.5799865722656,0.7826460599899292,1.0126460790634155
1676239804.37925291,819928606,42.6879443,-84.4915444,277.57000732421875,0.7787587642669678,1.008758783340454
1676239804.41952777,819968881,42.6879442,-84.49154469999999,277.57000732421875,0.7743813991546631,1.0043814182281494
1676239804.41960382,819968957,42.6879442,-84.49154469999999,277.57000732421875,0.7743813991546631,1.0043814182281494
1676239804.45923996,820008593,42.687944099999996,-84.491545,277.55999755859375,0.7696676850318909,0.9996677041053772
1676239804.49960494,820048958,42.687943999999995,-84.4915453,277.55999755859375,0.7655817866325378,0.9955818057060242
1676239804.51950788,820068861,42.6879439,-84.49154539999999,277.55999755859375,0.762848436832428,0.9928484559059143
1676239804.53909683,820088450,42.6879439,-84.4915455,277.55999755859375,0.7605476379394531,0.9905476570129395
1676239804.57919884,820128552,42.6879437,-84.4915456,277.54998779296875,0.756109356880188,0.9861093759536743
1676239804.61958981,820168943,42.6879437,-84.49154589999999,277.54998779296875,0.7549471259117126,0.984947144985199
1676239804.61970496,820169058,42.6879437,-84.49154589999999,277.54998779296875,0.7549471259117126,0.984947144985199
1676239804.65959978,820208953,42.6879436,-84.4915462,277.54998779296875,0.7550074458122253,0.9850074648857117
1676239804.69904685,820248400,42.687943499999996,-84.49154639999999,277.54998779296875,0.7537773251533508,0.9837773442268372
1676239804.71942687,820268780,42.687943499999996,-84.4915465,277.54998779296875,0.7524374723434448,0.9824374914169312
1676239804.73923683,820288590,42.687943399999995,-84.49154659999999,277.54998779296875,0.7524159550666809,0.9824159741401672
1676239804.77910089,820328454,42.6879433,-84.4915468,277.54998779296875,0.7507474422454834,0.9807474613189697
1676239804.81973886,820369092,42.6879433,-84.491547,277.5400085449219,0.7476291060447693,0.9776291251182556
1676239804.81993985,820369293,42.6879433,-84.491547,277.5400085449219,0.7476291060447693,0.9776291251182556
1676239804.85958385,820408937,42.6879432,-84.4915472,277.5400085449219,0.7451756000518799,0.9751756191253662
1676239804.89939094,820448744,42.6879432,-84.4915474,277.5400085449219,0.7422161102294922,0.9722161293029785
1676239804.91958880,820468942,42.6879431,-84.4915475,277.5400085449219,0.7404810190200806,0.9704810380935669
1676239804.93916988,820488523,42.6879431,-84.49154759999999,277.5299987792969,0.7391489148139954,0.9691489338874817
1676239804.97909689,820528450,42.687943,-84.49154779999999,277.5299987792969,0.7368034720420837,0.9668034911155701
1676239805.01955080,820568904,42.687943,-84.491548,277.5299987792969,0.7370601296424866,0.9670601487159729
1676239805.01962399,820568977,42.687943,-84.491548,277.5299987792969,0.7370601296424866,0.9670601487159729
1676239805.05945778,820608811,42.687943,-84.4915482,277.5299987792969,0.7360596060752869,0.9660596251487732
1676239805.09925389,820648607,42.687943,-84.4915484,277.5299987792969,0.7350637316703796,0.965063750743866
1676239805.11930895,820668662,42.687943,-84.4915485,277.5299987792969,0.7350602746009827,0.965060293674469
1676239805.13909984,820688453,42.687942899999996,-84.4915486,277.5299987792969,0.7341320514678955,0.9641320705413818
1676239805.17977095,820729124,42.687942899999996,-84.4915487,277.5299987792969,0.7349182963371277,0.964918315410614
1676239805.21929097,820768644,42.687942899999996,-84.4915489,277.5299987792969,0.737465500831604,0.9674655199050903
1676239805.21936488,820768718,42.687942899999996,-84.4915489,277.5299987792969,0.737465500831604,0.9674655199050903
1676239805.25954485,820808898,42.687942899999996,-84.4915491,277.5299987792969,0.7399124503135681,0.9699124693870544
1676239805.29914689,820848500,42.687942899999996,-84.4915493,277.5400085449219,0.7419692873954773,0.9719693064689636
1676239805.31930900,820868662,42.687942899999996,-84.4915494,277.5400085449219,0.74357670545578,0.9735767245292664
1676239805.33909988,820888453,42.687942899999996,-84.49154949999999,277.5400085449219,0.7451883554458618,0.9751883745193481
1676239805.37924099,820928594,42.687942899999996,-84.4915496,277.5400085449219,0.7479985952377319,0.9779986143112183
1676239805.41915488,820968508,42.687942899999996,-84.4915497,277.54998779296875,0.7502273917198181,0.9802274107933044
1676239805.41933393,820968687,42.687942899999996,-84.4915497,277.54998779296875,0.7502273917198181,0.9802274107933044
1676239805.45961976,821008973,42.687942899999996,-84.4915499,277.54998779296875,0.752585232257843,0.9825852513313293
1676239805.49940085,821048754,42.687943,-84.49154999999999,277.54998779296875,0.7546835541725159,0.9846835732460022
1676239805.51926279,821068616,42.687942899999996,-84.49154999999999,277.54998779296875,0.7554603219032288,0.9854603409767151
1676239805.53922176,821088575,42.687943,-84.4915501,277.54998779296875,0.7565591931343079,0.9865592122077942
1676239805.57905984,821128413,42.687942899999996,-84.49155019999999,277.54998779296875,0.7588515281677246,0.9888515472412109
1676239805.61920595,821168559,42.687942899999996,-84.4915503,277.55999755859375,0.7609320878982544,0.9909321069717407
1676239805.61931181,821168665,42.687942899999996,-84.4915503,277.55999755859375,0.7609320878982544,0.9909321069717407
1676239805.65971494,821209068,42.687943,-84.4915503,277.55999755859375,0.7641635537147522,0.9941635727882385
1676239805.69939184,821248745,42.687943,-84.4915504,277.55999755859375,0.7692644596099854,0.9992644786834717
1676239805.71965981,821269013,42.687943,-84.4915504,277.57000732421875,0.7721085548400879,1.0021085739135742
1676239805.73922491,821288578,42.687942899999996,-84.4915505,277.57000732421875,0.7745729684829712,1.0045729875564575
1676239805.77934384,821328697,42.687942899999996,-84.4915505,277.5799865722656,0.7819650173187256,1.011965036392212
1676239805.81942391,821368777,42.687942899999996,-84.4915506,277.5799865722656,0.7895174026489258,1.019517421722412
1676239805.81950498,821368858,42.687942899999996,-84.4915506,277.5799865722656,0.7895174026489258,1.019517421722412
1676239805.85914683,821408500,42.687942899999996,-84.4915506,277.5899963378906,0.7972421646118164,1.0272421836853027
1676239805.89976382,821449117,42.687942899999996,-84.49155069999999,277.6000061035156,0.8053826093673706,1.035382628440857
1676239805.91937280,821468726,42.687942899999996,-84.49155069999999,277.6000061035156,0.8099565505981445,1.0399565696716309
1676239805.93937898,821488732,42.687942899999996,-84.49155069999999,277.6099853515625,0.8145877122879028,1.0445877313613892
1676239805.97910285,821528456,42.687942799999995,-84.4915508,277.6199951171875,0.8231695890426636,1.05316960811615
1676239806.01933694,821568690,42.687942799999995,-84.4915508,277.6300048828125,0.8321666717529297,1.062166690826416
1676239806.01940799,821568761,42.687942799999995,-84.4915508,277.6300048828125,0.8321666717529297,1.062166690826416
1676239806.05911398,821608467,42.687942799999995,-84.4915508,277.6399841308594,0.842397928237915,1.0723979473114014
1676239806.09960890,821648962,42.687942799999995,-84.4915508,277.6499938964844,0.8545922040939331,1.0845922231674194
1676239806.11931777,821668671,42.687942799999995,-84.4915508,277.6600036621094,0.8602678775787354,1.0902678966522217
1676239806.13904691,821688400,42.687942799999995,-84.4915508,277.6600036621094,0.866310715675354,1.0963107347488403
1676239806.17943978,821728793,42.687942799999995,-84.4915509,277.66998291015625,0.8798733949661255,1.1098734140396118
1676239806.21932483,821768678,42.6879427,-84.4915509,277.69000244140625,0.8947279453277588,1.1247279644012451
1676239806.21941590,821768769,42.6879427,-84.4915509,277.69000244140625,0.8947279453277588,1.1247279644012451
1676239806.25920987,821808563,42.6879427,-84.4915508,277.6999816894531,0.9099645614624023,1.1399645805358887
1676239806.29938483,821848738,42.6879427,-84.4915508,277.7200012207031,0.9235677719116211,1.1535677909851074
1676239806.31949687,821868850,42.6879427,-84.4915508,277.72998046875,0.9304425716400146,1.160442590713501
1676239806.33908677,821888440,42.6879427,-84.4915509,277.72998046875,0.9371708631515503,1.1671708822250366
1676239806.37916684,821928520,42.6879426,-84.4915509,277.75,0.9518982172012329,1.1818982362747192
1676239806.41924787,821968601,42.6879426,-84.4915509,277.7599792480469,0.9647037982940674,1.1947038173675537
1676239806.41939688,821968750,42.6879426,-84.4915509,277.7599792480469,0.9647037982940674,1.1947038173675537
1676239806.45925379,822008607,42.6879426,-84.4915509,277.7699890136719,0.9775304794311523,1.2075304985046387
1676239806.49960589,822048959,42.6879426,-84.4915509,277.7900085449219,0.9904193878173828,1.2204194068908691
1676239806.51922083,822068574,42.6879426,-84.4915509,277.7900085449219,0.9970356225967407,1.227035641670227
1676239806.53925300,822088606,42.6879426,-84.4915509,277.79998779296875,1.0036978721618652,1.2336978912353516
1676239806.57943177,822128785,42.6879425,-84.491551,277.80999755859375,1.017492651939392,1.2474926710128784
1676239806.61931992,822168673,42.6879425,-84.491551,277.8299865722656,1.0314304828643799,1.2614305019378662
1676239806.61942792,822168781,42.6879425,-84.491551,277.8299865722656,1.0314304828643799,1.2614305019378662
1676239806.65906596,822208419,42.6879426,-84.491551,277.8399963378906,1.0453978776931763,1.2753978967666626
1676239806.69930696,822248660,42.6879426,-84.491551,277.8500061035156,1.0595118999481201,1.2895119190216064
1676239806.71935678,822268710,42.6879426,-84.491551,277.8599853515625,1.0666117668151855,1.2966117858886719
1676239806.73915696,822288510,42.6879425,-84.4915511,277.8699951171875,1.0729422569274902,1.3029422760009766
1676239806.77911687,822328470,42.6879426,-84.4915511,277.8800048828125,1.0876834392547607,1.317683458328247
1676239806.81941295,822368766,42.6879426,-84.4915511,277.8899841308594,1.0982173681259155,1.3282173871994019
1676239806.81948400,822368837,42.6879426,-84.4915511,277.8899841308594,1.0982173681259155,1.3282173871994019
1676239806.85910487,822408458,42.6879426,-84.4915511,277.8999938964844,1.1089171171188354,1.3389171361923218
1676239806.89983177,822449185,42.6879426,-84.4915511,277.91998291015625,1.12042236328125,1.3504223823547363
1676239806.91940880,822468762,42.6879427,-84.4915511,277.91998291015625,1.1261736154556274,1.3561736345291138
1676239806.93910789,822488461,42.6879427,-84.4915511,277.92999267578125,1.1318086385726929,1.3618086576461792
1676239806.97925687,822528610,42.6879427,-84.49155119999999,277.94000244140625,1.1429378986358643,1.3729379177093506
1676239807.01928687,822568640,42.6879427,-84.49155119999999,277.9499816894531,1.1522603034973145,1.3822603225708008
1676239807.01938176,822568735,42.6879427,-84.49155119999999,277.9499816894531,1.1522603034973145,1.3822603225708008
1676239807.05958676,822608940,42.687942799999995,-84.49155119999999,277.9599914550781,1.1620240211486816,1.392024040222168
1676239807.09916592,822648519,42.687942799999995,-84.49155119999999,277.9700012207031,1.172599196434021,1.4025992155075073
1676239807.11931396,822668667,42.687942799999995,-84.4915513,277.9700012207031,1.1768419742584229,1.4068419933319092
1676239807.13940096,822688754,42.687942899999996,-84.4915513,277.97998046875,1.1819374561309814,1.4119374752044678
1676239807.17944980,822728803,42.687942899999996,-84.49155139999999,277.989990234375,1.1919536590576172,1.4219536781311035
1676239807.21954298,822768896,42.687943,-84.4915513,278.0,1.199996829032898,1.4299968481063843
1676239807.21961284,822768966,42.687943,-84.4915513,278.0,1.199996829032898,1.4299968481063843
1676239807.25923896,822808592,42.687943,-84.4915513,278.0,1.207586407661438,1.4375864267349243
1676239807.29905796,822848411,42.687943,-84.4915513,278.0099792480469,1.2160913944244385,1.4460914134979248
1676239807.31924796,822868601,42.6879431,-84.4915513,278.0199890136719,1.2203662395477295,1.4503662586212158
1676239807.33947182,822888825,42.6879431,-84.49155139999999,278.0199890136719,1.2235972881317139,1.4535973072052002
1676239807.37938881,822928742,42.6879431,-84.49155139999999,278.0299987792969,1.2321945428848267,1.462194561958313
1676239807.41920376,822968557,42.6879431,-84.4915513,278.0299987792969,1.2382206916809082,1.4682207107543945
1676239807.41930890,822968662,42.6879431,-84.4915513,278.0299987792969,1.2382206916809082,1.4682207107543945
1676239807.45916390,823008517,42.6879432,-84.4915513,278.0400085449219,1.2445049285888672,1.4745049476623535
1676239807.49946284,823048816,42.6879432,-84.4915513,278.04998779296875,1.2514212131500244,1.4814212322235107
1676239807.51934481,823068698,42.6879432,-84.4915513,278.04998779296875,1.255020260810852,1.4850202798843384
1676239807.53941989,823088773,42.6879432,-84.49155139999999,278.04998779296875,1.257346510887146,1.4873465299606323
1676239807.57935286,823128706,42.6879433,-84.4915513,278.05999755859375,1.2659978866577148,1.4959979057312012
1676239807.61936378,823168717,42.6879433,-84.49155119999999,278.07000732421875,1.272829532623291,1.5028295516967773
1676239807.61943579,823168789,42.6879433,-84.49155119999999,278.07000732421875,1.272829532623291,1.5028295516967773
1676239807.65910292,823208456,42.687943399999995,-84.49155119999999,278.07000732421875,1.2788385152816772,1.5088385343551636
1676239807.69920492,823248558,42.687943399999995,-84.49155119999999,278.0799865722656,1.2842979431152344,1.5142979621887207
1676239807.71936178,823268715,42.687943499999996,-84.4915511,278.0799865722656,1.287368655204773,1.5173686742782593
1676239807.73956800,823288921,42.687943499999996,-84.4915511,278.0899963378906,1.2902746200561523,1.5202746391296387
1676239807.77907896,823328432,42.687943499999996,-84.4915511,278.0899963378906,1.2946135997772217,1.524613618850708
1676239807.81944299,823368796,42.6879436,-84.491551,278.0899963378906,1.2987384796142578,1.5287384986877441
1676239807.81951880,823368872,42.6879436,-84.491551,278.0899963378906,1.2987384796142578,1.5287384986877441
1676239807.85913086,823408484,42.6879436,-84.4915509,278.1000061035156,1.3023550510406494,1.5323550701141357
1676239807.89975095,823449104,42.6879436,-84.4915508,278.1000061035156,1.3073128461837769,1.5373128652572632
1676239807.91933179,823468685,42.6879436,-84.4915508,278.1000061035156,1.3083934783935547,1.538393497467041
1676239807.93905497,823488408,42.6879437,-84.4915508,278.1099853515625,1.3103983402252197,1.540398359298706
1676239807.97944784,823528801,42.6879437,-84.49155069999999,278.1099853515625,1.3128259181976318,1.5428259372711182
1676239808.01932287,823568676,42.6879437,-84.4915506,278.1099853515625,1.314746618270874,1.5447466373443604
1676239808.01942182,823568775,42.6879437,-84.4915506,278.1099853515625,1.314746618270874,1.5447466373443604
1676239808.05969477,823609048,42.6879437,-84.4915503,278.1099853515625,1.3170514106750488,1.5470514297485352
1676239808.09905386,823648407,42.6879437,-84.4915503,278.1099853515625,1.3187878131866455,1.5487878322601318
1676239808.11917186,823668525,42.6879437,-84.4915503,278.1099853515625,1.319105625152588,1.5491056442260742
1676239808.13909698,823688450,42.6879437,-84.49155019999999,278.1199951171875,1.3200057744979858,1.5500057935714722
1676239808.17956185,823728915,42.6879437,-84.4915501,278.1199951171875,1.3210209608078003,1.5510209798812866
1676239808.21925282,823768606,42.6879437,-84.4915499,278.1199951171875,1.3208624124526978,1.550862431526184
1676239808.21940494,823768758,42.6879437,-84.4915499,278.1199951171875,1.3208624124526978,1.550862431526184
1676239808.25956583,823808919,42.6879436,-84.4915497,278.1199951171875,1.3210946321487427,1.551094651222229
1676239808.29905081,823848404,42.6879436,-84.49154949999999,278.1199951171875,1.3211491107940674,1.5511491298675537
1676239808.31941795,823868771,42.6879436,-84.4915494,278.1199951171875,1.3211435079574585,1.5511435270309448
1676239808.33926296,823888616,42.6879436,-84.4915494,278.1199951171875,1.3207111358642578,1.5507111549377441
1676239808.37940884,823928762,42.6879436,-84.4915493,278.1099853515625,1.319920301437378,1.5499203205108643
1676239808.41955996,823968913,42.687943499999996,-84.49154899999999,278.1099853515625,1.3173482418060303,1.5473482608795166
1676239808.41972089,823969074,42.687943499999996,-84.49154899999999,278.1099853515625,1.3173482418060303,1.5473482608795166
1676239808.45906591,824008419,42.687943499999996,-84.49154879999999,278.1099853515625,1.3153738975524902,1.5453739166259766
1676239808.49934888,824048702,42.687943399999995,-84.4915487,278.1099853515625,1.3142154216766357,1.544215440750122
1676239808.51936388,824068717,42.687943399999995,-84.4915486,278.1099853515625,1.3137212991714478,1.543721318244934
1676239808.53919291,824088546,42.687943399999995,-84.4915485,278.1099853515625,1.313002109527588,1.5430021286010742
1676239808.57942891,824128782,42.6879433,-84.4915484,278.1099853515625,1.3120476007461548,1.5420476198196411
1676239808.61936879,824168722,42.6879433,-84.4915482,278.1099853515625,1.310996413230896,1.5409964323043823
1676239808.61944294,824168796,42.6879433,-84.4915482,278.1099853515625,1.310996413230896,1.5409964323043823
1676239808.65904999,824208403,42.6879433,-84.491548,278.1099853515625,1.3102242946624756,1.540224313735962
1676239808.69941282,824248766,42.6879432,-84.49154779999999,278.1000061035156,1.309908390045166,1.5399084091186523
1676239808.71935797,824268711,42.6879432,-84.49154779999999,278.1000061035156,1.3094451427459717,1.539445161819458
1676239808.73909688,824288450,42.6879432,-84.4915477,278.1000061035156,1.3092930316925049,1.5392930507659912
1676239808.77945685,824328810,42.6879432,-84.49154759999999,278.1000061035156,1.3094463348388672,1.5394463539123535
1676239808.81937385,824368727,42.6879432,-84.4915473,278.1000061035156,1.309064507484436,1.5390645265579224
1676239808.81944895,824368802,42.6879432,-84.4915473,278.1000061035156,1.309064507484436,1.5390645265579224
1676239808.85963178,824408985,42.6879432,-84.4915469,278.1000061035156,1.3086341619491577,1.538634181022644
1676239808.89944386,824448797,42.6879432,-84.4915467,278.1000061035156,1.3076636791229248,1.5376636981964111
1676239808.91930795,824468661,42.6879431,-84.49154659999999,278.1000061035156,1.3071812391281128,1.5371812582015991
1676239808.93917298,824488526,42.6879431,-84.4915465,278.1000061035156,1.3067196607589722,1.5367196798324585
1676239808.97943497,824528788,42.6879431,-84.4915463,278.1000061035156,1.3048361539840698,1.5348361730575562
1676239809.01933098,824568684,42.6879431,-84.4915461,278.1000061035156,1.3021371364593506,1.532137155532837
1676239809.01949477,824568848,42.6879431,-84.4915461,278.1000061035156,1.3021371364593506,1.532137155532837
1676239809.05963683,824608990,42.6879432,-84.4915457,278.0899963378906,1.2997446060180664,1.5297446250915527
1676239809.09909987,824648453,42.6879432,-84.4915456,278.0899963378906,1.2995154857635498,1.5295155048370361
1676239809.11923480,824668588,42.6879432,-84.4915456,278.0899963378906,1.2998584508895874,1.5298584699630737
1676239809.13922787,824688581,42.6879432,-84.4915455,278.1000061035156,1.3001189231872559,1.5301189422607422
1676239809.17945480,824728808,42.6879432,-84.4915453,278.1000061035156,1.3011804819107056,1.531180500984192
1676239809.21952987,824768883,42.6879432,-84.4915449,278.1000061035156,1.3023622035980225,1.5323622226715088
1676239809.21961594,824768969,42.6879432,-84.4915449,278.1000061035156,1.3023622035980225,1.5323622226715088
