timestamp,TimeUS,C,Roll,Pitch,Yaw,VN,VE,VD,dPD,PN,PE,PD,GX,GY,GZ,OH
1676239794.21850181,809767855,1,0.73,0.02,336.68,0.009761127643287182,0.004473353270441294,-0.037475425750017166,-0.018934236839413643,-0.3902195692062378,0.44437873363494873,-0.23936127126216888,0.51,-0.18,-0.12,276.57
1676239794.25848889,809807842,1,0.72,0.02,336.67,0.009431266225874424,0.004965527914464474,-0.03719048574566841,-0.014339159242808819,-0.3917534351348877,0.4442468285560608,-0.23991423845291138,0.51,-0.18,-0.12,276.57
1676239794.29852295,809847876,1,0.72,0.02,336.67,0.008813342079520226,0.004161871504038572,-0.03764666989445686,-0.012693463824689388,-0.39263013005256653,0.4442439377307892,-0.24070407450199127,0.51,-0.18,-0.12,276.57
1676239794.31849599,809867849,1,0.72,0.02,336.66,0.008425022475421429,0.0036696491297334433,-0.03737984597682953,-0.012284062802791595,-0.3928309679031372,0.4442707598209381,-0.24126145243644714,0.51,-0.18,-0.12,276.57
1676239794.33849287,809887846,1,0.72,0.02,336.66,0.0081436512991786,0.0036562473978847265,-0.03729146718978882,-0.012626981362700462,-0.39336758852005005,0.4442559778690338,-0.24163168668746948,0.51,-0.18,-0.12,276.57
1676239794.37856293,809927916,1,0.73,0.02,336.65000000000003,0.007876335643231869,0.0037284735590219498,-0.03759099543094635,-0.015116126276552677,-0.3940056264400482,0.44429996609687805,-0.2426021844148636,0.51,-0.18,-0.12,276.57
1676239794.41849899,809967852,1,0.73,0.02,336.65000000000003,0.007259130943566561,0.004323459230363369,-0.03707103058695793,-0.01840505748987198,-0.3953230381011963,0.444145530462265,-0.24380117654800415,0.51,-0.18,-0.12,276.57
1676239794.45850396,810007857,1,0.73,0.02,336.64,0.00634346716105938,0.004554848652333021,-0.037238709628582,-0.0244658961892128,-0.39741092920303345,0.44385915994644165,-0.24505747854709625,0.51,-0.18,-0.12,276.57
1676239794.49848986,810047843,1,0.73,0.02,336.64,0.0059062461368739605,0.004594006575644016,-0.03740449994802475,-0.028282418847084045,-0.3987031579017639,0.44375669956207275,-0.24623970687389374,0.51,-0.18,-0.12,276.57
1676239794.51849389,810067847,1,0.73,0.02,336.64,0.005602268967777491,0.004674497060477734,-0.037228502333164215,-0.029316838830709457,-0.39905983209609985,0.44376757740974426,-0.246916264295578,0.51,-0.18,-0.12,276.57
1676239794.53853583,810087889,1,0.73,0.02,336.64,0.005189733114093542,0.004458331968635321,-0.037070926278829575,-0.030084453523159027,-0.3998439311981201,0.44371122121810913,-0.2475167214870453,0.51,-0.18,-0.12,276.57
1676239794.57850981,810127863,1,0.73,0.02,336.64,0.004340180661529303,0.004064430482685566,-0.037117768079042435,-0.031495098024606705,-0.4008757770061493,0.44369131326675415,-0.2487456202507019,0.51,-0.18,-0.12,276.57
1676239794.61848998,810167843,1,0.73,0.02,336.64,0.003335969289764762,0.004156204871833324,-0.03693968057632446,-0.029118606820702553,-0.4029492735862732,0.4435266852378845,-0.24957822263240814,0.51,-0.18,-0.12,276.57
1676239794.65851784,810207871,1,0.73,0.02,336.63,0.0022861880715936422,0.004704129882156849,-0.036868318915367126,-0.02537035383284092,-0.4048269987106323,0.44342342019081116,-0.2504206597805023,0.51,-0.18,-0.12,276.57
1676239794.69850898,810247862,1,0.72,0.02,336.62,0.001116480096243322,0.004970973823219538,-0.036554548889398575,-0.021864028647542,-0.4070844054222107,0.4433216154575348,-0.25099971890449524,0.51,-0.18,-0.12,276.57
1676239794.71853280,810267886,1,0.72,0.02,336.62,0.0008423174149356782,0.0046114204451441765,-0.03664959967136383,-0.020408237352967262,-0.4075944423675537,0.4433574080467224,-0.2515386641025543,0.51,-0.18,-0.12,276.57
1676239794.73856282,810287916,1,0.72,0.02,336.62,-0.00012336902727838606,0.0044434163719415665,-0.03680652752518654,-0.01978750340640545,-0.40858954191207886,0.44333377480506897,-0.2518654465675354,0.51,-0.18,-0.12,276.57
1676239794.77849984,810327853,1,0.72,0.03,336.61,-0.0018154754070565104,0.004175338428467512,-0.03703230619430542,-0.019042879343032837,-0.4099908769130707,0.44337084889411926,-0.2526630163192749,0.51,-0.18,-0.12,276.57
1676239794.81850290,810367856,1,0.72,0.02,336.61,-0.001836078823544085,0.003247935092076659,-0.037043340504169464,-0.016851650550961494,-0.4107867479324341,0.44300517439842224,-0.2533261775970459,0.51,-0.18,-0.12,276.57
1676239794.85848784,810407841,1,0.72,0.02,336.61,-0.00039239798206835985,0.0026466858107596636,-0.03649129346013069,-0.014724155887961388,-0.41144105792045593,0.4426667392253876,-0.2540096044540405,0.51,-0.18,-0.12,276.57
1676239794.89854097,810447894,1,0.72,0.03,336.6,0.0011384276440367103,0.0023424183018505573,-0.03618300333619118,-0.01268129050731659,-0.412091463804245,0.44226154685020447,-0.25425344705581665,0.51,-0.18,-0.12,276.57
1676239794.91856694,810467920,1,0.72,0.03,336.59000000000003,0.0013807032955810428,0.0024823255371302366,-0.036196183413267136,-0.0117503572255373,-0.4122038781642914,0.4421955645084381,-0.2546809911727905,0.51,-0.18,-0.12,276.57
1676239794.93849277,810487846,1,0.72,0.03,336.59000000000003,0.001964300638064742,0.0022187952417880297,-0.03613705188035965,-0.01150157768279314,-0.4124201536178589,0.442032128572464,-0.25486302375793457,0.51,-0.18,-0.12,276.57
1676239794.97848678,810527840,1,0.72,0.02,336.58,0.003292998531833291,0.0012904307805001736,-0.03568163514137268,-0.010533938184380531,-0.41261720657348633,0.4418301284313202,-0.25536876916885376,0.51,-0.18,-0.12,276.57
1676239795.01852798,810567881,1,0.72,0.02,336.57,0.003928599879145622,8.40085485833697e-05,-0.03545622155070305,-0.006497319787740707,-0.41293877363204956,0.4412553608417511,-0.255366712808609,0.51,-0.18,-0.12,276.57
1676239795.05849576,810607849,1,0.72,0.02,336.56,0.004720267839729786,-0.0002264642098452896,-0.035733386874198914,-0.0026178525295108557,-0.41311824321746826,0.4407213032245636,-0.255592942237854,0.51,-0.18,-0.12,276.57
1676239795.09857488,810647928,1,0.72,0.02,336.55,0.005581427365541458,-0.0005977852270007133,-0.035282623022794724,0.0017974225338548422,-0.4132341146469116,0.44010305404663086,-0.25504791736602783,0.52,-0.19,-0.12,276.57
1676239795.11850095,810667854,1,0.72,0.02,336.55,0.006048469338566065,-0.00030766893178224564,-0.03528045490384102,0.003731163451448083,-0.413180947303772,0.43995946645736694,-0.25529393553733826,0.52,-0.19,-0.12,276.57
1676239795.13848782,810687841,1,0.72,0.02,336.55,0.006191902328282595,-0.0005398812936618924,-0.034969497472047806,0.0044106002897024155,-0.41315338015556335,0.43969693779945374,-0.2551802396774292,0.52,-0.19,-0.12,276.57
1676239795.17850184,810727855,1,0.72,0.02,336.55,0.006649835500866175,-0.0011578173143789172,-0.03461533412337303,0.004579308908432722,-0.4129851162433624,0.43932273983955383,-0.2553234398365021,0.52,-0.19,-0.12,276.57
1676239795.21849084,810767844,1,0.72,0.02,336.55,0.00695219449698925,-0.002688284032046795,-0.034087859094142914,0.011044863611459732,-0.41323035955429077,0.43841904401779175,-0.2543894350528717,0.52,-0.19,-0.12,276.57
1676239795.25853395,810807887,1,0.72,0.02,336.54,0.00775868771597743,-0.00429536821320653,-0.033390894532203674,0.018608111888170242,-0.4133477807044983,0.43753132224082947,-0.2537578344345093,0.52,-0.19,-0.12,276.57
1676239795.29850483,810847858,1,0.72,0.02,336.54,0.008623233065009117,-0.005938271526247263,-0.03288260102272034,0.022054675966501236,-0.41344818472862244,0.4364604353904724,-0.25267043709754944,0.52,-0.19,-0.12,276.57
1676239795.31849980,810867853,1,0.72,0.02,336.53000000000003,0.00916560459882021,-0.006365861743688583,-0.032678619027137756,0.02259993925690651,-0.4133516848087311,0.4361397922039032,-0.2528024911880493,0.52,-0.19,-0.12,276.57
1676239795.33848977,810887843,1,0.72,0.02,336.53000000000003,0.009449798613786697,-0.006588582880795002,-0.03201116621494293,0.021702153608202934,-0.41331198811531067,0.4356309473514557,-0.2524544596672058,0.52,-0.19,-0.12,276.57
1676239795.37852478,810927878,1,0.72,0.01,336.53000000000003,0.010503464378416538,-0.006490325089544058,-0.03178411349654198,0.01568298041820526,-0.4132995009422302,0.4347188174724579,-0.25270605087280273,0.52,-0.19,-0.12,276.57
1676239795.41848993,810967843,1,0.72,0.02,336.53000000000003,0.01102539524435997,-0.006650282070040703,-0.031246725469827652,0.004576203413307667,-0.41324830055236816,0.43379056453704834,-0.2532891631126404,0.52,-0.19,-0.12,276.57
1676239795.45857286,811007926,1,0.72,0.02,336.53000000000003,0.011393163353204727,-0.007381153758615255,-0.0309736467897892,-0.00597919337451458,-0.41310471296310425,0.43292680382728577,-0.25390714406967163,0.52,-0.19,-0.12,276.57
1676239795.49849892,811047852,1,0.72,0.02,336.53000000000003,0.012010985985398293,-0.00822384562343359,-0.030452510342001915,-0.01099506113678217,-0.41294601559638977,0.43193522095680237,-0.2539263665676117,0.52,-0.19,-0.12,276.57
1676239795.51848984,811067843,1,0.72,0.02,336.53000000000003,0.012338249012827873,-0.008526819758117199,-0.030536528676748276,-0.01207567099481821,-0.4127565026283264,0.4316112697124481,-0.2542768716812134,0.52,-0.19,-0.12,276.57
1676239795.53850889,811087862,1,0.72,0.02,336.53000000000003,0.012518859468400478,-0.009033143520355225,-0.030352819710969925,-0.012811745516955853,-0.4126051962375641,0.4311453104019165,-0.25439223647117615,0.52,-0.19,-0.12,276.57
1676239795.57849789,811127851,1,0.72,0.02,336.54,0.012807627208530903,-0.009615955874323845,-0.03025113232433796,-0.014915304258465767,-0.41223105788230896,0.43040263652801514,-0.25504302978515625,0.52,-0.19,-0.12,276.57
1676239795.61853886,811167892,1,0.72,0.02,336.54,0.013855786062777042,-0.009487152099609375,-0.029835158959031105,-0.013370701111853123,-0.4121992886066437,0.4299972951412201,-0.25507616996765137,0.52,-0.19,-0.12,276.57
1676239795.65850687,811207860,1,0.71,0.02,336.54,0.01543839555233717,-0.009659462608397007,-0.02969328500330448,-0.00930520985275507,-0.4120444059371948,0.4296477437019348,-0.25518879294395447,0.52,-0.19,-0.12,276.57
1676239795.69848776,811247841,1,0.72,0.02,336.53000000000003,0.016080956906080246,-0.009778370149433613,-0.02968924678862095,-0.006703355349600315,-0.41184139251708984,0.42931440472602844,-0.255083829164505,0.52,-0.19,-0.12,276.57
1676239795.71850181,811267855,1,0.72,0.01,336.53000000000003,0.01602262444794178,-0.009548700414597988,-0.029624078422784805,-0.005696034524589777,-0.4116068482398987,0.4291423559188843,-0.255393385887146,0.52,-0.19,-0.12,276.57
1676239795.73852396,811287877,1,0.72,0.01,336.53000000000003,0.016252215951681137,-0.009715445339679718,-0.02951887808740139,-0.00560994166880846,-0.4114747941493988,0.42901960015296936,-0.25539231300354004,0.52,-0.19,-0.12,276.57
1676239795.77848792,811327841,1,0.72,0.01,336.53000000000003,0.01647222228348255,-0.009815801866352558,-0.0288564320653677,-0.005274501163512468,-0.4110148847103119,0.4287235140800476,-0.255687952041626,0.52,-0.19,-0.12,276.57
1676239795.81856179,811367915,1,0.72,0.02,336.53000000000003,0.0132117485627532,-0.009840241633355618,-0.028340119868516922,-0.0026648459024727345,-0.4129638671875,0.42797935009002686,-0.25552666187286377,0.52,-0.19,-0.12,276.57
1676239795.85849977,811407853,1,0.72,0.02,336.53000000000003,0.010233115404844284,-0.00976539682596922,-0.027771439403295517,0.0008313379366882145,-0.4147889316082001,0.4272782504558563,-0.2555539608001709,0.52,-0.19,-0.12,276.57
1676239795.89850283,811447856,1,0.72,0.02,336.52,0.007301635574549437,-0.010492556728422642,-0.027506070211529732,0.002069009467959404,-0.41718992590904236,0.4265426993370056,-0.2552797198295593,0.52,-0.19,-0.12,276.57
1676239795.91853094,811467884,1,0.72,0.02,336.52,0.006780839990824461,-0.010976448655128479,-0.027417033910751343,0.0021966602653265,-0.41770172119140625,0.42627525329589844,-0.25547608733177185,0.52,-0.19,-0.12,276.57
1676239795.93849087,811487844,1,0.72,0.02,336.52,0.005626661702990532,-0.011445308104157448,-0.027193713933229446,0.0016149445436894894,-0.4188106656074524,0.42591726779937744,-0.25544318556785583,0.52,-0.19,-0.12,276.57
1676239795.97854185,811527895,1,0.72,0.02,336.51,0.003763824701309204,-0.01230278518050909,-0.02740485407412052,-0.00012592875282280147,-0.4203609824180603,0.4252679646015167,-0.25558698177337646,0.52,-0.19,-0.12,276.57
1676239796.01850080,811567854,1,0.72,0.02,336.5,0.003920624498277903,-0.013373734429478645,-0.026681259274482727,0.002766683232039213,-0.4214036762714386,0.424441933631897,-0.25524336099624634,0.52,-0.19,-0.12,276.57
1676239796.05848980,811607843,1,0.73,0.02,336.5,0.0035827565006911755,-0.013789970427751541,-0.026421451941132545,0.005502648651599884,-0.4223298132419586,0.4236059784889221,-0.255095511674881,0.52,-0.19,-0.12,276.57
1676239796.09853387,811647887,1,0.72,0.02,336.5,0.0030126653145998716,-0.013963423669338226,-0.025683874264359474,0.008691019378602505,-0.4234767556190491,0.4227484166622162,-0.2543065845966339,0.52,-0.19,-0.12,276.57
1676239796.11849380,811667847,1,0.72,0.02,336.5,0.0029173525981605053,-0.013874907977879047,-0.02583208866417408,0.009867369197309017,-0.42370450496673584,0.4223936200141907,-0.25442901253700256,0.52,-0.19,-0.12,276.57
1676239796.13848877,811687842,1,0.72,0.02,336.5,0.0029296493157744408,-0.013957588002085686,-0.02584943361580372,0.00953554455190897,-0.4241912364959717,0.42197883129119873,-0.25419774651527405,0.52,-0.19,-0.12,276.57
1676239796.17856884,811727922,1,0.73,0.02,336.5,0.0027571930550038815,-0.014473304152488708,-0.025621050968766212,0.008570890873670578,-0.424810528755188,0.4212597608566284,-0.2540946304798126,0.52,-0.19,-0.12,276.57
1676239796.21850491,811767858,1,0.73,0.02,336.5,0.00259396736510098,-0.013951703906059265,-0.02518431656062603,0.010406890884041786,-0.42530789971351624,0.4209996461868286,-0.2535732686519623,0.52,-0.19,-0.12,276.57
1676239796.25851178,811807865,1,0.73,0.03,336.5,0.003002217272296548,-0.01342939306050539,-0.02422594279050827,0.013029815629124641,-0.4256923496723175,0.42075297236442566,-0.25320765376091003,0.52,-0.19,-0.12,276.57
1676239796.29850793,811847861,1,0.74,0.03,336.5,0.004099222365766764,-0.012713179923593998,-0.023409312590956688,0.014135265722870827,-0.4260721802711487,0.4206443727016449,-0.2523825466632843,0.52,-0.19,-0.12,276.57
1676239796.31848979,811867843,1,0.74,0.03,336.49,0.004776449874043465,-0.01225436944514513,-0.02353520505130291,0.013927914202213287,-0.4260876178741455,0.42048999667167664,-0.252469003200531,0.52,-0.19,-0.12,276.57
1676239796.33854294,811887896,1,0.74,0.03,336.49,0.005349223967641592,-0.011906163766980171,-0.023422371596097946,0.01299577672034502,-0.4261656403541565,0.4204441010951996,-0.2522125542163849,0.52,-0.19,-0.12,276.57
1676239796.37848997,811927843,1,0.73,0.02,336.49,0.006455020513385534,-0.011389343999326229,-0.022972719743847847,0.011229787021875381,-0.426149845123291,0.4202882945537567,-0.2518310844898224,0.52,-0.19,-0.12,276.57
1676239796.41849279,811967846,1,0.73,0.02,336.49,0.007143524941056967,-0.011854751966893673,-0.022356556728482246,0.011318088509142399,-0.4262765347957611,0.4198620617389679,-0.25144508481025696,0.52,-0.19,-0.12,276.57
1676239796.45852399,812007877,1,0.74,0.02,336.49,0.007591770030558109,-0.012099135667085648,-0.022045312449336052,0.010868947021663189,-0.42629697918891907,0.41945743560791016,-0.2511636018753052,0.52,-0.19,-0.12,276.57
1676239796.49849486,812047848,1,0.74,0.02,336.49,0.007613467983901501,-0.012149428948760033,-0.02159370668232441,0.011847792193293571,-0.4262194335460663,0.41904228925704956,-0.25065433979034424,0.52,-0.19,-0.12,276.57
1676239796.51854682,812067900,1,0.74,0.02,336.49,0.007868647575378418,-0.012082545086741447,-0.021517867222428322,0.01250856090337038,-0.42617958784103394,0.41885673999786377,-0.25026097893714905,0.52,-0.19,-0.12,276.57
1676239796.53856587,812087919,1,0.74,0.02,336.49,0.008085149340331554,-0.01186060905456543,-0.021263590082526207,0.0124961594119668,-0.42612552642822266,0.41869696974754333,-0.24989859759807587,0.52,-0.19,-0.12,276.57
1676239796.57849479,812127848,1,0.74,0.02,336.49,0.008602320216596127,-0.011531875468790531,-0.02123015746474266,0.011447876691818237,-0.42588159441947937,0.41832873225212097,-0.2495773434638977,0.52,-0.19,-0.12,276.57
1676239796.61850286,812167856,1,0.73,0.02,336.48,0.01055917702615261,-0.012606765143573284,-0.021197708323597908,0.009131348691880703,-0.42504119873046875,0.4175525903701782,-0.2496345192193985,0.52,-0.19,-0.12,276.57
1676239796.65850282,812207856,1,0.73,0.02,336.48,0.012153963558375835,-0.01424246747046709,-0.021206045523285866,0.004220773931592703,-0.4241376221179962,0.4167781174182892,-0.24976207315921783,0.52,-0.19,-0.12,276.57
1676239796.69854593,812247899,1,0.73,0.02,336.48,0.013764721341431141,-0.015492614358663559,-0.021020133048295975,-0.0004991137539036572,-0.4231376349925995,0.4159528911113739,-0.24990235269069672,0.52,-0.19,-0.12,276.57
1676239796.71858883,812267942,1,0.74,0.02,336.48,0.014605745673179626,-0.01575670950114727,-0.020969059318304062,-0.002117348136380315,-0.42255938053131104,0.41552871465682983,-0.249872088432312,0.52,-0.19,-0.12,276.57
1676239796.73850489,812287858,1,0.74,0.02,336.48,0.01551049668341875,-0.0153938764706254,-0.020873360335826874,-0.0039132339879870415,-0.4219397008419037,0.4150899648666382,-0.2499190717935562,0.52,-0.19,-0.12,276.57
1676239796.77849388,812327847,1,0.74,0.01,336.49,0.016624750569462776,-0.01450759544968605,-0.02149682305753231,-0.0089720468968153,-0.4214126169681549,0.4145934581756592,-0.25067993998527527,0.52,-0.19,-0.12,276.57
1676239796.81852984,812367883,1,0.74,0.02,336.49,0.016942275688052177,-0.014147172681987286,-0.022012559697031975,-0.017764072865247726,-0.42111024260520935,0.4142741560935974,-0.25165775418281555,0.52,-0.19,-0.12,276.57
1676239796.85849690,812407850,1,0.73,0.01,336.49,0.017753910273313522,-0.014040636830031872,-0.022223100066184998,-0.025354847311973572,-0.42066827416419983,0.4139256477355957,-0.25268059968948364,0.52,-0.19,-0.12,276.57
1676239796.89858890,812447942,1,0.73,0.01,336.49,0.01794992946088314,-0.013962266966700554,-0.022228199988603592,-0.028254695236682892,-0.4201788008213043,0.41359150409698486,-0.25345709919929504,0.52,-0.19,-0.12,276.57
1676239796.91850591,812467859,1,0.74,0.01,336.49,0.018144970759749413,-0.01374968234449625,-0.021961677819490433,-0.028211811557412148,-0.4199225902557373,0.41344672441482544,-0.25386473536491394,0.52,-0.19,-0.12,276.57
1676239796.93850994,812487863,1,0.74,0.02,336.49,0.018687957897782326,-0.013338984921574593,-0.021938778460025787,-0.028039632365107536,-0.41963985562324524,0.41330453753471375,-0.2542804479598999,0.52,-0.19,-0.12,276.57
1676239796.97851777,812527871,1,0.74,0.02,336.49,0.019878318533301353,-0.013217820785939693,-0.022643350064754486,-0.026998594403266907,-0.41898050904273987,0.4129692018032074,-0.2548390328884125,0.52,-0.19,-0.12,276.57
1676239797.01849484,812567848,1,0.74,0.02,336.5,0.019077330827713013,-0.012203051708638668,-0.022305073216557503,-0.024592923000454903,-0.4191617965698242,0.412680447101593,-0.2558651566505432,0.52,-0.19,-0.12,276.57
1676239797.05854487,812607898,1,0.74,0.02,336.5,0.020383384078741074,-0.012999063357710838,-0.022313226014375687,-0.025786496698856354,-0.41913852095603943,0.4123501777648926,-0.2568945288658142,0.52,-0.19,-0.12,276.57
1676239797.09850478,812647858,1,0.73,0.02,336.5,0.021434200927615166,-0.01133839413523674,-0.021716322749853134,-0.02673974633216858,-0.4191403090953827,0.412071168422699,-0.25790977478027344,0.52,-0.19,-0.12,276.57
1676239797.11849785,812667851,1,0.74,0.02,336.51,0.021727485582232475,-0.013781844638288021,-0.0226704403758049,-0.028340235352516174,-0.41913172602653503,0.4119349718093872,-0.2584652602672577,0.52,-0.19,-0.12,276.57
1676239797.13849878,812687852,1,0.74,0.02,336.52,0.018733151257038116,-0.012055831030011177,-0.022716965526342392,-0.02882193960249424,-0.41912052035331726,0.41177964210510254,-0.2590223550796509,0.52,-0.19,-0.12,276.57
1676239797.17853284,812727886,1,0.74,0.02,336.53000000000003,0.020366305485367775,-0.012632964178919792,-0.02218758501112461,-0.027794403955340385,-0.4189281165599823,0.41153061389923096,-0.25971555709838867,0.52,-0.19,-0.12,276.57
1676239797.21849489,812767848,1,0.75,0.02,336.52,0.016766181215643883,-0.008747332729399204,-0.0214526429772377,-0.01766897551715374,-0.41904929280281067,0.41198763251304626,-0.25935813784599304,0.52,-0.19,-0.12,276.57
1676239797.25860286,812807956,1,0.74,0.02,336.51,0.02100026048719883,-0.010939419269561768,-0.0207830760627985,-0.0038653744850307703,-0.4191078841686249,0.4124600887298584,-0.2591232359409332,0.52,-0.19,-0.12,276.57
1676239797.29850578,812847859,1,0.73,0.02,336.5,0.020859820768237114,-0.004479066003113985,-0.021259909495711327,0.005229757633060217,-0.4189560115337372,0.4129767119884491,-0.25898516178131104,0.52,-0.19,-0.12,276.57
1676239797.31849289,812867846,1,0.73,0.02,336.5,0.02167649008333683,-0.0066028921864926815,-0.021144943311810493,0.007840667851269245,-0.4189430773258209,0.41336604952812195,-0.2588334381580353,0.52,-0.19,-0.12,276.57
1676239797.33851576,812887869,1,0.74,0.03,336.5,0.021142370998859406,-0.006974692456424236,-0.021126627922058105,0.009075695648789406,-0.41871777176856995,0.41347312927246094,-0.2589741051197052,0.52,-0.19,-0.12,276.57
1676239797.37850380,812927857,1,0.74,0.03,336.49,0.015793519094586372,-0.013408737257122993,-0.020704684779047966,0.00967087410390377,-0.4187077581882477,0.4140401780605316,-0.2585497498512268,0.52,-0.19,-0.12,276.57
1676239797.41854191,812967895,1,0.75,0.02,336.49,0.024366838857531548,-0.004317994695156813,-0.01983012817800045,0.013128941878676414,-0.4204438030719757,0.4157460033893585,-0.2581842541694641,0.52,-0.19,-0.12,276.57
1676239797.45849776,813007851,1,0.74,0.02,336.49,0.017235830426216125,0.0033851133193820715,-0.02051275409758091,0.01435292512178421,-0.421896755695343,0.4178772568702698,-0.2577812969684601,0.52,-0.19,-0.12,276.57
1676239797.49849296,813047846,1,0.72,0.02,336.47,0.015176737681031227,-0.006709263660013676,-0.023706933483481407,0.01426073256880045,-0.4233330488204956,0.419536292552948,-0.2572562098503113,0.52,-0.19,-0.12,276.57
1676239797.51851583,813067869,1,0.7000000000000001,0.02,336.48,0.019321994855999947,0.007488551549613476,-0.013755422085523605,0.02488863840699196,-0.42424246668815613,0.4206886291503906,-0.2568489611148834,0.52,-0.19,-0.12,276.57
1676239797.53852582,813087879,1,0.7000000000000001,0.02,336.49,0.026805028319358826,0.014446697197854519,-0.02319445088505745,0.015508422628045082,-0.4243953824043274,0.42142990231513977,-0.25680994987487793,0.52,-0.19,-0.12,276.57
1676239797.57849383,813127847,1,0.6900000000000001,0.01,336.48,0.005243029911071062,-0.008028615266084671,-0.015377981588244438,0.022023186087608337,-0.4258601665496826,0.4236001670360565,-0.2559492886066437,0.52,-0.19,-0.12,276.57
1676239797.61858177,813167935,1,0.72,0.01,336.47,0.014658451080322266,0.0034397852141410112,-0.01394190639257431,0.020646486431360245,-0.4275154173374176,0.42499491572380066,-0.2560718357563019,0.52,-0.19,-0.12,276.57
1676239797.65850687,813207860,1,0.72,0.01,336.48,0.019179662689566612,0.0022784601897001266,-0.011845031753182411,0.01604279689490795,-0.4284530580043793,0.42663654685020447,-0.25621920824050903,0.52,-0.19,-0.12,276.57
1676239797.69851995,813247873,1,0.73,0.02,336.46,0.008447617292404175,0.0039508952759206295,-0.022037046030163765,0.002728404477238655,-0.429719477891922,0.42783260345458984,-0.2560596168041229,0.52,-0.19,-0.12,276.57
1676239797.71852398,813267877,1,0.68,0.01,336.46,0.016400516033172607,0.010383501648902893,-0.017466044053435326,0.006279060151427984,-0.4304060935974121,0.42886051535606384,-0.2558087408542633,0.52,-0.19,-0.12,276.57
1676239797.73850679,813287860,1,0.67,0.02,336.46,0.02032553404569626,0.011778583750128746,-0.02559460513293743,-0.0026637022383511066,-0.4304410219192505,0.42958176136016846,-0.25598764419555664,0.52,-0.19,-0.12,276.57
1676239797.77854586,813327899,1,0.76,0.03,336.45,0.00790838897228241,0.006288581993430853,-0.02325369603931904,-0.0014523257268592715,-0.43160340189933777,0.4312077760696411,-0.2555304765701294,0.52,-0.19,-0.12,276.57
1676239797.81849384,813367847,1,0.7000000000000001,0.02,336.45,0.015856944024562836,0.004842560738325119,-0.015816878527402878,0.005091399420052767,-0.43302100896835327,0.43250152468681335,-0.2557685971260071,0.52,-0.19,-0.12,276.57
1676239797.85849380,813407847,1,0.77,0.01,336.47,0.0030937937553972006,0.00264683086425066,-0.016897806897759438,0.0004723969614133239,-0.43436452746391296,0.43323448300361633,-0.25604885816574097,0.52,-0.19,-0.12,276.57
1676239797.89852595,813447879,1,0.7000000000000001,0.0,336.47,0.015320326201617718,0.019634095951914787,-0.007651348598301411,0.009332340210676193,-0.43553268909454346,0.43429630994796753,-0.2560808062553406,0.52,-0.19,-0.12,276.57
1676239797.91850591,813467859,1,0.72,0.03,336.47,0.011280903592705727,0.004208703059703112,-0.017381977289915085,-0.0004344559565652162,-0.436105877161026,0.4350249469280243,-0.256056547164917,0.52,-0.19,-0.12,276.57
1676239797.93849492,813487848,1,0.73,0.02,336.46,0.0034189787693321705,0.001678473548963666,-0.02088460698723793,-0.003909317310899496,-0.43636155128479004,0.43527355790138245,-0.2563071846961975,0.52,-0.19,-0.12,276.57
1676239797.97860098,813527954,1,0.73,0.02,336.45,0.019311754032969475,0.024188291281461716,-0.01963271014392376,-0.002548461314290762,-0.4376373291015625,0.4364616572856903,-0.2561057209968567,0.52,-0.19,-0.12,276.57
1676239798.01849794,813567851,1,0.72,0.01,336.44,0.007540914695709944,0.004505876451730728,-0.019348319619894028,0.0007374019478447735,-0.4378684163093567,0.4370507299900055,-0.25559327006340027,0.52,-0.19,-0.12,276.57
1676239798.05851793,813607871,1,0.72,0.02,336.46,0.010168366134166718,0.013478965498507023,-0.02567463554441929,0.001089559867978096,-0.4386470317840576,0.43715807795524597,-0.25502148270606995,0.52,-0.19,-0.12,276.57
1676239798.09851193,813647865,1,0.72,0.03,336.45,0.01732463575899601,0.005054553039371967,-0.013921408914029598,0.020247800275683403,-0.43847885727882385,0.437747597694397,-0.2543501853942871,0.52,-0.19,-0.12,276.57
1676239798.11849999,813667853,1,0.72,0.01,336.45,-0.0015195237938314676,0.0049605476669967175,-0.019575992599129677,0.01697579026222229,-0.4387423098087311,0.4378490149974823,-0.25377756357192993,0.52,-0.19,-0.12,276.57
1676239798.13854599,813687899,1,0.73,0.02,336.47,-0.0010186582803726196,0.010040928609669209,-0.03465188667178154,0.003964667208492756,-0.4390183687210083,0.4380039572715759,-0.25377634167671204,0.52,-0.19,-0.12,276.57
1676239798.17850685,813727860,1,0.75,0.02,336.46,0.02923354133963585,0.018147829920053482,-0.017016177996993065,0.0225691981613636,-0.4388072192668915,0.43858301639556885,-0.25319260358810425,0.52,-0.19,-0.12,276.57
1676239798.21849895,813767852,1,0.72,0.01,336.46,-0.006167415529489517,0.013067708350718021,-0.022966571152210236,0.008232609368860722,-0.4395802319049835,0.4384578466415405,-0.2536574900150299,0.52,-0.19,-0.12,276.57
1676239798.25852489,813807878,1,0.66,0.01,336.46,0.02144838683307171,0.01692771166563034,-0.022917255759239197,-0.003436561208218336,-0.44000107049942017,0.4385163187980652,-0.2540145516395569,0.52,-0.19,-0.12,276.57
1676239798.29849482,813847848,1,0.7000000000000001,0.02,336.43,0.0004247014585416764,0.0036557512357831,-0.007297760806977749,0.006644408218562603,-0.4398490786552429,0.4387151002883911,-0.2541952133178711,0.52,-0.19,-0.12,276.57
1676239798.31853986,813867893,1,0.6900000000000001,0.02,336.46,0.003817216493189335,0.004604755900800228,-0.031505245715379715,-0.01903076469898224,-0.4402422308921814,0.43860378861427307,-0.2542707920074463,0.52,-0.19,-0.12,276.57
1676239798.33860183,813887955,1,0.75,0.02,336.46,0.01793588325381279,0.018007799983024597,-0.008310124278068542,0.003424739930778742,-0.4402811527252197,0.4386982321739197,-0.25450146198272705,0.52,-0.19,-0.12,276.57
1676239798.37850499,813927858,1,0.74,0.02,336.43,0.017927704378962517,0.015939831733703613,0.0012811488704755902,0.012843430042266846,-0.43988049030303955,0.4388718605041504,-0.25468623638153076,0.52,-0.19,-0.12,276.57
1676239798.41851783,813967871,1,0.74,0.02,336.43,0.006798261776566505,0.009450031444430351,-0.034753140062093735,-0.016257213428616524,-0.44220849871635437,0.43934428691864014,-0.2538348138332367,0.52,-0.19,-0.12,276.57
1676239798.45849895,814007852,1,0.71,0.01,336.44,0.008428243920207024,0.015721959993243217,-0.03282460942864418,-0.007457131519913673,-0.4433874189853668,0.4396296441555023,-0.2532670795917511,0.52,-0.19,-0.12,276.57
1676239798.49854183,814047895,1,0.76,0.0,336.43,0.008135772310197353,0.020555444061756134,-0.02448088675737381,0.009669585153460503,-0.44442418217658997,0.4402273893356323,-0.25262221693992615,0.52,-0.19,-0.12,276.57
1676239798.51859784,814067951,1,0.73,0.04,336.42,0.005935040768235922,0.014540504664182663,0.0001988358562812209,0.036895718425512314,-0.4452453553676605,0.4404528737068176,-0.25204595923423767,0.52,-0.19,-0.12,276.57
1676239798.53850698,814087860,1,0.75,0.02,336.40000000000003,0.01550527848303318,0.005299325566738844,-0.03911270573735237,0.00011273395648458973,-0.44544148445129395,0.44069960713386536,-0.2521134614944458,0.52,-0.19,-0.12,276.57
1676239798.57849979,814127853,1,0.76,0.02,336.41,0.017450757324695587,0.00659902673214674,-0.030475640669465065,0.011733952909708023,-0.44615602493286133,0.4412378966808319,-0.251203715801239,0.52,-0.19,-0.12,276.57
1676239798.61853385,814167887,1,0.78,0.0,336.43,0.015485474839806557,0.02783050201833248,-0.022075539454817772,0.0337609201669693,-0.44862160086631775,0.4405478537082672,-0.24795570969581604,0.52,-0.19,-0.12,276.57
1676239798.65850782,814207861,1,0.73,0.01,336.42,0.01188851147890091,0.026875067502260208,-0.0077870870009064674,0.06184704601764679,-0.4500407874584198,0.4402489960193634,-0.24622105062007904,0.52,-0.19,-0.12,276.57
1676239798.69860387,814247957,1,0.71,0.0,336.40000000000003,-0.006945094559341669,0.0013126740232110023,-0.02527155913412571,0.05215737596154213,-0.451273113489151,0.44005125761032104,-0.24432379007339478,0.52,-0.19,-0.12,276.57
1676239798.71852183,814267875,1,0.7000000000000001,0.0,336.38,-0.005605814512819052,0.004021687898784876,-0.006864411290735006,0.07121984660625458,-0.45210161805152893,0.43978211283683777,-0.24314916133880615,0.52,-0.19,-0.12,276.57
1676239798.73850894,814287862,1,0.77,0.05,336.38,-0.014344093389809132,0.01085636392235756,-0.012234603054821491,0.0659564957022667,-0.4524918496608734,0.4398660659790039,-0.2428828775882721,0.52,-0.19,-0.12,276.57
1676239798.77856278,814327916,1,0.84,0.08,336.36,-0.006592790596187115,0.003904661163687706,0.004916246980428696,0.07836367934942245,-0.45363494753837585,0.43974438309669495,-0.2415449619293213,0.52,-0.19,-0.11,276.57
1676239798.81849790,814367851,1,0.74,0.06,336.34000000000003,-0.002662205370143056,-4.976366471964866e-05,-0.019104091450572014,0.0435725562274456,-0.45556536316871643,0.4393412172794342,-0.24045729637145996,0.52,-0.19,-0.11,276.57
1676239798.85854292,814407896,1,0.78,0.05,336.33,0.0007865030784159899,0.0022033059503883123,-0.00855020247399807,0.04065762460231781,-0.4566974639892578,0.43926435708999634,-0.23995254933834076,0.52,-0.19,-0.11,276.57
1676239798.89849496,814447848,1,0.63,0.05,336.31,-0.006317155435681343,0.006985134910792112,-0.03427991643548012,0.005881117191165686,-0.4577031433582306,0.4391394555568695,-0.23942714929580688,0.52,-0.19,-0.11,276.57
1676239798.91849589,814467849,1,0.6900000000000001,0.09,336.29,0.0003440036962274462,0.017490865662693977,-0.014421917498111725,0.02191714197397232,-0.45830395817756653,0.4391075074672699,-0.2390531450510025,0.52,-0.19,-0.11,276.57
1676239798.93849897,814487852,1,0.55,0.12,336.27,-0.005437265615910292,0.014062328264117241,-0.030017109587788582,0.0032929705921560526,-0.45863237977027893,0.4391460418701172,-0.23908506333827972,0.52,-0.19,-0.11,276.57
1676239798.97853184,814527885,1,0.43,0.13,336.23,0.004818967543542385,0.01374672818928957,-0.010562578216195107,0.018662847578525543,-0.4594661593437195,0.43900856375694275,-0.2387516349554062,0.52,-0.19,-0.11,276.57
1676239799.01849794,814567851,1,0.45,0.11,336.19,-0.0009399306145496666,-0.005286876577883959,0.014409412629902363,0.05539974197745323,-0.4642671048641205,0.43725553154945374,-0.23553042113780975,0.52,-0.19,-0.11,276.57
1676239799.05860686,814607960,1,0.43,0.11,336.14,-0.0039938027039170265,-0.0013131197774782777,0.008245511911809444,0.06642360240221024,-0.4676167964935303,0.43579044938087463,-0.23338721692562103,0.52,-0.19,-0.11,276.57
1676239799.09850693,814647860,1,0.41000000000000003,0.11,336.08,-0.003179370891302824,-0.01020145881921053,-0.016528332605957985,0.05765711888670921,-0.4707377552986145,0.4343888461589813,-0.23131753504276276,0.52,-0.19,-0.11,276.57
1676239799.11849499,814667848,1,0.49,0.14,336.06,-0.02429911494255066,-0.01720714382827282,-0.030684316530823708,0.04760180041193962,-0.47265079617500305,0.43356162309646606,-0.2300756424665451,0.52,-0.19,-0.11,276.57
1676239799.13858294,814687936,1,0.4,0.15,336.02,-0.01715967059135437,-0.012997091747820377,-0.05429690703749657,0.02725130319595337,-0.47368884086608887,0.4331054389476776,-0.22984543442726135,0.52,-0.19,-0.11,276.57
1676239799.17849493,814727848,1,0.28,0.14,335.99,-0.02054610662162304,-0.009113098494708538,-0.013928364962339401,0.06974134594202042,-0.47655200958251953,0.43176448345184326,-0.22840936481952667,0.52,-0.19,-0.11,276.57
1676239799.21854186,814767895,1,0.03,0.2,335.91,-0.02412649430334568,-0.035066235810518265,-0.08213207870721817,-0.0031288419850170612,-0.48015671968460083,0.4284740686416626,-0.2275460660457611,0.52,-0.19,-0.11,276.57
1676239799.25849390,814807847,1,0.07,0.2,335.85,-0.03171994164586067,-0.03418584540486336,-0.07781616598367691,-0.007966757752001286,-0.48311057686805725,0.42537206411361694,-0.22766031324863434,0.52,-0.19,-0.11,276.57
1676239799.29849482,814847848,1,-0.03,0.24,335.77,-0.031404800713062286,-0.05940263718366623,-0.0630611926317215,0.0023230116348713636,-0.4860462248325348,0.4217876195907593,-0.22804509103298187,0.52,-0.19,-0.1,276.57
1676239799.31851983,814867873,1,0.1,0.17,335.76,-0.044580381363630295,-0.061279308050870895,-0.10241523385047913,-0.039413463324308395,-0.4876253604888916,0.4197603762149811,-0.22829872369766235,0.52,-0.19,-0.1,276.57
1676239799.33852577,814887879,1,-0.03,0.13,335.73,-0.01956438459455967,-0.05508843809366226,-0.125660702586174,-0.0644051805138588,-0.48863711953163147,0.41815510392189026,-0.22948609292507172,0.52,-0.19,-0.1,276.57
1676239799.37849689,814927850,1,-0.15,0.15,335.63,-0.008179103955626488,-0.061428021639585495,-0.09642498940229416,-0.03874992951750755,-0.490908145904541,0.4146187901496887,-0.23231957852840424,0.52,-0.19,-0.1,276.57
1676239799.41857195,814967925,1,0.03,0.09,335.57,-0.0306350439786911,-0.05637596175074577,-0.21097713708877563,-0.17460717260837555,-0.4926541745662689,0.4093649685382843,-0.2393910139799118,0.52,-0.19,-0.1,276.57
1676239799.45849681,815007850,1,-0.29,0.05,335.49,-0.012625896371901035,-0.05518394708633423,-0.24360160529613495,-0.2363126575946808,-0.4938053488731384,0.4051719307899475,-0.24744752049446106,0.52,-0.19,-0.1,276.57
1676239799.49852276,815047876,1,0.1,0.05,335.40000000000003,-0.0007835181313566864,-0.056250832974910736,-0.2012508064508438,-0.20535418391227722,-0.49457791447639465,0.4013877809047699,-0.2560250461101532,0.52,-0.19,-0.1,276.57
1676239799.51853490,815067888,1,0.27,0.08,335.40000000000003,0.003107172204181552,-0.03136833757162094,-0.2597522735595703,-0.26555317640304565,-0.49489331245422363,0.39933767914772034,-0.26075947284698486,0.52,-0.19,-0.1,276.57
1676239799.53850698,815087860,1,0.09,0.11,335.33,-0.01257059071213007,-0.03557419404387474,-0.2720414996147156,-0.278186559677124,-0.4951074719429016,0.3979121148586273,-0.2661527991294861,0.52,-0.19,-0.1,276.57
1676239799.57854199,815127895,1,0.07,0.1,335.26,-0.004169885069131851,-0.04726139456033707,-0.3390437066555023,-0.34378716349601746,-0.4954055845737457,0.3946012258529663,-0.2775377631187439,0.52,-0.19,-0.1,276.57
1676239799.61850691,815167860,1,-0.2,0.08,335.19,0.014733885414898396,-0.03364449739456177,-0.3492485582828522,-0.3692115247249603,-0.49613067507743835,0.393373042345047,-0.2925072908401489,0.52,-0.19,-0.1,276.57
1676239799.65849590,815207849,1,-0.36,0.19,335.1,0.01805419847369194,-0.028084876015782356,-0.371445894241333,-0.41421249508857727,-0.4968579411506653,0.39238980412483215,-0.3096233010292053,0.52,-0.19,-0.1,276.57
1676239799.69853497,815247888,1,0.06,0.26,335.03000000000003,0.009612055495381355,-0.042475271970033646,-0.3936466872692108,-0.44383594393730164,-0.49693357944488525,0.3915606439113617,-0.32589250802993774,0.52,-0.19,-0.09,276.57
1676239799.71849489,815267848,1,-0.13,0.2,334.96,0.021769464015960693,-0.014193852432072163,-0.42843979597091675,-0.47759202122688293,-0.49680987000465393,0.39120686054229736,-0.33477190136909485,0.52,-0.19,-0.09,276.57
1676239799.73849678,815287850,1,-0.17,0.2,334.96,0.011469057761132717,-0.032875560224056244,-0.43181881308555603,-0.4782423973083496,-0.4968217611312866,0.3909608721733093,-0.3441152572631836,0.52,-0.19,-0.09,276.57
1676239799.77859378,815327947,1,0.09,0.23,334.88,0.0031502859201282263,-0.020781582221388817,-0.4767819344997406,-0.5145705938339233,-0.49649912118911743,0.39052721858024597,-0.3625065088272095,0.52,-0.19,-0.09,276.57
1676239799.81849480,815367848,1,0.14,0.33,334.83,0.008998625911772251,-0.019838519394397736,-0.5716224312782288,-0.5927140712738037,-0.49736204743385315,0.3876873254776001,-0.3823947608470917,0.52,-0.19,-0.09,276.57
1676239799.85857677,815407930,1,-0.12,0.61,334.78000000000003,0.017611416056752205,-0.0012979037128388882,-0.545329213142395,-0.5516717433929443,-0.49844831228256226,0.38468870520591736,-0.40264374017715454,0.52,-0.19,-0.09,276.57
1676239799.89849687,815447850,1,0.14,0.98,334.72,0.03053305484354496,0.007860403507947922,-0.5371652841567993,-0.5265856385231018,-0.4990217685699463,0.38279566168785095,-0.42351338267326355,0.52,-0.19,-0.09,276.57
1676239799.91849995,815467853,1,0.28,1.17,334.72,0.004565028939396143,-0.0015450891805812716,-0.571536660194397,-0.5532342195510864,-0.4990975856781006,0.38224899768829346,-0.4348425269126892,0.52,-0.19,-0.09,276.57
1676239799.93854380,815487897,1,0.24,1.3,334.67,0.021182863041758537,0.005122447852045298,-0.5631781816482544,-0.5390027165412903,-0.49952802062034607,0.38124215602874756,-0.4460430145263672,0.52,-0.19,-0.09,276.57
1676239799.97852182,815527875,1,0.37,1.61,334.64,0.0065584550611674786,0.013724809512495995,-0.5928595662117004,-0.5617192387580872,-0.49997538328170776,0.38005825877189636,-0.4684104919433594,0.52,-0.19,-0.09,276.57
1676239800.01850080,815567854,1,0.43,1.74,334.58,0.018281495198607445,0.022268803790211678,-0.5933223962783813,-0.5423961281776428,-0.4997658133506775,0.38133296370506287,-0.49014103412628174,0.52,-0.19,-0.09,276.57
1676239800.05852699,815607880,1,0.38,1.87,334.55,0.0035702029708772898,0.03484942018985748,-0.6142414212226868,-0.5424697995185852,-0.4996432662010193,0.3829997181892395,-0.5103320479393005,0.52,-0.19,-0.09,276.57
1676239800.09850192,815647855,1,0.6,1.9100000000000001,334.55,-0.006397713907063007,0.02855759486556053,-0.624211847782135,-0.5356347560882568,-0.4995621144771576,0.3849233090877533,-0.532691240310669,0.52,-0.19,-0.09,276.57
1676239800.11854291,815667896,1,0.55,2.0300000000000002,334.5,-0.012104671448469162,0.04600505530834198,-0.6327236294746399,-0.5394377112388611,-0.4996109902858734,0.38599693775177,-0.5443732738494873,0.52,-0.19,-0.09,276.57
1676239800.13858795,815687941,1,0.46,2.09,334.5,0.001374641782604158,0.04617370292544365,-0.5973256230354309,-0.50174480676651,-0.4996585249900818,0.387287974357605,-0.5539699196815491,0.52,-0.19,-0.09,276.57
1676239800.17850590,815727859,1,0.48,2.36,334.46,-0.0005646120407618582,0.0628955289721489,-0.5975458025932312,-0.5037921071052551,-0.4999768137931824,0.3900555968284607,-0.5756269097328186,0.52,-0.19,-0.08,276.57
1676239800.21857691,815767930,1,0.4,2.54,334.43,-0.021045612171292305,0.06492900848388672,-0.572494387626648,-0.4510435163974762,-0.4998496174812317,0.39242249727249146,-0.5912073254585266,0.52,-0.19,-0.08,276.57
1676239800.25849485,815807848,1,0.29,2.36,334.43,-0.013477605767548084,0.08062829822301865,-0.5913972854614258,-0.4280461072921753,-0.4997325539588928,0.3952675461769104,-0.6070427894592285,0.52,-0.19,-0.08,276.57
1676239800.29854083,815847894,1,0.37,2.09,334.40000000000003,-0.013203885406255722,0.1059354916214943,-0.5767999291419983,-0.38974452018737793,-0.4995563328266144,0.3984738290309906,-0.6217120289802551,0.52,-0.19,-0.08,276.57
1676239800.31858897,815867942,1,0.25,1.79,334.39,-0.018095115199685097,0.09508168697357178,-0.5515236854553223,-0.3598763048648834,-0.4995647668838501,0.4001607894897461,-0.6301621198654175,0.52,-0.19,-0.08,276.57
1676239800.33850384,815887857,1,0.31,1.44,334.40000000000003,0.009762993082404137,0.10967947542667389,-0.5298574566841125,-0.34032273292541504,-0.4994087517261505,0.4020169973373413,-0.6377888917922974,0.52,-0.19,-0.08,276.57
1676239800.37849498,815927848,1,0.23,0.75,334.37,-0.009469768032431602,0.10030249506235123,-0.5432807207107544,-0.36281752586364746,-0.49916693568229675,0.4061868488788605,-0.6544016599655151,0.52,-0.19,-0.08,276.57
1676239800.41853380,815967887,1,0.45,0.11,334.33,-0.009245119988918304,0.11141093820333481,-0.5403823852539062,-0.3391481041908264,-0.5007518529891968,0.4082077443599701,-0.664327085018158,0.52,-0.19,-0.08,276.57
1676239800.45849895,816007852,1,0.21,-0.44,334.33,0.0021022807341068983,0.13012683391571045,-0.49016135931015015,-0.25340694189071655,-0.5019853711128235,0.4108485281467438,-0.6758638620376587,0.52,-0.19,-0.08,276.57
1676239800.49859285,816047946,1,0.28,-0.78,334.3,0.02713257446885109,0.11878613382577896,-0.45967793464660645,-0.2065705955028534,-0.5030561089515686,0.41308078169822693,-0.6842353940010071,0.52,-0.19,-0.08,276.57
1676239800.51850176,816067855,1,0.37,-0.9500000000000001,334.32,0.01977238431572914,0.14083391427993774,-0.4549483060836792,-0.19987161457538605,-0.503034234046936,0.4150661826133728,-0.6917560696601868,0.52,-0.19,-0.08,276.57
1676239800.53849387,816087847,1,0.45,-1.0,334.3,0.023232318460941315,0.129632368683815,-0.4897322952747345,-0.2406998872756958,-0.5031851530075073,0.41653624176979065,-0.6970879435539246,0.52,-0.19,-0.08,276.57
1676239800.57857800,816127931,1,0.45,-1.09,334.3,0.0355842299759388,0.13416875898838043,-0.467771977186203,-0.23828811943531036,-0.502711296081543,0.420159250497818,-0.7094981074333191,0.52,-0.19,-0.08,276.57
1676239800.61850691,816167860,1,0.32,-1.07,334.31,0.060809485614299774,0.13902799785137177,-0.47078192234039307,-0.23055016994476318,-0.5056682825088501,0.42591360211372375,-0.7161095142364502,0.52,-0.19,-0.08,276.57
1676239800.65854597,816207899,1,0.61,-0.9400000000000001,334.34000000000003,0.06210765987634659,0.1497400403022766,-0.4180993437767029,-0.15365871787071228,-0.5075366497039795,0.43192437291145325,-0.7235756516456604,0.52,-0.19,-0.08,276.57
1676239800.69850683,816247860,1,0.54,-0.8,334.35,0.06921931356191635,0.12633149325847626,-0.40831950306892395,-0.14127716422080994,-0.5097494125366211,0.4379836618900299,-0.728408932685852,0.52,-0.19,-0.08,276.57
1676239800.71850681,816267860,1,0.54,-0.6900000000000001,334.35,0.06723318248987198,0.1469360738992691,-0.38267767429351807,-0.11961930990219116,-0.509326696395874,0.44105449318885803,-0.7339022755622864,0.52,-0.19,-0.08,276.57
1676239800.73849678,816287850,1,0.43,-0.5700000000000001,334.36,0.0798213854432106,0.13515576720237732,-0.40590018033981323,-0.15407222509384155,-0.5097888112068176,0.4442352056503296,-0.7370138764381409,0.52,-0.19,-0.08,276.57
1676239800.77852678,816327880,1,0.74,-0.31,334.39,0.08887621015310287,0.15080352127552032,-0.3445591330528259,-0.10872574895620346,-0.5091455578804016,0.4497857093811035,-0.7401840686798096,0.52,-0.19,-0.08,276.57
1676239800.81849885,816367852,1,0.49,-0.03,334.44,0.09989719837903976,0.17128439247608185,-0.3560744822025299,-0.07046817988157272,-0.5076940655708313,0.4554160535335541,-0.7425260543823242,0.52,-0.19,-0.08,276.57
1676239800.85858798,816407941,1,0.46,0.14,334.47,0.11685950309038162,0.15162847936153412,-0.3823680877685547,-0.06785253435373306,-0.5057793855667114,0.4610597491264343,-0.7455293536186218,0.52,-0.19,-0.08,276.57
1676239800.89849591,816447849,1,0.37,0.38,334.47,0.11204797774553299,0.15567965805530548,-0.3677378296852112,-0.04916369542479515,-0.5030969381332397,0.467302531003952,-0.7501412630081177,0.52,-0.19,-0.07,276.57
1676239800.91849494,816467848,1,0.27,0.46,334.48,0.13682402670383453,0.17567366361618042,-0.32261601090431213,-0.009557162411510944,-0.5018453598022461,0.4704172909259796,-0.7512493133544922,0.52,-0.19,-0.07,276.57
1676239800.93852186,816487875,1,0.28,0.46,334.49,0.12647442519664764,0.17284247279167175,-0.3676473796367645,-0.06959462910890579,-0.5004942417144775,0.4735003113746643,-0.7524383664131165,0.52,-0.19,-0.07,276.57
1676239800.97849393,816527847,1,0.27,0.43,334.52,0.13179223239421844,0.18762865662574768,-0.33244895935058594,-0.06549429893493652,-0.49682822823524475,0.48007866740226746,-0.7577160596847534,0.52,-0.19,-0.07,276.57
1676239801.01854587,816567899,1,0.25,0.25,334.58,0.14547698199748993,0.18153342604637146,-0.34110578894615173,-0.09102895110845566,-0.49626147747039795,0.4865710437297821,-0.7619267106056213,0.52,-0.19,-0.07,276.57
1676239801.05850792,816607861,1,0.2,0.17,334.57,0.13518482446670532,0.18785355985164642,-0.3450842797756195,-0.10878244042396545,-0.49516934156417847,0.49304860830307007,-0.7664371728897095,0.52,-0.19,-0.07,276.57
1676239801.09849381,816647847,1,0.16,-0.05,334.61,0.15620698034763336,0.18107473850250244,-0.3086465895175934,-0.09624706208705902,-0.4930119812488556,0.5001276731491089,-0.7724228501319885,0.52,-0.19,-0.07,276.57
1676239801.11851382,816667867,1,0.3,-0.23,334.65000000000003,0.15482431650161743,0.20717158913612366,-0.31399521231651306,-0.1144610345363617,-0.49238884449005127,0.5034459233283997,-0.7744949460029602,0.52,-0.19,-0.07,276.57
1676239801.13852382,816687877,1,0.15,-0.32,334.67,0.15731500089168549,0.20110127329826355,-0.3368600904941559,-0.15325015783309937,-0.49153387546539307,0.5068824887275696,-0.7767937183380127,0.52,-0.19,-0.07,276.57
1676239801.17849398,816727847,1,0.33,-0.38,334.7,0.16972358524799347,0.19731396436691284,-0.3022771179676056,-0.1473838835954666,-0.488014280796051,0.5144428610801697,-0.784051239490509,0.52,-0.19,-0.07,276.57
1676239801.21856880,816767922,1,0.25,-0.24,334.76,0.16891206800937653,0.2035910189151764,-0.3286241888999939,-0.1609860360622406,-0.48511752486228943,0.5217315554618835,-0.784690260887146,0.52,-0.19,-0.07,276.57
1676239801.25849795,816807851,1,0.61,0.08,334.83,0.17186148464679718,0.2131548672914505,-0.29391786456108093,-0.08345949649810791,-0.4812259078025818,0.529744029045105,-0.7871407866477966,0.52,-0.19,-0.07,276.57
1676239801.29851389,816847867,1,0.53,0.6,334.89,0.16759395599365234,0.21091441810131073,-0.2933940887451172,-0.05860985442996025,-0.476957231760025,0.5379913449287415,-0.789430558681488,0.52,-0.19,-0.07,276.57
1676239801.31852293,816867876,1,0.56,0.8,334.95,0.1718146651983261,0.24384373426437378,-0.2596656382083893,-0.02000589109957218,-0.47513875365257263,0.5420601963996887,-0.7895298004150391,0.52,-0.19,-0.07,276.57
1676239801.33850980,816887863,1,0.51,1.07,334.95,0.17750820517539978,0.22683118283748627,-0.30605071783065796,-0.06848232448101044,-0.4729178547859192,0.5464715957641602,-0.7903701663017273,0.52,-0.19,-0.07,276.57
1676239801.37853980,816927893,1,0.31,1.52,335.06,0.18673472106456757,0.2561084032058716,-0.31156018376350403,-0.0974808931350708,-0.4705915153026581,0.5558777451515198,-0.7980133295059204,0.52,-0.19,-0.07,276.57
1676239801.41849780,816967851,1,0.4,1.8800000000000001,335.16,0.18632523715496063,0.25214725732803345,-0.2583414912223816,-0.10803231596946716,-0.46966221928596497,0.5653926730155945,-0.8066455125808716,0.52,-0.19,-0.07,276.57
1676239801.45849586,817007849,1,0.47000000000000003,2.36,335.3,0.17745913565158844,0.28546154499053955,-0.232094407081604,-0.14380311965942383,-0.4680255651473999,0.5759027600288391,-0.8160035014152527,0.52,-0.19,-0.07,276.57
1676239801.49853182,817047885,1,-0.05,-1.27,175.51,0.15208402276039124,0.31098511815071106,-0.2796693742275238,-0.23873773217201233,-0.46649301052093506,0.5875115990638733,-0.8260531425476074,0.52,-0.19,-0.07,276.57
1676239801.51851892,817067872,1,0.06,-0.81,175.57,0.15753202140331268,0.2819681763648987,-0.3032727837562561,-0.28228744864463806,-0.4662725627422333,0.5933411121368408,-0.8312397003173828,0.52,-0.19,-0.07,276.57
1676239801.53849578,817087849,1,0.18,-0.36,175.66,0.1549883633852005,0.3012446463108063,-0.298968106508255,-0.29397302865982056,-0.46597766876220703,0.5991830825805664,-0.8366358280181885,0.52,-0.19,-0.07,276.57
1676239801.57857180,817127925,1,0.63,0.9500000000000001,175.77,0.153671994805336,0.27705705165863037,-0.26245182752609253,-0.28052818775177,-0.4642396569252014,0.6097253561019897,-0.8481307625770569,0.52,-0.19,-0.07,276.57
1676239801.61849594,817167849,1,0.65,2.35,175.78,0.1299392729997635,0.23752525448799133,-0.25151461362838745,-0.2773963510990143,-0.4650723338127136,0.6242892146110535,-0.8578214049339294,0.52,-0.19,-0.07,276.57
1676239801.65851784,817207871,1,0.89,3.54,175.78,0.1390189528465271,0.22815686464309692,-0.29561302065849304,-0.31011149287223816,-0.465257465839386,0.6373095512390137,-0.8678140044212341,0.52,-0.19,-0.07,276.57
1676239801.69850183,817247855,1,0.96,4.49,175.48,0.15155665576457977,0.2237725406885147,-0.3016064167022705,-0.3167590796947479,-0.464414119720459,0.6482974290847778,-0.880216658115387,0.52,-0.19,-0.07,276.57
1676239801.71849489,817267848,1,0.81,4.82,175.28,0.1601109504699707,0.18719874322414398,-0.298015832901001,-0.31842559576034546,-0.46404367685317993,0.6532015800476074,-0.8865202069282532,0.52,-0.19,-0.07,276.57
1676239801.73854494,817287898,1,0.85,5.01,175.09,0.18551787734031677,0.18631327152252197,-0.2852574288845062,-0.31020301580429077,-0.46308186650276184,0.6574876308441162,-0.8927662968635559,0.52,-0.19,-0.07,276.57
1676239801.77849293,817327846,1,0.86,5.2,174.79,0.2079458385705948,0.15449698269367218,-0.2947849929332733,-0.3255585730075836,-0.4587218761444092,0.6640264987945557,-0.9045194387435913,0.52,-0.19,-0.07,276.57
1676239801.81849384,817367847,1,0.71,5.0,174.62,0.2372792512178421,0.12041811645030975,-0.2572426497936249,-0.27571481466293335,-0.4601632058620453,0.6752777695655823,-0.913797914981842,0.52,-0.19,-0.07,276.57
1676239801.85853577,817407889,1,0.33,4.62,174.39000000000001,0.2588236927986145,0.1058332771062851,-0.2668139934539795,-0.2606510818004608,-0.4590558409690857,0.6841896176338196,-0.9223996996879578,0.52,-0.19,-0.07,276.57
1676239801.89849997,817447853,1,0.06,3.93,174.34,0.2868057191371918,0.07714248448610306,-0.24067510664463043,-0.21984297037124634,-0.4546237289905548,0.6916370987892151,-0.932217001914978,0.52,-0.19,-0.07,276.57
1676239801.91854382,817467897,1,-0.04,3.5,174.33,0.3018539845943451,0.08929577469825745,-0.27688196301460266,-0.2536541223526001,-0.45219382643699646,0.6950421929359436,-0.9370529055595398,0.52,-0.19,-0.07,276.57
1676239801.93857098,817487924,1,-0.07,3.0500000000000003,174.34,0.3233256936073303,0.10317742824554443,-0.25681865215301514,-0.23328366875648499,-0.44938182830810547,0.6978800296783447,-0.9414629340171814,0.52,-0.19,-0.07,276.57
1676239801.97849894,817527852,1,-0.38,2.06,174.32,0.3449602723121643,0.06753785908222198,-0.25584128499031067,-0.2373933494091034,-0.4391443729400635,0.7023453712463379,-0.952381432056427,0.52,-0.19,-0.07,276.57
1676239802.01851583,817567869,1,-0.53,1.09,174.31,0.35522541403770447,0.05246879160404205,-0.26376911997795105,-0.27130326628685,-0.44290363788604736,0.711764395236969,-0.9648784399032593,0.52,-0.2,-0.07,276.57
1676239802.05849576,817607849,1,-0.59,0.22,174.26,0.3639659285545349,0.0484742596745491,-0.2618510127067566,-0.2995409369468689,-0.44365349411964417,0.7198380827903748,-0.9769375324249268,0.52,-0.2,-0.07,276.57
1676239802.09854484,817647898,1,-0.6,-0.38,174.14000000000001,0.35678085684776306,0.03921990469098091,-0.24788448214530945,-0.3221103250980377,-0.4415076971054077,0.7269980311393738,-0.991034746170044,0.52,-0.2,-0.07,276.57
1676239802.11856985,817667923,1,-0.68,-0.61,174.05,0.35995233058929443,0.04028664156794548,-0.20726487040519714,-0.2979778051376343,-0.4420532286167145,0.7307671308517456,-0.997836172580719,0.52,-0.2,-0.07,276.57
1676239802.13850498,817687858,1,-0.58,-0.78,173.96,0.36370110511779785,0.035352207720279694,-0.24631260335445404,-0.34990769624710083,-0.44109606742858887,0.7343271970748901,-1.004723072052002,0.52,-0.2,-0.07,276.57
1676239802.17849779,817727851,1,-0.54,-1.01,173.70000000000002,0.3479749262332916,0.04434451460838318,-0.21383219957351685,-0.3305281102657318,-0.44744420051574707,0.7452584505081177,-1.0163161754608154,0.52,-0.21,-0.07,276.57
1676239802.21852899,817767882,1,-0.46,-1.09,173.3,0.32518360018730164,0.039359163492918015,-0.16528239846229553,-0.28002220392227173,-0.4583727717399597,0.7577845454216003,-1.0264228582382202,0.52,-0.21,-0.07,276.57
1676239802.25849485,817807848,1,-0.42,-1.03,172.86,0.31027162075042725,0.06299620866775513,-0.14163920283317566,-0.2462630271911621,-0.4666212499141693,0.76937335729599,-1.035767912864685,0.52,-0.21,-0.07,276.57
1676239802.29858088,817847934,1,-0.6,-0.9,172.3,0.2811436653137207,0.04831958934664726,-0.131050243973732,-0.22668972611427307,-0.47378045320510864,0.779914915561676,-1.0444713830947876,0.52,-0.21,-0.07,276.57
1676239802.31849480,817867848,1,-0.76,-0.8300000000000001,172.01,0.27641046047210693,0.04181512072682381,-0.1330687403678894,-0.22466742992401123,-0.4793263077735901,0.786136269569397,-1.0489834547042847,0.52,-0.21,-0.07,276.57
1676239802.33851194,817887865,1,-0.86,-0.76,171.69,0.26246458292007446,0.05934092029929161,-0.10742738842964172,-0.1941840797662735,-0.48417964577674866,0.7920954823493958,-1.0532315969467163,0.52,-0.21,-0.07,276.57
1676239802.37851381,817927867,1,-1.27,-0.5,171.01,0.24737481772899628,0.06970226764678955,-0.13303060829639435,-0.21293652057647705,-0.48809611797332764,0.8010073304176331,-1.0604792833328247,0.52,-0.21,-0.07,276.57
1676239802.41849685,817967850,1,-1.97,-0.38,170.19,0.2293533980846405,0.08859666436910629,-0.10060587525367737,-0.17002704739570618,-0.5051677823066711,0.8178499937057495,-1.0657330751419067,0.51,-0.21,-0.08,276.57
1676239802.45854497,818007898,1,-3.0100000000000002,-0.18,169.38,0.19107484817504883,0.1058148518204689,-0.06255283206701279,-0.11638198047876358,-0.5204570293426514,0.8341056108474731,-1.069956660270691,0.51,-0.21,-0.08,276.57
1676239802.49853587,818047889,1,-3.88,-0.01,168.63,0.19050666689872742,0.13912326097488403,-0.06394464522600174,-0.11120545119047165,-0.5340608954429626,0.8502410650253296,-1.0743634700775146,0.51,-0.21,-0.08,276.57
1676239802.51850486,818067858,1,-4.59,0.05,168.25,0.17908838391304016,0.16648967564105988,-0.008985656313598156,-0.05633829906582832,-0.5434116125106812,0.8600658178329468,-1.0764515399932861,0.51,-0.21,-0.08,276.57
1676239802.53849578,818087849,1,-5.2,0.1,167.91,0.16230061650276184,0.16254357993602753,-0.012330246157944202,-0.05909791216254234,-0.5520716309547424,0.8698062896728516,-1.078319787979126,0.51,-0.21,-0.08,276.57
1676239802.57852983,818127883,1,-6.25,0.16,167.18,0.15712785720825195,0.20373190939426422,-0.012489850632846355,-0.06060105934739113,-0.5625997185707092,0.8858640789985657,-1.0810835361480713,0.51,-0.21,-0.08,276.57
1676239802.61850286,818167856,1,-7.08,0.11,166.47,0.13436394929885864,0.24132996797561646,0.011418985202908516,-0.04539530351758003,-0.5813987255096436,0.9101548790931702,-1.0844541788101196,0.51,-0.21,-0.08,276.57
1676239802.65858293,818207936,1,-7.58,0.1,165.84,0.1153552308678627,0.27727988362312317,0.01919262856245041,-0.05090044066309929,-0.5985987782478333,0.9344975352287292,-1.086941123008728,0.51,-0.21,-0.08,276.57
1676239802.69850898,818247862,1,-7.62,0.0,165.22,0.11245983839035034,0.3262293040752411,0.04848191887140274,-0.029965000227093697,-0.6139100790023804,0.9598656296730042,-1.0888433456420898,0.51,-0.21,-0.08,276.57
1676239802.71850181,818267855,1,-7.58,-0.02,164.9,0.09920856356620789,0.37490764260292053,0.010463888756930828,-0.0689937025308609,-0.6239986419677734,0.9746834635734558,-1.0899354219436646,0.51,-0.21,-0.08,276.57
1676239802.73851681,818287870,1,-7.49,-0.1,164.65,0.10320139676332474,0.38876959681510925,0.021530281752347946,-0.057261690497398376,-0.627828061580658,0.9856871366500854,-1.0901479721069336,0.51,-0.21,-0.08,276.57
1676239802.77850699,818327860,1,-7.2,-0.24,164.15,0.09939706325531006,0.4384053945541382,0.06642509251832962,-0.008562278002500534,-0.6453794836997986,1.0156753063201904,-1.0918900966644287,0.51,-0.21,-0.08,276.57
1676239802.81855297,818367906,1,-6.5600000000000005,-0.32,163.72,0.08138665556907654,0.4944014847278595,0.05269300565123558,-0.01751495525240898,-0.6638665795326233,1.0451045036315918,-1.091646432876587,0.51,-0.22,-0.08,276.57
1676239802.85850191,818407855,1,-6.1000000000000005,-0.4,163.36,0.07749620079994202,0.5173335075378418,0.04146427661180496,-0.017722098156809807,-0.6806026101112366,1.0753451585769653,-1.0911691188812256,0.51,-0.22,-0.08,276.57
1676239802.89849687,818447850,1,-5.51,-0.39,163.03,0.04721599072217941,0.5634651184082031,0.07097174972295761,0.018591705709695816,-0.6958196759223938,1.1065518856048584,-1.090686321258545,0.51,-0.22,-0.08,276.57
1676239802.91850591,818467859,1,-5.0600000000000005,-0.31,162.89000000000001,0.04365597292780876,0.573837161064148,0.06911974400281906,0.018885280936956406,-0.7055529356002808,1.1233630180358887,-1.0908188819885254,0.51,-0.22,-0.08,276.57
1676239802.93853784,818487891,1,-4.5200000000000005,-0.29,162.76,0.03461306914687157,0.5699441432952881,0.0839843600988388,0.03560800477862358,-0.709729790687561,1.1373155117034912,-1.0901567935943604,0.51,-0.22,-0.08,276.57
1676239802.97849798,818527851,1,-3.67,-0.15,162.53,0.026043279096484184,0.5993073582649231,0.10088349133729935,0.054098326712846756,-0.7268189191818237,1.1714736223220825,-1.0902949571609497,0.51,-0.22,-0.08,276.57
1676239803.01860189,818567955,1,-2.81,-0.11,162.34,0.0015940495068207383,0.6224029064178467,0.11550796777009964,0.05130729451775551,-0.7448938488960266,1.194295048713684,-1.0928621292114258,0.51,-0.22,-0.08,276.57
1676239803.05850577,818607859,1,-2.47,-0.14,162.22,0.0015546261565759778,0.6324840784072876,0.06614474207162857,-0.031397636979818344,-0.7614787817001343,1.2186487913131714,-1.095028281211853,0.51,-0.22,-0.08,276.57
1676239803.09851599,818647869,1,-2.0,-0.02,162.07,-0.000847747374791652,0.6732630133628845,0.04964064061641693,-0.07258870452642441,-0.7767975330352783,1.242790937423706,-1.097037672996521,0.51,-0.22,-0.08,276.57
1676239803.11852884,818667882,1,-2.25,0.06,161.99,-0.018466444686055183,0.6507440209388733,0.0867270901799202,-0.0427827350795269,-0.7861095070838928,1.2544870376586914,-1.098321795463562,0.51,-0.22,-0.08,276.57
1676239803.13851380,818687867,1,-2.43,-0.01,161.94,-0.01375517062842846,0.673984944820404,0.10439680516719818,-0.02930719591677189,-0.7907696962356567,1.2673568725585938,-1.097882866859436,0.51,-0.22,-0.08,276.57
1676239803.17853880,818727892,1,-2.97,-0.07,161.89000000000001,-0.01980445720255375,0.6553394794464111,0.1330823004245758,0.0005380708607845008,-0.8073562979698181,1.2917224168777466,-1.099016785621643,0.51,-0.22,-0.08,276.57
1676239803.21849489,818767848,1,-3.5500000000000003,-0.02,161.89000000000001,-0.03879319131374359,0.6428677439689636,0.15865083038806915,0.03430119901895523,-0.8249281048774719,1.3057012557983398,-1.0983728170394897,0.52,-0.22,-0.08,276.57
1676239803.25849485,818807848,1,-4.04,-0.02,161.96,-0.05583518370985985,0.647383987903595,0.09931404888629913,-0.019349759444594383,-0.841380774974823,1.32086980342865,-1.0972377061843872,0.52,-0.22,-0.08,276.57
1676239803.29853177,818847885,1,-4.39,-0.05,162.04,-0.07339987903833389,0.6500797271728516,0.1316920518875122,0.013162757270038128,-0.85654616355896,1.3356471061706543,-1.0963239669799805,0.52,-0.22,-0.08,276.57
