timestamp,TimeUS,C,Q1,Q2,Q3,Q4
1676239794.21850181,809767855,1,0.979343831539154,0.006343944929540157,-0.0010681453859433532,-0.20209956169128418
1676239794.25848889,809807842,1,0.9793388843536377,0.006283883936703205,-0.0010551046580076218,-0.20212547481060028
1676239794.29852295,809847876,1,0.9793316721916199,0.006258397363126278,-0.0010716288816183805,-0.20216108858585358
1676239794.31849599,809867849,1,0.9793256521224976,0.0062393918633461,-0.0010833570268005133,-0.20219077169895172
1676239794.33849287,809887846,1,0.9793190360069275,0.006245388183742762,-0.0010876987362280488,-0.20222263038158417
1676239794.37856293,809927916,1,0.9793063402175903,0.006294165272265673,-0.0010914260055869818,-0.20228271186351776
1676239794.41849899,809967852,1,0.9792954325675964,0.006333452649414539,-0.0011037476360797882,-0.20233404636383057
1676239794.45850396,810007857,1,0.9792833924293518,0.006333800032734871,-0.0011172821978107095,-0.20239250361919403
1676239794.49848986,810047843,1,0.9792773723602295,0.006303505040705204,-0.0010837111622095108,-0.20242264866828918
1676239794.51849389,810067847,1,0.9792764186859131,0.006288441829383373,-0.0010670587653294206,-0.2024277299642563
1676239794.53853583,810087889,1,0.9792773723602295,0.006296559702605009,-0.0010544814867898822,-0.20242290198802948
1676239794.57850981,810127863,1,0.979277491569519,0.006288493983447552,-0.0010504279052838683,-0.2024228274822235
1676239794.61848998,810167843,1,0.9792741537094116,0.0063187736086547375,-0.0010507908882573247,-0.20243799686431885
1676239794.65851784,810207871,1,0.9792646169662476,0.006312903948128223,-0.0010407210793346167,-0.2024843394756317
1676239794.69850898,810247862,1,0.9792512655258179,0.006268979050219059,-0.0010462539503350854,-0.20255009829998016
1676239794.71853280,810267886,1,0.9792498350143433,0.0062530688010156155,-0.0010431286646053195,-0.2025575488805771
1676239794.73856282,810287916,1,0.979248583316803,0.00623747706413269,-0.0010330730583518744,-0.2025642842054367
1676239794.77849984,810327853,1,0.9792376160621643,0.006235299166291952,-0.0010175767820328474,-0.20261743664741516
1676239794.81850290,810367856,1,0.9792301058769226,0.006241003982722759,-0.0010360179003328085,-0.20265331864356995
1676239794.85848784,810407841,1,0.9792221188545227,0.006259226705878973,-0.0010397880105301738,-0.20269125699996948
1676239794.89854097,810447894,1,0.979205310344696,0.0062340302392840385,-0.0010182579280808568,-0.20277345180511475
1676239794.91856694,810467920,1,0.9792004823684692,0.00623609684407711,-0.001012645079754293,-0.20279675722122192
1676239794.93849277,810487846,1,0.9791889190673828,0.006218868773430586,-0.001020220573991537,-0.20285311341285706
1676239794.97848678,810527840,1,0.9791721701622009,0.006206341087818146,-0.0010275236563757062,-0.2029341161251068
1676239795.01852798,810567881,1,0.9791542887687683,0.006203276105225086,-0.0010453560389578342,-0.20302055776119232
1676239795.05849576,810607849,1,0.9791412949562073,0.006208432372659445,-0.0010708551853895187,-0.20308275520801544
1676239795.09857488,810647928,1,0.9791262149810791,0.0062086619436740875,-0.0010896521853283048,-0.2031552940607071
1676239795.11850095,810667854,1,0.9791215658187866,0.006219574715942144,-0.0010944486130028963,-0.20317746698856354
1676239795.13848782,810687841,1,0.9791186451911926,0.006222906522452831,-0.0010805991478264332,-0.20319139957427979
1676239795.17850184,810727855,1,0.9791157841682434,0.006213565822690725,-0.0010756769916042686,-0.20320555567741394
1676239795.21849084,810767844,1,0.9791148900985718,0.0062070610001683235,-0.0010875649750232697,-0.20321011543273926
1676239795.25853395,810807887,1,0.979111909866333,0.0061975265853106976,-0.0010770526714622974,-0.20322468876838684
1676239795.29850483,810847858,1,0.979102611541748,0.006212539970874786,-0.0010965289548039436,-0.20326901972293854
1676239795.31849980,810867853,1,0.9790964722633362,0.006212450563907623,-0.001096229301765561,-0.2032986432313919
1676239795.33848977,810887843,1,0.9790949821472168,0.006215524859726429,-0.0010976198827847838,-0.20330548286437988
1676239795.37852478,810927878,1,0.9790870547294617,0.006207703612744808,-0.0011186138726770878,-0.20334398746490479
1676239795.41848993,810967843,1,0.979080855846405,0.006215066649019718,-0.0010990208247676492,-0.20337365567684174
1676239795.45857286,811007926,1,0.9790854454040527,0.0062059457413852215,-0.0010994096519425511,-0.2033517211675644
1676239795.49849892,811047852,1,0.9790902733802795,0.00619568582624197,-0.0010976627236232162,-0.2033289074897766
1676239795.51848984,811067843,1,0.9790952801704407,0.006202568765729666,-0.001091814017854631,-0.20330461859703064
1676239795.53850889,811087862,1,0.9790961742401123,0.006205233745276928,-0.0010923870140686631,-0.203300341963768
1676239795.57849789,811127851,1,0.979103147983551,0.006223490461707115,-0.001072352402843535,-0.20326629281044006
1676239795.61853886,811167892,1,0.9791024923324585,0.006211814470589161,-0.001085714902728796,-0.20326970517635345
1676239795.65850687,811207860,1,0.9791004657745361,0.006185591686517,-0.0010849062819033861,-0.20328012108802795
1676239795.69848776,811247841,1,0.9790952205657959,0.00619417754933238,-0.0010991101153194904,-0.20330503582954407
1676239795.71850181,811267855,1,0.9790944457054138,0.006200646981596947,-0.0011105443118140101,-0.20330862700939178
1676239795.73852396,811287877,1,0.9790927767753601,0.006204434670507908,-0.0011274771532043815,-0.20331647992134094
1676239795.77848792,811327841,1,0.9790904521942139,0.0062377071008086205,-0.0011317471507936716,-0.20332656800746918
1676239795.81856179,811367915,1,0.9790854454040527,0.006246518809348345,-0.0011164277093484998,-0.20335063338279724
1676239795.85849977,811407853,1,0.9790835380554199,0.006247424520552158,-0.001102508045732975,-0.2033596932888031
1676239795.89850283,811447856,1,0.9790722727775574,0.0062189591117203236,-0.0010925709502771497,-0.20341484248638153
1676239795.91853094,811467884,1,0.9790677428245544,0.006215355359017849,-0.001094834296964109,-0.20343688130378723
1676239795.93849087,811487844,1,0.9790629744529724,0.006223313510417938,-0.0010725080501288176,-0.20345954596996307
1676239795.97854185,811527895,1,0.9790518283843994,0.00624589528888464,-0.0010551492450758815,-0.20351256430149078
1676239796.01850080,811567854,1,0.9790416359901428,0.006254334002733231,-0.0010628866730257869,-0.2035614401102066
1676239796.05848980,811607843,1,0.9790372252464294,0.006288238801062107,-0.0010590202873572707,-0.20358163118362427
1676239796.09853387,811647887,1,0.9790344834327698,0.006286546587944031,-0.001054471475072205,-0.2035948932170868
1676239796.11849380,811667847,1,0.9790322184562683,0.006279569584876299,-0.0010689737973734736,-0.2036057859659195
1676239796.13848877,811687842,1,0.9790351986885071,0.006271450314670801,-0.0010755032999441028,-0.20359168946743011
1676239796.17856884,811727922,1,0.9790347218513489,0.006287478841841221,-0.001062129158526659,-0.2035936415195465
1676239796.21850491,811767858,1,0.9790349006652832,0.0063071600161492825,-0.0010566822020336986,-0.20359227061271667
1676239796.25851178,811807865,1,0.9790340662002563,0.006356373429298401,-0.0010398741578683257,-0.20359478890895844
1676239796.29850793,811847861,1,0.9790256023406982,0.0063851079903542995,-0.001056560082361102,-0.20363450050354004
1676239796.31848979,811867843,1,0.9790213108062744,0.006401073653250933,-0.0010503180092200637,-0.2036547064781189
1676239796.33854294,811887896,1,0.9790166020393372,0.0063985902816057205,-0.001049220678396523,-0.20367735624313354
1676239796.37848997,811927843,1,0.9790131449699402,0.0063659753650426865,-0.0010777150746434927,-0.20369471609592438
1676239796.41849279,811967846,1,0.9790153503417969,0.006366456858813763,-0.001089452183805406,-0.2036839872598648
1676239796.45852399,812007877,1,0.979013204574585,0.006395254749804735,-0.0011107604950666428,-0.20369338989257812
1676239796.49849486,812047848,1,0.9790167808532715,0.0064054206013679504,-0.001136168953962624,-0.20367585122585297
1676239796.51854682,812067900,1,0.9790167808532715,0.006401665508747101,-0.001132809673435986,-0.20367597043514252
1676239796.53856587,812087919,1,0.9790133237838745,0.006396647077053785,-0.0011222085449844599,-0.20369277894496918
1676239796.57849479,812127848,1,0.9790116548538208,0.006371963303536177,-0.001130276476033032,-0.20370160043239594
1676239796.61850286,812167856,1,0.9790063500404358,0.006346275098621845,-0.001121635315939784,-0.2037278562784195
1676239796.65850282,812207856,1,0.9790046215057373,0.006341910921037197,-0.0011169068748131394,-0.20373636484146118
1676239796.69854593,812247899,1,0.9790043830871582,0.006356104742735624,-0.0011217655846849084,-0.2037370800971985
1676239796.71858883,812267942,1,0.9790062308311462,0.006379346363246441,-0.0011232919059693813,-0.2037273794412613
1676239796.73850489,812287858,1,0.9790063500404358,0.0063997432589530945,-0.001132194185629487,-0.20372603833675385
1676239796.77849388,812327847,1,0.9790119528770447,0.006381071172654629,-0.0011501067783683538,-0.20369952917099
1676239796.81852984,812367883,1,0.9790140390396118,0.006365889683365822,-0.0011405088007450104,-0.20369018614292145
1676239796.85849690,812407850,1,0.9790165424346924,0.006344540975987911,-0.0011556391837075353,-0.203678697347641
1676239796.89858890,812447942,1,0.9790148138999939,0.006345358677208424,-0.0011613412061706185,-0.20368704199790955
1676239796.91850591,812467859,1,0.9790154695510864,0.006372413132339716,-0.0011606091866269708,-0.2036830186843872
1676239796.93850994,812487863,1,0.9790162444114685,0.006383167114108801,-0.0011417001951485872,-0.2036789506673813
1676239796.97851777,812527871,1,0.9790206551551819,0.006396644748747349,-0.0011220965534448624,-0.20365752279758453
1676239797.01849484,812567848,1,0.9790276288986206,0.00639447383582592,-0.0011112045031040907,-0.20362401008605957
1676239797.05854487,812607898,1,0.9790253043174744,0.006394555326551199,-0.0011251696851104498,-0.2036352902650833
1676239797.09850478,812647858,1,0.9790396094322205,0.006351039744913578,-0.0011281659826636314,-0.2035677433013916
1676239797.11849785,812667851,1,0.9790459275245667,0.006366773042827845,-0.0011171228252351284,-0.20353706181049347
1676239797.13849878,812687852,1,0.9790647029876709,0.006389398593455553,-0.0011282020714133978,-0.20344583690166473
1676239797.17853284,812727886,1,0.9790811538696289,0.006448884028941393,-0.0011052872287109494,-0.2033649981021881
1676239797.21849489,812767848,1,0.9790762066841125,0.006519754882901907,-0.0010882504284381866,-0.20338645577430725
1676239797.25860286,812807956,1,0.9790541529655457,0.006401027552783489,-0.0010742461308836937,-0.20349647104740143
1676239797.29850578,812847859,1,0.9790359139442444,0.006304074078798294,-0.0010462069185450673,-0.20358754694461823
1676239797.31849289,812867846,1,0.979038417339325,0.006324122194200754,-0.0010664042783901095,-0.20357459783554077
1676239797.33851576,812887869,1,0.9790385961532593,0.006416317541152239,-0.0010472852736711502,-0.2035711407661438
1676239797.37850380,812927857,1,0.9790188074111938,0.006457868032157421,-0.0010153402108699083,-0.20366498827934265
1676239797.41854191,812967895,1,0.979010820388794,0.006503055803477764,-0.0010944551322609186,-0.20370152592658997
1676239797.45849776,813007851,1,0.9790198802947998,0.0064343782141804695,-0.001118309679441154,-0.20366008579730988
1676239797.49849296,813047846,1,0.9789845943450928,0.006268427707254887,-0.0011037138756364584,-0.20383496582508087
1676239797.51851583,813067869,1,0.9789918661117554,0.006064620800316334,-0.0010621044784784317,-0.20380643010139465
1676239797.53852582,813087879,1,0.9790133833885193,0.0060919225215911865,-0.0010379989398643374,-0.20370234549045563
1676239797.57849383,813127847,1,0.9790015816688538,0.0059377094730734825,-0.001064513111487031,-0.20376335084438324
1676239797.61858177,813167935,1,0.9789876341819763,0.006213278975337744,-0.0011507461313158274,-0.20382167398929596
1676239797.65850687,813207860,1,0.9789940118789673,0.006239674985408783,-0.0011246786452829838,-0.20379053056240082
1676239797.69851995,813247873,1,0.9789632558822632,0.006338455248624086,-0.0011085784062743187,-0.20393501222133636
1676239797.71852398,813267877,1,0.9789704084396362,0.005843976512551308,-0.0011134104570373893,-0.203915536403656
1676239797.73850679,813287860,1,0.9789643883705139,0.005837953183799982,-0.0009748729062266648,-0.20394518971443176
1676239797.77854586,813327899,1,0.9789407849311829,0.0065514869056642056,-0.0010737004922702909,-0.20403636991977692
1676239797.81849384,813367847,1,0.978952944278717,0.00606333464384079,-0.0010805317433550954,-0.20399315655231476
1676239797.85849380,813407847,1,0.9789724349975586,0.00661497563123703,-0.0012395033845677972,-0.2038814276456833
1676239797.89852595,813447879,1,0.9789902567863464,0.006068232003599405,-0.0011826187837868929,-0.20381319522857666
1676239797.91850591,813467859,1,0.9789729118347168,0.006273430306464434,-0.000988626736216247,-0.20389127731323242
1676239797.93849492,813487848,1,0.9789645075798035,0.006309989374130964,-0.0010699494741857052,-0.20393013954162598
1676239797.97860098,813527954,1,0.9789451360702515,0.006359413266181946,-0.0011354082962498069,-0.20402128994464874
1676239798.01849794,813567851,1,0.9789358973503113,0.006224357057362795,-0.0011695371940732002,-0.204069584608078
1676239798.05851793,813607871,1,0.9789613485336304,0.006273737642914057,-0.0010649727191776037,-0.20394648611545563
1676239798.09851193,813647865,1,0.9789438247680664,0.006281554698944092,-0.0010156829375773668,-0.2040306031703949
1676239798.11849999,813667853,1,0.9789411425590515,0.006211094558238983,-0.00112102588173002,-0.20404498279094696
1676239798.13854599,813687899,1,0.9789800643920898,0.006365576758980751,-0.0010732385562732816,-0.20385384559631348
1676239798.17850685,813727860,1,0.9789604544639587,0.006507790647447109,-0.0011676143622025847,-0.2039429396390915
1676239798.21849895,813767852,1,0.9789652228355408,0.006241422146558762,-0.0012092974502593279,-0.203928142786026
1676239798.25852489,813807878,1,0.9789718389511108,0.00570154981687665,-0.0010188333690166473,-0.2039131373167038
1676239798.29849482,813847848,1,0.9789155721664429,0.006072694901376963,-0.001065100310370326,-0.20417234301567078
1676239798.31853986,813867893,1,0.9789649844169617,0.005989436991512775,-0.0010631001787260175,-0.20393766462802887
1676239798.33860183,813887955,1,0.9789614081382751,0.006463135126978159,-0.0010982800740748644,-0.2039400339126587
1676239798.37850499,813927858,1,0.978916585445404,0.006429578643292189,-0.0011125232558697462,-0.2041562795639038
1676239798.41851783,813967871,1,0.9789026975631714,0.006436472292989492,-0.0011425105622038245,-0.2042224407196045
1676239798.45849895,814007852,1,0.9789283871650696,0.006123317871242762,-0.001180795137770474,-0.20410849153995514
1676239798.49854183,814047895,1,0.978908896446228,0.006535213906317949,-0.001281228382140398,-0.20418857038021088
1676239798.51859784,814067951,1,0.9788938164710999,0.006389948073774576,-0.0009606455569155514,-0.20426742732524872
1676239798.53850698,814087860,1,0.9788496494293213,0.006471544504165649,-0.001122490270063281,-0.2044754922389984
1676239798.57849979,814127853,1,0.9788659811019897,0.006587856449186802,-0.0011316209565848112,-0.20439346134662628
1676239798.61853385,814167887,1,0.978909432888031,0.006671710405498743,-0.0014031192986294627,-0.20418094098567963
1676239798.65850782,814207861,1,0.9788844585418701,0.006304142996668816,-0.0011473888298496604,-0.2043139487504959
1676239798.69860387,814247957,1,0.9788563251495361,0.006084243766963482,-0.0011950789485126734,-0.2044549286365509
1676239798.71852183,814267875,1,0.9788281321525574,0.006041329354047775,-0.0012025696923956275,-0.20459124445915222
1676239798.73850894,814287862,1,0.9788129925727844,0.006745909806340933,-0.0009304321138188243,-0.20464296638965607
1676239798.77856278,814327916,1,0.9787721037864685,0.0073951068334281445,-0.0008137751137837768,-0.20481663942337036
1676239798.81849790,814367851,1,0.9787423610687256,0.006494545377790928,-0.0008098249672912061,-0.2049892097711563
1676239798.85854292,814407896,1,0.9787272214889526,0.0068273223005235195,-0.0008988091722130775,-0.20505034923553467
1676239798.89849496,814447848,1,0.9786959290504456,0.005536901298910379,-0.00070986058562994,-0.20523904263973236
1676239798.91849589,814467849,1,0.9786635041236877,0.006079045124351978,-0.0004276200197637081,-0.20537923276424408
1676239798.93849897,814487852,1,0.9786271452903748,0.004960045684129,7.720154098933563e-05,-0.20558296144008636
1676239798.97853184,814527885,1,0.9785686135292053,0.003927663434296846,0.0004131424648221582,-0.20588310062885284
1676239799.01849794,814567851,1,0.9784906506538391,0.004120174329727888,0.0001537997304694727,-0.20624983310699463
1676239799.05860686,814607960,1,0.978397011756897,0.003909654449671507,0.0002251277182949707,-0.20669767260551453
1676239799.09850693,814647860,1,0.9782947897911072,0.0037833459209650755,0.00021737832867074758,-0.20718343555927277
1676239799.11849499,814667848,1,0.9782523512840271,0.004517459310591221,0.0003409228811506182,-0.2073688954114914
1676239799.13858294,814687936,1,0.9781860113143921,0.0037441893946379423,0.0005505815497599542,-0.20769637823104858
1676239799.17849493,814727848,1,0.9781278371810913,0.0026856607291847467,0.0007361382013186812,-0.2079860121011734
1676239799.21854186,814767895,1,0.9779892563819885,0.0006811557104811072,0.0016813321271911263,-0.2086474895477295
1676239799.25849390,814807847,1,0.977877140045166,0.0009953202679753304,0.001581601332873106,-0.20917169749736786
1676239799.29849482,814847848,1,0.977729082107544,0.00017324325744993985,0.002128062304109335,-0.20986014604568481
1676239799.31851983,814867873,1,0.9777207970619202,0.001211461378261447,0.0013121017254889011,-0.2099020779132843
1676239799.33852577,814887879,1,0.9776589274406433,-5.9243309806333855e-05,0.001195486169308424,-0.21019427478313446
1676239799.37849689,814927850,1,0.9774867296218872,-0.0010164411505684257,0.0015984578058123589,-0.21098844707012177
1676239799.41857195,814967925,1,0.9773721098899841,0.00045051216147840023,0.0007863577920943499,-0.21152538061141968
1676239799.45849681,815007850,1,0.9772133231163025,-0.0024033572990447283,0.0010414273710921407,-0.21224351227283478
1676239799.49852276,815047876,1,0.9770622849464417,0.0009753827471286058,0.0002443922567181289,-0.2129514366388321
1676239799.51853490,815067888,1,0.9770486950874329,0.002512929495424032,0.00023378204787150025,-0.21300123631954193
1676239799.53850698,815087860,1,0.9769287705421448,0.0010615104110911489,0.0008172211237251759,-0.21356116235256195
1676239799.57854199,815127895,1,0.9767898917198181,0.0008275066502392292,0.0008008661679923534,-0.21419672667980194
1676239799.61850691,815167860,1,0.9766562581062317,-0.0016048572724685073,0.0010793156689032912,-0.21479958295822144
1676239799.65849590,815207849,1,0.9764794111251831,-0.0027084192261099815,0.002339064609259367,-0.2155809998512268
1676239799.69853497,815247888,1,0.9763630032539368,0.0010688278125599027,0.002112910384312272,-0.21612435579299927
1676239799.71849489,815267848,1,0.9762294292449951,-0.0007546398555859923,0.001966596581041813,-0.21672940254211426
1676239799.73849678,815287850,1,0.9762298464775085,-0.0011116870446130633,0.002120111370459199,-0.2167246788740158
1676239799.77859378,815327947,1,0.9760748147964478,0.0012638731859624386,0.001841892721131444,-0.21742336452007294
1676239799.81849480,815367848,1,0.9759754538536072,0.0018625884549692273,0.002602759748697281,-0.21785704791545868
1676239799.85857677,815407930,1,0.9758689403533936,0.00012168637476861477,0.005510902497917414,-0.21828752756118774
1676239799.89849687,815447850,1,0.9757397174835205,0.0031069270335137844,0.00811795610934496,-0.21876117587089539
1676239799.91849995,815467853,1,0.9757102131843567,0.00468383589759469,0.00948830135166645,-0.21880961954593658
1676239799.93854380,815487897,1,0.9756051301956177,0.004559614695608616,0.010653923265635967,-0.21922676265239716
1676239799.97852182,815527875,1,0.975505530834198,0.006258531007915735,0.013055467046797276,-0.219497948884964
1676239800.01850080,815567854,1,0.9753752946853638,0.007087003439664841,0.014029569923877716,-0.21999090909957886
1676239800.05852699,815607880,1,0.9752947092056274,0.006909893359988928,0.015183866955339909,-0.22027689218521118
1676239800.09850192,815647855,1,0.9752785563468933,0.00883292406797409,0.015137806534767151,-0.2202829271554947
1676239800.11854291,815667896,1,0.9751635193824768,0.008661417290568352,0.016204239800572395,-0.22072266042232513
1676239800.13858795,815687941,1,0.9751563668251038,0.008007200434803963,0.01693827658891678,-0.22072389721870422
1676239800.17850590,815727859,1,0.9750450253486633,0.008693638257682323,0.019147738814353943,-0.22100897133350372
1676239800.21857691,815767930,1,0.9749622344970703,0.008350908756256104,0.02083260752260685,-0.221234992146492
1676239800.25849485,815807848,1,0.9749980568885803,0.007054866291582584,0.019588161259889603,-0.22123602032661438
1676239800.29854083,815847894,1,0.9749692678451538,0.007250820752233267,0.017119137570261955,-0.22156111896038055
1676239800.31858897,815867942,1,0.9750025868415833,0.005600387696176767,0.014794128015637398,-0.22162963449954987
1676239800.33850384,815887857,1,0.9750748872756958,0.00551340077072382,0.011685063131153584,-0.2214995175600052
1676239800.37849498,815927848,1,0.9750654697418213,0.003435530001297593,0.006002604961395264,-0.22180964052677155
1676239800.41853380,815967887,1,0.9750087261199951,0.004063092637807131,0.00013982149539515376,-0.22212931513786316
1676239800.45849895,816007852,1,0.975017249584198,0.0009625654201954603,-0.0042196232825517654,-0.2220870554447174
1676239800.49859285,816047946,1,0.9749446511268616,0.0008885852294042706,-0.00723946001380682,-0.22232794761657715
1676239800.51850176,816067855,1,0.9749757051467896,0.001350314007140696,-0.008833881467580795,-0.22213169932365417
1676239800.53849387,816087847,1,0.9749284982681274,0.0019597408827394247,-0.00945311039686203,-0.2223087102174759
1676239800.57857800,816127931,1,0.974912166595459,0.0017455650959163904,-0.01019834354519844,-0.2223493456840515
1676239800.61850691,816167860,1,0.9749497175216675,0.000687924213707447,-0.009800120256841183,-0.2222084403038025
1676239800.65854597,816207899,1,0.9749985337257385,0.003420025808736682,-0.009223117493093014,-0.22199343144893646
1676239800.69850683,816247860,1,0.9750266671180725,0.0030386701691895723,-0.00792839378118515,-0.2219254970550537
1676239800.71850681,816267860,1,0.9750459790229797,0.0032667135819792747,-0.006972254253923893,-0.2218693345785141
1676239800.73849678,816287850,1,0.9750714898109436,0.0026098613161593676,-0.005707801319658756,-0.22180227935314178
1676239800.77852678,816327880,1,0.9751211404800415,0.005743140820413828,-0.004099208861589432,-0.22156040370464325
1676239800.81849885,816367852,1,0.975230872631073,0.004144295118749142,-0.001266432460397482,-0.2211468666791916
1676239800.85858798,816407941,1,0.9752837419509888,0.004262938629835844,0.0003684933762997389,-0.22091476619243622
1676239800.89849591,816447849,1,0.9752870798110962,0.003905958030372858,0.0025221745017915964,-0.22089260816574097
1676239800.91849494,816467848,1,0.9753001928329468,0.003208071691915393,0.0034417801070958376,-0.22083346545696259
1676239800.93852186,816487875,1,0.9753148555755615,0.003355823690071702,0.003443838795647025,-0.22076630592346191
1676239800.97849393,816527847,1,0.9753775000572205,0.003219574922695756,0.0031920906621962786,-0.2204952985048294
1676239801.01854587,816567899,1,0.9755024909973145,0.002634031232446432,0.0017014513723552227,-0.2199660688638687
1676239801.05850792,816607861,1,0.9754803776741028,0.002069807145744562,0.0010673081269487739,-0.22007420659065247
1676239801.09849381,816647847,1,0.9755561351776123,0.0013329149223864079,-0.0008154712850227952,-0.2197449505329132
1676239801.11851382,816667867,1,0.9756306409835815,0.0021548501681536436,-0.002583512105047703,-0.21939361095428467
1676239801.13852382,816687877,1,0.9756807088851929,0.0007054139277897775,-0.0030875804368406534,-0.21917380392551422
1676239801.17849398,816727847,1,0.9757326245307922,0.002099924720823765,-0.003954420331865549,-0.2189195156097412
1676239801.21856880,816767922,1,0.9758518934249878,0.0016978296916931868,-0.002532073762267828,-0.21841204166412354
1676239801.25849795,816807851,1,0.9759624600410461,0.005382792558521032,-0.00040161272045224905,-0.2178718000650406
1676239801.29851389,816847867,1,0.9760599732398987,0.005740758962929249,0.00415450194850564,-0.2173861712217331
1676239801.31852293,816867876,1,0.9761669039726257,0.006310411728918552,0.005834012292325497,-0.2168509066104889
1676239801.33850980,816887863,1,0.9761560559272766,0.006381018552929163,0.008152867667376995,-0.216823011636734
1676239801.37853980,816927893,1,0.9763162136077881,0.005588197614997625,0.012407374568283558,-0.21592004597187042
1676239801.41849780,816967851,1,0.9764631390571594,0.006997492164373398,0.015318487770855427,-0.2150258719921112
1676239801.45849586,817007849,1,0.9766368865966797,0.008424964733421803,0.019251853227615356,-0.21386629343032837
1676239801.49853182,817047885,1,0.03910990059375763,0.011064685881137848,-0.0009251285810023546,0.9991732239723206
1676239801.51851892,817067872,1,0.038609862327575684,0.007134194485843182,0.0002515440573915839,0.999228835105896
1676239801.53849578,817087849,1,0.037778809666633606,0.003252048511058092,0.0014628757489845157,0.9992797374725342
1676239801.57857180,817127925,1,0.03692507743835449,-0.008122428320348263,0.005871604662388563,0.9992677569389343
1676239801.61849594,817167849,1,0.036890655755996704,-0.020303094759583473,0.00650840112939477,0.9990918636322021
1676239801.65851784,817207871,1,0.036987241357564926,-0.030622676014900208,0.008946751244366169,0.998806357383728
1676239801.69850183,817247855,1,0.039662692695856094,-0.03886402025818825,0.009952523745596409,0.9984074234962463
1676239801.71849489,817267848,1,0.04139941930770874,-0.041727449744939804,0.008792223408818245,0.9982322454452515
1676239801.73854494,817287898,1,0.043084416538476944,-0.043427128344774246,0.009306914173066616,0.998083770275116
1676239801.77849293,817327846,1,0.045720361173152924,-0.04502993822097778,0.009609678760170937,0.9978925585746765
1676239801.81849384,817367847,1,0.04712950065732002,-0.04334000498056412,0.008287210017442703,0.9979137182235718
1676239801.85853577,817407889,1,0.04895448312163353,-0.04020066559314728,0.004910904448479414,0.9979795813560486
1676239801.89849997,817447853,1,0.04930830001831055,-0.034273043274879456,0.0022224760614335537,0.9981929063796997
1676239801.91854382,817467897,1,0.04942451789975166,-0.030523715540766716,0.001112249563448131,0.9983106851577759
1676239801.93857098,817487924,1,0.04933089390397072,-0.026690013706684113,0.000692700152285397,0.9984256029129028
1676239801.97849894,817527852,1,0.04945166036486626,-0.018187368288636208,-0.0024354164488613605,0.9986079335212708
1676239802.01851583,817567869,1,0.04955654963850975,-0.009814594872295856,-0.004221347626298666,0.9987141489982605
1676239802.05849576,817607849,1,0.04999982938170433,-0.0022318586707115173,-0.005052609369158745,0.9987339377403259
1676239802.09854484,817647898,1,0.051059018820524216,0.0031119484920054674,-0.005480588413774967,0.9986757636070251
1676239802.11856985,817667923,1,0.05186423286795616,0.005043631419539452,-0.006238691508769989,0.998621940612793
1676239802.13850498,817687858,1,0.05268256738781929,0.006593948230147362,-0.005473781377077103,0.9985745549201965
1676239802.17849779,817727851,1,0.05490606650710106,0.008618509396910667,-0.005230175331234932,0.9984406232833862
1676239802.21852899,817767882,1,0.05839509144425392,0.009262711741030216,-0.004603953566402197,0.9982399344444275
1676239802.25849485,817807848,1,0.062217436730861664,0.008813689462840557,-0.004284299910068512,0.998014509677887
1676239802.29858088,817847934,1,0.0671004205942154,0.007564277853816748,-0.005796582438051701,0.9977006912231445
1676239802.31849480,817867848,1,0.06971132010221481,0.006776412948966026,-0.007185396738350391,0.9975183010101318
1676239802.33851194,817887865,1,0.07244457304477692,0.006115355994552374,-0.008049244061112404,0.9973211884498596
1676239802.37851381,817927867,1,0.07840601354837418,0.003514315467327833,-0.01143794134259224,0.9968497157096863
1676239802.41849685,817967850,1,0.08553178608417511,0.0018919814610853791,-0.017430320382118225,0.9961811900138855
1676239802.45854497,818007898,1,0.09254373610019684,-0.0007913907174952328,-0.026343725621700287,0.9953597784042358
1676239802.49853587,818047889,1,0.09900026768445969,-0.003270119661465287,-0.033739928156137466,0.9945098757743835
1676239802.51850486,818067858,1,0.10221177339553833,-0.004608310759067535,-0.039830282330513,0.9939542412757874
1676239802.53849578,818087849,1,0.10508984327316284,-0.0056533170863986015,-0.04509072005748749,0.9934238791465759
1676239802.57852983,818127883,1,0.11134612560272217,-0.007500751875340939,-0.054047536104917526,0.9922825694084167
1676239802.61850286,818167856,1,0.11747818440198898,-0.008296760730445385,-0.06120813265442848,0.9911526441574097
1676239802.65858293,818207936,1,0.12289518117904663,-0.009057103656232357,-0.06557029485702515,0.990209698677063
1676239802.69850898,818247862,1,0.12833712995052338,-0.00849679484963417,-0.06592807173728943,0.9895003437995911
1676239802.71850181,818267855,1,0.13105452060699463,-0.008441219106316566,-0.06559254974126816,0.9891668558120728
1676239802.73851681,818287870,1,0.13328978419303894,-0.00779276667162776,-0.06489184498786926,0.9889196753501892
1676239802.77850699,818327860,1,0.13765546679496765,-0.006507640238851309,-0.06251135468482971,0.9884841442108154
1676239802.81855297,818367906,1,0.14148057997226715,-0.005294409114867449,-0.057054854929447174,0.9882813096046448
1676239802.85850191,818407855,1,0.1445988267660141,-0.00420489814132452,-0.05321791395545006,0.9880492687225342
1676239802.89849687,818447850,1,0.14752034842967987,-0.0036809840239584446,-0.04805851727724075,0.9878838658332825
1676239802.91850591,818467859,1,0.14870083332061768,-0.0038618973921984434,-0.04411958158016205,0.9878900051116943
1676239802.93853784,818487891,1,0.1498226523399353,-0.0033430063631385565,-0.039393842220306396,0.9879221320152283
1676239802.97849798,818527851,1,0.15182247757911682,-0.0034880354069173336,-0.03187873587012291,0.9878873825073242
1676239803.01860189,818567955,1,0.15343698859214783,-0.0027457037940621376,-0.024409998208284378,0.9878530502319336
1676239803.05850577,818607859,1,0.15451370179653168,-0.002066945191472769,-0.021526630967855453,0.9877539277076721
1676239803.09851599,818647869,1,0.15575583279132843,-0.0024842387065291405,-0.017336273565888405,0.9876403212547302
1676239803.11852884,818667882,1,0.15645405650138855,-0.003672810271382332,-0.01935143582522869,0.9874888062477112
1676239803.13851380,818687867,1,0.1568741798400879,-0.0031972690485417843,-0.02104709856212139,0.9873891472816467
1676239803.17853880,818727892,1,0.1572868973016739,-0.0034568458795547485,-0.02574853040277958,0.9872111678123474
1676239803.21849489,818767848,1,0.15725085139274597,-0.004665872547775507,-0.03068569302558899,0.9870707988739014
1676239803.25849485,818807848,1,0.15664400160312653,-0.005297595635056496,-0.03490748628973961,0.9870238304138184
1676239803.29853177,818847885,1,0.15594269335269928,-0.005518124904483557,-0.037981096655130386,0.9870201945304871
1676239803.31849599,818867849,1,0.15514400601387024,-0.004831915255635977,-0.03756359592080116,0.987165629863739
1676239803.33849597,818887849,1,0.15489748120307922,-0.004662073217332363,-0.0390995517373085,0.9871454834938049
1676239803.37858391,818927937,1,0.15350548923015594,-0.0032490240409970284,-0.04052472859621048,0.9873111248016357
1676239803.41850686,818967860,1,0.15134945511817932,-0.002169689629226923,-0.04085472226142883,0.9876332879066467
1676239803.45852089,819007874,1,0.1493724286556244,-0.0010285279713571072,-0.04267231374979019,0.9878592491149902
1676239803.49850678,819047860,1,0.14673563838005066,0.00015296475612558424,-0.043860845267772675,0.9882028698921204
1676239803.51849580,819067849,1,0.14575077593326569,0.00024652856518514454,-0.0433964803814888,0.9883690476417542
1676239803.53854299,819087896,1,0.1442500799894333,0.0005489561008289456,-0.04384654015302658,0.9885692000389099
1676239803.57850695,819127860,1,0.141700878739357,0.0013424528297036886,-0.04215715825557709,0.9890105128288269
1676239803.61849689,819167850,1,0.13933774828910828,0.00041967772995121777,-0.03865008056163788,0.989490270614624
1676239803.65852499,819207878,1,0.13671362400054932,7.72184575907886e-05,-0.03330318257212639,0.9900506138801575
1676239803.69849491,819247848,1,0.13431288301944733,0.00030529749346897006,-0.026678187772631645,0.9905797243118286
1676239803.71854186,819267895,1,0.13358579576015472,-9.751113248057663e-05,-0.02393120899796486,0.9907482862472534
1676239803.73859096,819287944,1,0.1324191689491272,-0.0001897523907246068,-0.022522425279021263,0.9909378886222839
1676239803.77850986,819327863,1,0.1303723156452179,-0.0005256243166513741,-0.015476429834961891,0.991344153881073
1676239803.81850696,819367860,1,0.12859117984771729,-0.0018429714255034924,-0.007769457995891571,0.9916655421257019
1676239803.85850382,819407857,1,0.12659479677677155,-0.002404476748779416,-0.0013247968163341284,0.9919506907463074
1676239803.89854693,819447900,1,0.1245713159441948,-0.002804467221722007,0.003507530316710472,0.992200493812561
1676239803.91858482,819467938,1,0.12376855313777924,-0.0026715321000665426,0.006813444197177887,0.9922841191291809
1676239803.93850780,819487861,1,0.12240370362997055,-0.00284936442039907,0.008570164442062378,0.992439329624176
1676239803.97849798,819527851,1,0.12057431787252426,-0.0012575278524309397,0.01001996360719204,0.992652952671051
1676239804.01853395,819567887,1,0.11841876804828644,0.0003004961763508618,0.00968540832400322,0.992916464805603
1676239804.05850697,819607860,1,0.11600320041179657,0.0013098808703944087,0.009160155430436134,0.993205726146698
1676239804.09858990,819647943,1,0.11415789276361465,0.003286538179963827,0.005559725686907768,0.993441641330719
1676239804.11850595,819667859,1,0.11266674846410751,0.00384862651117146,0.0040288339368999004,0.9936172366142273
1676239804.13850498,819687858,1,0.11149144917726517,0.0039019514806568623,0.0031394893303513527,0.9937527775764465
1676239804.17850685,819727860,1,0.10913915187120438,0.003435292048379779,0.003310407977551222,0.9940150380134583
1676239804.21849990,819767853,1,0.10620881617069244,0.003662639996036887,0.00040278941742144525,0.9943370223045349
1676239804.25854087,819807894,1,0.10388494282960892,0.003387879114598036,0.0005444338312372565,0.9945834279060364
1676239804.29850078,819847854,1,0.10115022957324982,0.002226131269708276,0.0006080498569644988,0.9948684573173523
1676239804.31850791,819867861,1,0.09979172796010971,0.0017814995953813195,0.0004012107092421502,0.9950066804885864
1676239804.33849978,819887853,1,0.09841492027044296,0.0018989876843988895,0.0005172420060262084,0.9951435327529907
1676239804.37852883,819927882,1,0.09601469337940216,0.0017467986326664686,-0.0042986320331692696,0.9953690767288208
1676239804.41849685,819967850,1,0.09350040555000305,0.0008945658919401467,-0.007737493608146906,0.9955887794494629
1676239804.45858479,820007938,1,0.09100990742444992,-0.0002751052670646459,-0.009559780359268188,0.9958040714263916
1676239804.49850798,820047861,1,0.08899623900651932,-0.00022163832909427583,-0.009780671447515488,0.995983898639679
1676239804.51850080,820067854,1,0.08771512657403946,-7.797766011208296e-05,-0.011060627177357674,0.9960842132568359
1676239804.53850985,820087863,1,0.08688727021217346,-0.0007402946357615292,-0.011119818314909935,0.9961557984352112
1676239804.57851195,820127865,1,0.08511561900377274,-0.0001176564910565503,-0.009626203216612339,0.9963245987892151
1676239804.61854196,820167895,1,0.0838332399725914,-6.074140765122138e-05,-0.007755755912512541,0.9964495897293091
1676239804.65849686,820207850,1,0.08240155875682831,0.0002778542984742671,-0.0032705231569707394,0.9965938329696655
1676239804.69850183,820247855,1,0.0815403088927269,0.001382665359415114,-0.002312789671123028,0.996666431427002
1676239804.71850777,820267861,1,0.0810360535979271,0.0008407819550484419,-0.000619571830611676,0.9967105984687805
1676239804.73853278,820287886,1,0.0808391347527504,0.0011119310511276126,0.002090877154842019,0.9967243671417236
1676239804.77849483,820327848,1,0.08023283630609512,0.0011213161051273346,0.0022910169791430235,0.9967728853225708
1676239804.81858397,820367937,1,0.08000350743532181,0.0002229953825008124,0.0031711410265415907,0.9967895150184631
1676239804.85849690,820407850,1,0.07961064577102661,-0.0007013652939349413,0.003427152754738927,0.9968199133872986
1676239804.89851093,820447864,1,0.07992222905158997,-0.0019373424584046006,0.004388872999697924,0.9967895746231079
1676239804.91852593,820467879,1,0.07977988570928574,-0.002583085559308529,0.005685079377144575,0.9967929720878601
1676239804.93850899,820487862,1,0.08008265495300293,-0.003165565198287368,0.004449066240340471,0.9967732429504395
1676239804.97854590,820527899,1,0.08035831898450851,-0.006136626470834017,0.0055059222504496574,0.9967319369316101
1676239805.01850796,820567861,1,0.08044811338186264,-0.008261027745902538,0.004405193496495485,0.9967148303985596
1676239805.05849695,820607850,1,0.08074766397476196,-0.012265866622328758,0.005697627551853657,0.9966428279876709
1676239805.09852576,820647879,1,0.08119373768568039,-0.015250726602971554,0.004644727800041437,0.9965708255767822
1676239805.11849380,820667847,1,0.08125896751880646,-0.016835594549775124,0.005570339970290661,0.9965352416038513
1676239805.13849688,820687850,1,0.0815482810139656,-0.018660252913832664,0.0064880396239459515,0.9964735507965088
1676239805.17856884,820727922,1,0.08184586465358734,-0.01935769058763981,0.008103500120341778,0.9964240193367004
1676239805.21850395,820767857,1,0.08238363265991211,-0.019964290782809258,0.006199446506798267,0.996381402015686
1676239805.25850487,820807858,1,0.08303052186965942,-0.0182257741689682,0.005199828650802374,0.9963667392730713
1676239805.29849792,820847851,1,0.08357594907283783,-0.01595386117696762,0.0051185660995543,0.9963605403900146
1676239805.31849885,820867852,1,0.0835566595196724,-0.014134158380329609,0.004525037948042154,0.9963924884796143
1676239805.33854485,820887898,1,0.08380289375782013,-0.012211238965392113,0.0030469405464828014,0.9964028596878052
1676239805.37850380,820927857,1,0.08396059274673462,-0.00831628404557705,0.0015946805942803621,0.9964330792427063
1676239805.41849494,820967848,1,0.08423584699630737,-0.004999238532036543,0.0013205836294218898,0.9964324235916138
1676239805.45852590,821007879,1,0.08362788707017899,-0.0012785790022462606,-0.0007444100338034332,0.9964959621429443
1676239805.49849582,821047849,1,0.08394297957420349,0.0011669796658679843,-0.001704778871499002,0.9964684247970581
1676239805.51854277,821067896,1,0.08368595689535141,0.0020988276228308678,-0.001449423492886126,0.9964889287948608
1676239805.53857994,821087933,1,0.0839158371090889,0.0028503010980784893,-0.0010544282849878073,0.996468186378479
1676239805.57850599,821127859,1,0.0838247761130333,0.0036821612156927586,-5.9336452977731824e-05,0.9964737296104431
1676239805.61851478,821167868,1,0.08385855704545975,0.0038628026377409697,-0.0009833847871050239,0.9964696764945984
1676239805.65851283,821207866,1,0.08404947072267532,0.0027252829167991877,-0.0012510783271864057,0.9964570999145508
1676239805.69853878,821247892,1,0.08419296145439148,-0.0005199732258915901,-0.0005554233794100583,0.9964491724967957
1676239805.71856689,821267920,1,0.08431754261255264,-0.0019341307925060391,-0.00225642416626215,0.9964345097541809
1676239805.73849487,821287848,1,0.08434422314167023,-0.003649637568742037,-0.0019219889072701335,0.9964281320571899
1676239805.77849293,821327846,1,0.08479353040456772,-0.00700906477868557,-0.0016575453337281942,0.9963725209236145
1676239805.81853080,821367884,1,0.08512620627880096,-0.009705680422484875,-0.0017965424340218306,0.9963212609291077
1676239805.85849881,821407852,1,0.0854792669415474,-0.010279214940965176,-0.002549828728660941,0.9962836503982544
1676239805.89856887,821447922,1,0.08601629734039307,-0.008676379919052124,-0.0033501845318824053,0.996250331401825
1676239805.91852283,821467876,1,0.08632253110408783,-0.008354544639587402,-0.0025905214715749025,0.9962288737297058
1676239805.93849587,821487849,1,0.08661706745624542,-0.006786228623241186,-0.0026285643689334393,0.9962151050567627
1676239805.97851396,821527867,1,0.08715169131755829,-0.0052106729708611965,-0.0021006229799240828,0.9961792230606079
1676239806.01850796,821567861,1,0.08736526221036911,-0.002279729349538684,-0.0023706527426838875,0.9961709380149841
1676239806.05854297,821607896,1,0.08813656866550446,-0.001127418247051537,-0.003254618961364031,0.9961024522781372
1676239806.09850788,821647861,1,0.08836222440004349,4.240422276780009e-05,-0.0028397298883646727,0.9960843324661255
1676239806.11850595,821667859,1,0.08875872194766998,0.0005164009635336697,-0.00289959111250937,0.9960488080978394
1676239806.13849592,821687849,1,0.08892866969108582,0.0009870504727587104,-0.0031040271278470755,0.9960326552391052
1676239806.17852497,821727878,1,0.08954939246177673,0.0005239802994765341,-0.0034851236268877983,0.9959761500358582
1676239806.21849895,821767852,1,0.09011150151491165,-0.00011766451643779874,-0.0035535860806703568,0.9959253072738647
1676239806.25856876,821807922,1,0.09053349494934082,-0.0008451163303107023,-0.005525324027985334,0.995877742767334
1676239806.29850888,821847862,1,0.09156583994626999,-0.0020279516465961933,-0.005041258409619331,0.9957842230796814
1676239806.31849384,821867847,1,0.09177491813898087,-0.002663434250280261,-0.004658685997128487,0.9957653284072876
1676239806.33850884,821887862,1,0.09224262088537216,-0.002707133535295725,-0.00430850125849247,0.9957235455513
1676239806.37850499,821927858,1,0.09281064569950104,-0.002691076835617423,-0.005196826066821814,0.9956665635108948
1676239806.41854191,821967895,1,0.0935857966542244,-0.0036221935879439116,-0.0022206311114132404,0.9956021308898926
1676239806.45849895,822007852,1,0.09409955143928528,-0.0037666878197342157,-0.0021168068051338196,0.9955534338951111
1676239806.49849486,822047848,1,0.09469065815210342,-0.004129393957555294,-0.002541064051911235,0.9954949617385864
1676239806.51857376,822067927,1,0.09524454921483994,-0.004266443196684122,-0.0012532706605270505,0.9954439997673035
1676239806.53852987,822087883,1,0.09557750821113586,-0.0058569833636283875,-0.001430839765816927,0.9954037070274353
1676239806.57849884,822127852,1,0.09636753052473068,-0.006912996992468834,-0.0013933951267972589,0.9953208565711975
1676239806.61857486,822167928,1,0.09662359952926636,-0.007205004338175058,-0.0018839561380445957,0.995293140411377
1676239806.65851092,822207864,1,0.09738918393850327,-0.0076082744635641575,-0.003510040231049061,0.995211124420166
1676239806.69850898,822247862,1,0.09818951040506363,-0.007883023470640182,-0.001004127669148147,0.995136022567749
1676239806.71852398,822267877,1,0.09841468930244446,-0.007710967678576708,-0.0011336782481521368,0.9951149821281433
1676239806.73849797,822287851,1,0.09882934391498566,-0.007385880686342716,-0.002041794825345278,0.9950748682022095
1676239806.77854300,822327896,1,0.09922955930233002,-0.007017900701612234,-0.0024346071295440197,0.9950368404388428
1676239806.81849694,822367850,1,0.09977941960096359,-0.006298488937318325,-0.0027299728244543076,0.9949858784675598
1676239806.85849476,822407848,1,0.10031194239854813,-0.006429864559322596,-0.0024482670705765486,0.994932234287262
1676239806.89852881,822447882,1,0.10028915852308273,-0.005488591734319925,-0.001437299302779138,0.9949421286582947
1676239806.91851091,822467864,1,0.10018759965896606,-0.005212518852204084,-0.001952823018655181,0.9949529767036438
1676239806.93849993,822487853,1,0.10032428801059723,-0.005349989049136639,-0.0017834376776590943,0.9949387907981873
1676239806.97856998,822527923,1,0.10026338696479797,-0.005592765752226114,-0.00029166435706429183,0.9949451684951782
1676239807.01850581,822567859,1,0.09976369142532349,-0.005607976578176022,0.002751018153503537,0.9949915409088135
1676239807.05851293,822607866,1,0.09895025938749313,-0.005369855090975761,0.004693198949098587,0.9950668215751648
1676239807.09849596,822647849,1,0.09833747148513794,-0.004888230003416538,0.006301184184849262,0.9951211810112
1676239807.11849594,822667849,1,0.09820199012756348,-0.00493933679535985,0.0066448962315917015,0.9951320886611938
1676239807.13854194,822687895,1,0.09773349016904831,-0.004415960516780615,0.006966553628444672,0.9951784610748291
1676239807.17849493,822727848,1,0.09698991477489471,-0.004972053226083517,0.008061070926487446,0.9952402710914612
1676239807.21849990,822767853,1,0.09633289277553558,-0.005373623222112656,0.010186904110014439,0.9952825307846069
1676239807.25852585,822807879,1,0.09543770551681519,-0.006835602223873138,0.01068794447928667,0.9953545331954956
1676239807.29849696,822847850,1,0.09427851438522339,-0.00907787773758173,0.010350153781473637,0.9954506754875183
1676239807.31853986,822867893,1,0.09397344291210175,-0.009439020417630672,0.011482552625238895,0.9954637289047241
1676239807.33857083,822887924,1,0.09305588155984879,-0.010587561875581741,0.011992749758064747,0.9955323338508606
1676239807.37849379,822927847,1,0.09220822900533676,-0.01284256111830473,0.011369312182068825,0.9955919981002808
1676239807.41850877,822967862,1,0.0908949002623558,-0.014642582274973392,0.010137084871530533,0.995701253414154
1676239807.45849895,823007852,1,0.08931799232959747,-0.016258930787444115,0.008875568397343159,0.9958308935165405
1676239807.49854994,823047903,1,0.087950199842453,-0.018818600103259087,0.008001472800970078,0.9959149360656738
1676239807.51858282,823067936,1,0.0870475172996521,-0.01988624781370163,0.005601524841040373,0.9959899187088013
1676239807.53854799,823087901,1,0.08661110699176788,-0.02185569889843464,0.003530473681166768,0.9959961771965027
1676239807.57849479,823127848,1,0.08492054790258408,-0.024745158851146698,-0.00040985000669024885,0.9960803389549255
1676239807.61853600,823167889,1,0.08302580565214157,-0.02857017144560814,-0.0017008018912747502,0.9961363077163696
1676239807.65849590,823207849,1,0.08061594516038895,-0.030315598472952843,-0.0023380720522254705,0.9962813854217529
1676239807.69856882,823247922,1,0.0784393921494484,-0.03248510882258415,-0.0026705197524279356,0.9963858723640442
1676239807.71849394,823267847,1,0.07721123844385147,-0.03257492184638977,-0.004198574926704168,0.9964736104011536
1676239807.73850799,823287861,1,0.0757129043340683,-0.032927874475717545,-0.0031996904872357845,0.9965807199478149
1676239807.77850890,823327862,1,0.07308531552553177,-0.03258950263261795,-0.004649785812944174,0.9967822432518005
1676239807.81849384,823367847,1,0.07010482996702194,-0.030570318922400475,-0.004213626962155104,0.9970622062683105
1676239807.85854888,823407902,1,0.06730011105537415,-0.027981825172901154,-0.003763592801988125,0.9973332285881042
1676239807.89849496,823447848,1,0.06400957703590393,-0.022615835070610046,-0.002859098371118307,0.997688889503479
1676239807.91849780,823467851,1,0.06242590397596359,-0.019694706425070763,-0.004502208903431892,0.9978451132774353
1676239807.93849897,823487852,1,0.0609004832804203,-0.015919584780931473,-0.0048953453078866005,0.9980048537254333
1676239807.97852683,823527880,1,0.057465922087430954,-0.008900325745344162,-0.005552071612328291,0.9982923269271851
1676239808.01849580,823567849,1,0.05406966432929039,-0.002333007985725999,-0.007383045740425587,0.9985071420669556
1676239808.05856991,823607923,1,0.05059955641627312,0.0022608174476772547,-0.005745282396674156,0.998699963092804
1676239808.09849787,823647851,1,0.0472666434943676,0.006230245344340801,-0.0057609896175563335,0.9988462924957275
1676239808.11849380,823667847,1,0.045661281794309616,0.007554135285317898,-0.007459964137524366,0.9989005327224731
1676239808.13850999,823687863,1,0.044047512114048004,0.008022764697670937,-0.008519426919519901,0.9989609122276306
1676239808.17849898,823727852,1,0.040883440524339676,0.008969802409410477,-0.007951991632580757,0.9990920424461365
1676239808.21854496,823767898,1,0.03789239004254341,0.008128101006150246,-0.00681950431317091,0.9992254972457886
1676239808.25849986,823807853,1,0.03451189398765564,0.006925832945853472,-0.007077123504132032,0.9993552565574646
1676239808.29849482,823847848,1,0.031994521617889404,0.004241475835442543,-0.008508666418492794,0.9994428157806396
1676239808.31850576,823867859,1,0.03046601638197899,0.002677435288205743,-0.00904074963182211,0.9994913339614868
1676239808.33853388,823887887,1,0.02913947030901909,0.0015559140592813492,-0.00822219718247652,0.9995403289794922
1676239808.37849379,823927847,1,0.026165006682276726,-0.0023048033472150564,-0.008407678455114365,0.9996196031570435
1676239808.41858697,823967940,1,0.023627901449799538,-0.005053989589214325,-0.006704187951982021,0.9996855854988098
1676239808.45850897,824007862,1,0.02101076766848564,-0.007712061982601881,-0.006197821814566851,0.9997302889823914
1676239808.49852180,824047875,1,0.01871713250875473,-0.009431695565581322,-0.007081746123731136,0.9997552633285522
1676239808.51853299,824067886,1,0.017166530713438988,-0.010132642462849617,-0.008392288349568844,0.9997660517692566
1676239808.53850794,824087861,1,0.015958154574036598,-0.01029952336102724,-0.006993457674980164,0.999795138835907
1676239808.57854390,824127897,1,0.013472525402903557,-0.011566303670406342,-0.00809949729591608,0.9998095631599426
1676239808.61849499,824167848,1,0.011021289974451065,-0.012211617082357407,-0.0081451665610075,0.99983149766922
1676239808.65849280,824207846,1,0.007964583113789558,-0.012373525649309158,-0.004966676235198975,0.9998793601989746
1676239808.69853282,824247886,1,0.005385659635066986,-0.011893976479768753,-0.005497597623616457,0.9998996257781982
1676239808.71849394,824267847,1,0.004051348194479942,-0.011825265362858772,-0.006464029662311077,0.9999009966850281
1676239808.73849583,824287849,1,0.0026995432563126087,-0.011288035660982132,-0.0056120604276657104,0.9999169111251831
1676239808.77857280,824327926,1,0.00046349174226634204,-0.010880433954298496,-0.00728385616093874,0.9999141693115234
1676239808.81850195,824367855,1,-0.0019218714442104101,-0.011470584198832512,-0.006917322054505348,0.999908447265625
1676239808.85851097,824407864,1,-0.004816065076738596,-0.01110257487744093,-0.006672731135040522,0.9999045133590698
1676239808.89849377,824447847,1,-0.00674779899418354,-0.011412451043725014,-0.007734233047813177,0.9998822212219238
1676239808.91849494,824467848,1,-0.008233847096562386,-0.012055176310241222,-0.007403919007629156,0.9998660087585449
1676239808.93855000,824487903,1,-0.009202564135193825,-0.011864200234413147,-0.006194957997649908,0.9998680949211121
1676239808.97849488,824527848,1,-0.011722062714397907,-0.010848830454051495,-0.0069182817824184895,0.999848484992981
1676239809.01849580,824567849,1,-0.013555784709751606,-0.011075622402131557,-0.007331874221563339,0.9998198747634888
1676239809.05852389,824607877,1,-0.015571781434118748,-0.01060941070318222,-0.006633160635828972,0.999800443649292
1676239809.09849596,824647849,1,-0.01751174032688141,-0.0121409110724926,-0.007394682615995407,0.9997456073760986
1676239809.11853981,824667893,1,-0.018241476267576218,-0.012878766283392906,-0.006836458574980497,0.9997273087501526
1676239809.13857293,824687926,1,-0.019113635644316673,-0.014352971687912941,-0.00792793370783329,0.9996828436851501
1676239809.17849898,824727852,1,-0.020384442061185837,-0.01843252032995224,-0.00701947184279561,0.9995976686477661
1676239809.21850896,824767862,1,-0.02151140198111534,-0.021810786798596382,-0.0070578232407569885,0.9995057582855225
1676239809.25849485,824807848,1,-0.023012634366750717,-0.025544436648488045,-0.007891146466135979,0.9993776082992554
1676239809.29854178,824847895,1,-0.02445012331008911,-0.027204036712646484,-0.008143061771988869,0.9992976784706116
1676239809.31857991,824867933,1,-0.024708252400159836,-0.028173459693789482,-0.007548386696726084,0.9992691278457642
1676239809.33850694,824887860,1,-0.025397492572665215,-0.02934807911515236,-0.007038182113319635,0.9992217421531677
1676239809.37850380,824927857,1,-0.026163239032030106,-0.030731897801160812,-0.0066284965723752975,0.9991632103919983
1676239809.41852498,824967878,1,-0.02708839252591133,-0.03302609175443649,-0.006443194579333067,0.9990665316581726
1676239809.45850086,825007854,1,-0.027984611690044403,-0.03500013053417206,-0.006402216851711273,0.9989749193191528
1676239809.49857593,825047929,1,-0.02829918824136257,-0.03598591685295105,-0.005230816546827555,0.9989378452301025
1676239809.51850796,825067861,1,-0.028767243027687073,-0.036721233278512955,-0.004658619407564402,0.9989005327224731
1676239809.53850579,825087859,1,-0.028900450095534325,-0.03631660342216492,-0.0049263001419603825,0.9989101886749268
1676239809.57850885,825127862,1,-0.02918599732220173,-0.03682917356491089,-0.004983250051736832,0.9988828301429749
1676239809.61850691,825167860,1,-0.02940906397998333,-0.03665892034769058,-0.004840123932808638,0.9988833069801331
1676239809.65853977,825207893,1,-0.02964557334780693,-0.03616472706198692,-0.005681516136974096,0.9988898634910583
1676239809.69850492,825247858,1,-0.02939305640757084,-0.03597268834710121,-0.005089899525046349,0.9989074468612671
1676239809.71850395,825267857,1,-0.02939082309603691,-0.03671037405729294,-0.005873245652765036,0.9988763928413391
1676239809.73849487,825287848,1,-0.02911895141005516,-0.03689214587211609,-0.004233969375491142,0.9988859295845032
1676239809.77852297,825327876,1,-0.02921590581536293,-0.03667386248707771,-0.0061789206229150295,0.9988810420036316
1676239809.81849790,825367851,1,-0.02910376898944378,-0.03669259697198868,-0.005176927428692579,0.9988892674446106
1676239809.85858393,825407937,1,-0.02888103947043419,-0.035189639776945114,-0.0068718306720256805,0.9989396333694458
1676239809.89849377,825447847,1,-0.028344599530100822,-0.034218136221170425,-0.005858107935637236,0.9989951848983765
1676239809.91849899,825467852,1,-0.02829752489924431,-0.033175401389598846,-0.00571897067129612,0.9990324974060059
1676239809.93850589,825487859,1,-0.02867184579372406,-0.0320947989821434,-0.0062128338031470776,0.9990541934967041
1676239809.97851086,825527864,1,-0.028153153136372566,-0.031247884035110474,-0.006005667150020599,0.9990970492362976
1676239810.01854277,825567896,1,-0.028269832953810692,-0.030048126354813576,-0.0062749809585511684,0.9991288781166077
1676239810.05849576,825607849,1,-0.02839253842830658,-0.030181389302015305,-0.007805585395544767,0.9991106390953064
1676239810.09849787,825647851,1,-0.028786953538656235,-0.03024446777999401,-0.008344260044395924,0.9990930557250977
1676239810.11851382,825667867,1,-0.028556065633893013,-0.030219586566090584,-0.007449304219335318,0.9991075396537781
1676239810.13853598,825687889,1,-0.02885945327579975,-0.029351867735385895,-0.009476919658482075,0.9991074800491333
1676239810.17849684,825727850,1,-0.02931593358516693,-0.027185633778572083,-0.009153882041573524,0.999158501625061
1676239810.21857381,825767927,1,-0.02989211305975914,-0.024095309898257256,-0.01052211131900549,0.9992072582244873
1676239810.25850582,825807859,1,-0.03096611797809601,-0.020678015425801277,-0.009878220967948437,0.9992576837539673
1676239810.29851294,825847866,1,-0.03215761482715607,-0.015930822119116783,-0.009294848889112473,0.9993126392364502
1676239810.31852388,825867877,1,-0.03271053731441498,-0.013052547350525856,-0.010717888362705708,0.9993221759796143
1676239810.33851194,825887865,1,-0.033453598618507385,-0.010711225681006908,-0.011173119768500328,0.999320387840271
1676239810.37853980,825927893,1,-0.035016100853681564,-0.006213201675564051,-0.009489565156400204,0.9993223547935486
1676239810.41850686,825967860,1,-0.03680616244673729,-0.0020870899315923452,-0.008295445702970028,0.9992858171463013
1676239810.45850086,826007854,1,-0.03869304060935974,-5.084283111500554e-05,-0.008025082759559155,0.9992189407348633
1676239810.49852777,826047881,1,-0.04039034992456436,0.000831850222311914,-0.005823780782520771,0.9991666674613953
1676239810.51851988,826067873,1,-0.04149271175265312,0.0018421182176098228,-0.007927809841930866,0.9991056323051453
1676239810.53849578,826087849,1,-0.04265705496072769,0.002608934883028269,-0.005386476404964924,0.9990718364715576
1676239810.57857299,826127926,1,-0.044405609369277954,0.0011184867471456528,-0.004799968097358942,0.9990014433860779
1676239810.61850595,826167859,1,-0.04660710319876671,-0.0007335811969824135,-0.0054997787810862064,0.998897910118103
1676239810.65850687,826207860,1,-0.049102917313575745,-0.0030896165408194065,-0.007099450100213289,0.9987637400627136
1676239810.69849777,826247851,1,-0.05096883699297905,-0.006536509841680527,-0.006876514293253422,0.9986552000045776
1676239810.71849394,826267847,1,-0.05255907028913498,-0.008165576495230198,-0.0052795116789639,0.9985705018043518
1676239810.73854399,826287897,1,-0.05378717929124832,-0.010390843264758587,-0.004386893007904291,0.99848872423172
1676239810.77850986,826327863,1,-0.056289125233888626,-0.014422024600207806,-0.0035728411749005318,0.9983039498329163
1676239810.81850100,826367854,1,-0.05873650312423706,-0.018851295113563538,-0.005492222961038351,0.9980803728103638
1676239810.85852695,826407880,1,-0.06126273050904274,-0.021838748827576637,-0.006487635895609856,0.9978616237640381
1676239810.89849281,826447846,1,-0.06399811804294586,-0.0230655986815691,-0.006003035698086023,0.9976653456687927
1676239810.91854286,826467896,1,-0.06515202671289444,-0.02437550388276577,-0.004610175266861916,0.9975669384002686
1676239810.93857384,826487927,1,-0.06665900349617004,-0.024022381752729416,-0.006440872326493263,0.9974657893180847
1676239810.97850490,826527858,1,-0.06949078291654587,-0.023783819749951363,-0.0056104352697730064,0.9972832798957825
1676239811.01850891,826567862,1,-0.07266175001859665,-0.021662255749106407,-0.004334461875259876,0.9971119165420532
1676239811.05850291,826607856,1,-0.07541763037443161,-0.019721493124961853,-0.003869948908686638,0.9969494938850403
1676239811.09854388,826647897,1,-0.07844261825084686,-0.017931567505002022,-0.00839486438781023,0.9967219829559326
1676239811.11857080,826667924,1,-0.07998436689376831,-0.017119286581873894,-0.008989553898572922,0.996608555316925
1676239811.13849592,826687849,1,-0.08143677562475204,-0.015383356250822544,-0.011380997486412525,0.9964947700500488
1676239811.17849684,826727850,1,-0.08473522216081619,-0.01372306328266859,-0.011966166086494923,0.9962371587753296
1676239811.21852493,826767878,1,-0.08787345141172409,-0.01240965910255909,-0.016501253470778465,0.9959176778793335
1676239811.25849390,826807847,1,-0.09154052287340164,-0.010304493829607964,-0.021190477535128593,0.9955225586891174
1676239811.29856896,826847922,1,-0.0941033884882927,-0.009259393438696861,-0.025426987558603287,0.9951946139335632
1676239811.31850481,826867858,1,-0.09577856957912445,-0.00777482008561492,-0.02903727814555168,0.99494868516922
1676239811.33849597,826887849,1,-0.09765888005495071,-0.007087778765708208,-0.030365800485014915,0.9947313070297241
1676239811.37850595,826927859,1,-0.10081548243761063,-0.005063202697783709,-0.03484902158379555,0.9942817091941833
1676239811.41850781,826967861,1,-0.1038760393857956,-0.0035288361832499504,-0.03913380578160286,0.9938138127326965
1676239811.45854092,827007894,1,-0.10709159821271896,-0.0026776634622365236,-0.04121573269367218,0.9933909177780151
1676239811.49850488,827047858,1,-0.10946386307477951,-0.004302571527659893,-0.04070577025413513,0.993147611618042
1676239811.51850891,827067862,1,-0.11112874001264572,-0.004660868551582098,-0.0441671684384346,0.9928131699562073
1676239811.53849387,827087847,1,-0.11239711195230484,-0.0052984729409217834,-0.043821725994348526,0.9926824569702148
