timestamp,TimeUS,DesRoll,Roll,DesPitch,Pitch,DesYaw,Yaw,ErrRP,ErrYaw,AEKF
92.69438100,92694381,0.0,0.38,0.0,-0.09,208.57,208.58,0.0,0.03,3
92.79436800,92794368,0.0,0.38,0.0,-0.09,208.56,208.57,0.0,0.03,3
92.89434300,92894343,0.0,0.38,0.0,-0.09,208.55,208.56,0.0,0.02,3
92.99429700,92994297,0.0,0.38,0.0,-0.09,208.55,208.56,0.0,0.02,3
93.09429500,93094295,0.0,0.38,0.0,-0.09,208.54,208.55,0.0,0.02,3
93.19427500,93194275,0.0,0.38,0.0,-0.1,208.54,208.55,0.0,0.02,3
93.29427400,93294274,0.0,0.38,0.0,-0.1,208.54,208.55,0.0,0.02,3
93.39426200,93394262,0.0,0.38,0.0,-0.1,208.54,208.55,0.0,0.01,3
93.49430000,93494300,0.0,0.38,0.0,-0.11,208.54,208.55,0.0,0.01,3
93.59437700,93594377,0.0,0.38,0.0,-0.11,208.54,208.55,0.0,0.01,3
93.69440600,93694406,0.0,0.38,0.0,-0.11,208.54,208.55,0.0,0.01,3
93.79439300,93794393,0.0,0.38,0.0,-0.12,208.54,208.55,0.0,0.01,3
93.89432900,93894329,0.0,0.38,0.0,-0.12,208.54,208.55,0.0,0.01,3
93.99436300,93994363,0.0,0.38,0.0,-0.12,208.53,208.54,0.0,0.01,3
94.09435800,94094358,0.0,0.38,0.0,-0.12,208.53,208.54,0.0,0.01,3
94.19438900,94194389,0.0,0.38,0.0,-0.13,208.52,208.53,0.0,0.01,3
94.29428100,94294281,0.0,0.38,0.0,-0.13,208.52,208.53,0.0,0.01,3
94.39434100,94394341,0.0,0.38,0.0,-0.13,208.51,208.52,0.0,0.01,3
94.49432000,94494320,0.0,0.38,0.0,-0.14,208.51,208.52,0.0,0.01,3
94.59436700,94594367,0.0,0.38,0.0,-0.14,208.5,208.51,0.0,0.01,3
94.69432200,94694322,0.0,0.38,0.0,-0.14,208.5,208.51,0.0,0.01,3
94.79424500,94794245,0.0,0.38,0.0,-0.15,208.49,208.5,0.0,0.01,3
94.89428600,94894286,0.0,0.38,0.0,-0.15,208.49,208.5,0.0,0.01,3
94.99430300,94994303,0.0,0.38,0.0,-0.15,208.48000000000002,208.49,0.0,0.01,3
95.09424300,95094243,0.0,0.38,0.0,-0.15,208.48000000000002,208.49,0.0,0.01,3
95.19429500,95194295,0.0,0.38,0.0,-0.16,208.48000000000002,208.49,0.0,0.01,3
95.29434100,95294341,0.0,0.38,0.0,-0.16,208.48000000000002,208.49,0.0,0.02,3
95.39439900,95394399,0.0,0.38,0.0,-0.16,208.48000000000002,208.49,0.0,0.02,3
95.49446100,95494461,0.0,0.38,0.0,-0.16,208.46,208.47,0.0,0.02,3
95.59437500,95594375,0.0,0.38,0.0,-0.17,208.43,208.44,0.0,0.03,3
95.69440400,95694404,0.0,0.38,0.0,-0.17,208.46,208.47,0.0,0.03,3
95.79438700,95794387,0.0,0.38,0.0,-0.17,208.42000000000002,208.43,0.0,0.04,3
95.89431100,95894311,0.0,0.38,0.0,-0.17,208.39000000000001,208.4,0.0,0.04,3
95.99433100,95994331,0.0,0.38,0.0,-0.18,208.41,208.42000000000002,0.0,0.04,3
96.09423800,96094238,0.0,0.38,0.0,-0.18,208.36,208.37,0.0,0.04,3
96.19427300,96194273,0.0,0.38,0.0,-0.18,208.33,208.34,0.0,0.04,3
96.29427400,96294274,0.0,0.38,0.0,-0.18,208.35,208.36,0.0,0.04,3
96.39434400,96394344,0.0,0.38,0.0,-0.19,208.31,208.32,0.0,0.04,3
96.49434400,96494344,0.0,0.38,0.0,-0.19,208.28,208.29,0.0,0.03,3
96.59427800,96594278,0.0,0.38,0.0,-0.19,208.3,208.31,0.0,0.04,3
96.69431100,96694311,0.0,0.38,0.0,-0.2,208.25,208.26,0.0,0.04,3
96.79431700,96794317,0.0,0.38,0.0,-0.2,208.24,208.25,0.0,0.04,3
96.89435300,96894353,0.0,0.38,0.0,-0.2,208.24,208.26,0.0,0.05,3
96.99429000,96994290,0.0,0.38,0.0,-0.21,208.24,208.21,0.0,0.09,3
97.09435200,97094352,0.0,0.38,0.0,-0.21,208.24,208.18,0.0,0.12,3
97.19432900,97194329,0.0,0.38,0.0,-0.21,208.24,208.15,0.0,0.13,3
97.29439900,97294399,0.0,0.38,0.0,-0.21,208.24,208.07,0.0,0.13,3
97.39431800,97394318,0.0,0.38,0.0,-0.21,208.24,208.02,0.0,0.14,3
97.49429400,97494294,0.0,0.38,0.0,-0.21,208.24,207.97,0.0,0.15,3
97.59437700,97594377,0.0,0.38,0.0,-0.22,208.24,207.88,0.0,0.15,3
97.69428000,97694280,0.0,0.37,0.0,-0.22,208.24,207.83,0.0,0.17,3
97.79442800,97794428,0.0,0.38,0.0,-0.22,208.24,207.78,0.0,0.17,3
97.89427600,97894276,0.0,0.38,0.0,-0.22,208.24,207.69,0.0,0.17,3
97.99429300,97994293,0.0,0.38,0.0,-0.22,208.24,207.64000000000001,0.0,0.17,3
98.09426100,98094261,0.0,0.38,0.0,-0.22,208.24,207.58,0.0,0.18,3
98.19432200,98194322,0.0,0.38,0.0,-0.23,208.24,207.5,0.0,0.19,3
98.29432000,98294320,0.0,0.38,0.0,-0.23,208.24,207.44,0.0,0.2,3
98.39431600,98394316,0.0,0.38,0.0,-0.23,208.24,207.37,0.0,0.21,3
98.49437900,98494379,0.0,0.38,0.0,-0.23,208.24,207.28,0.0,0.22,3
98.59434400,98594344,0.0,0.38,0.0,-0.23,208.24,207.21,0.0,0.22,3
98.69438500,98694385,0.0,0.38,0.0,-0.24,208.24,207.12,0.0,0.22,3
98.79441500,98794415,0.0,0.38,0.0,-0.24,208.24,207.03,0.0,0.23,3
98.89437500,98894375,0.0,0.38,0.0,-0.24,208.24,206.95000000000002,0.0,0.2,3
98.99429400,98994294,0.0,0.38,0.0,-0.24,208.24,206.87,0.0,0.18,3
99.09435800,99094358,0.0,0.38,0.0,-0.25,208.24,206.79,0.0,0.16,3
99.19431300,99194313,0.0,0.38,0.0,-0.25,208.24,206.75,0.0,0.13,3
99.29423000,99294230,0.0,0.38,0.0,-0.25,208.24,206.69,0.0,0.12,3
99.39429500,99394295,0.0,0.38,0.0,-0.25,208.24,206.65,0.0,0.11,3
99.49426800,99494268,0.0,0.38,0.0,-0.26,208.24,206.63,0.0,0.1,3
99.59429900,99594299,0.0,0.38,0.0,-0.26,208.24,206.59,0.0,0.09,3
99.69428800,99694288,0.0,0.38,0.0,-0.26,208.24,206.56,0.0,0.09,3
99.79456300,99794563,0.0,0.38,0.0,-0.26,208.24,206.53,0.0,0.09,3
99.89477800,99894778,0.0,0.38,0.0,-0.26,208.24,206.49,0.0,0.09,3
99.99467600,99994676,0.0,0.38,0.0,-0.27,208.24,206.45000000000002,0.0,0.08,3
100.09457800,100094578,0.0,0.38,0.0,-0.27,206.4,206.41,0.0,0.08,3
100.19458000,100194580,0.0,0.38,0.0,-0.27,206.35,206.36,0.0,0.06,3
100.29460600,100294606,0.0,0.38,0.0,-0.27,206.37,206.38,0.0,0.05,3
100.39460500,100394605,0.0,0.38,0.0,-0.28,206.3,206.31,0.0,0.04,3
100.49462800,100494628,0.0,0.38,0.0,-0.28,206.27,206.28,0.0,0.04,3
100.59463800,100594638,0.0,0.38,0.0,-0.28,206.29,206.3,0.0,0.03,3
100.69466300,100694663,0.0,0.38,0.0,-0.29,206.23000000000002,206.24,0.0,0.03,3
100.79459900,100794599,0.0,0.38,0.0,-0.28,206.22,206.23000000000002,0.0,0.03,3
100.89466400,100894664,0.0,0.38,0.0,-0.29,206.24,206.25,0.0,0.03,3
100.99462900,100994629,0.0,0.38,0.0,-0.29,206.19,206.20000000000002,0.0,0.02,3
101.09460400,101094604,0.0,0.38,0.0,-0.29,206.19,206.20000000000002,0.0,0.02,3
101.19458800,101194588,0.0,0.38,0.0,-0.3,206.20000000000002,206.21,0.0,0.02,3
101.29451200,101294512,0.0,0.38,0.0,-0.3,206.14000000000001,206.15,0.0,0.01,3
101.39457100,101394571,0.0,0.38,0.0,-0.3,206.14000000000001,206.15,0.0,0.02,3
101.49459200,101494592,0.0,0.38,0.0,-0.3,206.15,206.16,0.0,0.01,3
101.59466900,101594669,0.0,0.38,0.0,-0.31,206.09,206.1,0.0,0.01,3
101.69455200,101694552,0.0,0.38,0.0,-0.31,206.1,206.11,0.0,0.02,3
101.79469000,101794690,0.0,0.38,0.0,-0.31,206.1,206.11,0.0,0.02,3
101.89461300,101894613,0.0,0.38,0.0,-0.32,206.05,206.06,0.0,0.01,3
101.99469500,101994695,0.0,0.37,0.0,-0.32,206.06,206.07,0.0,0.01,3
102.09461600,102094616,0.0,0.37,0.0,-0.32,206.05,206.06,0.0,0.01,3
102.19459000,102194590,0.0,0.37,0.0,-0.33,206.0,206.01,0.0,0.01,3
102.29462000,102294620,0.0,0.37,0.0,-0.33,206.01,206.02,0.0,0.01,3
102.39459600,102394596,0.0,0.37,0.0,-0.33,205.99,206.0,0.0,0.01,3
102.49464000,102494640,0.0,0.37,0.0,-0.34,205.94,205.95000000000002,0.0,0.01,3
102.59462600,102594626,0.0,0.37,0.0,-0.33,205.96,205.97,0.0,0.01,3
102.69466500,102694665,0.0,0.37,0.0,-0.34,205.94,205.95000000000002,0.0,0.01,3
102.79467300,102794673,0.0,0.37,0.0,-0.34,205.9,205.91,0.0,0.01,3
102.89456700,102894567,0.0,0.37,0.0,-0.34,205.91,205.92000000000002,0.0,0.01,3
102.99458200,102994582,0.0,0.37,0.0,-0.35000000000000003,205.89000000000001,205.9,0.0,0.01,3
103.09460700,103094607,0.0,0.37,0.0,-0.35000000000000003,205.86,205.87,0.0,0.01,3
103.19467600,103194676,0.0,0.38,0.0,-0.35000000000000003,205.87,205.88,0.0,0.01,3
103.29455300,103294553,0.0,0.37,0.0,-0.36,205.84,205.85,0.0,0.01,3
103.39462400,103394624,0.0,0.38,0.0,-0.36,205.8,205.81,0.0,0.01,3
103.49461900,103494619,0.0,0.37,0.0,-0.36,205.81,205.82,0.0,0.01,3
103.59467800,103594678,0.0,0.38,0.0,-0.36,205.77,205.78,0.0,0.01,3
103.69467500,103694675,0.0,0.38,0.0,-0.37,205.75,205.76,0.0,0.01,3
103.79460600,103794606,0.0,0.38,0.0,-0.37,205.76,205.77,0.0,0.01,3
103.89458100,103894581,0.0,0.38,0.0,-0.37,205.73000000000002,205.74,0.0,0.01,3
103.99456900,103994569,0.0,0.37,0.0,-0.38,205.70000000000002,205.71,0.0,0.01,3
104.09472100,104094721,0.0,0.37,0.0,-0.38,205.71,205.72,0.0,0.01,3
104.19462100,104194621,0.0,0.37,0.0,-0.38,205.68,205.69,0.0,0.01,3
104.29463700,104294637,0.0,0.37,0.0,-0.39,205.66,205.67000000000002,0.0,0.0,3
104.39457000,104394570,0.0,0.37,0.0,-0.39,205.66,205.68,0.0,0.0,3
104.49461000,104494610,0.0,0.37,0.0,-0.39,205.66,205.65,0.0,0.03,3
104.59465800,104594658,0.0,0.37,0.0,-0.39,205.66,205.63,0.0,0.03,3
104.69459700,104694597,0.0,0.36,0.0,-0.4,205.66,205.62,0.0,0.04,3
104.79458200,104794582,0.0,0.37,0.0,-0.4,205.66,205.57,0.0,0.03,3
104.89458600,104894586,0.0,0.36,0.0,-0.4,205.66,205.55,0.0,0.04,3
104.99462400,104994624,0.0,0.37,0.0,-0.41000000000000003,205.66,205.53,0.0,0.04,3
105.09460800,105094608,0.0,0.36,0.0,-0.41000000000000003,205.66,205.49,0.0,0.04,3
105.19462700,105194627,0.0,0.37,0.0,-0.41000000000000003,205.66,205.47,0.0,0.03,3
105.29460200,105294602,0.0,0.36,0.0,-0.41000000000000003,205.66,205.45000000000002,0.0,0.03,3
105.39467000,105394670,0.0,0.36,0.0,-0.42,205.66,205.41,0.0,0.03,3
105.49460400,105494604,0.0,0.36,0.0,-0.42,205.66,205.4,0.0,0.03,3
105.59459700,105594597,0.0,0.36,0.0,-0.42,205.36,205.37,0.0,0.03,3
105.69463800,105694638,0.0,0.36,0.0,-0.42,205.33,205.34,0.0,0.03,3
105.79460600,105794606,0.0,0.36,0.0,-0.43,205.32,205.33,0.0,0.03,3
105.89454200,105894542,0.0,0.36,0.0,-0.43,205.29,205.3,0.0,0.03,3
105.99452300,105994523,0.0,0.36,0.0,-0.43,205.27,205.28,0.0,0.03,3
106.09462600,106094626,0.0,0.36,0.0,-0.43,205.26,205.27,0.0,0.02,3
106.19477300,106194773,0.0,0.36,0.0,-0.44,205.24,205.25,0.0,0.02,3
106.29468400,106294684,0.0,0.35000000000000003,0.0,-0.44,205.22,205.23000000000002,0.0,0.01,3
106.39465900,106394659,0.0,0.35000000000000003,0.0,-0.44,205.21,205.22,0.0,0.02,3
106.49456000,106494560,0.0,0.35000000000000003,0.0,-0.44,205.19,205.20000000000002,0.0,0.01,3
106.59466200,106594662,0.0,0.35000000000000003,0.0,-0.44,205.18,205.19,0.0,0.01,3
106.69460700,106694607,0.0,0.35000000000000003,0.0,-0.45,205.17000000000002,205.18,0.0,0.02,3
106.79461000,106794610,0.0,0.35000000000000003,0.0,-0.45,205.15,205.16,0.0,0.01,3
106.89459900,106894599,0.0,0.35000000000000003,0.0,-0.45,205.14000000000001,205.15,0.0,0.02,3
106.99460300,106994603,0.0,0.35000000000000003,0.0,-0.45,205.14000000000001,205.15,0.0,0.02,3
107.09455900,107094559,0.0,0.35000000000000003,0.0,-0.46,205.12,205.13,0.0,0.02,3
107.19466400,107194664,0.0,0.35000000000000003,0.0,-0.46,205.12,205.13,0.0,0.02,3
107.29463200,107294632,0.0,0.35000000000000003,0.0,-0.46,205.11,205.12,0.0,0.02,3
107.39453200,107394532,0.0,0.35000000000000003,0.0,-0.47000000000000003,205.09,205.1,0.0,0.01,3
107.49457400,107494574,0.0,0.35000000000000003,0.0,-0.47000000000000003,205.09,205.1,0.0,0.01,3
107.59459700,107594597,0.0,0.35000000000000003,0.0,-0.47000000000000003,205.08,205.09,0.0,0.01,3
107.69459000,107694590,0.0,0.35000000000000003,0.0,-0.47000000000000003,205.06,205.07,0.0,0.01,3
107.79459100,107794591,0.0,0.35000000000000003,0.0,-0.48,205.05,205.06,0.0,0.01,3
107.89458700,107894587,0.0,0.35000000000000003,0.0,-0.48,205.04,205.05,0.0,0.02,3
107.99458600,107994586,0.0,0.35000000000000003,0.0,-0.48,205.02,205.03,0.0,0.02,3
108.09463600,108094636,0.0,0.35000000000000003,0.0,-0.48,205.02,205.03,0.0,0.02,3
108.19463700,108194637,0.0,0.35000000000000003,0.0,-0.47000000000000003,205.0,205.01,0.0,0.02,3
108.29469600,108294696,0.0,0.35000000000000003,0.0,-0.47000000000000003,204.98000000000002,204.99,0.0,0.03,3
108.39462100,108394621,0.0,0.35000000000000003,0.0,-0.47000000000000003,204.98000000000002,204.99,0.0,0.04,3
108.49461200,108494612,0.0,0.35000000000000003,0.0,-0.47000000000000003,204.97,204.98000000000002,0.0,0.05,3
108.59504700,108595047,0.0,0.35000000000000003,0.0,-0.47000000000000003,204.96,204.97,0.0,0.06,3
108.69458300,108694583,0.0,0.35000000000000003,0.0,-0.47000000000000003,204.98000000000002,204.99,0.0,0.06,3
108.79461200,108794612,0.0,0.35000000000000003,0.0,-0.46,204.98000000000002,204.99,0.0,0.06,3
108.89460500,108894605,0.0,0.35000000000000003,0.0,-0.45,204.98000000000002,204.99,0.0,0.06,3
108.99467200,108994672,0.0,0.34,0.0,-0.44,205.0,205.01,0.0,0.05,3
109.09456900,109094569,0.0,0.34,0.0,-0.42,205.0,205.01,0.0,0.05,3
109.19454700,109194547,0.0,0.34,0.0,-0.4,204.99,205.0,0.0,0.05,3
109.29462000,109294620,0.0,0.34,0.0,-0.38,205.0,205.01,0.0,0.04,3
109.39456800,109394568,0.0,0.34,0.0,-0.35000000000000003,204.99,205.0,0.0,0.05,3
109.49456600,109494566,0.0,0.34,0.0,-0.32,204.98000000000002,204.99,0.0,0.05,3
109.59496300,109594963,0.0,0.34,0.0,-0.29,204.99,205.0,0.0,0.05,3
109.69461600,109694616,0.0,0.34,0.0,-0.25,204.99,205.0,0.0,0.06,3
109.79460200,109794602,0.0,0.34,0.0,-0.21,204.98000000000002,204.99,0.0,0.05,3
109.89465100,109894651,0.0,0.34,0.0,-0.17,205.0,205.01,0.0,0.06,3
109.99461700,109994617,0.0,0.34,0.0,-0.13,204.99,205.0,0.0,0.05,3
110.09459100,110094591,0.0,0.34,0.0,-0.1,204.99,205.0,0.0,0.05,3
110.19463900,110194639,0.0,0.34,0.0,-0.06,205.01,205.02,0.0,0.05,3
110.29458900,110294589,0.0,0.34,0.0,-0.03,205.0,205.01,0.0,0.06,3
110.39475200,110394752,0.0,0.34,0.0,0.0,205.0,205.01,0.0,0.05,3
110.49461200,110494612,0.0,0.34,0.0,0.01,205.01,205.02,0.0,0.05,3
110.59489900,110594899,0.0,0.34,0.0,0.04,205.01,205.02,0.0,0.05,3
110.69455000,110694550,0.0,0.34,0.0,0.06,205.01,205.02,0.0,0.04,3
110.79461600,110794616,0.0,0.34,0.0,0.08,205.02,205.03,0.0,0.05,3
110.89459700,110894597,0.0,0.33,0.0,0.09,205.01,205.02,0.0,0.05,3
110.99456100,110994561,0.0,0.33,0.0,0.1,205.01,205.02,0.0,0.06,3
111.09457400,111094574,0.0,0.33,0.0,0.11,205.02,205.03,0.0,0.06,3
111.19460200,111194602,0.0,0.33,0.0,0.12,205.02,205.03,0.0,0.06,3
111.29462400,111294624,0.0,0.33,0.0,0.13,205.03,205.04,0.0,0.06,3
111.39464400,111394644,0.0,0.32,0.0,0.13,205.04,205.05,0.0,0.06,3
111.49461700,111494617,0.0,0.32,0.0,0.14,205.04,205.05,0.0,0.06,3
111.59491700,111594917,0.0,0.32,0.0,0.14,205.06,205.07,0.0,0.06,3
111.69468600,111694686,0.0,0.32,0.0,0.15,205.07,205.08,0.0,0.05,3
111.79465000,111794650,0.0,0.32,0.0,0.15,205.06,205.07,0.0,0.05,3
111.89462500,111894625,0.0,0.32,0.0,0.15,205.07,205.08,0.0,0.05,3
111.99464400,111994644,0.0,0.32,0.0,0.15,205.08,205.09,0.0,0.04,3
112.09455600,112094556,0.0,0.31,0.0,0.15,205.08,205.09,0.0,0.05,3
112.19469300,112194693,0.0,0.31,0.0,0.15,205.08,205.09,0.0,0.05,3
112.29456900,112294569,0.0,0.31,0.0,0.15,205.09,205.1,0.0,0.05,3
112.39462300,112394623,0.0,0.31,0.0,0.15,205.09,205.1,0.0,0.05,3
112.49475100,112494751,0.0,0.3,0.0,0.14,205.1,205.11,0.0,0.06,3
112.59503200,112595032,0.0,0.3,0.0,0.14,205.1,205.11,0.0,0.06,3
112.69461400,112694614,0.0,0.3,0.0,0.14,205.11,205.12,0.0,0.06,3
112.79461600,112794616,0.0,0.3,0.0,0.14,205.12,205.13,0.0,0.06,3
112.89464700,112894647,0.0,0.3,0.0,0.14,205.13,205.14000000000001,0.0,0.05,3
112.99458200,112994582,0.0,0.3,0.0,0.13,205.14000000000001,205.15,0.0,0.05,3
113.09462800,113094628,0.0,0.29,0.0,0.13,205.15,205.16,0.0,0.05,3
113.19462500,113194625,0.0,0.29,0.0,0.13,205.15,205.16,0.0,0.04,3
113.29465700,113294657,0.0,0.29,0.0,0.13,205.15,205.16,0.0,0.04,3
113.39462800,113394628,0.0,0.29,0.0,0.13,205.16,205.17000000000002,0.0,0.04,3
113.49467300,113494673,0.0,0.29,0.0,0.12,205.16,205.17000000000002,0.0,0.03,3
113.59495500,113594955,0.0,0.29,0.0,0.12,205.15,205.16,0.0,0.04,3
113.69454400,113694544,0.0,0.28,0.0,0.12,205.16,205.17000000000002,0.0,0.04,3
113.79458300,113794583,0.0,0.28,0.0,0.11,205.15,205.16,0.0,0.03,3
113.89459300,113894593,0.0,0.28,0.0,0.11,205.15,205.16,0.0,0.03,3
113.99462100,113994621,0.0,0.28,0.0,0.11,205.16,205.17000000000002,0.0,0.03,3
114.09459100,114094591,0.0,0.28,0.0,0.11,205.15,205.16,0.0,0.03,3
114.19466400,114194664,0.0,0.28,0.0,0.11,205.15,205.16,0.0,0.04,3
114.29461100,114294611,0.0,0.28,0.0,0.1,205.16,205.17000000000002,0.0,0.04,3
114.39468000,114394680,0.0,0.28,0.0,0.1,205.16,205.17000000000002,0.0,0.03,3
114.49462300,114494623,0.0,0.28,0.0,0.09,205.16,205.17000000000002,0.0,0.03,3
114.59511900,114595119,0.0,0.28,0.0,0.09,205.17000000000002,205.18,0.0,0.03,3
114.69466600,114694666,0.0,0.28,0.0,0.09,205.16,205.17000000000002,0.0,0.03,3
114.79459500,114794595,0.0,0.28,0.0,0.08,205.17000000000002,205.18,0.0,0.04,3
114.89467400,114894674,0.0,0.27,0.0,0.08,205.17000000000002,205.18,0.0,0.04,3
114.99460000,114994600,0.0,0.27,0.0,0.08,205.17000000000002,205.18,0.0,0.04,3
115.09467600,115094676,0.0,0.27,0.0,0.07,205.18,205.19,0.0,0.03,3
115.19463700,115194637,0.0,0.27,0.0,0.07,205.18,205.19,0.0,0.03,3
115.29466200,115294662,0.0,0.27,0.0,0.07,205.18,205.19,0.0,0.04,3
115.39467300,115394673,0.0,0.27,0.0,0.06,205.18,205.19,0.0,0.04,3
115.49456900,115494569,0.0,0.27,0.0,0.06,205.18,205.19,0.0,0.04,3
115.59499700,115594997,0.0,0.27,0.0,0.06,205.19,205.20000000000002,0.0,0.03,3
115.69458700,115694587,0.0,0.27,0.0,0.06,205.19,205.20000000000002,0.0,0.04,3
115.79462100,115794621,0.0,0.27,0.0,0.05,205.20000000000002,205.21,0.0,0.03,3
115.89458400,115894584,0.0,0.26,0.0,0.05,205.19,205.20000000000002,0.0,0.03,3
115.99466100,115994661,0.0,0.26,0.0,0.05,205.20000000000002,205.21,0.0,0.02,3
116.09463800,116094638,0.0,0.26,0.0,0.05,205.20000000000002,205.21,0.0,0.02,3
116.19470700,116194707,0.0,0.26,0.0,0.04,205.19,205.20000000000002,0.0,0.02,3
116.29464800,116294648,0.0,0.26,0.0,0.04,205.20000000000002,205.21,0.0,0.02,3
116.39456700,116394567,0.0,0.26,0.0,0.04,205.19,205.20000000000002,0.0,0.02,3
116.49464300,116494643,0.0,0.26,0.0,0.04,205.19,205.20000000000002,0.0,0.03,3
116.59500300,116595003,0.0,0.26,0.0,0.03,205.20000000000002,205.21,0.0,0.03,3
116.69474300,116694743,0.0,0.26,0.0,0.03,205.20000000000002,205.21,0.0,0.04,3
116.79464700,116794647,0.0,0.26,0.0,0.03,205.20000000000002,205.21,0.0,0.03,3
116.89458000,116894580,0.0,0.26,0.0,0.02,205.21,205.22,0.0,0.03,3
116.99458800,116994588,0.0,0.26,0.0,0.02,205.21,205.22,0.0,0.03,3
117.09463000,117094630,0.0,0.26,0.0,0.02,205.22,205.23000000000002,0.0,0.03,3
117.19468500,117194685,0.0,0.26,0.0,0.02,205.22,205.23000000000002,0.0,0.02,3
117.29455800,117294558,0.0,0.26,0.0,0.02,205.22,205.23000000000002,0.0,0.03,3
117.39462300,117394623,0.0,0.26,0.0,0.01,205.22,205.23000000000002,0.0,0.03,3
117.49460100,117494601,0.0,0.25,0.0,0.01,205.22,205.23000000000002,0.0,0.03,3
117.59503600,117595036,0.0,0.25,0.0,0.01,205.22,205.23000000000002,0.0,0.03,3
117.69460800,117694608,0.0,0.25,0.0,0.01,205.22,205.23000000000002,0.0,0.03,3
117.79464700,117794647,0.0,0.25,0.0,0.01,205.23000000000002,205.24,0.0,0.03,3
117.89458900,117894589,0.0,0.25,0.0,0.0,205.23000000000002,205.24,0.0,0.04,3
117.99472400,117994724,0.0,0.25,0.0,0.0,205.23000000000002,205.24,0.0,0.04,3
118.09494800,118094948,0.0,0.25,0.0,0.0,205.24,205.25,0.0,0.03,3
118.19466000,118194660,0.0,0.25,0.0,0.0,205.25,205.26,0.0,0.03,3
118.29466700,118294667,0.0,0.25,0.0,0.0,205.25,205.26,0.0,0.03,3
118.39454700,118394547,0.0,0.25,0.0,0.0,205.26,205.27,0.0,0.03,3
118.49458100,118494581,0.0,0.25,0.0,0.0,205.26,205.27,0.0,0.03,3
118.59495700,118594957,0.0,0.25,0.0,0.0,205.27,205.28,0.0,0.04,3
118.69467000,118694670,0.0,0.25,0.0,0.0,205.27,205.28,0.0,0.04,3
118.79478300,118794783,0.0,0.25,0.0,0.0,205.27,205.28,0.0,0.04,3
118.89469800,118894698,0.0,0.24,0.0,0.0,205.28,205.29,0.0,0.03,3
118.99467700,118994677,0.0,0.24,0.0,0.0,205.29,205.3,0.0,0.03,3
119.09492200,119094922,0.0,0.24,0.0,0.0,205.29,205.3,0.0,0.02,3
119.19458500,119194585,0.0,0.24,0.0,0.0,205.29,205.3,0.0,0.02,3
119.29461900,119294619,0.0,0.24,0.0,0.0,205.3,205.3,0.0,0.02,3
119.39462300,119394623,0.0,0.24,0.0,0.0,205.3,205.3,0.0,0.03,3
119.49460800,119494608,0.0,0.24,0.0,0.0,205.3,205.3,0.0,0.02,3
119.59468600,119594686,0.0,0.24,0.0,-0.01,205.3,205.3,0.0,0.02,3
119.69461400,119694614,0.0,0.23,0.0,-0.01,205.3,205.3,0.0,0.02,3
119.79469700,119794697,0.0,0.23,0.0,-0.01,205.3,205.3,0.0,0.02,3
119.89462700,119894627,0.0,0.23,0.0,-0.01,205.3,205.3,0.0,0.02,3
119.99453400,119994534,0.0,0.23,0.0,-0.02,205.3,205.3,0.0,0.02,3
120.09488500,120094885,0.0,0.22,0.0,-0.02,205.3,205.31,0.0,0.03,3
120.19461500,120194615,0.0,0.22,0.0,-0.02,205.3,205.31,0.0,0.03,3
120.29466300,120294663,0.0,0.22,0.0,-0.02,205.3,205.31,0.0,0.03,3
120.39458500,120394585,0.0,0.22,0.0,-0.02,205.3,205.32,0.0,0.03,3
120.49460900,120494609,0.0,0.21,0.0,-0.02,205.3,205.33,0.0,0.03,3
120.59461200,120594612,0.0,0.21,0.0,-0.03,205.3,205.34,0.0,0.03,3
120.69469100,120694691,0.0,0.21,0.0,-0.03,205.3,205.34,0.0,0.04,3
120.79465000,120794650,0.0,0.21,0.0,-0.03,205.3,205.35,0.0,0.03,3
120.89480300,120894803,0.0,0.2,0.0,-0.03,205.3,205.36,0.0,0.02,3
120.99464100,120994641,0.0,0.2,0.0,-0.03,205.3,205.36,0.0,0.02,3
121.09468400,121094684,0.0,0.2,0.0,-0.03,205.3,205.36,0.0,0.01,3
121.19461500,121194615,0.0,0.19,0.0,-0.04,205.3,205.36,0.0,0.02,3
121.29460600,121294606,0.0,0.19,0.0,-0.04,205.35,205.36,0.0,0.01,3
121.39464000,121394640,0.0,0.19,0.0,-0.04,205.35,205.36,0.0,0.01,3
121.49467400,121494674,0.0,0.18,0.0,-0.04,205.35,205.36,0.0,0.01,3
121.59468500,121594685,0.0,0.18,0.0,-0.04,205.35,205.36,0.0,0.01,3
121.69467200,121694672,0.0,0.18,0.0,-0.04,205.35,205.36,0.0,0.02,3
121.79459700,121794597,0.0,0.17,0.0,-0.04,205.35,205.36,0.0,0.01,3
121.89467600,121894676,0.0,0.17,0.0,-0.05,205.36,205.37,0.0,0.01,3
121.99459200,121994592,0.0,0.17,0.0,-0.05,205.36,205.37,0.0,0.01,3
122.09467800,122094678,0.0,0.17,0.0,-0.05,205.34,205.35,0.0,0.01,3
122.19461700,122194617,0.0,0.17,0.0,-0.05,205.36,205.37,0.0,0.02,3
122.29463700,122294637,0.0,0.16,0.0,-0.05,205.36,205.37,0.0,0.02,3
122.39461600,122394616,0.0,0.16,0.0,-0.05,205.34,205.35,0.0,0.02,3
122.49466800,122494668,0.0,0.16,0.0,-0.05,205.34,205.35,0.0,0.02,3
122.59467400,122594674,0.0,0.15,0.0,-0.06,205.34,205.35,0.0,0.02,3
122.69462900,122694629,0.0,0.15,0.0,-0.06,205.31,205.32,0.0,0.02,3
122.79461700,122794617,0.0,0.15,0.0,-0.06,205.32,205.33,0.0,0.02,3
122.89463600,122894636,0.0,0.15,0.0,-0.06,205.3,205.31,0.0,0.02,3
122.99478100,122994781,0.0,0.14,0.0,-0.07,205.28,205.29,0.0,0.02,3
123.09470700,123094707,0.0,0.14,0.0,-0.07,205.29,205.3,0.0,0.03,3
123.19465000,123194650,0.0,0.13,0.0,-0.07,205.27,205.28,0.0,0.02,3
123.29464200,123294642,0.0,0.13,0.0,-0.07,205.25,205.26,0.0,0.02,3
123.39465800,123394658,0.0,0.13,0.0,-0.07,205.25,205.26,0.0,0.02,3
123.49457700,123494577,0.0,0.12,0.0,-0.07,205.24,205.25,0.0,0.03,3
123.59460500,123594605,0.0,0.12,0.0,-0.08,205.22,205.23000000000002,0.0,0.03,3
123.69462100,123694621,0.0,0.12,0.0,-0.07,205.22,205.23000000000002,0.0,0.04,3
123.79464300,123794643,0.0,0.12,0.0,-0.08,205.20000000000002,205.21,0.0,0.04,3
123.89462900,123894629,0.0,0.12,0.0,-0.08,205.18,205.19,0.0,0.04,3
123.99460200,123994602,0.0,0.11,0.0,-0.08,205.17000000000002,205.18,0.0,0.04,3
124.09466600,124094666,0.0,0.11,0.0,-0.08,205.15,205.16,0.0,0.04,3
124.19463900,124194639,0.0,0.11,0.0,-0.08,205.13,205.14000000000001,0.0,0.03,3
124.29467500,124294675,0.0,0.11,0.0,-0.08,205.12,205.13,0.0,0.03,3
124.39463800,124394638,0.0,0.1,0.0,-0.08,205.1,205.11,0.0,0.03,3
124.49461700,124494617,0.0,0.1,0.0,-0.09,205.09,205.1,0.0,0.03,3
124.59465600,124594656,0.0,0.1,0.0,-0.09,205.09,205.1,0.0,0.04,3
124.69456800,124694568,0.0,0.1,0.0,-0.09,205.09,205.07,0.0,0.04,3
124.79460000,124794600,0.0,0.09,0.0,-0.1,205.09,205.06,0.0,0.05,3
124.89458800,124894588,0.0,0.09,0.0,-0.1,205.09,205.05,0.0,0.04,3
124.99465600,124994656,0.0,0.09,0.0,-0.1,205.09,205.02,0.0,0.04,3
125.09469300,125094693,0.0,0.09,0.0,-0.1,205.09,205.01,0.0,0.04,3
125.19468300,125194683,0.0,0.09,0.0,-0.1,205.09,205.0,0.0,0.04,3
125.29463500,125294635,0.0,0.08,0.0,-0.11,205.09,204.98000000000002,0.0,0.03,3
125.39461700,125394617,0.0,0.08,0.0,-0.11,205.09,204.97,0.0,0.03,3
125.49464500,125494645,0.0,0.07,0.0,-0.11,205.09,204.96,0.0,0.03,3
125.59464300,125594643,0.0,0.07,0.0,-0.11,205.09,204.94,0.0,0.04,3
125.69463700,125694637,0.0,0.07,0.0,-0.11,205.09,204.92000000000002,0.0,0.03,3
125.79460900,125794609,0.0,0.06,0.0,-0.12,205.09,204.91,0.0,0.03,3
125.89464200,125894642,0.0,0.06,0.0,-0.12,205.09,204.89000000000001,0.0,0.04,3
125.99460000,125994600,0.0,0.06,0.0,-0.12,205.09,204.88,0.0,0.04,3
126.09467600,126094676,0.0,0.06,0.0,-0.12,205.09,204.86,0.0,0.04,3
126.19463600,126194636,0.0,0.05,0.0,-0.12,205.09,204.84,0.0,0.04,3
126.29459400,126294594,0.0,0.05,0.0,-0.13,205.09,204.83,0.0,0.04,3
126.39461900,126394619,0.0,0.04,0.0,-0.13,205.09,204.81,0.0,0.04,3
126.49459700,126494597,0.0,0.04,0.0,-0.13,205.09,204.79,0.0,0.04,3
126.59467600,126594676,0.0,0.04,0.0,-0.13,205.09,204.77,0.0,0.05,3
126.69469700,126694697,0.0,0.03,0.0,-0.13,205.09,204.75,0.0,0.05,3
126.79462100,126794621,0.0,0.03,0.0,-0.13,205.09,204.73000000000002,0.0,0.05,3
126.89462200,126894622,0.0,0.02,0.0,-0.14,205.09,204.71,0.0,0.04,3
126.99466800,126994668,0.0,0.02,0.0,-0.14,205.09,204.70000000000002,0.0,0.04,3
127.09469100,127094691,0.0,0.02,0.0,-0.14,205.09,204.68,0.0,0.04,3
127.19475500,127194755,0.0,0.02,0.0,-0.14,205.09,204.66,0.0,0.04,3
127.29463200,127294632,0.0,0.01,0.0,-0.14,205.09,204.64000000000001,0.0,0.04,3
127.39458500,127394585,0.0,0.01,0.0,-0.14,205.09,204.63,0.0,0.04,3
127.49464200,127494642,0.0,0.01,0.0,-0.14,205.09,204.61,0.0,0.04,3
127.59463500,127594635,0.0,0.0,0.0,-0.15,204.57,204.58,0.0,0.05,3
127.69467800,127694678,0.0,0.0,0.0,-0.15,204.57,204.58,0.0,0.04,3
127.79455000,127794550,0.0,0.0,0.0,-0.15,204.55,204.56,0.0,0.04,3
127.89468400,127894684,0.0,0.0,0.0,-0.15,204.52,204.53,0.0,0.03,3
127.99460300,127994603,0.0,0.0,0.0,-0.15,204.52,204.53,0.0,0.03,3
128.09465100,128094651,0.0,-0.01,0.0,-0.15,204.51,204.52,0.0,0.03,3
128.19468800,128194688,0.0,-0.01,0.0,-0.16,204.48000000000002,204.49,0.0,0.02,3
128.29455400,128294554,0.0,-0.02,0.0,-0.16,204.49,204.5,0.0,0.02,3
128.39463400,128394634,0.0,-0.02,0.0,-0.16,204.48000000000002,204.49,0.0,0.02,3
128.49459500,128494595,0.0,-0.02,0.0,-0.16,204.47,204.47,0.0,0.01,3
128.59467500,128594675,0.0,-0.03,0.0,-0.16,204.47,204.48000000000002,0.0,0.01,3
128.69463300,128694633,0.0,-0.03,0.0,-0.16,204.46,204.47,0.0,0.01,3
128.79466900,128794669,0.0,-0.03,0.0,-0.16,204.45000000000002,204.46,0.0,0.01,3
128.89467100,128894671,0.0,-0.04,0.0,-0.16,204.46,204.47,0.0,0.01,3
128.99462600,128994626,0.0,-0.04,0.0,-0.17,204.45000000000002,204.46,0.0,0.01,3
129.09464700,129094647,0.0,-0.05,0.0,-0.17,204.44,204.45000000000002,0.0,0.01,3
129.19463500,129194635,0.0,-0.05,0.0,-0.17,204.45000000000002,204.46,0.0,0.01,3
129.29474300,129294743,0.0,-0.05,0.0,-0.17,204.43,204.44,0.0,0.01,3
129.39456900,129394569,0.0,-0.05,0.0,-0.17,204.42000000000002,204.43,0.0,0.01,3
129.49455900,129494559,0.0,-0.06,0.0,-0.17,204.43,204.44,0.0,0.01,3
129.59471100,129594711,0.0,-0.06,0.0,-0.18,204.4,204.41,0.0,0.01,3
129.69468800,129694688,0.0,-0.06,0.0,-0.18,204.4,204.41,0.0,0.02,3
129.79465300,129794653,0.0,-0.07,0.0,-0.18,204.4,204.41,0.0,0.01,3
129.89459300,129894593,0.0,-0.07,0.0,-0.18,204.39000000000001,204.4,0.0,0.01,3
129.99462200,129994622,0.0,-0.07,0.0,-0.18,204.39000000000001,204.4,0.0,0.01,3
130.09462600,130094626,0.0,-0.08,0.0,-0.18,204.39000000000001,204.4,0.0,0.01,3
130.19463900,130194639,0.0,-0.08,0.0,-0.18,204.37,204.38,0.0,0.0,3
130.29461100,130294611,0.0,-0.08,0.0,-0.19,204.37,204.38,0.0,0.0,3
130.39465500,130394655,0.0,-0.08,0.0,-0.19,204.38,204.39000000000001,0.0,0.0,3
130.49458800,130494588,0.0,-0.09,0.0,-0.19,204.36,204.37,0.0,0.0,3
130.59472700,130594727,0.0,-0.09,0.0,-0.19,204.36,204.37,0.0,0.0,3
130.69465300,130694653,0.0,-0.09,0.0,-0.19,204.36,204.37,0.0,0.0,3
130.79464100,130794641,0.0,-0.1,0.0,-0.19,204.34,204.35,0.0,0.0,3
130.89467500,130894675,0.0,-0.1,0.0,-0.19,204.34,204.35,0.0,0.0,3
130.99458200,130994582,0.0,-0.1,0.0,-0.19,204.33,204.34,0.0,0.01,3
131.09470100,131094701,0.0,-0.1,0.0,-0.2,204.32,204.33,0.0,0.01,3
131.19461100,131194611,0.0,-0.11,0.0,-0.2,204.31,204.32,0.0,0.01,3
131.29458200,131294582,0.0,-0.11,0.0,-0.2,204.31,204.31,0.0,0.01,3
131.39472600,131394726,0.0,-0.11,0.0,-0.2,204.31,204.29,0.0,0.01,3
131.49463800,131494638,0.0,-0.12,0.0,-0.2,204.31,204.29,0.0,0.01,3
131.59466900,131594669,0.0,-0.12,0.0,-0.2,204.31,204.27,0.0,0.02,3
131.69462000,131694620,0.0,-0.12,0.0,-0.2,204.31,204.26,0.0,0.02,3
131.79467100,131794671,0.0,-0.13,0.0,-0.2,204.31,204.25,0.0,0.02,3
131.89462300,131894623,0.0,-0.13,0.0,-0.21,204.31,204.23000000000002,0.0,0.02,3
131.99461300,131994613,0.0,-0.13,0.0,-0.21,204.31,204.22,0.0,0.01,3
132.09458500,132094585,0.0,-0.14,0.0,-0.21,204.31,204.21,0.0,0.02,3
132.19465800,132194658,0.0,-0.14,0.0,-0.21,204.31,204.20000000000002,0.0,0.02,3
132.29461900,132294619,0.0,-0.14,0.0,-0.21,204.17000000000002,204.18,0.0,0.02,3
132.39467300,132394673,0.0,-0.15,0.0,-0.21,204.16,204.17000000000002,0.0,0.02,3
132.49458300,132494583,0.0,-0.15,0.0,-0.21,204.15,204.16,0.0,0.01,3
132.59458900,132594589,0.0,-0.15,0.0,-0.21,204.13,204.14000000000001,0.0,0.02,3
132.69460700,132694607,0.0,-0.16,0.0,-0.22,204.13,204.14000000000001,0.0,0.02,3
132.79468100,132794681,0.0,-0.16,0.0,-0.22,204.12,204.13,0.0,0.02,3
132.89458200,132894582,0.0,-0.16,0.0,-0.22,204.11,204.12,0.0,0.02,3
132.99457800,132994578,0.0,-0.17,0.0,-0.22,204.1,204.11,0.0,0.01,3
133.09466100,133094661,0.0,-0.18,0.0,-0.22,204.09,204.1,0.0,0.01,3
133.19462800,133194628,0.0,-0.18,0.0,-0.23,204.08,204.09,0.0,0.01,3
133.29467800,133294678,0.0,-0.18,0.0,-0.23,204.08,204.09,0.0,0.01,3
133.39464200,133394642,0.0,-0.18,0.0,-0.23,204.07,204.08,0.0,0.01,3
133.49472000,133494720,0.0,-0.19,0.0,-0.23,204.06,204.07,0.0,0.01,3
133.59465300,133594653,0.0,-0.19,0.0,-0.23,204.05,204.06,0.0,0.01,3
133.69459400,133694594,0.0,-0.2,0.0,-0.23,204.04,204.05,0.0,0.02,3
133.79467300,133794673,0.0,-0.2,0.0,-0.24,204.03,204.04,0.0,0.01,3
133.89461600,133894616,0.0,-0.2,0.0,-0.24,204.03,204.04,0.0,0.01,3
133.99462800,133994628,0.0,-0.21,0.0,-0.24,204.02,204.03,0.0,0.01,3
134.09455900,134094559,0.0,-0.21,0.0,-0.24,204.02,204.03,0.0,0.02,3
134.19462100,134194621,0.0,-0.22,0.0,-0.24,204.02,204.03,0.0,0.02,3
134.29470200,134294702,0.0,-0.22,0.0,-0.24,204.01,204.02,0.0,0.02,3
134.39465100,134394651,0.0,-0.22,0.0,-0.25,204.01,204.02,0.0,0.02,3
134.49467600,134494676,0.0,-0.23,0.0,-0.25,204.01,204.02,0.0,0.01,3
134.59462200,134594622,0.0,-0.23,0.0,-0.25,204.01,204.02,0.0,0.02,3
134.69465500,134694655,0.0,-0.23,0.0,-0.25,204.0,204.01,0.0,0.02,3
134.79462400,134794624,0.0,-0.24,0.0,-0.25,204.0,204.01,0.0,0.02,3
134.89464200,134894642,0.0,-0.24,0.0,-0.25,203.99,204.0,0.0,0.02,3
134.99457400,134994574,0.0,-0.25,0.0,-0.25,203.98000000000002,203.99,0.0,0.02,3
135.09467800,135094678,0.0,-0.25,0.0,-0.25,203.98000000000002,203.99,0.0,0.01,3
135.19466200,135194662,0.0,-0.25,0.0,-0.25,203.97,203.98000000000002,0.0,0.02,3
135.29461200,135294612,0.0,-0.26,0.0,-0.26,203.96,203.97,0.0,0.02,3
135.39466300,135394663,0.0,-0.26,0.0,-0.26,203.95000000000002,203.96,0.0,0.02,3
135.49467000,135494670,0.0,-0.26,0.0,-0.26,203.94,203.95000000000002,0.0,0.02,3
135.59473400,135594734,0.0,-0.27,0.0,-0.26,203.93,203.94,0.0,0.01,3
135.69461100,135694611,0.0,-0.27,0.0,-0.26,203.92000000000002,203.93,0.0,0.01,3
135.79469600,135794696,0.0,-0.27,0.0,-0.26,203.9,203.91,0.0,0.01,3
135.89461200,135894612,0.0,-0.28,0.0,-0.26,203.9,203.91,0.0,0.01,3
135.99470000,135994700,0.0,-0.28,0.0,-0.26,203.89000000000001,203.9,0.0,0.01,3
136.09467100,136094671,0.0,-0.29,0.0,-0.26,203.88,203.89000000000001,0.0,0.01,3
136.19460400,136194604,0.0,-0.29,0.0,-0.27,203.88,203.89000000000001,0.0,0.01,3
136.29463300,136294633,0.0,-0.29,0.0,-0.27,203.87,203.88,0.0,0.01,3
136.39460900,136394609,0.0,-0.29,0.0,-0.27,203.87,203.87,0.0,0.01,3
136.49464000,136494640,0.0,-0.29,0.0,-0.27,203.87,203.87,0.0,0.01,3
136.59464200,136594642,0.0,-0.3,0.0,-0.27,203.87,203.86,0.0,0.01,3
136.69465400,136694654,0.0,-0.3,0.0,-0.27,203.87,203.85,0.0,0.02,3
136.79462700,136794627,0.0,-0.3,0.0,-0.27,203.87,203.84,0.0,0.01,3
136.89466700,136894667,0.0,-0.31,0.0,-0.27,203.87,203.83,0.0,0.01,3
136.99466300,136994663,0.0,-0.31,0.0,-0.27,203.87,203.82,0.0,0.01,3
137.09463100,137094631,0.0,-0.31,0.0,-0.27,203.87,203.81,0.0,0.01,3
137.19461900,137194619,0.0,-0.31,0.0,-0.27,203.87,203.8,0.0,0.01,3
137.29456600,137294566,0.0,-0.32,0.0,-0.28,203.87,203.79,0.0,0.02,3
137.39473100,137394731,0.0,-0.32,0.0,-0.28,203.77,203.78,0.0,0.02,3
137.49451300,137494513,0.0,-0.33,0.0,-0.28,203.75,203.76,0.0,0.01,3
137.59458600,137594586,0.0,-0.33,0.0,-0.28,203.74,203.75,0.0,0.01,3
137.69482600,137694826,0.0,-0.33,0.0,-0.28,203.73000000000002,203.74,0.0,0.02,3
137.79467200,137794672,0.0,-0.33,0.0,-0.28,203.72,203.73000000000002,0.0,0.02,3
137.89464300,137894643,0.0,-0.34,0.0,-0.28,203.72,203.73000000000002,0.0,0.01,3
137.99460400,137994604,0.0,-0.34,0.0,-0.29,203.71,203.72,0.0,0.01,3
138.09465200,138094652,0.0,-0.34,0.0,-0.29,203.70000000000002,203.71,0.0,0.02,3
138.19458800,138194588,0.0,-0.35000000000000003,0.0,-0.29,203.70000000000002,203.71,0.0,0.02,3
138.29467700,138294677,0.0,-0.35000000000000003,0.0,-0.29,203.69,203.70000000000002,0.0,0.02,3
138.39466800,138394668,0.0,-0.35000000000000003,0.0,-0.29,203.69,203.70000000000002,0.0,0.02,3
138.49462700,138494627,0.0,-0.35000000000000003,0.0,-0.29,203.68,203.69,0.0,0.02,3
138.59469600,138594696,0.0,-0.35000000000000003,0.0,-0.29,203.67000000000002,203.68,0.0,0.01,3
138.69468100,138694681,0.0,-0.36,0.0,-0.29,203.67000000000002,203.68,0.0,0.01,3
138.79458600,138794586,0.0,-0.36,0.0,-0.29,203.67000000000002,203.68,0.0,0.02,3
138.89456500,138894565,0.0,-0.36,0.0,-0.29,203.66,203.67000000000002,0.0,0.02,3
138.99470500,138994705,0.0,-0.37,0.0,-0.29,203.65,203.66,0.0,0.02,3
139.09457800,139094578,0.0,-0.37,0.0,-0.29,203.65,203.66,0.0,0.02,3
139.19461500,139194615,0.0,-0.37,0.0,-0.3,203.64000000000001,203.65,0.0,0.02,3
139.29458800,139294588,0.0,-0.38,0.0,-0.3,203.64000000000001,203.65,0.0,0.01,3
139.39463200,139394632,0.0,-0.38,0.0,-0.3,203.64000000000001,203.65,0.0,0.01,3
139.49458600,139494586,0.0,-0.38,0.0,-0.3,203.64000000000001,203.65,0.0,0.02,3
139.59469300,139594693,0.0,-0.38,0.0,-0.3,203.63,203.64000000000001,0.0,0.03,3
139.69465600,139694656,0.0,-0.39,0.0,-0.3,203.63,203.64000000000001,0.0,0.02,3
139.79471800,139794718,0.0,-0.39,0.0,-0.3,203.63,203.64000000000001,0.0,0.02,3
139.89463500,139894635,0.0,-0.39,0.0,-0.3,203.63,203.64000000000001,0.0,0.02,3
139.99459000,139994590,0.0,-0.39,0.0,-0.3,203.63,203.64000000000001,0.0,0.02,3
140.09470500,140094705,0.0,-0.4,0.0,-0.3,203.62,203.63,0.0,0.01,3
140.19462300,140194623,0.0,-0.4,0.0,-0.3,203.62,203.63,0.0,0.01,3
140.29466900,140294669,0.0,-0.4,0.0,-0.3,203.62,203.63,0.0,0.01,3
140.39456200,140394562,0.0,-0.39,0.0,-0.29,203.62,203.63,0.0,0.02,3
140.49463500,140494635,0.0,-0.38,0.0,-0.29,203.61,203.62,0.0,0.02,3
140.59501000,140595010,0.0,-0.38,0.0,-0.29,203.61,203.62,0.0,0.02,3
140.69458600,140694586,0.0,-0.37,0.0,-0.28,203.61,203.62,0.0,0.03,3
140.79462700,140794627,0.0,-0.37,0.0,-0.28,203.62,203.63,0.0,0.03,3
140.89460400,140894604,0.0,-0.37,0.0,-0.28,203.61,203.62,0.0,0.03,3
140.99463500,140994635,0.0,-0.36,0.0,-0.27,203.62,203.63,0.0,0.04,3
141.09459400,141094594,0.0,-0.35000000000000003,0.0,-0.26,203.64000000000001,203.65,0.0,0.04,3
141.19465200,141194652,0.0,-0.33,0.0,-0.25,203.63,203.64000000000001,0.0,0.05,3
141.29463100,141294631,0.0,-0.31,0.0,-0.24,203.65,203.66,0.0,0.05,3
141.39467100,141394671,0.0,-0.28,0.0,-0.22,203.66,203.67000000000002,0.0,0.06,3
141.49468100,141494681,0.0,-0.24,0.0,-0.2,203.66,203.67000000000002,0.0,0.06,3
141.59496500,141594965,0.0,-0.2,0.0,-0.17,203.68,203.69,0.0,0.06,3
141.69466300,141694663,0.0,-0.15,0.0,-0.15,203.69,203.70000000000002,0.0,0.06,3
141.79462200,141794622,0.0,-0.1,0.0,-0.12,203.70000000000002,203.71,0.0,0.06,3
141.89474500,141894745,0.0,-0.04,0.0,-0.08,203.71,203.72,0.0,0.06,3
141.99456400,141994564,0.0,0.01,0.0,-0.05,203.72,203.73000000000002,0.0,0.06,3
142.09463600,142094636,0.0,0.07,0.0,-0.02,203.72,203.73000000000002,0.0,0.05,3
142.19464900,142194649,0.0,0.13,0.0,0.01,203.74,203.75,0.0,0.05,3
142.29465000,142294650,0.0,0.19,0.0,0.04,203.74,203.75,0.0,0.05,3
142.39461400,142394614,0.0,0.23,0.0,0.06,203.74,203.75,0.0,0.05,3
142.49460900,142494609,0.0,0.26,0.0,0.08,203.74,203.76,0.0,0.05,3
142.59465600,142594656,0.0,0.27,0.0,0.09,203.74,203.76,0.0,0.05,3
142.69461600,142694616,0.0,0.28,0.0,0.1,203.74,203.76,0.0,0.06,3
142.79464000,142794640,0.0,0.28,0.0,0.1,203.74,203.77,0.0,0.06,3
142.89461900,142894619,0.0,0.28,0.0,0.1,203.74,203.78,0.0,0.06,3
142.99461900,142994619,0.0,0.27,0.0,0.09,203.74,203.79,0.0,0.06,3
143.09464300,143094643,0.0,0.27,0.0,0.09,203.74,203.8,0.0,0.06,3
143.19468000,143194680,0.0,0.26,0.0,0.09,203.74,203.81,0.0,0.07,3
143.29465200,143294652,0.0,0.26,0.0,0.09,203.74,203.82,0.0,0.07,3
143.39464200,143394642,0.0,0.25,0.0,0.09,203.74,203.84,0.0,0.05,3
143.49459300,143494593,0.0,0.25,0.0,0.09,203.74,203.84,0.0,0.06,3
143.59466900,143594669,0.0,0.25,0.0,0.09,203.74,203.85,0.0,0.06,3
143.69470600,143694706,0.0,0.25,0.0,0.09,203.74,203.86,0.0,0.06,3
143.79456300,143794563,0.0,0.25,0.0,0.09,203.74,203.86,0.0,0.06,3
143.89460500,143894605,0.0,0.24,0.0,0.09,203.74,203.87,0.0,0.06,3
143.99473000,143994730,0.0,0.24,0.0,0.09,203.74,203.88,0.0,0.07,3
144.09475400,144094754,0.0,0.24,0.0,0.09,203.74,203.88,0.0,0.07,3
144.19465600,144194656,0.0,0.24,0.0,0.09,203.74,203.9,0.0,0.06,3
144.29458300,144294583,0.0,0.24,0.0,0.09,203.74,203.91,0.0,0.07,3
144.39465700,144394657,0.0,0.23,0.0,0.09,203.91,203.92000000000002,0.0,0.06,3
144.49460800,144494608,0.0,0.23,0.0,0.09,203.92000000000002,203.93,0.0,0.06,3
144.59468700,144594687,0.0,0.23,0.0,0.09,203.94,203.95000000000002,0.0,0.06,3
144.69463300,144694633,0.0,0.23,0.0,0.09,203.94,203.95000000000002,0.0,0.07,3
144.79464800,144794648,0.0,0.23,0.0,0.09,203.96,203.97,0.0,0.07,3
144.89462800,144894628,0.0,0.23,0.0,0.09,203.97,203.98000000000002,0.0,0.06,3
144.99466300,144994663,0.0,0.23,0.0,0.09,204.0,204.01,0.0,0.06,3
145.09468300,145094683,0.0,0.23,0.0,0.09,203.96,203.97,0.0,0.07,3
145.19460400,145194604,0.0,0.23,0.0,0.09,204.01,204.02,0.0,0.06,3
145.29466900,145294669,0.0,0.23,0.0,0.09,204.04,204.05,0.0,0.06,3
145.39453300,145394533,0.0,0.23,0.0,0.09,203.98000000000002,203.99,0.0,0.05,3
145.49460200,145494602,0.0,0.22,0.0,0.09,204.02,204.03,0.0,0.05,3
145.59462000,145594620,0.0,0.22,0.0,0.09,204.02,204.03,0.0,0.04,3
145.69465100,145694651,0.0,0.23,0.0,0.09,203.96,203.97,0.0,0.04,3
145.79463200,145794632,0.0,0.22,0.0,0.09,203.99,204.0,0.0,0.04,3
145.89465900,145894659,0.0,0.23,0.0,0.09,203.98000000000002,203.99,0.0,0.03,3
145.99463700,145994637,0.0,0.23,0.0,0.09,203.93,203.94,0.0,0.02,3
146.09474900,146094749,0.0,0.23,0.0,0.1,203.96,203.97,0.0,0.02,3
146.19464000,146194640,0.0,0.23,0.0,0.09,203.95000000000002,203.96,0.0,0.02,3
146.29462800,146294628,0.0,0.23,0.0,0.09,203.9,203.91,0.0,0.02,3
146.39463600,146394636,0.0,0.23,0.0,0.1,203.94,203.95000000000002,0.0,0.01,3
146.49463100,146494631,0.0,0.23,0.0,0.1,203.92000000000002,203.93,0.0,0.02,3
146.59468100,146594681,0.0,0.23,0.0,0.09,203.89000000000001,203.9,0.0,0.01,3
146.69458000,146694580,0.0,0.23,0.0,0.1,203.92000000000002,203.93,0.0,0.02,3
146.79473500,146794735,0.0,0.23,0.0,0.1,203.9,203.91,0.0,0.01,3
146.89468200,146894682,0.0,0.23,0.0,0.09,203.86,203.87,0.0,0.01,3
146.99459700,146994597,0.0,0.24,0.0,0.1,203.89000000000001,203.9,0.0,0.02,3
147.09464800,147094648,0.0,0.23,0.0,0.1,203.87,203.88,0.0,0.02,3
147.19461600,147194616,0.0,0.23,0.0,0.1,203.85,203.86,0.0,0.02,3
147.29466900,147294669,0.0,0.23,0.0,0.1,203.88,203.89000000000001,0.0,0.02,3
147.39461300,147394613,0.0,0.23,0.0,0.1,203.85,203.86,0.0,0.02,3
147.49462600,147494626,0.0,0.23,0.0,0.1,203.83,203.84,0.0,0.02,3
147.59463200,147594632,0.0,0.23,0.0,0.1,203.85,203.86,0.0,0.02,3
147.69472800,147694728,0.0,0.23,0.0,0.1,203.81,203.82,0.0,0.02,3
147.79467200,147794672,0.0,0.23,0.0,0.1,203.81,203.82,0.0,0.01,3
147.89462600,147894626,0.0,0.24,0.0,0.1,203.83,203.84,0.0,0.02,3
147.99464000,147994640,0.0,0.24,0.0,0.1,203.79,203.8,0.0,0.02,3
148.09458900,148094589,0.0,0.24,0.0,0.1,203.79,203.8,0.0,0.02,3
148.19475100,148194751,0.0,0.24,0.0,0.1,203.82,203.83,0.0,0.02,3
148.29460400,148294604,0.0,0.24,0.0,0.1,203.79,203.8,0.0,0.03,3
148.39466600,148394666,0.0,0.24,0.0,0.1,203.79,203.8,0.0,0.03,3
148.49455700,148494557,0.0,0.24,0.0,0.1,203.83,203.84,0.0,0.04,3
148.59504500,148595045,0.0,0.23,0.0,0.1,203.81,203.82,0.0,0.03,3
148.69464000,148694640,0.0,0.23,0.0,0.1,203.82,203.83,0.0,0.03,3
148.79462100,148794621,0.0,0.23,0.0,0.1,203.85,203.86,0.0,0.03,3
148.89462200,148894622,0.0,0.23,0.0,0.1,203.82,203.83,0.0,0.03,3
148.99462500,148994625,0.0,0.22,0.0,0.1,203.84,203.85,0.0,0.04,3
149.09465600,149094656,0.0,0.22,0.0,0.1,203.86,203.87,0.0,0.03,3
149.19463000,149194630,0.0,0.22,0.0,0.1,203.84,203.85,0.0,0.03,3
149.29465300,149294653,0.0,0.22,0.0,0.1,203.85,203.86,0.0,0.03,3
149.39462600,149394626,0.0,0.21,0.0,0.1,203.87,203.88,0.0,0.03,3
149.49468700,149494687,0.0,0.21,0.0,0.1,203.85,203.86,0.0,0.03,3
149.59494600,149594946,0.0,0.21,0.0,0.1,203.86,203.87,0.0,0.03,3
149.69455300,149694553,0.0,0.2,0.0,0.09,203.88,203.89000000000001,0.0,0.03,3
149.79463600,149794636,0.0,0.2,0.0,0.09,203.86,203.87,0.0,0.04,3
149.89465800,149894658,0.0,0.2,0.0,0.09,203.88,203.89000000000001,0.0,0.04,3
149.99470200,149994702,0.0,0.19,0.0,0.09,203.9,203.91,0.0,0.04,3
150.09456900,150094569,0.0,0.19,0.0,0.08,203.88,203.89000000000001,0.0,0.04,3
150.19469600,150194696,0.0,0.18,0.0,0.08,203.91,203.92000000000002,0.0,0.04,3
150.29476200,150294762,0.0,0.18,0.0,0.07,203.92000000000002,203.93,0.0,0.05,3
150.39468100,150394681,0.0,0.18,0.0,0.07,203.9,203.91,0.0,0.05,3
150.49462100,150494621,0.0,0.17,0.0,0.07,203.93,203.94,0.0,0.05,3
150.59500200,150595002,0.0,0.17,0.0,0.06,203.94,203.95000000000002,0.0,0.04,3
150.69465200,150694652,0.0,0.17,0.0,0.05,203.93,203.94,0.0,0.04,3
150.79463300,150794633,0.0,0.16,0.0,0.05,203.96,203.97,0.0,0.04,3
150.89464600,150894646,0.0,0.16,0.0,0.05,203.96,203.97,0.0,0.04,3
150.99463200,150994632,0.0,0.16,0.0,0.04,203.96,203.97,0.0,0.03,3
151.09467500,151094675,0.0,0.16,0.0,0.04,203.98000000000002,203.99,0.0,0.03,3
151.19465200,151194652,0.0,0.16,0.0,0.04,203.98000000000002,203.99,0.0,0.02,3
151.29467100,151294671,0.0,0.16,0.0,0.03,203.97,203.98000000000002,0.0,0.03,3
151.39491500,151394915,0.0,0.16,0.0,0.03,203.99,204.0,0.0,0.03,3
151.49461100,151494611,0.0,0.16,0.0,0.03,203.99,204.0,0.0,0.02,3
151.59495900,151594959,0.0,0.17,0.0,0.03,203.98000000000002,203.99,0.0,0.03,3
151.69458100,151694581,0.0,0.17,0.0,0.03,204.01,204.02,0.0,0.03,3
151.79462200,151794622,0.0,0.17,0.0,0.03,204.0,204.01,0.0,0.03,3
151.89462700,151894627,0.0,0.17,0.0,0.03,204.0,204.01,0.0,0.03,3
151.99463000,151994630,0.0,0.17,0.0,0.02,204.01,204.02,0.0,0.03,3
152.09461600,152094616,0.0,0.18,0.0,0.02,204.0,204.01,0.0,0.03,3
152.19471000,152194710,0.0,0.18,0.0,0.02,204.01,204.02,0.0,0.05,3
152.29463500,152294635,0.0,0.18,0.0,0.02,204.02,204.03,0.0,0.04,3
152.39504400,152395044,0.0,0.19,0.0,0.02,204.0,204.01,0.0,0.04,3
152.49464000,152494640,0.0,0.19,0.0,0.02,204.0,204.01,0.0,0.04,3
152.59491500,152594915,0.0,0.19,0.0,0.03,204.0,204.01,0.0,0.05,3
152.69466500,152694665,0.0,0.19,0.0,0.03,203.98000000000002,203.99,0.0,0.04,3
152.79456400,152794564,0.0,0.19,0.0,0.03,203.99,204.0,0.0,0.03,3
152.89460000,152894600,0.0,0.2,0.0,0.03,204.0,204.01,0.0,0.03,3
152.99459200,152994592,0.0,0.2,0.0,0.03,203.99,204.0,0.0,0.03,3
153.09475600,153094756,0.0,0.2,0.0,0.03,204.0,204.01,0.0,0.03,3
153.19461100,153194611,0.0,0.2,0.0,0.04,204.0,204.01,0.0,0.03,3
153.29457800,153294578,0.0,0.21,0.0,0.04,203.99,204.0,0.0,0.06,3
153.39492700,153394927,0.0,0.21,0.0,0.04,204.0,204.01,0.0,0.05,3
153.49461900,153494619,0.0,0.21,0.0,0.04,204.01,204.02,0.0,0.05,3
153.59505800,153595058,0.0,0.21,0.0,0.04,204.01,204.02,0.0,0.05,3
153.69462800,153694628,0.0,0.21,0.0,0.04,204.02,204.03,0.0,0.06,3
153.79466500,153794665,0.0,0.22,0.0,0.04,204.02,204.03,0.0,0.07,3
153.89459700,153894597,0.0,0.22,0.0,0.04,204.02,204.03,0.0,0.07,3
153.99468600,153994686,0.0,0.22,0.0,0.05,204.04,204.05,0.0,0.08,3
154.09465700,154094657,0.0,0.22,0.0,0.05,204.04,204.05,0.0,0.06,3
154.19464000,154194640,0.0,0.22,0.0,0.05,204.04,204.05,0.0,0.08,3
154.29462900,154294629,0.0,0.22,0.0,0.05,204.05,204.06,0.0,0.08,3
154.39459300,154394593,0.0,0.22,0.0,0.05,204.06,204.07,0.0,0.08,3
154.49474600,154494746,0.0,0.22,0.0,0.05,204.06,204.07,0.0,0.09,3
154.59499200,154594992,0.0,0.22,0.0,0.05,204.08,204.09,0.0,0.09,3
154.69468200,154694682,0.0,0.22,0.0,0.05,204.09,204.1,0.0,0.08,3
154.79469400,154794694,0.0,0.22,0.0,0.06,204.1,204.11,0.0,0.09,3
154.89471700,154894717,0.0,0.22,0.0,0.06,204.11,204.12,0.0,0.09,3
154.99470700,154994707,0.0,0.22,0.0,0.06,204.11,204.12,0.0,0.08,3
155.09463900,155094639,0.0,0.23,0.0,0.06,204.1,204.11,0.0,0.08,3
155.19464200,155194642,0.0,0.23,0.0,0.06,204.11,204.12,0.0,0.06,3
155.29463200,155294632,0.0,0.23,0.0,0.06,204.11,204.12,0.0,0.06,3
155.39466900,155394669,0.0,0.23,0.0,0.06,204.1,204.11,0.0,0.07,3
155.49461900,155494619,0.0,0.23,0.0,0.07,204.1,204.11,0.0,0.06,3
155.59499100,155594991,0.0,0.23,0.0,0.07,204.1,204.11,0.0,0.05,3
155.69461100,155694611,0.0,0.23,0.0,0.07,204.1,204.11,0.0,0.05,3
155.79473600,155794736,0.0,0.23,0.0,0.07,204.11,204.12,0.0,0.07,3
155.89456400,155894564,0.0,0.23,0.0,0.07,204.12,204.13,0.0,0.06,3
155.99459200,155994592,0.0,0.23,0.0,0.07,204.13,204.14000000000001,0.0,0.07,3
156.09461200,156094612,0.0,0.23,0.0,0.07,204.15,204.16,0.0,0.05,3
156.19464400,156194644,0.0,0.23,0.0,0.07,204.15,204.16,0.0,0.05,3
156.29468300,156294683,0.0,0.23,0.0,0.07,204.15,204.16,0.0,0.05,3
156.39462000,156394620,0.0,0.23,0.0,0.07,204.16,204.17000000000002,0.0,0.04,3
156.49465100,156494651,0.0,0.23,0.0,0.07,204.15,204.16,0.0,0.06,3
156.59509400,156595094,0.0,0.23,0.0,0.07,204.15,204.16,0.0,0.06,3
156.69467700,156694677,0.0,0.22,0.0,0.07,204.17000000000002,204.18,0.0,0.05,3
156.79466400,156794664,0.0,0.22,0.0,0.07,204.17000000000002,204.18,0.0,0.05,3
156.89460000,156894600,0.0,0.23,0.0,0.07,204.18,204.19,0.0,0.05,3
156.99465100,156994651,0.0,0.22,0.0,0.07,204.17000000000002,204.18,0.0,0.05,3
157.09460100,157094601,0.0,0.23,0.0,0.07,204.16,204.17000000000002,0.0,0.06,3
157.19463600,157194636,0.0,0.23,0.0,0.07,204.16,204.17000000000002,0.0,0.08,3
157.29463500,157294635,0.0,0.23,0.0,0.08,204.17000000000002,204.18,0.0,0.07,3
157.39464400,157394644,0.0,0.23,0.0,0.07,204.17000000000002,204.18,0.0,0.07,3
157.49455500,157494555,0.0,0.23,0.0,0.08,204.19,204.20000000000002,0.0,0.07,3
157.59502200,157595022,0.0,0.23,0.0,0.08,204.21,204.22,0.0,0.08,3
157.69473800,157694738,0.0,0.23,0.0,0.08,204.22,204.23000000000002,0.0,0.09,3
157.79464800,157794648,0.0,0.23,0.0,0.08,204.24,204.25,0.0,0.07,3
157.89458900,157894589,0.0,0.23,0.0,0.08,204.25,204.26,0.0,0.05,3
157.99462100,157994621,0.0,0.23,0.0,0.08,204.24,204.25,0.0,0.05,3
158.09463900,158094639,0.0,0.23,0.0,0.08,204.25,204.26,0.0,0.05,3
158.19460000,158194600,0.0,0.23,0.0,0.08,204.24,204.25,0.0,0.04,3
158.29463900,158294639,0.0,0.23,0.0,0.08,204.23000000000002,204.24,0.0,0.04,3
158.39464000,158394640,0.0,0.23,0.0,0.08,204.23000000000002,204.24,0.0,0.04,3
158.49468600,158494686,0.0,0.23,0.0,0.08,204.23000000000002,204.24,0.0,0.05,3
158.59496100,158594961,0.0,0.23,0.0,0.08,204.23000000000002,204.24,0.0,0.06,3
158.69477800,158694778,0.0,0.24,0.0,0.08,204.25,204.26,0.0,0.05,3
158.79463800,158794638,0.0,0.24,0.0,0.08,204.25,204.26,0.0,0.04,3
158.89464400,158894644,0.0,0.24,0.0,0.08,204.25,204.26,0.0,0.06,3
158.99461400,158994614,0.0,0.24,0.0,0.09,204.25,204.26,0.0,0.06,3
159.09459600,159094596,0.0,0.24,0.0,0.09,204.24,204.25,0.0,0.06,3
159.19460400,159194604,0.0,0.24,0.0,0.09,204.23000000000002,204.24,0.0,0.08,3
159.29464500,159294645,0.0,0.24,0.0,0.09,204.23000000000002,204.24,0.0,0.08,3
159.39466400,159394664,0.0,0.25,0.0,0.09,204.23000000000002,204.24,0.0,0.06,3
159.49460700,159494607,0.0,0.25,0.0,0.09,204.24,204.25,0.0,0.05,3
159.59497600,159594976,0.0,0.25,0.0,0.09,204.24,204.25,0.0,0.05,3
159.69465600,159694656,0.0,0.25,0.0,0.09,204.23000000000002,204.24,0.0,0.04,3
159.79460600,159794606,0.0,0.25,0.0,0.09,204.23000000000002,204.24,0.0,0.04,3
159.89465300,159894653,0.0,0.25,0.0,0.09,204.23000000000002,204.24,0.0,0.03,3
159.99461200,159994612,0.0,0.25,0.0,0.09,204.22,204.23000000000002,0.0,0.04,3
160.09465600,160094656,0.0,0.25,0.0,0.09,204.22,204.23000000000002,0.0,0.04,3
160.19463600,160194636,0.0,0.25,0.0,0.09,204.23000000000002,204.24,0.0,0.05,3
160.29465600,160294656,0.0,0.25,0.0,0.09,204.22,204.23000000000002,0.0,0.05,3
160.39465300,160394653,0.0,0.25,0.0,0.09,204.22,204.23000000000002,0.0,0.04,3
160.49456800,160494568,0.0,0.26,0.0,0.09,204.22,204.23000000000002,0.0,0.03,3
160.59492900,160594929,0.0,0.26,0.0,0.09,204.21,204.22,0.0,0.04,3
160.69468800,160694688,0.0,0.26,0.0,0.09,204.21,204.22,0.0,0.07,3
160.79479500,160794795,0.0,0.26,0.0,0.09,204.22,204.23000000000002,0.0,0.07,3
160.89462600,160894626,0.0,0.26,0.0,0.09,204.24,204.25,0.0,0.06,3
160.99463600,160994636,0.0,0.26,0.0,0.09,204.25,204.26,0.0,0.06,3
161.09460200,161094602,0.0,0.26,0.0,0.09,204.27,204.28,0.0,0.06,3
161.19465100,161194651,0.0,0.26,0.0,0.09,204.28,204.29,0.0,0.05,3
161.29463200,161294632,0.0,0.26,0.0,0.09,204.29,204.3,0.0,0.04,3
161.39460700,161394607,0.0,0.26,0.0,0.09,204.3,204.31,0.0,0.05,3
161.49462800,161494628,0.0,0.27,0.0,0.09,204.3,204.31,0.0,0.04,3
161.59502100,161595021,0.0,0.27,0.0,0.09,204.3,204.31,0.0,0.05,3
161.69467200,161694672,0.0,0.27,0.0,0.09,204.3,204.31,0.0,0.05,3
161.79464200,161794642,0.0,0.27,0.0,0.09,204.3,204.31,0.0,0.06,3
161.89466300,161894663,0.0,0.27,0.0,0.09,204.3,204.31,0.0,0.05,3
161.99462100,161994621,0.0,0.27,0.0,0.09,204.3,204.31,0.0,0.07,3
162.09470100,162094701,0.0,0.27,0.0,0.09,204.31,204.32,0.0,0.06,3
162.19458300,162194583,0.0,0.27,0.0,0.09,204.32,204.33,0.0,0.05,3
162.29460600,162294606,0.0,0.27,0.0,0.09,204.34,204.35,0.0,0.06,3
162.39470600,162394706,0.0,0.27,0.0,0.09,204.35,204.36,0.0,0.07,3
162.49461200,162494612,0.0,0.28,0.0,0.09,204.36,204.37,0.0,0.07,3
162.59501100,162595011,0.0,0.28,0.0,0.1,204.36,204.37,0.0,0.07,3
183.29443600,183294436,0.0,0.38,0.0,0.14,203.64000000000001,203.65,0.0,0.07,3
183.39433400,183394334,0.0,0.38,0.0,0.14,203.64000000000001,203.66,0.0,0.1,3
183.49435100,183494351,0.0,0.39,0.0,0.14,203.64000000000001,203.68,0.0,0.1,3
183.59434200,183594342,0.0,0.39,0.0,0.14,203.64000000000001,203.69,0.0,0.09,3
183.69436600,183694366,0.0,0.39,0.0,0.15,203.64000000000001,203.70000000000002,0.0,0.08,3
183.79433600,183794336,0.0,0.39,0.0,0.15,203.64000000000001,203.70000000000002,0.0,0.08,3
183.89436800,183894368,0.0,0.39,0.0,0.15,203.64000000000001,203.70000000000002,0.0,0.09,3
183.99429300,183994293,0.0,0.39,0.0,0.15,203.64000000000001,203.69,0.0,0.08,3
184.09426800,184094268,0.0,0.39,0.0,0.15,203.64000000000001,203.68,0.0,0.09,3
184.19433200,184194332,0.0,0.39,0.0,0.14,203.64000000000001,203.68,0.0,0.13,3
184.29434300,184294343,0.0,0.39,0.0,0.14,203.64000000000001,203.67000000000002,0.0,0.12,3
184.39434500,184394345,0.0,0.39,0.0,0.14,203.64000000000001,203.65,0.0,0.12,3
184.49433600,184494336,0.0,0.39,0.0,0.15,203.64000000000001,203.62,0.0,0.1,3
184.59442300,184594423,0.0,0.39,0.0,0.15,203.64000000000001,203.6,0.0,0.1,3
184.69464900,184694649,0.0,0.39,0.0,0.15,203.64000000000001,203.58,0.0,0.1,3
184.79436800,184794368,0.0,0.39,0.0,0.15,203.64000000000001,203.57,0.0,0.1,3
184.89440700,184894407,0.0,0.39,0.0,0.15,203.64000000000001,203.57,0.0,0.08,3
184.99431800,184994318,0.0,0.4,0.0,0.15,203.64000000000001,203.58,0.0,0.08,3
185.09438100,185094381,0.0,0.4,0.0,0.15,203.64000000000001,203.59,0.0,0.09,3
185.19427500,185194275,0.0,0.4,0.0,0.15,203.64000000000001,203.6,0.0,0.09,3
185.29434300,185294343,0.0,0.4,0.0,0.15,203.59,203.6,0.0,0.09,3
185.39429500,185394295,0.0,0.4,0.0,0.15,203.58,203.59,0.0,0.1,3
185.49432500,185494325,0.0,0.4,0.0,0.15,203.58,203.59,0.0,0.09,3
185.59434300,185594343,0.0,0.4,0.0,0.15,203.58,203.59,0.0,0.08,3
185.69458500,185694585,0.0,0.4,0.0,0.15,203.58,203.59,0.0,0.08,3
185.79440800,185794408,0.0,0.4,0.0,0.14,203.58,203.59,0.0,0.07,3
185.89433600,185894336,0.0,0.41000000000000003,0.0,0.14,203.58,203.59,0.0,0.07,3
185.99442400,185994424,0.0,0.41000000000000003,0.0,0.14,203.56,203.57,0.0,0.07,3
186.09437300,186094373,0.0,0.41000000000000003,0.0,0.15,203.61,203.62,0.0,0.07,3
186.19440600,186194406,0.0,0.41000000000000003,0.0,0.14,203.54,203.55,0.0,0.07,3
186.29437300,186294373,0.0,0.41000000000000003,0.0,0.14,203.54,203.55,0.0,0.08,3
186.39446700,186394467,0.0,0.41000000000000003,0.0,0.14,203.56,203.57,0.0,0.06,3
186.49442800,186494428,0.0,0.41000000000000003,0.0,0.14,203.49,203.5,0.0,0.08,3
186.59435500,186594355,0.0,0.41000000000000003,0.0,0.15,203.48000000000002,203.49,0.0,0.07,3
186.69459900,186694599,0.0,0.41000000000000003,0.0,0.15,203.49,203.5,0.0,0.05,3
186.79430300,186794303,0.0,0.41000000000000003,0.0,0.14,203.43,203.44,0.0,0.06,3
186.89434200,186894342,0.0,0.41000000000000003,0.0,0.15,203.44,203.45000000000002,0.0,0.07,3
186.99427800,186994278,0.0,0.41000000000000003,0.0,0.15,203.45000000000002,203.46,0.0,0.09,3
187.09430900,187094309,0.0,0.41000000000000003,0.0,0.14,203.38,203.39000000000001,0.0,0.07,3
187.19425100,187194251,0.0,0.42,0.0,0.15,203.38,203.39000000000001,0.0,0.07,3
187.29440400,187294404,0.0,0.41000000000000003,0.0,0.15,203.38,203.39000000000001,0.0,0.06,3
187.39440900,187394409,0.0,0.41000000000000003,0.0,0.14,203.32,203.33,0.0,0.08,3
187.49429100,187494291,0.0,0.41000000000000003,0.0,0.15,203.32,203.33,0.0,0.07,3
187.59438500,187594385,0.0,0.42,0.0,0.14,203.31,203.32,0.0,0.08,3
187.69445900,187694459,0.0,0.42,0.0,0.14,203.26,203.27,0.0,0.09,3
187.79444500,187794445,0.0,0.42,0.0,0.14,203.28,203.29,0.0,0.08,3
187.89434400,187894344,0.0,0.42,0.0,0.14,203.28,203.29,0.0,0.07,3
187.99441000,187994410,0.0,0.42,0.0,0.14,203.24,203.25,0.0,0.07,3
188.09442500,188094425,0.0,0.42,0.0,0.14,203.26,203.27,0.0,0.07,3
188.19439400,188194394,0.0,0.42,0.0,0.14,203.25,203.26,0.0,0.07,3
188.29429200,188294292,0.0,0.42,0.0,0.14,203.21,203.22,0.0,0.06,3
188.39433300,188394333,0.0,0.42,0.0,0.14,203.23000000000002,203.24,0.0,0.05,3
188.49433800,188494338,0.0,0.42,0.0,0.14,203.22,203.23000000000002,0.0,0.05,3
188.59429700,188594297,0.0,0.42,0.0,0.14,203.19,203.20000000000002,0.0,0.04,3
188.69427800,188694278,0.0,0.42,0.0,0.14,203.21,203.22,0.0,0.07,3
188.79430700,188794307,0.0,0.42,0.0,0.14,203.19,203.20000000000002,0.0,0.06,3
188.89441000,188894410,0.0,0.42,0.0,0.14,203.16,203.17000000000002,0.0,0.06,3
188.99434700,188994347,0.0,0.42,0.0,0.14,203.17000000000002,203.18,0.0,0.06,3
189.09443100,189094431,0.0,0.42,0.0,0.14,203.14000000000001,203.15,0.0,0.06,3
189.19437600,189194376,0.0,0.42,0.0,0.14,203.11,203.12,0.0,0.06,3
189.29436200,189294362,0.0,0.42,0.0,0.14,203.11,203.12,0.0,0.08,3
189.39440300,189394403,0.0,0.42,0.0,0.14,203.09,203.1,0.0,0.09,3
189.49435300,189494353,0.0,0.42,0.0,0.14,203.07,203.08,0.0,0.1,3
189.59470400,189594704,0.0,0.42,0.0,0.15,203.08,203.09,0.0,0.11,3
189.69436200,189694362,0.0,0.42,0.0,0.15,203.07,203.08,0.0,0.11,3
189.79435300,189794353,0.0,0.42,0.0,0.14,203.08,203.09,0.0,0.11,3
189.89428300,189894283,0.0,0.42,0.0,0.14,203.1,203.11,0.0,0.09,3
189.99434300,189994343,0.0,0.42,0.0,0.14,203.1,203.11,0.0,0.12,3
190.09432400,190094324,0.0,0.42,0.0,0.14,203.11,203.12,0.0,0.12,3
190.19438900,190194389,0.0,0.42,0.0,0.14,203.14000000000001,203.15,0.0,0.14,3
190.29425100,190294251,0.0,0.43,0.0,0.14,203.15,203.16,0.0,0.14,3
190.39430100,190394301,0.0,0.43,0.0,0.15,203.18,203.19,0.0,0.12,3
190.49438800,190494388,0.0,0.43,0.0,0.15,203.20000000000002,203.21,0.0,0.12,3
190.59468400,190594684,0.0,0.43,0.0,0.15,203.19,203.20000000000002,0.0,0.11,3
190.69437000,190694370,0.0,0.43,0.0,0.15,203.19,203.20000000000002,0.0,0.09,3
190.79435700,190794357,0.0,0.43,0.0,0.15,203.19,203.20000000000002,0.0,0.09,3
190.89444100,190894441,0.0,0.43,0.0,0.14,203.17000000000002,203.18,0.0,0.1,3
190.99438500,190994385,0.0,0.43,0.0,0.15,203.17000000000002,203.18,0.0,0.08,3
191.09431600,191094316,0.0,0.43,0.0,0.14,203.16,203.17000000000002,0.0,0.07,3
191.19440700,191194407,0.0,0.43,0.0,0.14,203.14000000000001,203.15,0.0,0.07,3
191.29425300,191294253,0.0,0.42,0.0,0.15,203.14000000000001,203.15,0.0,0.06,3
191.39437000,191394370,0.0,0.42,0.0,0.15,203.14000000000001,203.15,0.0,0.07,3
191.49430200,191494302,0.0,0.42,0.0,0.14,203.12,203.13,0.0,0.07,3
191.59468300,191594683,0.0,0.42,0.0,0.15,203.12,203.13,0.0,0.08,3
191.69428200,191694282,0.0,0.42,0.0,0.15,203.11,203.12,0.0,0.12,3
191.79434900,191794349,0.0,0.42,0.0,0.15,203.1,203.11,0.0,0.12,3
191.89432800,191894328,0.0,0.41000000000000003,0.0,0.15,203.13,203.14000000000001,0.0,0.12,3
191.99432200,191994322,0.0,0.41000000000000003,0.0,0.15,203.14000000000001,203.15,0.0,0.11,3
192.09437800,192094378,0.0,0.41000000000000003,0.0,0.15,203.14000000000001,203.15,0.0,0.09,3
192.19432400,192194324,0.0,0.41000000000000003,0.0,0.15,203.15,203.16,0.0,0.1,3
192.29445900,192294459,0.0,0.41000000000000003,0.0,0.15,203.14000000000001,203.15,0.0,0.11,3
192.39438900,192394389,0.0,0.41000000000000003,0.0,0.15,203.12,203.13,0.0,0.1,3
192.49439500,192494395,0.0,0.41000000000000003,0.0,0.15,203.1,203.11,0.0,0.1,3
192.59471800,192594718,0.0,0.4,0.0,0.15,203.07,203.08,0.0,0.09,3
192.69442600,192694426,0.0,0.4,0.0,0.15,203.05,203.06,0.0,0.08,3
192.79436000,192794360,0.0,0.4,0.0,0.15,203.04,203.05,0.0,0.07,3
192.89432200,192894322,0.0,0.4,0.0,0.15,203.02,203.03,0.0,0.06,3
192.99428600,192994286,0.0,0.4,0.0,0.15,203.01,203.02,0.0,0.06,3
193.09429800,193094298,0.0,0.4,0.0,0.15,203.01,203.02,0.0,0.06,3
193.19433200,193194332,0.0,0.39,0.0,0.15,202.99,203.0,0.0,0.08,3
193.29430600,193294306,0.0,0.39,0.0,0.15,202.99,203.0,0.0,0.09,3
193.39432900,193394329,0.0,0.39,0.0,0.15,203.01,203.02,0.0,0.09,3
193.49431300,193494313,0.0,0.39,0.0,0.15,203.01,203.02,0.0,0.09,3
193.59475400,193594754,0.0,0.38,0.0,0.15,203.03,203.04,0.0,0.08,3
193.69439800,193694398,0.0,0.38,0.0,0.15,203.05,203.06,0.0,0.07,3
193.79431000,193794310,0.0,0.38,0.0,0.15,203.06,203.07,0.0,0.08,3
193.89437500,193894375,0.0,0.38,0.0,0.15,203.07,203.08,0.0,0.13,3
193.99435100,193994351,0.0,0.38,0.0,0.15,203.07,203.08,0.0,0.1,3
194.09438400,194094384,0.0,0.38,0.0,0.15,203.04,203.05,0.0,0.09,3
194.19437400,194194374,0.0,0.38,0.0,0.15,203.02,203.03,0.0,0.08,3
194.29433700,194294337,0.0,0.37,0.0,0.15,203.0,203.01,0.0,0.08,3
194.39442100,194394421,0.0,0.37,0.0,0.15,202.98000000000002,202.99,0.0,0.09,3
194.49440500,194494405,0.0,0.37,0.0,0.15,202.98000000000002,202.99,0.0,0.1,3
194.59472600,194594726,0.0,0.37,0.0,0.15,202.97,202.98000000000002,0.0,0.09,3
194.69431200,194694312,0.0,0.37,0.0,0.14,202.97,202.98000000000002,0.0,0.09,3
194.79430200,194794302,0.0,0.37,0.0,0.14,202.98000000000002,202.99,0.0,0.09,3
194.89426600,194894266,0.0,0.37,0.0,0.14,202.97,202.98000000000002,0.0,0.08,3
194.99432500,194994325,0.0,0.37,0.0,0.14,202.96,202.97,0.0,0.09,3
195.09429700,195094297,0.0,0.37,0.0,0.14,202.95000000000002,202.96,0.0,0.08,3
195.19440100,195194401,0.0,0.37,0.0,0.14,202.93,202.94,0.0,0.08,3
195.29431300,195294313,0.0,0.37,0.0,0.14,202.92000000000002,202.93,0.0,0.07,3
195.39438200,195394382,0.0,0.37,0.0,0.14,202.91,202.92000000000002,0.0,0.06,3
195.49440100,195494401,0.0,0.37,0.0,0.14,202.91,202.92000000000002,0.0,0.06,3
195.59466900,195594669,0.0,0.37,0.0,0.14,202.9,202.91,0.0,0.07,3
195.69439600,195694396,0.0,0.37,0.0,0.14,202.91,202.92000000000002,0.0,0.07,3
195.79440200,195794402,0.0,0.37,0.0,0.14,202.91,202.92000000000002,0.0,0.06,3
195.89435900,195894359,0.0,0.37,0.0,0.14,202.92000000000002,202.93,0.0,0.06,3
195.99426700,195994267,0.0,0.37,0.0,0.14,202.94,202.95000000000002,0.0,0.06,3
196.09427700,196094277,0.0,0.37,0.0,0.14,202.94,202.95000000000002,0.0,0.07,3
196.19434100,196194341,0.0,0.37,0.0,0.14,202.95000000000002,202.96,0.0,0.06,3
196.29435600,196294356,0.0,0.37,0.0,0.14,202.97,202.98000000000002,0.0,0.05,3
196.39428100,196394281,0.0,0.37,0.0,0.14,202.97,202.98000000000002,0.0,0.08,3
196.49435700,196494357,0.0,0.37,0.0,0.14,202.98000000000002,202.99,0.0,0.09,3
196.59471500,196594715,0.0,0.37,0.0,0.14,203.0,203.01,0.0,0.09,3
196.69432500,196694325,0.0,0.37,0.0,0.14,203.02,203.03,0.0,0.09,3
196.79438900,196794389,0.0,0.37,0.0,0.14,203.04,203.05,0.0,0.08,3
196.89431600,196894316,0.0,0.37,0.0,0.14,203.06,203.07,0.0,0.09,3
196.99432600,196994326,0.0,0.37,0.0,0.14,203.06,203.07,0.0,0.07,3
197.09435600,197094356,0.0,0.37,0.0,0.14,203.06,203.07,0.0,0.06,3
197.19441300,197194413,0.0,0.37,0.0,0.14,203.05,203.06,0.0,0.08,3
197.29438600,197294386,0.0,0.37,0.0,0.14,203.03,203.04,0.0,0.1,3
