timestamp,TimeUS,C,Q1,Q2,Q3,Q4
92.69370400,92693704,1,-0.24115051329135895,0.00021099542209412903,0.003865435952320695,0.9704800248146057
92.79372400,92793724,1,-0.2410065233707428,0.0002054599317489192,0.0038903963286429644,0.9705156683921814
92.89367300,92893673,1,-0.2409190982580185,0.0002159851137548685,0.003936391323804855,0.9705371856689453
92.99367900,92993679,1,-0.24087125062942505,0.00021061001461930573,0.003989440388977528,0.9705488681793213
93.09367600,93093676,1,-0.24082693457603455,0.0002543426235206425,0.004062000196427107,0.9705595374107361
93.19368900,93193689,1,-0.2407730519771576,0.0002311897842446342,0.00408967025578022,0.970572829246521
93.29367900,93293679,1,-0.2407626211643219,0.0002322600776096806,0.004155928734689951,0.9705750942230225
93.39366400,93393664,1,-0.2407427728176117,0.00021816062508150935,0.004221136216074228,0.9705797433853149
93.49365400,93493654,1,-0.24069513380527496,0.0002459854877088219,0.004282318986952305,0.9705913066864014
93.59367900,93593679,1,-0.24067512154579163,0.00022698591055814177,0.0043606809340417385,0.9705958962440491
93.69373800,93693738,1,-0.24066370725631714,0.0002451300679240376,0.0044117821380496025,0.9705985188484192
93.79373500,93793735,1,-0.24062871932983398,0.00024648968246765435,0.0044759586453437805,0.9706068634986877
93.89373600,93893736,1,-0.2405843287706375,0.0002459152019582689,0.0045410641469061375,0.9706175923347473
93.99376100,93993761,1,-0.24050962924957275,0.00022625026758760214,0.004603754263371229,0.9706358313560486
94.09373200,94093732,1,-0.24043923616409302,0.0001989840529859066,0.00466922065243125,0.9706529378890991
94.19370700,94193707,1,-0.24034617841243744,0.0002032572665484622,0.004752118140459061,0.9706755876541138
94.29371800,94293718,1,-0.24025660753250122,0.00019890390103682876,0.004810248967260122,0.9706974625587463
94.39370900,94393709,1,-0.24015554785728455,0.0001957185158971697,0.0048726084642112255,0.9707221388816833
94.49365900,94493659,1,-0.24008458852767944,0.00022047071252018213,0.004943635780364275,0.9707393646240234
94.59366100,94593661,1,-0.2399931102991104,0.00024394904903601855,0.005033941939473152,0.9707615375518799
94.69369300,94693693,1,-0.23992350697517395,0.00023838893685024232,0.005110963247716427,0.9707782864570618
94.79366200,94793662,1,-0.2398301064968109,0.00022734366939403117,0.005174519959837198,0.970801055431366
94.89368600,94893686,1,-0.23975135385990143,0.00023735941795166582,0.005224674940109253,0.9708202481269836
94.99366700,94993667,1,-0.23969298601150513,0.00023977503587957472,0.0052875252440571785,0.9708343148231506
95.09365700,95093657,1,-0.23961274325847626,0.00024321333330590278,0.005304960533976555,0.9708540439605713
95.19369300,95193693,1,-0.23956897854804993,0.00025206958525814116,0.0053346361964941025,0.9708646535873413
95.29372700,95293727,1,-0.2395392805337906,0.0002369408612139523,0.005380322691053152,0.9708717465400696
95.39374500,95393745,1,-0.23946820199489594,0.0002246193471364677,0.005435482133179903,0.9708889722824097
95.49378100,95493781,1,-0.23929621279239655,0.00022419754532165825,0.005529089365154505,0.970930814743042
95.59371000,95593710,1,-0.23902380466461182,0.00020104787836316973,0.005569901317358017,0.97099769115448
95.69369200,95693692,1,-0.23928406834602356,0.0001758225989760831,0.005601448472589254,0.9709334373474121
95.79372200,95793722,1,-0.23890943825244904,0.00022761037689633667,0.005666846409440041,0.971025288105011
95.89372600,95893726,1,-0.2385905385017395,0.00020905288693029433,0.005700596142560244,0.9711034893989563
95.99373400,95993734,1,-0.238755464553833,0.00019514156156219542,0.0057719857431948185,0.9710625410079956
96.09366900,96093669,1,-0.23829537630081177,0.0001970958837773651,0.0058410814963281155,0.9711751341819763
96.19367800,96193678,1,-0.2380339652299881,0.00015790856559760869,0.005909929983317852,0.9712388515472412
96.29369000,96293690,1,-0.23816753923892975,0.00014426546113099903,0.0059400079771876335,0.9712058901786804
96.39369000,96393690,1,-0.2377179116010666,0.00021326614660210907,0.005982639733701944,0.9713158011436462
96.49369800,96493698,1,-0.2374924272298813,0.00019116196199320257,0.005990967154502869,0.9713708758354187
96.59365800,96593658,1,-0.23759454488754272,0.00018650754645932466,0.006024746224284172,0.9713457226753235
96.69369300,96693693,1,-0.23716039955615997,0.0002169267536373809,0.006103434134274721,0.9714512825012207
96.79373200,96793732,1,-0.23702038824558258,0.0002049178146990016,0.0061311800964176655,0.9714853167533875
96.89374300,96893743,1,-0.23704960942268372,0.00015584273205604404,0.006198567803949118,0.971477746963501
96.99373500,96993735,1,-0.236591637134552,0.00016487213724758476,0.006234429311007261,0.9715891480445862
97.09374000,97093740,1,-0.23636513948440552,0.00011695465218508616,0.0062878914177417755,0.9716439247131348
97.19373700,97193737,1,-0.236131951212883,7.7490032708738e-05,0.0063336994498968124,0.9717003703117371
97.29371700,97293717,1,-0.23540574312210083,0.00010868494427995756,0.0063962172716856,0.9718761444091797
97.39371600,97393716,1,-0.23495014011859894,8.123181760311127e-05,0.00641367444768548,0.9719862341880798
97.49371500,97493715,1,-0.23448115587234497,4.794674168806523e-05,0.006418794859200716,0.9720994830131531
97.59368600,97593686,1,-0.23373295366764069,3.06535730487667e-05,0.006478187628090382,0.9722792506217957
97.69370000,97693700,1,-0.23331095278263092,1.764143416949082e-05,0.00642474414780736,0.9723809361457825
97.79368800,97793688,1,-0.23278336226940155,5.872980636922875e-06,0.0065093752928078175,0.9725068211555481
97.89368800,97893688,1,-0.23204533755779266,3.901871241396293e-05,0.006528773810714483,0.9726830720901489
97.99369100,97993691,1,-0.23157836496829987,-1.7104567859860254e-06,0.006588696036487818,0.9727939367294312
98.09368900,98093689,1,-0.23104852437973022,7.720855705883878e-07,0.006622330751270056,0.9729197025299072
98.19366000,98193660,1,-0.2303408682346344,-2.6634003006620333e-05,0.006681434810161591,0.9730870723724365
98.29371100,98293711,1,-0.2298232465982437,-4.802265902981162e-05,0.006745804101228714,0.973209023475647
98.39373700,98393737,1,-0.22915531694889069,-4.6137920435285196e-05,0.006791192572563887,0.9733662009239197
98.49374400,98493744,1,-0.22832433879375458,-3.365944212418981e-05,0.006902462337166071,0.973560631275177
98.59375900,98593759,1,-0.227712482213974,-6.631034921156242e-05,0.0069107478484511375,0.9737038612365723
98.69371800,98693718,1,-0.22695186734199524,-6.885895709274337e-05,0.006980148144066334,0.9738809466362
98.79372500,98793725,1,-0.22609825432300568,-3.784718501265161e-05,0.007039414718747139,0.9740790724754333
98.89373800,98893738,1,-0.22548574209213257,-3.1414518161909655e-05,0.007078444119542837,0.9742207527160645
98.99372000,98993720,1,-0.22478266060352325,-2.0592264263541438e-05,0.007137213833630085,0.974382758140564
99.09368500,99093685,1,-0.22407563030719757,-3.507378642098047e-05,0.007228006608784199,0.9745449423789978
99.19367000,99193670,1,-0.2236514687538147,2.9378074941632804e-06,0.007289194036275148,0.9746419191360474
99.29367300,99293673,1,-0.22312766313552856,4.457855084183393e-06,0.007348503451794386,0.9747615456581116
99.39368800,99393688,1,-0.22277480363845825,1.78397967829369e-05,0.007404808420687914,0.974841833114624
99.49368800,99493688,1,-0.22257526218891144,3.3662010537227616e-05,0.007449181284755468,0.9748870730400085
99.59368700,99593687,1,-0.22219084203243256,3.561686389730312e-05,0.007532685995101929,0.9749740958213806
99.69366200,99693662,1,-0.22187083959579468,6.073978511267342e-06,0.0075819832272827625,0.9750465750694275
99.79366500,99793665,1,-0.22161553800106049,1.4508049389405642e-05,0.007668415550142527,0.9751039743423462
99.89375200,99893752,1,-0.2212190181016922,1.2316229003772605e-05,0.007721886038780212,0.9751935601234436
99.99374500,99993745,1,-0.220862478017807,6.768117600586265e-05,0.00778497289866209,0.9752739071846008
100.09373200,100093732,1,-0.22044076025485992,5.3675488743465394e-05,0.007849600166082382,0.9753687977790833
100.19373300,100193733,1,-0.21999752521514893,5.082222560304217e-05,0.00788465328514576,0.9754685759544373
100.29373300,100293733,1,-0.2201152890920639,2.9615252060466446e-05,0.007955354638397694,0.9754413962364197
100.39372000,100393720,1,-0.2194368541240692,5.613398025161587e-05,0.007988033816218376,0.9755939841270447
100.49371200,100493712,1,-0.21917343139648438,3.2676900445949286e-05,0.00808439776301384,0.9756523966789246
100.59372000,100593720,1,-0.21929197013378143,5.982441871310584e-05,0.008122003637254238,0.9756254553794861
100.69372400,100693724,1,-0.21869643032550812,5.511980998562649e-05,0.008183348923921585,0.9757586121559143
100.79368300,100793683,1,-0.2185913473367691,1.2231486834934913e-05,0.008226634003221989,0.9757817983627319
100.89368400,100893684,1,-0.21876434981822968,5.654848791891709e-05,0.008340505883097649,0.9757420420646667
100.99368000,100993680,1,-0.21827727556228638,9.723187395138666e-05,0.00842826534062624,0.9758504033088684
101.09368200,101093682,1,-0.2182580828666687,6.16030883975327e-05,0.008451096713542938,0.9758545160293579
101.19369200,101193692,1,-0.2183416187763214,8.361394429812208e-05,0.00855750497430563,0.975834846496582
101.29365600,101293656,1,-0.21783608198165894,0.00012643040099646896,0.008649900555610657,0.9759470224380493
101.39366900,101393669,1,-0.21778078377246857,8.209208317566663e-05,0.008702284656465054,0.9759588837623596
101.49373800,101493738,1,-0.2178059071302414,9.850504284258932e-05,0.008764926344156265,0.9759527444839478
101.59373100,101593731,1,-0.21732009947299957,0.00015598139725625515,0.008874636143445969,0.9760600328445435
101.69374900,101693749,1,-0.2173108458518982,0.00010584564006421715,0.008937501348555088,0.9760615229606628
101.79370800,101793708,1,-0.21723657846450806,0.00010675148951122537,0.009008130989968777,0.9760774374008179
101.89371100,101893711,1,-0.21675743162631989,0.00014237397408578545,0.009076070971786976,0.976183295249939
101.99373300,101993733,1,-0.21677322685718536,0.00014355676830746233,0.009126980789005756,0.976179301738739
102.09371900,102093719,1,-0.21665121614933014,0.00018617603927850723,0.009199608117341995,0.9762057065963745
102.19369900,102193699,1,-0.21614478528499603,0.0002011530305026099,0.009273985400795937,0.976317286491394
102.29366700,102293667,1,-0.21616996824741364,0.0001908911217469722,0.009344548918306828,0.9763110280036926
102.39368300,102393683,1,-0.2160102128982544,0.00016509815759491175,0.009418702684342861,0.9763456583023071
102.49368300,102493683,1,-0.21557120978832245,0.0001525245897937566,0.00956212729215622,0.9764412641525269
102.59369100,102593691,1,-0.21560950577259064,0.00012611830607056618,0.009604966267943382,0.9764324426651001
102.69368500,102693685,1,-0.21543742716312408,7.118251232896e-05,0.009664385579526424,0.9764698147773743
102.79370000,102793700,1,-0.2150724232196808,0.00013257456885185093,0.00970957987010479,0.9765498042106628
102.89365800,102893658,1,-0.2151675820350647,0.00011088811152148992,0.009778537787497044,0.9765281677246094
102.99369900,102993699,1,-0.21497046947479248,0.00011425687989685684,0.009868570603430271,0.9765706658363342
103.09374000,103093740,1,-0.21467077732086182,0.0001336175628239289,0.009946522302925587,0.9766358137130737
103.19373500,103193735,1,-0.2147141396999359,0.00013623762060888112,0.010033675469458103,0.976625382900238
103.29373300,103293733,1,-0.21440279483795166,0.00014462153194472194,0.010105164721608162,0.9766930341720581
103.39373400,103393734,1,-0.21411439776420593,0.00015931994130369276,0.010187425650656223,0.9767554402351379
103.49370000,103493700,1,-0.21415354311466217,0.00015163781063165516,0.010254641994833946,0.976746141910553
103.59372300,103593723,1,-0.21382801234722137,0.00013156177010387182,0.010336370207369328,0.9768166542053223
103.69374900,103693749,1,-0.21354231238365173,0.00010334311082260683,0.010426732711493969,0.9768781661987305
103.79366900,103793669,1,-0.21362203359603882,8.690968388691545e-05,0.010519172064960003,0.9768597483634949
103.89368300,103893683,1,-0.213312566280365,6.202964868862182e-05,0.010618435218930244,0.976926326751709
103.99367500,103993675,1,-0.213087260723114,7.383403135463595e-05,0.010666029527783394,0.9769749641418457
104.09368500,104093685,1,-0.2131248563528061,4.684363739215769e-05,0.010740933008491993,0.9769659042358398
104.19368200,104193682,1,-0.2128276824951172,8.55756807141006e-05,0.01081448420882225,0.9770299196243286
104.29368500,104293685,1,-0.21262507140636444,8.915571379475296e-05,0.010913786478340626,0.9770728945732117
104.39367900,104393679,1,-0.21263721585273743,7.75628286646679e-05,0.010987350717186928,0.9770694375038147
104.49370600,104493706,1,-0.2123367190361023,8.176176925189793e-05,0.011056549847126007,0.9771339893341064
104.59372000,104593720,1,-0.2121264487504959,4.920118226436898e-05,0.011115753091871738,0.9771789908409119
104.69374200,104693742,1,-0.21197660267353058,4.0502349293092266e-05,0.011172612197697163,0.9772108793258667
104.79374400,104793744,1,-0.21155203878879547,1.7757663954398595e-05,0.011267414316534996,0.9773017764091492
104.89373600,104893736,1,-0.2112831473350525,3.951828330173157e-05,0.011301537044346333,0.9773595333099365
104.99373300,104993733,1,-0.2111007273197174,3.676571577670984e-05,0.011396607384085655,0.9773978590965271
105.09372900,105093729,1,-0.21071596443653107,6.184092490002513e-05,0.011451952159404755,0.9774802327156067
105.19372500,105193725,1,-0.21048137545585632,3.707951691467315e-05,0.011546598747372627,0.9775296449661255
105.29370400,105293704,1,-0.21026042103767395,2.6677365895011462e-05,0.011578558944165707,0.9775768518447876
105.39370500,105393705,1,-0.20988935232162476,6.56459596939385e-05,0.011685945093631744,0.977655291557312
105.49368900,105493689,1,-0.20964370667934418,4.572757825371809e-05,0.011720554903149605,0.97770756483078
105.59368300,105593683,1,-0.20937900245189667,5.1237442676210776e-05,0.011793607845902443,0.9777634143829346
105.69368900,105693689,1,-0.20914222300052643,6.255229527596384e-05,0.011879637837409973,0.9778130650520325
105.79368400,105793684,1,-0.20900428295135498,4.860633998760022e-05,0.011914316564798355,0.9778421521186829
105.89367000,105893670,1,-0.208718940615654,5.169317591935396e-05,0.012002618052065372,0.9779019951820374
105.99365900,105993659,1,-0.20849798619747162,6.61508966004476e-05,0.012078586965799332,0.9779481887817383
106.09369800,106093698,1,-0.20833106338977814,7.444455695804209e-05,0.012167856097221375,0.9779826998710632
106.19375100,106193751,1,-0.20810221135616302,7.58401001803577e-05,0.012242290191352367,0.9780304431915283
106.29375800,106293758,1,-0.20791120827198029,7.021990313660353e-05,0.012300446629524231,0.9780703783035278
106.39373200,106393732,1,-0.2077566683292389,7.034728332655504e-05,0.012369256466627121,0.9781023263931274
106.49371200,106493712,1,-0.2074984610080719,6.19461789028719e-05,0.012416109442710876,0.978156566619873
106.59374700,106593747,1,-0.20737044513225555,6.148874672362581e-05,0.0125112384557724,0.9781824946403503
106.69372100,106693721,1,-0.20723478496074677,4.1906499973265454e-05,0.012536541558802128,0.9782109260559082
106.79372600,106793726,1,-0.20702216029167175,1.8366425138083287e-05,0.012605861760675907,0.978255033493042
106.89366300,106893663,1,-0.2069120854139328,-8.48628417315922e-07,0.012662475928664207,0.9782775640487671
106.99367700,106993677,1,-0.2068164050579071,-2.4393100829911418e-05,0.012695441953837872,0.9782974123954773
107.09366700,107093667,1,-0.20658904314041138,-1.968559081433341e-05,0.012762336060404778,0.9783445596694946
107.19368300,107193683,1,-0.2064879685640335,-3.278709118603729e-05,0.012885484844446182,0.9783642888069153
107.29368500,107293685,1,-0.20637190341949463,-7.150670717237517e-05,0.01297312043607235,0.9783875942230225
107.39368600,107393686,1,-0.2061547189950943,-8.860440721036866e-05,0.013042724691331387,0.9784324765205383
107.49370300,107493703,1,-0.2060544639825821,-7.758915307931602e-05,0.013129271566867828,0.9784524440765381
107.59368300,107593683,1,-0.20586486160755157,-8.505583537044004e-05,0.013193790800869465,0.978491485118866
107.69370600,107693706,1,-0.20564527809619904,-7.658178947167471e-05,0.013295402750372887,0.9785362482070923
107.79374000,107793740,1,-0.20549128949642181,-9.593451977707446e-05,0.013330296613276005,0.9785681366920471
107.89374900,107893749,1,-0.20531116425991058,-0.00011782393994508311,0.013389200903475285,0.9786051511764526
107.99374200,107993742,1,-0.20513388514518738,-8.867582801030949e-05,0.013432185165584087,0.9786417484283447
108.09371800,108093718,1,-0.20503364503383636,-0.00012971086835023016,0.013425161130726337,0.9786628484725952
108.19372900,108193729,1,-0.20479673147201538,-0.0001625506702112034,0.013413848355412483,0.9787126183509827
108.29369700,108293697,1,-0.20449072122573853,-0.00014359853230416775,0.013404132798314095,0.9787766933441162
108.39371600,108393716,1,-0.2044798731803894,-0.00014555924281012267,0.013456112705171108,0.9787782430648804
108.49366700,108493667,1,-0.20432281494140625,-0.00014554036897607148,0.013439991511404514,0.9788112640380859
108.59368600,108593686,1,-0.20415598154067993,-0.00015133862325455993,0.013444934040307999,0.97884601354599
108.69367900,108693679,1,-0.20421378314495087,-0.0001894129964057356,0.013395560905337334,0.9788346290588379
108.79369200,108793692,1,-0.2041761726140976,-0.0001705290487734601,0.013314301148056984,0.9788435697555542
108.89369300,108893693,1,-0.2040816694498062,-0.0001591192267369479,0.013157977722585201,0.9788654446601868
108.99366100,108993661,1,-0.20420123636722565,-0.00015642867947462946,0.01290486566722393,0.9788438677787781
109.09365100,109093651,1,-0.20411564409732819,-0.0001393585407640785,0.012602402828633785,0.9788656234741211
109.19367300,109193673,1,-0.20396141707897186,-0.00014468500739894807,0.012188407592475414,0.97890305519104
109.29371800,109293718,1,-0.20404212176799774,-0.00016344095638487488,0.011695010587573051,0.9788922071456909
109.39373500,109393735,1,-0.20391124486923218,-0.00015275129408109933,0.011118498630821705,0.9789262413978577
109.49372300,109493723,1,-0.20380806922912598,-0.00016493018483743072,0.010483584366738796,0.9789547324180603
109.59371000,109593710,1,-0.2038741558790207,-0.0001999807864194736,0.009744132868945599,0.9789485931396484
109.69369700,109693697,1,-0.20377902686595917,-0.0001702947192825377,0.008949842303991318,0.9789760112762451
109.79370900,109793709,1,-0.2037408947944641,-0.00015998698654584587,0.008136431686580181,0.9789910316467285
109.89370100,109893701,1,-0.20382532477378845,-0.00016146049892995507,0.007326674647629261,0.9789798259735107
109.99371100,109993711,1,-0.20377759635448456,-0.0001531237649032846,0.00651457067579031,0.9789955019950867
110.09365900,110093659,1,-0.2037898600101471,-0.00015421195712406188,0.005737182218581438,0.9789978265762329
110.19368100,110193681,1,-0.20390504598617554,-0.0001916070032166317,0.005049699451774359,0.978977620601654
110.29369000,110293690,1,-0.20383039116859436,-0.00020327730453573167,0.004370459821075201,0.9789964556694031
110.39367800,110393678,1,-0.20384840667247772,-0.00024556933203712106,0.0037916237488389015,0.9789950847625732
110.49368300,110493683,1,-0.20392388105392456,-0.0002899067767430097,0.0032211451325565577,0.9789813756942749
110.59365600,110593656,1,-0.20385175943374634,-0.000329642731230706,0.0027160814497619867,0.9789979457855225
110.69366500,110693665,1,-0.2038899064064026,-0.00033835400245152414,0.0022721942514181137,0.9789911508560181
110.79368500,110793685,1,-0.20398809015750885,-0.0003955909633077681,0.0018811135087162256,0.9789714813232422
110.89371800,110893718,1,-0.20391742885112762,-0.00041914128814823925,0.0015686778351664543,0.9789867401123047
110.99373000,110993730,1,-0.20394757390022278,-0.00041478939238004386,0.0013012815034016967,0.9789808392524719
111.09372900,111093729,1,-0.2040085345506668,-0.00043178320629522204,0.0010855491273105145,0.9789683818817139
111.19372200,111193722,1,-0.2039831578731537,-0.000428294122684747,0.000907408248167485,0.9789738655090332
111.29370900,111293709,1,-0.20409280061721802,-0.000435137830208987,0.0007670665509067476,0.9789511561393738
111.39377800,111393778,1,-0.2041909247636795,-0.00045779941137880087,0.0005936493980698287,0.9789307713508606
111.49370900,111493709,1,-0.20421895384788513,-0.00046033551916480064,0.0005166349583305418,0.9789249897003174
111.59366000,111593660,1,-0.20434537529945374,-0.0004362699983175844,0.000412275199778378,0.9788986444473267
111.69366200,111693662,1,-0.2044544816017151,-0.0004401251208037138,0.00038179149851202965,0.9788758754730225
111.79368000,111793680,1,-0.20445579290390015,-0.00045047729508951306,0.0003249859146308154,0.9788756370544434
111.89367900,111893679,1,-0.20455917716026306,-0.00044709787471219897,0.00030493192025460303,0.9788540601730347
111.99368100,111993681,1,-0.20462793111801147,-0.00044545854325406253,0.000316232064506039,0.9788396954536438
112.09367800,112093678,1,-0.20462314784526825,-0.00044942647218704224,0.00031278320238925517,0.9788406491279602
112.19365300,112193653,1,-0.2046608328819275,-0.0004363764019217342,0.00033114783582277596,0.9788327813148499
112.29371500,112293715,1,-0.2046675682067871,-0.00042798471986316144,0.000346795393852517,0.97883141040802
112.39370700,112393707,1,-0.2046695351600647,-0.0004496101173572242,0.0003810491180047393,0.9788309335708618
112.49373200,112493732,1,-0.204762801527977,-0.0004501561925280839,0.0004087881825398654,0.9788114428520203
112.59373100,112593731,1,-0.2047894299030304,-0.0004783964832313359,0.0004520747752394527,0.9788058400154114
112.69371800,112693718,1,-0.20485985279083252,-0.0004719644202850759,0.0004916930920444429,0.9787910580635071
112.79371100,112793711,1,-0.20498354732990265,-0.0004734832909889519,0.000554306257981807,0.9787651300430298
112.89372700,112893727,1,-0.2050723284482956,-0.000465829623863101,0.0006027576746419072,0.9787465333938599
112.99369000,112993690,1,-0.20511966943740845,-0.0004794849082827568,0.0006420995923690498,0.9787365794181824
113.09370600,113093706,1,-0.20524045825004578,-0.00045973589294590056,0.0006976726581342518,0.9787112474441528
113.19367600,113193676,1,-0.2052568793296814,-0.0004620579129550606,0.000765694712754339,0.9787077307701111
113.29367100,113293671,1,-0.20527157187461853,-0.0004214070795569569,0.0008214976405724883,0.9787046313285828
113.39367600,113393676,1,-0.20532700419425964,-0.0004373295232653618,0.0008693310082890093,0.9786929488182068
113.49367700,113493677,1,-0.20524388551712036,-0.00041960261296480894,0.0009031411027535796,0.9787103533744812
113.59367900,113593679,1,-0.20522643625736237,-0.00043933457345701754,0.0009671050356701016,0.9787139296531677
113.69365000,113693650,1,-0.20524102449417114,-0.0004278854466974735,0.0010185439605265856,0.9787108302116394
113.79365100,113793651,1,-0.20522794127464294,-0.00042454167851246893,0.001107682241126895,0.9787135124206543
113.89367600,113893676,1,-0.20525123178958893,-0.00042126394691877067,0.0011493611382320523,0.9787085652351379
113.99371700,113993717,1,-0.20531408488750458,-0.00046003737952560186,0.0012210196582600474,0.978695273399353
114.09374500,114093745,1,-0.20529046654701233,-0.00046689651207998395,0.001289178617298603,0.9787001013755798
114.19373600,114193736,1,-0.20528024435043335,-0.00045330877765081823,0.0013537824852392077,0.978702187538147
114.29371500,114293715,1,-0.2053413987159729,-0.0004814298590645194,0.0014035624917596579,0.9786892533302307
114.39371200,114393712,1,-0.2053285390138626,-0.00047269577044062316,0.0014667849754914641,0.9786918759346008
114.49371200,114493712,1,-0.20534399151802063,-0.0004939191858284175,0.0015299518126994371,0.9786885380744934
114.59371900,114593719,1,-0.20535780489444733,-0.0004668901674449444,0.0015984044875949621,0.9786855578422546
114.69371000,114693710,1,-0.20533378422260284,-0.0004663535801228136,0.0016675745137035847,0.9786904454231262
114.79368500,114793685,1,-0.20536649227142334,-0.0004536604101303965,0.0017551424680277705,0.9786834716796875
114.89368100,114893681,1,-0.205402210354805,-0.0004044738889206201,0.001832749811001122,0.9786758422851562
114.99368500,114993685,1,-0.205376997590065,-0.0003701261302921921,0.001914512598887086,0.9786809682846069
115.09368100,115093681,1,-0.20543654263019562,-0.0003807416360359639,0.002011397620663047,0.9786682724952698
115.19368600,115193686,1,-0.20545291900634766,-0.000406969542382285,0.002091762376949191,0.9786646962165833
115.29365200,115293652,1,-0.20540572702884674,-0.0004107001004740596,0.002147351624444127,0.9786744713783264
115.39365400,115393654,1,-0.20545442402362823,-0.0004380591562949121,0.002192748710513115,0.9786641001701355
115.49369400,115493694,1,-0.20548807084560394,-0.0004699316923506558,0.0022412280086427927,0.9786569476127625
115.59372400,115593724,1,-0.2055065631866455,-0.00045012839836999774,0.0023240111768245697,0.9786528944969177
115.69374500,115693745,1,-0.20556771755218506,-0.0004894059966318309,0.0023802078794687986,0.9786399006843567
115.79371500,115793715,1,-0.2055894136428833,-0.0005131305078975856,0.002443330129608512,0.9786351323127747
115.89372300,115893723,1,-0.20554080605506897,-0.0005204837652854621,0.0025354698300361633,0.9786451458930969
115.99373500,115993735,1,-0.20556291937828064,-0.0005333581357263029,0.0026070130988955498,0.9786402583122253
116.09370300,116093703,1,-0.2055603712797165,-0.0005364922108128667,0.002653995295986533,0.9786406755447388
116.19370700,116193707,1,-0.2055497020483017,-0.0005617361166514456,0.0027031160425394773,0.9786427617073059
116.29367900,116293679,1,-0.2055419236421585,-0.0005509339971467853,0.0027523122262209654,0.9786443114280701
116.39366300,116393663,1,-0.20553268492221832,-0.0005573235102929175,0.0027854638174176216,0.9786460995674133
116.49366800,116493668,1,-0.20547828078269958,-0.0005660239257849753,0.002855962375178933,0.9786573648452759
116.59368900,116593689,1,-0.20554086565971375,-0.0006007292540743947,0.0029298500157892704,0.9786439538002014
116.69367800,116693678,1,-0.20553436875343323,-0.0006132822018116713,0.002975690644234419,0.9786452054977417
116.79368100,116793681,1,-0.20555077493190765,-0.0005944210570305586,0.003065858269110322,0.9786414504051208
116.89365500,116893655,1,-0.20563562214374542,-0.000583176442887634,0.003133823862299323,0.9786234498023987
116.99372100,116993721,1,-0.20561034977436066,-0.000600435771048069,0.0031833697576075792,0.9786285758018494
117.09370000,117093700,1,-0.20558612048625946,-0.0006269373698160052,0.003250106703490019,0.9786334037780762
117.19374900,117193749,1,-0.20559993386268616,-0.0006179430638439953,0.003277415409684181,0.9786304235458374
117.29368700,117293687,1,-0.20558170974254608,-0.0006241292576305568,0.0033400238025933504,0.9786340594291687
117.39370700,117393707,1,-0.20553861558437347,-0.0006330125615932047,0.003380608046427369,0.9786429405212402
117.49369900,117493699,1,-0.20552632212638855,-0.0006678791251033545,0.0034233222249895334,0.978645384311676
117.59371400,117593714,1,-0.20548495650291443,-0.0006554275751113892,0.0034669218584895134,0.9786539077758789
117.69371000,117693710,1,-0.20551441609859467,-0.0006451504305005074,0.0035034071188420057,0.9786475896835327
117.79370800,117793708,1,-0.205544114112854,-0.0006530310492962599,0.003550986060872674,0.9786412119865417
117.89368300,117893683,1,-0.20553909242153168,-0.0006523487973026931,0.0035575719084590673,0.9786422252655029
117.99368000,117993680,1,-0.20560359954833984,-0.0006792554631829262,0.0035797504242509604,0.9786285758018494
118.09367800,118093678,1,-0.20566925406455994,-0.0007281911093741655,0.003628629958257079,0.9786145687103271
118.19369100,118193691,1,-0.205710768699646,-0.0007221763371489942,0.00364797655493021,0.9786057472229004
118.29368000,118293680,1,-0.20573773980140686,-0.000747345038689673,0.0036869614850729704,0.9785999059677124
118.39365100,118393651,1,-0.20578788220882416,-0.0007647786405868828,0.003711083671078086,0.9785892963409424
118.49370100,118493701,1,-0.20579691231250763,-0.0007866713567636907,0.003730765078216791,0.97858726978302
118.59369100,118593691,1,-0.20583508908748627,-0.0007776005659252405,0.0037625266704708338,0.9785791635513306
118.69371600,118693716,1,-0.20586220920085907,-0.0007545253029093146,0.0037744774017482996,0.9785734415054321
118.79372500,118793725,1,-0.20586161315441132,-0.0007787303766235709,0.003824619110673666,0.9785733222961426
118.89374100,118893741,1,-0.2059083878993988,-0.0007878078613430262,0.003865352366119623,0.9785633087158203
118.99371400,118993714,1,-0.20594611763954163,-0.000781488895881921,0.0039037729147821665,0.9785552620887756
119.09371800,119093718,1,-0.20595552027225494,-0.0007869589026086032,0.0039141494780778885,0.9785532355308533
119.19368500,119193685,1,-0.20598767697811127,-0.0008047667215578258,0.003940610680729151,0.9785463213920593
119.29372300,119293723,1,-0.20597709715366364,-0.0007905600941739976,0.003977745771408081,0.9785484075546265
119.39365900,119393659,1,-0.20595912635326385,-0.0008310271659865975,0.003966418094933033,0.9785522222518921
119.49366200,119493662,1,-0.20595033466815948,-0.0008618761785328388,0.003990196622908115,0.9785539507865906
119.59366600,119593666,1,-0.2059178203344345,-0.000870806397870183,0.004035445395857096,0.9785605669021606
119.69369200,119693692,1,-0.20587778091430664,-0.0008605708135291934,0.004046455025672913,0.978568971157074
119.79367500,119793675,1,-0.20589636266231537,-0.0009116928558796644,0.0041016023606061935,0.9785647988319397
119.89368200,119893682,1,-0.20592480897903442,-0.000904361077118665,0.004177282564342022,0.9785584807395935
119.99365600,119993656,1,-0.20592477917671204,-0.0009080134914256632,0.004227824974805117,0.9785582423210144
120.09367900,120093679,1,-0.20594392716884613,-0.0009568107780069113,0.00427409028634429,0.9785540103912354
120.19370400,120193704,1,-0.20593790709972382,-0.0009748205193318427,0.004322823602706194,0.9785550236701965
120.29372800,120293728,1,-0.2059284746646881,-0.0009818262187764049,0.004390663001686335,0.9785566926002502
120.39372800,120393728,1,-0.2059483826160431,-0.0009701377130113542,0.0045088245533406734,0.978551983833313
120.49372500,120493725,1,-0.2059796005487442,-0.0009685365366749465,0.004568005912005901,0.9785451292991638
120.59373500,120593735,1,-0.2060472071170807,-0.0009541184408590198,0.004579662345349789,0.9785308837890625
120.69372400,120693724,1,-0.20611485838890076,-0.0009668648708611727,0.004675206728279591,0.978516161441803
120.79369400,120793694,1,-0.2061357945203781,-0.0009883287129923701,0.004758694674819708,0.9785113334655762
120.89371700,120893717,1,-0.20615215599536896,-0.0009546280489303172,0.004822146147489548,0.9785075783729553
120.99366400,120993664,1,-0.20615144073963165,-0.0009769625030457973,0.004904204048216343,0.9785073399543762
121.09369100,121093691,1,-0.20613420009613037,-0.0010114709148183465,0.004963800776749849,0.9785106182098389
121.19368200,121193682,1,-0.2060595154762268,-0.0010384811321273446,0.0050485581159591675,0.9785258769989014
121.29368200,121293682,1,-0.20604659616947174,-0.0010284003801643848,0.0051047466695308685,0.9785283207893372
121.39368400,121393684,1,-0.20600523054599762,-0.0009958060691133142,0.005175913218408823,0.9785367250442505
121.49374200,121493742,1,-0.20599225163459778,-0.0009906343184411526,0.005226596724241972,0.9785391688346863
121.59366300,121593663,1,-0.20599190890789032,-0.0010006969096139073,0.005301994271576405,0.9785388112068176
121.69367900,121693679,1,-0.20595782995224,-0.0010421801125630736,0.005399318411946297,0.9785454273223877
121.79372400,121793724,1,-0.2059590369462967,-0.0010426685912534595,0.005450238473713398,0.9785448908805847
121.89373200,121893732,1,-0.20594236254692078,-0.0010444115614518523,0.005507187452167273,0.9785480499267578
121.99374400,121993744,1,-0.20597229897975922,-0.0010440931655466557,0.005550611764192581,0.9785414934158325
122.09371100,122093711,1,-0.20579801499843597,-0.0010369850788265467,0.005635478068143129,0.978577733039856
122.19373400,122193734,1,-0.20586854219436646,-0.001033487031236291,0.005669467616826296,0.9785627126693726
122.29372200,122293722,1,-0.20586594939231873,-0.0010243438882753253,0.005708419717848301,0.9785630106925964
122.39371600,122393716,1,-0.20559488236904144,-0.0010489235864952207,0.005757880862802267,0.9786196947097778
122.49372600,122493726,1,-0.2056449055671692,-0.0011009408626705408,0.005834600422531366,0.9786086678504944
122.59368500,122593685,1,-0.2055811733007431,-0.0010908227413892746,0.005832397844642401,0.9786220788955688
122.69366400,122693664,1,-0.20533879101276398,-0.0011301168706268072,0.005948561243712902,0.978672206401825
122.79368500,122793685,1,-0.2053328901529312,-0.0011635033879429102,0.006002005189657211,0.9786731004714966
122.89369300,122893693,1,-0.20523355901241302,-0.0011592399096116424,0.006043227855116129,0.9786936640739441
122.99369700,122993697,1,-0.2050323486328125,-0.0011707034427672625,0.006088555790483952,0.9787355661392212
123.09370300,123093703,1,-0.20507225394248962,-0.0012023801682516932,0.006125959102064371,0.9787269234657288
123.19366100,123193661,1,-0.20493754744529724,-0.0011825934052467346,0.006183076184242964,0.9787548184394836
123.29373800,123293738,1,-0.2047095000743866,-0.0011837558122351766,0.006207372527569532,0.9788023829460144
123.39373200,123393732,1,-0.20469152927398682,-0.0012244230601936579,0.006323582027107477,0.9788053631782532
123.49373400,123493734,1,-0.20456968247890472,-0.00119770597666502,0.0063613662496209145,0.9788305759429932
123.59372300,123593723,1,-0.20438794791698456,-0.001254362752661109,0.006424450781196356,0.9788680672645569
123.69372700,123693727,1,-0.2043507993221283,-0.0012921701418235898,0.006466292310506105,0.9788755178451538
123.79370800,123793708,1,-0.2041979730129242,-0.0013482648646458983,0.006512944586575031,0.97890704870224
123.89369200,123893692,1,-0.20396874845027924,-0.0013490325072780252,0.006568193435668945,0.9789544343948364
123.99369600,123993696,1,-0.20387941598892212,-0.0013759717112407088,0.006618291139602661,0.9789726734161377
124.09370600,124093706,1,-0.20365485548973083,-0.001352845225483179,0.006662766449153423,0.9790191650390625
124.19368300,124193683,1,-0.2034766525030136,-0.0013424326898530126,0.00673658587038517,0.9790557026863098
124.29368600,124293686,1,-0.20341356098651886,-0.0013708291808143258,0.00681648962199688,0.9790682196617126
124.39368600,124393686,1,-0.20320814847946167,-0.0013600829988718033,0.006846016738563776,0.9791106581687927
124.49368200,124493682,1,-0.20307880640029907,-0.0013608556473627687,0.006932961754500866,0.9791368842124939
124.59369200,124593692,1,-0.20303823053836823,-0.001398283988237381,0.006937610916793346,0.9791452288627625
124.69366100,124693661,1,-0.20283102989196777,-0.001381371170282364,0.007001983467489481,0.9791877269744873
124.79370800,124793708,1,-0.2026926428079605,-0.0013724053278565407,0.007055541500449181,0.9792160391807556
124.89371300,124893713,1,-0.2025236338376999,-0.00138677132781595,0.007115847896784544,0.9792505502700806
124.99374700,124993747,1,-0.2022814005613327,-0.0013728324556723237,0.00719105452299118,0.9793000817298889
125.09369700,125093697,1,-0.20213446021080017,-0.0013770466903224587,0.007239938247948885,0.9793300628662109
125.19374300,125193743,1,-0.20202912390232086,-0.0014085659058764577,0.0073301540687680244,0.9793510437011719
125.29372700,125293727,1,-0.2018205225467682,-0.0013981902739033103,0.007348738610744476,0.9793939590454102
125.39373400,125393734,1,-0.20169582962989807,-0.0014184457249939442,0.007387952879071236,0.9794192910194397
125.49372700,125493727,1,-0.20158164203166962,-0.0014420953812077641,0.007438702508807182,0.9794424176216125
125.59368600,125593686,1,-0.20139391720294952,-0.0014545525191351771,0.007482205983251333,0.9794806838035583
125.69369200,125693692,1,-0.20127010345458984,-0.001438603037968278,0.0075517939403653145,0.9795055985450745
125.79369800,125793698,1,-0.20115408301353455,-0.0014341895002871752,0.007632764987647533,0.9795288443565369
125.89368600,125893686,1,-0.2009732723236084,-0.0014525502920150757,0.007683333475142717,0.9795655012130737
125.99368800,125993688,1,-0.20082995295524597,-0.0014377186307683587,0.007707766257226467,0.9795947670936584
126.09368800,126093688,1,-0.2006673663854599,-0.0014189408393576741,0.007735557854175568,0.9796278476715088
126.19368100,126193681,1,-0.20049291849136353,-0.0013869460672140121,0.007802165113389492,0.979663074016571
126.29366300,126293663,1,-0.20034408569335938,-0.0013768135104328394,0.007887529209256172,0.9796928763389587
126.39373000,126393730,1,-0.20014943182468414,-0.0013648347230628133,0.007936370559036732,0.9797322750091553
126.49372800,126493728,1,-0.19994941353797913,-0.0013714178930968046,0.008001458831131458,0.9797725677490234
126.59372700,126593727,1,-0.19978167116641998,-0.0013828318333253264,0.008103553205728531,0.9798059463500977
126.69377700,126693777,1,-0.19957083463668823,-0.001394873484969139,0.008174793794751167,0.979848325252533
126.79373400,126793734,1,-0.19933439791202545,-0.0014061391120776534,0.008250541985034943,0.9798957705497742
126.89372200,126893722,1,-0.19916918873786926,-0.001365490024909377,0.008316599763929844,0.9799288511276245
126.99371800,126993718,1,-0.19899334013462067,-0.0013428311794996262,0.008386202156543732,0.979964017868042
127.09374100,127093741,1,-0.1987815648317337,-0.001313379849307239,0.008444436825811863,0.9800065755844116
127.19370500,127193705,1,-0.1985892504453659,-0.0013150547165423632,0.008525945246219635,0.9800448417663574
127.29367400,127293674,1,-0.19839473068714142,-0.001324551529251039,0.0085926353931427,0.9800836443901062
127.39369000,127393690,1,-0.19823776185512543,-0.0013376552378758788,0.008683538064360619,0.9801145792007446
127.49368600,127493686,1,-0.19804632663726807,-0.0013025953667238355,0.008742747828364372,0.9801527857780457
127.59368400,127593684,1,-0.197751984000206,-0.0013322008308023214,0.008839928545057774,0.9802113175392151
127.69369200,127693692,1,-0.19766093790531158,-0.00137011066544801,0.008894047699868679,0.9802291393280029
127.79365600,127793656,1,-0.19743098318576813,-0.0013598804362118244,0.008964208886027336,0.9802748560905457
127.89368900,127893689,1,-0.19712607562541962,-0.0013907214161008596,0.009049752727150917,0.9803354144096375
127.99371700,127993717,1,-0.19710807502269745,-0.0013798498548567295,0.009100931696593761,0.9803385734558105
128.09373100,128093731,1,-0.19694602489471436,-0.0013796254061162472,0.00918535329401493,0.9803703427314758
128.19374300,128193743,1,-0.19669495522975922,-0.0013894508592784405,0.009286287240684032,0.9804197549819946
128.29372900,128293729,1,-0.1966882050037384,-0.0013862826162949204,0.009374099783599377,0.9804202914237976
128.39372900,128393729,1,-0.19650013744831085,-0.0013800986343994737,0.009436952881515026,0.9804574251174927
128.49372400,128493724,1,-0.1963041126728058,-0.0013968776911497116,0.00950672198086977,0.9804959893226624
128.59372100,128593721,1,-0.19632786512374878,-0.001389425015076995,0.00958306435495615,0.980490505695343
128.69371500,128693715,1,-0.19613921642303467,-0.0013327889610081911,0.00969162117689848,0.9805272817611694
128.79368500,128793685,1,-0.1960238218307495,-0.0013450883561745286,0.009758438915014267,0.9805496335029602
128.89367300,128893673,1,-0.19605523347854614,-0.0013832499971613288,0.00979849323630333,0.9805428981781006
128.99368800,128993688,1,-0.1958772987127304,-0.0013693191576749086,0.00987841933965683,0.9805777072906494
129.09368800,129093688,1,-0.1957332044839859,-0.00140331347938627,0.009937967173755169,0.9806058406829834
129.19368400,129193684,1,-0.1957363486289978,-0.0014040854293853045,0.010023816488683224,0.9806042909622192
129.29368500,129293685,1,-0.19555851817131042,-0.0013694361550733447,0.0100922966375947,0.9806391596794128
129.39365500,129393655,1,-0.1954205185174942,-0.0013589260634034872,0.0101649584248662,0.980665922164917
129.49365500,129493655,1,-0.19541718065738678,-0.0013831197284162045,0.010240313597023487,0.9806657433509827
129.59374200,129593742,1,-0.19524414837360382,-0.0013582127867266536,0.01029350608587265,0.9806997179985046
129.69373700,129693737,1,-0.19513507187366486,-0.00135132041759789,0.010402971878647804,0.9807202816009521
129.79374000,129793740,1,-0.195143923163414,-0.0014001494273543358,0.010440299287438393,0.9807180762290955
129.89371700,129893717,1,-0.1949709951877594,-0.0013809134252369404,0.010546879842877388,0.9807513356208801
129.99371200,129993712,1,-0.19490806758403778,-0.0013977092457935214,0.010644491761922836,0.980762779712677
130.09373200,130093732,1,-0.19489605724811554,-0.0013787710340693593,0.010731116868555546,0.9807642102241516
130.19371700,130193717,1,-0.19472061097621918,-0.0013419772731140256,0.010817434638738632,0.9807981848716736
130.29371700,130293717,1,-0.19464556872844696,-0.0013020592741668224,0.010874209925532341,0.9808124899864197
130.39368200,130393682,1,-0.19461636245250702,-0.0012896734988316894,0.010950323194265366,0.980817437171936
130.49365900,130493659,1,-0.19443301856517792,-0.0012671585427597165,0.011031207628548145,0.9808529615402222
130.59368700,130593687,1,-0.19436636567115784,-0.0012357288505882025,0.011105869896709919,0.9808653593063354
130.69366100,130693661,1,-0.19430114328861237,-0.0012150835245847702,0.011171769350767136,0.9808775782585144
130.79368500,130793685,1,-0.19413185119628906,-0.0012049158103764057,0.011285764165222645,0.9809097647666931
130.89369600,130893696,1,-0.19405163824558258,-0.0012226577382534742,0.011388616636395454,0.9809244275093079
130.99365600,130993656,1,-0.19395001232624054,-0.0012264964170753956,0.01144595630466938,0.9809438586235046
131.09373000,131093730,1,-0.19375398755073547,-0.0012721169041469693,0.011510624550282955,0.9809817671775818
131.19374500,131193745,1,-0.19364410638809204,-0.0012616311432793736,0.011595471762120724,0.9810025095939636
131.29372900,131293729,1,-0.193503275513649,-0.0012662140652537346,0.011634927242994308,0.9810298085212708
131.39373600,131393736,1,-0.19327937066555023,-0.0012463986640796065,0.011686173267662525,0.9810733795166016
131.49371800,131493718,1,-0.19314931333065033,-0.0012765565188601613,0.011753109283745289,0.9810981750488281
131.59373100,131593731,1,-0.19298730790615082,-0.0012482322053983808,0.011812467128038406,0.9811293482780457
131.69374700,131693747,1,-0.1928035467863083,-0.0012434425298124552,0.011873723939061165,0.9811647534370422
131.79370700,131793707,1,-0.19265085458755493,-0.001252942020073533,0.01193555910140276,0.9811939597129822
131.89366400,131893664,1,-0.19250169396400452,-0.0012534190900623798,0.01201326958835125,0.9812223315238953
131.99369200,131993692,1,-0.19233591854572296,-0.0012655812315642834,0.01207954715937376,0.981253981590271
132.09368600,132093686,1,-0.19224238395690918,-0.0012579896720126271,0.012129532173275948,0.9812716841697693
132.19368800,132193688,1,-0.19207419455051422,-0.0012526995269581676,0.012191107496619225,0.981303870677948
132.29368700,132293687,1,-0.19188180565834045,-0.001226286287419498,0.012304584495723248,0.9813401103019714
132.39368600,132393686,1,-0.19179309904575348,-0.0012261072406545281,0.012419795617461205,0.9813560247421265
132.49365500,132493655,1,-0.19160768389701843,-0.0012320063542574644,0.012496991083025932,0.9813912510871887
132.59370000,132593700,1,-0.19143885374069214,-0.0012696846388280392,0.012576024048030376,0.9814231395721436
132.69370500,132693705,1,-0.19136029481887817,-0.0013096079928800464,0.012612639926373959,0.9814379215240479
132.79373700,132793737,1,-0.1912016123533249,-0.0013079892378300428,0.0127112390473485,0.981467604637146
132.89373400,132893734,1,-0.19101804494857788,-0.0012970506213605404,0.012770195491611958,0.9815025925636292
132.99375200,132993752,1,-0.19092799723148346,-0.0012901516165584326,0.012802854180335999,0.9815196990966797
133.09373300,133093733,1,-0.19077099859714508,-0.0012766910949721932,0.012892063707113266,0.981549084186554
133.19372000,133193720,1,-0.19058488309383392,-0.0013200266985222697,0.012949828058481216,0.9815844297409058
133.29371700,133293717,1,-0.19050733745098114,-0.0013374406844377518,0.01302427425980568,0.981598436832428
133.39372400,133393724,1,-0.19034647941589355,-0.0013450013939291239,0.013102449476718903,0.9816285967826843
133.49366700,133493667,1,-0.19018740952014923,-0.0013396366266533732,0.013177945278584957,0.9816584587097168
133.59366200,133593662,1,-0.19006602466106415,-0.0013414353597909212,0.013250282034277916,0.9816809892654419
133.69368900,133693689,1,-0.18987277150154114,-0.0013428489910438657,0.01328743901103735,0.9817178845405579
133.79368500,133793685,1,-0.18971550464630127,-0.0013179447269067168,0.013376124203205109,0.9817470908164978
133.89368400,133893684,1,-0.18966329097747803,-0.0013402911135926843,0.01345051545649767,0.9817561507225037
133.99368800,133993688,1,-0.18949906527996063,-0.0013302310835570097,0.013506418094038963,0.9817870855331421
134.09365800,134093658,1,-0.1893933117389679,-0.0013332542730495334,0.013610598631203175,0.9818060398101807
134.19370800,134193708,1,-0.18930178880691528,-0.0013419146416708827,0.013661949895322323,0.9818229675292969
134.29373100,134293731,1,-0.18916837871074677,-0.0013640854740515351,0.013712174259126186,0.9818479418754578
134.39374300,134393743,1,-0.18907774984836578,-0.0013953216839581728,0.013772187754511833,0.9818645715713501
134.49373600,134493736,1,-0.18902519345283508,-0.0014063927810639143,0.013827555812895298,0.9818738698959351
134.59372200,134593722,1,-0.18885186314582825,-0.0014112215721979737,0.013905978761613369,0.9819061160087585
134.69374800,134693748,1,-0.1887136548757553,-0.0014139716513454914,0.013990715146064758,0.9819314479827881
134.79372100,134793721,1,-0.18862496316432953,-0.0014096631202846766,0.014058331958949566,0.9819475412368774
134.89371100,134893711,1,-0.1884632408618927,-0.0014247219078242779,0.014117571525275707,0.9819777607917786
134.99371500,134993715,1,-0.1883615106344223,-0.0014361693756654859,0.014212580397725105,0.9819958806037903
135.09368200,135093682,1,-0.18829268217086792,-0.0014437652425840497,0.014313235878944397,0.9820075631141663
135.19368900,135193689,1,-0.18813371658325195,-0.0014520223485305905,0.014365560375154018,0.9820373058319092
135.29368900,135293689,1,-0.18803510069847107,-0.0014579810667783022,0.014436517842113972,0.982055127620697
135.39370200,135393702,1,-0.1878737509250641,-0.0014440122758969665,0.014509686268866062,0.9820849299430847
135.49368200,135493682,1,-0.18769627809524536,-0.001430488657206297,0.014581170864403248,0.9821178317070007
135.59365500,135593655,1,-0.18755096197128296,-0.0014290210092440248,0.014622023329138756,0.9821450114250183
135.69370000,135693700,1,-0.18737688660621643,-0.0014302348718047142,0.014687800779938698,0.9821772575378418
135.79373200,135793732,1,-0.18719379603862762,-0.0014070086181163788,0.014762481674551964,0.9822110533714294
135.89372200,135893722,1,-0.18705859780311584,-0.0014170302310958505,0.014848384074866772,0.9822354912757874
135.99373600,135993736,1,-0.18697573244571686,-0.0014198478311300278,0.014914375729858875,0.9822502732276917
136.09373900,136093739,1,-0.18686267733573914,-0.0014410336734727025,0.014971031807363033,0.9822708964347839
136.19372100,136193721,1,-0.1867716759443283,-0.0014627891359850764,0.015032906085252762,0.9822872281074524
136.29372700,136293727,1,-0.18663808703422546,-0.0014850005973130465,0.015066057443618774,0.9823120832443237
136.39371600,136393716,1,-0.1865113526582718,-0.0014992760261520743,0.015134376473724842,0.982335090637207
136.49371700,136493717,1,-0.18643131852149963,-0.0014722679043188691,0.015200418420135975,0.9823492765426636
136.59371900,136593719,1,-0.18628759682178497,-0.0014871438033878803,0.015247791074216366,0.9823758006095886
136.69366800,136693668,1,-0.18613319098949432,-0.0015044203028082848,0.015328951179981232,0.9824037551879883
136.79368100,136793681,1,-0.18593458831310272,-0.0015401444397866726,0.015397823415696621,0.9824402332305908
136.89369000,136893690,1,-0.18578577041625977,-0.0015581968473270535,0.015460599213838577,0.9824674129486084
136.99368900,136993689,1,-0.1856561154127121,-0.0015632380964234471,0.015524860471487045,0.9824908971786499
137.09369500,137093695,1,-0.18551704287528992,-0.0015338750090450048,0.015589717775583267,0.9825161695480347
137.19366000,137193660,1,-0.18534253537654877,-0.0015390043845400214,0.015628384426236153,0.9825484752655029
137.29367900,137293679,1,-0.18518444895744324,-0.0015596182784065604,0.01569303683936596,0.9825772047042847
137.39373100,137393731,1,-0.18504996597766876,-0.0015560738975182176,0.01573212258517742,0.9826019406318665
137.49368500,137493685,1,-0.18488137423992157,-0.0015190673293545842,0.01581183448433876,0.9826324582099915
137.59369900,137593699,1,-0.1847536265850067,-0.0015341548714786768,0.01586076430976391,0.9826557040214539
137.69371600,137693716,1,-0.184532031416893,-0.00151087308768183,0.01590869203209877,0.9826965928077698
137.79370900,137793709,1,-0.1844034492969513,-0.001477893441915512,0.01599976420402527,0.9827193021774292
137.89371500,137893715,1,-0.18431991338729858,-0.001477415207773447,0.01607104204595089,0.9827337861061096
137.99371700,137993717,1,-0.18419937789440155,-0.0014702999033033848,0.016125019639730453,0.9827555418014526
138.09371800,138093718,1,-0.18410293757915497,-0.0014858095673844218,0.01619655080139637,0.9827724099159241
138.19368900,138193689,1,-0.18401731550693512,-0.001471704221330583,0.01626339554786682,0.9827873706817627
138.29368600,138293686,1,-0.18387408554553986,-0.0015158165479078889,0.016340313479304314,0.9828128218650818
138.39368300,138393683,1,-0.1837172508239746,-0.0015040254220366478,0.016373271122574806,0.9828416109085083
138.49368600,138493686,1,-0.18362249433994293,-0.001468825270421803,0.016457540914416313,0.9828579425811768
138.59368500,138593685,1,-0.18350917100906372,-0.0014754266012459993,0.016493530943989754,0.9828785061836243
138.69365600,138693656,1,-0.18337105214595795,-0.0014496081275865436,0.01653415337204933,0.9829036593437195
138.79369400,138793694,1,-0.1832912415266037,-0.0014615997206419706,0.016607925295829773,0.9829172492027283
138.89369700,138893697,1,-0.1831403225660324,-0.0014787755208089948,0.016670484095811844,0.9829443097114563
138.99373800,138993738,1,-0.18301606178283691,-0.001459456980228424,0.016717106103897095,0.9829667210578918
139.09373600,139093736,1,-0.18291029334068298,-0.0014574358938261867,0.016756292432546616,0.9829857349395752
139.19372800,139193728,1,-0.18279317021369934,-0.0014532855711877346,0.016807256266474724,0.9830066561698914
139.29371300,139293713,1,-0.18268682062625885,-0.0014286765363067389,0.016897182911634445,0.9830248951911926
139.39370200,139393702,1,-0.18258827924728394,-0.0014331777347251773,0.01695459522306919,0.9830422401428223
139.49371500,139493715,1,-0.18250039219856262,-0.001419050619006157,0.017003340646624565,0.9830577373504639
139.59371000,139593710,1,-0.1824086606502533,-0.0014236053684726357,0.017058325931429863,0.9830737709999084
139.69368900,139693689,1,-0.18233974277973175,-0.0014437470817938447,0.01708536595106125,0.9830860495567322
139.79366600,139793666,1,-0.18226715922355652,-0.0014312455896288157,0.017140839248895645,0.983098566532135
139.89367200,139893672,1,-0.1822172850370407,-0.0014381922082975507,0.01715708337724209,0.9831075072288513
139.99368800,139993688,1,-0.18212884664535522,-0.0014410294825211167,0.01720193214714527,0.9831231236457825
140.09375200,140093752,1,-0.1820373386144638,-0.0014239310985431075,0.017260747030377388,0.9831390976905823
140.19368500,140193685,1,-0.18198342621326447,-0.0014217188581824303,0.017320722341537476,0.9831479787826538
140.29365800,140293658,1,-0.18191583454608917,-0.001442681415937841,0.01727745495736599,0.9831612706184387
140.39366600,140393666,1,-0.18183602392673492,-0.0014331360580399632,0.017152566462755203,0.9831781983375549
140.49370000,140493700,1,-0.1817397028207779,-0.0014052276965230703,0.01699039712548256,0.983198881149292
140.59373300,140593733,1,-0.18157953023910522,-0.0013939754571765661,0.01687924563884735,0.9832304120063782
140.69373600,140693736,1,-0.1815461665391922,-0.0013954531168565154,0.016824496909976006,0.9832375049591064
140.79371900,140793719,1,-0.18153221905231476,-0.0013779584551230073,0.016744107007980347,0.9832414984703064
140.89370100,140893701,1,-0.18136180937290192,-0.0013912328286096454,0.016649408265948296,0.983274519443512
140.99370700,140993707,1,-0.18137452006340027,-0.001420995919033885,0.016468079760670662,0.9832751750946045
141.09371900,141093719,1,-0.1814100295305252,-0.0014193764654919505,0.01623694784939289,0.9832724928855896
141.19372800,141193728,1,-0.18131835758686066,-0.001443233573809266,0.01590394414961338,0.9832947850227356
141.29366200,141293662,1,-0.1813533902168274,-0.0014005083357915282,0.01542876847088337,0.9832959771156311
141.39368800,141393688,1,-0.18135865032672882,-0.0013645802391692996,0.014844292774796486,0.9833040237426758
141.49367700,141493677,1,-0.1812864989042282,-0.0013413953129202127,0.014094410464167595,0.9833284020423889
141.59367800,141593678,1,-0.1813725233078003,-0.0013135112822055817,0.013188452459871769,0.9833251237869263
141.69368400,141693684,1,-0.18139025568962097,-0.0012234250316396356,0.012160464189946651,0.9833352565765381
141.79365100,141793651,1,-0.1813400387763977,-0.0011513668578118086,0.011053633876144886,0.9833576679229736
141.89369800,141893698,1,-0.18144890666007996,-0.0011221275199204683,0.009865493513643742,0.9833502173423767
141.99367400,141993674,1,-0.18148775398731232,-0.0010479686316102743,0.008630437776446342,0.9833547472953796
142.09371100,142093711,1,-0.1814689040184021,-0.0009696025517769158,0.0073955790139734745,0.9833683967590332
142.19373200,142193732,1,-0.18155568838119507,-0.0009343627607449889,0.006208658684045076,0.9833606481552124
142.29374300,142293743,1,-0.18154051899909973,-0.0008457080111838877,0.005083475727587938,0.9833699464797974
142.39369200,142393692,1,-0.18149399757385254,-0.0007140200468711555,0.004171811975538731,0.9833829402923584
142.49369600,142493696,1,-0.18162678182125092,-0.0007020693738013506,0.0035303824115544558,0.9833609461784363
142.59373000,142593730,1,-0.1816614419221878,-0.0006800724077038467,0.0031591772567480803,0.9833558201789856
142.69370600,142693706,1,-0.18170087039470673,-0.0006260142545215786,0.003015734488144517,0.9833490252494812
142.79366900,142793669,1,-0.1818770170211792,-0.000630898168310523,0.0030136089771986008,0.9833164811134338
142.89366400,142893664,1,-0.1819835752248764,-0.000614439370110631,0.0030904749874025583,0.9832965135574341
142.99366900,142993669,1,-0.18205994367599487,-0.0005762408836744726,0.003193194977939129,0.9832820892333984
143.09368500,143093685,1,-0.18222661316394806,-0.0005995846586301923,0.0033024440053850412,0.9832508563995361
143.19368100,143193681,1,-0.18228082358837128,-0.0006019757129251957,0.003361830720677972,0.9832406044006348
143.29368100,143293681,1,-0.1823638677597046,-0.0006081401952542365,0.003450235119089484,0.9832248687744141
143.39369500,143393695,1,-0.18253400921821594,-0.0006120995385572314,0.0035044413525611162,0.9831930994987488
143.49365500,143493655,1,-0.182583749294281,-0.0005830313311889768,0.0035817283205688,0.9831836223602295
143.59369900,143593699,1,-0.18267802894115448,-0.0005623893812298775,0.0036363829858601093,0.9831659197807312
143.69374100,143693741,1,-0.18279695510864258,-0.0005715570878237486,0.0036835710052400827,0.9831436276435852
143.79372700,143793727,1,-0.1828177124261856,-0.000581424159463495,0.003703404450789094,0.98313969373703
143.89373100,143893731,1,-0.18293344974517822,-0.0005628590588457882,0.003720858134329319,0.9831181168556213
143.99372700,143993727,1,-0.18305739760398865,-0.0005379524081945419,0.003722585504874587,0.9830950498580933
144.09374000,144093740,1,-0.1831253618001938,-0.0005587420309893787,0.003733964404091239,0.9830822944641113
144.19370600,144193706,1,-0.18326102197170258,-0.0005486740847118199,0.0037990540731698275,0.9830567836761475
144.29368700,144293687,1,-0.18340013921260834,-0.00046865822514519095,0.0038039525970816612,0.9830308556556702
144.39366300,144393663,1,-0.18348877131938934,-0.0004476465401239693,0.0038060566876083612,0.9830143451690674
144.49366200,144493662,1,-0.18360701203346252,-0.0004757510032504797,0.003820240730419755,0.9829921722412109
144.59368600,144593686,1,-0.18373078107833862,-0.0004642493149731308,0.003843377809971571,0.9829689860343933
144.69368300,144693683,1,-0.18376225233078003,-0.00045582192251458764,0.0038763617631047964,0.982962965965271
144.79368600,144793686,1,-0.18387876451015472,-0.0004150952154304832,0.003919131122529507,0.9829410314559937
144.89368400,144893684,1,-0.18399643898010254,-0.00037967675598338246,0.003921575844287872,0.9829190373420715
144.99365600,144993656,1,-0.18429523706436157,-0.00033613661071285605,0.003949034959077835,0.9828629493713379
145.09368200,145093682,1,-0.18399251997470856,-0.00028527952963486314,0.003950207028537989,0.9829196929931641
145.19372400,145193724,1,-0.1844170242547989,-0.00027176819276064634,0.003954524174332619,0.9828401207923889
145.29372800,145293728,1,-0.18469366431236267,-0.00023535241780336946,0.003927045967429876,0.9827882647514343
145.39369300,145393693,1,-0.18421870470046997,-0.00023646076442673802,0.003917545545846224,0.9828774333000183
145.49373600,145493736,1,-0.18450447916984558,-0.00026700980379246175,0.0038933036848902702,0.98282390832901
145.59369600,145593696,1,-0.18455861508846283,-0.00025549400015734136,0.0038799778558313847,0.982813835144043
145.69373800,145693738,1,-0.18404589593410492,-0.00022947965771891177,0.003885825164616108,0.9829099178314209
145.79372700,145793727,1,-0.1842680126428604,-0.00028838039725087583,0.003856631461530924,0.9828684329986572
145.89371400,145893714,1,-0.1841624230146408,-0.000278896011877805,0.0038647581823170185,0.9828881621360779
145.99369100,145993691,1,-0.183724045753479,-0.00026399685884825885,0.003851997898891568,0.9829702973365784
146.09368400,146093684,1,-0.18397751450538635,-0.0002992497757077217,0.0038541173562407494,0.9829228520393372
146.19368400,146193684,1,-0.1839030683040619,-0.00023805737146176398,0.0038508749566972256,0.9829367995262146
146.29370000,146293700,1,-0.18355806171894073,-0.0001593042106833309,0.0038702182937413454,0.9830012321472168
146.39365900,146393659,1,-0.18388047814369202,-0.0002120288263540715,0.0038258444983512163,0.9829411506652832
146.49365500,146493655,1,-0.18375138938426971,-0.00016987152048386633,0.0038265411276370287,0.9829652905464172
146.59370100,146593701,1,-0.18345628678798676,-0.0001382916234433651,0.003799920901656151,0.983020544052124
146.69368100,146693681,1,-0.18371517956256866,-0.00018241212819702923,0.003772539319470525,0.982972264289856
146.79372900,146793729,1,-0.1835087090730667,-0.00012620491907000542,0.0037760159466415644,0.9830108284950256
146.89375700,146893757,1,-0.1832648068666458,-6.88339932821691e-05,0.003794532036408782,0.9830562472343445
146.99374100,146993741,1,-0.18349683284759521,-8.562788570998237e-05,0.0038089570589363575,0.9830129146575928
147.09370500,147093705,1,-0.18330496549606323,-3.403281152714044e-05,0.003858488518744707,0.9830484986305237
147.19373400,147193734,1,-0.18313060700893402,2.5581621230230667e-06,0.0038676955737173557,0.9830809831619263
147.29373800,147293738,1,-0.1833864450454712,-5.8150159020442516e-05,0.0038663940504193306,0.983033299446106
147.39371600,147393716,1,-0.18312637507915497,1.3206627045292407e-06,0.003864276921376586,0.9830817580223083
147.49372100,147493721,1,-0.18298481404781342,4.6990298869786784e-05,0.003912618849426508,0.9831079244613647
147.59366700,147593667,1,-0.18314050137996674,3.963515337090939e-05,0.0038969535380601883,0.9830790162086487
147.69368200,147693682,1,-0.18287812173366547,7.361139432759956e-05,0.0039375703781843185,0.9831277132034302
147.79368000,147793680,1,-0.1828308254480362,0.00010449712135596201,0.003945646341890097,0.9831364750862122
147.89367700,147893677,1,-0.18300843238830566,8.228626393247396e-05,0.003858122741803527,0.9831037521362305
147.99368200,147993682,1,-0.18269993364810944,0.00010016937449108809,0.003813094925135374,0.9831613302230835
