timestamp,TimeUS,C,Roll,Pitch,Yaw,VN,VE,VD,dPD,PN,PE,PD,GX,GY,GZ,OH
92.69370400,92693704,1,0.42,-0.13,207.9,-0.003221172373741865,-0.08720976114273071,-0.0718173086643219,-2.014920234680176,0.0,0.0,1.545058012008667,0.17,-0.07,-0.06,0.0
92.79372400,92793724,1,0.42,-0.13,207.89000000000001,-0.002902803011238575,-0.08873273432254791,-0.06797115504741669,-6.056895732879639,0.0,0.0,1.0078319311141968,0.17,-0.07,-0.06,0.0
92.89367300,92893673,1,0.43,-0.13,207.88,-0.001981459092348814,-0.09029974788427353,-0.06420230865478516,-5.118887901306152,0.0,0.0,0.6447555422782898,0.17,-0.07,-0.06,0.0
92.99367900,92993679,1,0.43,-0.13,207.87,-0.001704499707557261,-0.09329798072576523,-0.06275253742933273,-3.142138719558716,0.0,0.0,0.3925628364086151,0.18,-0.07,-0.06,0.0
93.09367600,93093676,1,0.44,-0.14,207.87,-0.0014880542876198888,-0.09797181934118271,-0.06251649558544159,-1.6714369058609009,0.0,0.0,0.22066929936408997,0.18,-0.07,-0.06,0.0
93.19368900,93193689,1,0.44,-0.13,207.86,-0.0007714504608884454,-0.10390105843544006,-0.061790093779563904,-0.8286241292953491,0.0,0.0,0.1030430719256401,0.18,-0.07,-0.06,0.0
93.29367900,93293679,1,0.45,-0.14,207.86,-0.0006579245673492551,-0.1085715964436531,-0.061424970626831055,-0.4027516543865204,0.0,0.0,0.024199092760682106,0.18,-0.07,-0.06,0.0
93.39366400,93393664,1,0.46,-0.14,207.86,0.00021360366372391582,-0.11392141878604889,-0.06088750809431076,-0.18477201461791992,0.0,0.0,-0.028324700891971588,0.18,-0.07,-0.06,0.0
93.49365400,93493654,1,0.46,-0.14,207.85,0.00033616277505643666,-0.11957190930843353,-0.06019141897559166,-0.07388123124837875,0.0,0.0,-0.06208496913313866,0.18,-0.07,-0.06,0.0
93.59367900,93593679,1,0.47000000000000003,-0.14,207.85,0.0011706947116181254,-0.1257336586713791,-0.05905784294009209,-0.017362935468554497,0.0,0.0,-0.08357910066843033,0.18,-0.07,-0.06,0.0
93.69373800,93693738,1,0.48,-0.14,207.85,0.001586172846145928,-0.13246923685073853,-0.05865439400076866,-0.0011688123922795057,0.0,0.0,-0.09787546098232269,0.18,-0.07,-0.06,0.0
93.79373500,93793735,1,0.49,-0.15,207.84,0.0019025857327505946,-0.1379251778125763,-0.059101566672325134,-0.0078087421134114265,0.0,0.0,-0.10836248844861984,0.18,-0.07,-0.06,0.0
93.89373600,93893736,1,0.49,-0.15,207.84,0.0026834774762392044,-0.14503279328346252,-0.05909567326307297,-0.016389623284339905,0.0,0.0,-0.11603910475969315,0.18,-0.07,-0.06,0.0
93.99376100,93993761,1,0.5,-0.15,207.83,0.0037456529680639505,-0.152481347322464,-0.05935574695467949,-0.015954749658703804,0.0,0.0,-0.12139683216810226,0.18,-0.07,-0.06,0.0
94.09373200,94093732,1,0.51,-0.15,207.82,0.004103766288608313,-0.15903285145759583,-0.060094524174928665,-0.0161703173071146,0.0,0.0,-0.12563687562942505,0.18,-0.07,-0.06,0.0
94.19370700,94193707,1,0.52,-0.15,207.81,0.004925974644720554,-0.1658090054988861,-0.06027701869606972,-0.023692145943641663,0.0,0.0,-0.12985050678253174,0.18,-0.07,-0.06,0.0
94.29371800,94293718,1,0.52,-0.15,207.8,0.0056376694701612,-0.17271222174167633,-0.06124160438776016,-0.03088202141225338,0.0,0.0,-0.13379760086536407,0.18,-0.07,-0.06,0.0
94.39370900,94393709,1,0.53,-0.15,207.79,0.006918744184076786,-0.17968855798244476,-0.06194495037198067,-0.034684427082538605,0.0,0.0,-0.13780637085437775,0.18,-0.07,-0.06,0.0
94.49365900,94493659,1,0.54,-0.16,207.78,0.007310023996978998,-0.18627184629440308,-0.06311304867267609,-0.031034409999847412,0.0,0.0,-0.14092102646827698,0.18,-0.07,-0.06,0.0
94.59366100,94593661,1,0.55,-0.16,207.77,0.007797125726938248,-0.19356684386730194,-0.06360133737325668,-0.020956125110387802,0.0,0.0,-0.1432531327009201,0.18,-0.07,-0.06,0.0
94.69369300,94693693,1,0.56,-0.16,207.76,0.008505319245159626,-0.20042069256305695,-0.06399375200271606,-0.017040716484189034,0.0,0.0,-0.1454048752784729,0.18,-0.07,-0.06,0.0
94.79366200,94793662,1,0.56,-0.16,207.75,0.008489706553518772,-0.2064875066280365,-0.06378406286239624,-0.019328007474541664,0.0,0.0,-0.14779077470302582,0.18,-0.07,-0.06,0.0
94.89368600,94893686,1,0.5700000000000001,-0.16,207.74,0.009595542214810848,-0.21359962224960327,-0.06408277153968811,-0.028411276638507843,0.0,0.0,-0.1509011685848236,0.18,-0.07,-0.06,0.0
94.99366700,94993667,1,0.58,-0.17,207.73000000000002,0.01036781258881092,-0.2211509495973587,-0.06454643607139587,-0.02904261089861393,0.0,0.0,-0.15351948142051697,0.18,-0.07,-0.06,0.0
95.09365700,95093657,1,0.58,-0.17,207.72,0.01154991053044796,-0.2281520515680313,-0.06497331708669662,-0.019461126998066902,0.0,0.0,-0.15537163615226746,0.18,-0.07,-0.06,0.0
95.19369300,95193693,1,0.58,-0.17,207.72,0.013338259421288967,-0.23536241054534912,-0.06532588601112366,-0.016098372638225555,0.0,0.0,-0.15724396705627441,0.18,-0.07,-0.06,0.0
95.29372700,95293727,1,0.59,-0.17,207.71,0.01466408185660839,-0.24160432815551758,-0.06539524346590042,-0.016430256888270378,0.0,0.0,-0.1591101437807083,0.18,-0.07,-0.06,0.0
95.39374500,95393745,1,0.59,-0.17,207.70000000000002,0.01547111663967371,-0.2496381551027298,-0.06404900550842285,-0.008282452821731567,0.0,0.0,-0.15997759997844696,0.18,-0.07,-0.06,0.0
95.49378100,95493781,1,0.6,-0.17,207.68,0.01878558099269867,-0.2542552351951599,-0.06397844105958939,-0.0023234598338603973,0.0,0.0,-0.16052629053592682,0.18,-0.07,-0.06,0.0
95.59371000,95593710,1,0.61,-0.17,207.65,0.019171301275491714,-0.2630087435245514,-0.06261244416236877,-0.0047036693431437016,0.0,0.0,-0.16145572066307068,0.18,-0.07,-0.06,0.0
95.69369200,95693692,1,0.61,-0.17,207.68,0.01973111368715763,-0.2674406170845032,-0.06243108958005905,-0.013082366436719894,0.0,0.0,-0.16299651563167572,0.18,-0.07,-0.06,0.0
95.79372200,95793722,1,0.62,-0.18,207.64000000000001,0.022414162755012512,-0.2729763984680176,-0.06221585348248482,-0.01224411092698574,0.0,0.0,-0.16393229365348816,0.18,-0.07,-0.06,0.0
95.89372600,95893726,1,0.62,-0.17,207.6,0.023839130997657776,-0.2783050835132599,-0.060889843851327896,-0.005199998151510954,0.0,0.0,-0.1645859181880951,0.18,-0.07,-0.06,0.0
95.99373400,95993734,1,0.63,-0.17,207.62,0.024635419249534607,-0.2827497124671936,-0.06061394140124321,-0.00962681695818901,0.0,0.0,-0.16583986580371857,0.18,-0.07,-0.06,0.0
96.09366900,96093669,1,0.64,-0.18,207.57,0.026747548952698708,-0.28868499398231506,-0.059833649545907974,-0.016993973404169083,0.0,0.0,-0.16761288046836853,0.18,-0.07,-0.06,0.0
96.19367800,96193678,1,0.65,-0.17,207.54,0.02978317067027092,-0.29160064458847046,-0.058476753532886505,-0.014756675809621811,0.0,0.0,-0.16884559392929077,0.18,-0.07,-0.06,0.0
96.29369000,96293690,1,0.65,-0.17,207.55,0.029469754546880722,-0.29780399799346924,-0.056502774357795715,-0.0072812726721167564,0.0,0.0,-0.16959963738918304,0.18,-0.07,-0.06,0.0
96.39369000,96393690,1,0.66,-0.18,207.5,0.03174378350377083,-0.30016088485717773,-0.05635825917124748,-0.011057128198444843,0.0,0.0,-0.1709606647491455,0.18,-0.07,-0.06,0.0
96.49369800,96493698,1,0.66,-0.18,207.47,0.03294985741376877,-0.3018522262573242,-0.05685354396700859,-0.0185575969517231,0.0,0.0,-0.1727772057056427,0.18,-0.07,-0.06,0.0
96.59365800,96593658,1,0.66,-0.18,207.48000000000002,0.03226674720644951,-0.3056623041629791,-0.056715670973062515,-0.020543348044157028,0.0,0.0,-0.17466624081134796,0.18,-0.07,-0.06,0.0
96.69369300,96693693,1,0.67,-0.19,207.43,0.034412406384944916,-0.3063369393348694,-0.05659712478518486,-0.018463868647813797,0.0,0.0,-0.17636188864707947,0.18,-0.07,-0.06,0.0
96.79373200,96793732,1,0.67,-0.18,207.42000000000002,0.03652336448431015,-0.3078344762325287,-0.0559152290225029,-0.005940536502748728,0.0,0.0,-0.17675413191318512,0.18,-0.07,-0.06,0.0
96.89374300,96893743,1,0.68,-0.18,207.42000000000002,0.03703311085700989,-0.30986252427101135,-0.05552010238170624,0.008338662795722485,0.0,0.0,-0.17617814242839813,0.18,-0.07,-0.06,0.0
96.99373500,96993735,1,0.68,-0.18,207.37,0.03618626669049263,-0.30931687355041504,-0.054346922785043716,0.00975053384900093,0.0,0.0,-0.17592346668243408,0.18,-0.07,-0.06,0.0
97.09374000,97093740,1,0.6900000000000001,-0.18,207.34,0.039194658398628235,-0.3092844486236572,-0.05374757945537567,0.0019212731858715415,0.0,0.0,-0.17614853382110596,0.18,-0.07,-0.06,0.0
97.19373700,97193737,1,0.7000000000000001,-0.18,207.31,0.03745151683688164,-0.30866220593452454,-0.05367814749479294,-0.005096989218145609,0.0,0.0,-0.17674176394939423,0.18,-0.07,-0.06,0.0
97.29371700,97293717,1,0.7000000000000001,-0.18,207.23000000000002,0.03771579638123512,-0.3079680800437927,-0.05330577865242958,0.00509164622053504,0.0,0.0,-0.17582742869853973,0.18,-0.07,-0.05,0.0
97.39371600,97393716,1,0.71,-0.18,207.17000000000002,0.04072391986846924,-0.3061913847923279,-0.052105050534009933,0.027059590443968773,0.0,0.0,-0.17332249879837036,0.18,-0.07,-0.05,0.0
97.49371500,97493715,1,0.71,-0.17,207.12,0.03976677358150482,-0.30500560998916626,-0.05202193930745125,0.03506506606936455,0.0,0.0,-0.17051197588443756,0.18,-0.07,-0.05,0.0
97.59368600,97593686,1,0.72,-0.17,207.03,0.03976530209183693,-0.303303986787796,-0.05081291124224663,0.03219280391931534,0.0,0.0,-0.1680353879928589,0.18,-0.07,-0.05,0.0
97.69370000,97693700,1,0.71,-0.17,206.98000000000002,0.04279956594109535,-0.3013836145401001,-0.04942892864346504,0.026025114580988884,0.0,0.0,-0.16586874425411224,0.18,-0.07,-0.05,0.0
97.79368800,97793688,1,0.72,-0.17,206.92000000000002,0.04177422821521759,-0.2984943985939026,-0.048788465559482574,0.019443750381469727,0.0,0.0,-0.16413018107414246,0.18,-0.07,-0.05,0.0
97.89368800,97893688,1,0.72,-0.17,206.83,0.04184793308377266,-0.29692694544792175,-0.047844454646110535,0.014805796556174755,0.0,0.0,-0.1626254767179489,0.18,-0.07,-0.05,0.0
97.99369100,97993691,1,0.73,-0.17,206.77,0.04381319880485535,-0.29300740361213684,-0.04780019819736481,0.016011156141757965,0.0,0.0,-0.16076482832431793,0.18,-0.07,-0.05,0.0
98.09368900,98093689,1,0.73,-0.17,206.71,0.0438937284052372,-0.2902037799358368,-0.04698038101196289,0.030374938622117043,0.0,0.0,-0.15751978754997253,0.18,-0.07,-0.04,0.0
98.19366000,98193660,1,0.74,-0.17,206.63,0.04270569607615471,-0.28921693563461304,-0.04475841671228409,0.042530324310064316,0.0,0.0,-0.15380392968654633,0.18,-0.07,-0.04,0.0
98.29371100,98293711,1,0.75,-0.17,206.57,0.04262867197394371,-0.2843804359436035,-0.043318796902894974,0.048349130898714066,0.0,0.0,-0.14933815598487854,0.18,-0.07,-0.04,0.0
98.39373700,98393737,1,0.75,-0.17,206.49,0.043145984411239624,-0.2833487391471863,-0.0429273322224617,0.045806173235177994,0.0,0.0,-0.1454337239265442,0.18,-0.07,-0.04,0.0
98.49374400,98493744,1,0.77,-0.17,206.39000000000001,0.044032022356987,-0.2797236442565918,-0.040610890835523605,0.040017660707235336,0.0,0.0,-0.14173787832260132,0.18,-0.07,-0.04,0.0
98.59375900,98593759,1,0.77,-0.17,206.32,0.04417550563812256,-0.27764368057250977,-0.03908902034163475,0.03758800029754639,0.0,0.0,-0.1380736082792282,0.18,-0.07,-0.04,0.0
98.69371800,98693718,1,0.78,-0.17,206.23000000000002,0.046538762748241425,-0.2765525281429291,-0.03761672228574753,0.028237711638212204,0.0,0.0,-0.13548573851585388,0.18,-0.07,-0.04,0.0
98.79372500,98793725,1,0.78,-0.17,206.13,0.046241216361522675,-0.2732771039009094,-0.036338843405246735,0.021706262603402138,0.0,0.0,-0.1330099105834961,0.18,-0.07,-0.03,0.0
98.89373800,98893738,1,0.79,-0.17,206.06,0.047640684992074966,-0.27353960275650024,-0.03581248223781586,0.022611238062381744,0.0,0.0,-0.1304803341627121,0.18,-0.07,-0.03,0.0
98.99372000,98993720,1,0.79,-0.18,205.97,0.04985864832997322,-0.2708438038825989,-0.035022176802158356,0.02215541899204254,0.0,0.0,-0.12817566096782684,0.18,-0.07,-0.03,0.0
99.09368500,99093685,1,0.8,-0.18,205.89000000000001,0.04729846492409706,-0.27060234546661377,-0.03336413577198982,0.03745066002011299,0.0,0.0,-0.12403549998998642,0.18,-0.07,-0.03,0.0
99.19367000,99193670,1,0.81,-0.18,205.84,0.05026048794388771,-0.2701987326145172,-0.031546998769044876,0.05624404177069664,0.0,0.0,-0.11892328411340714,0.18,-0.07,-0.03,0.0
99.29367300,99293673,1,0.8200000000000001,-0.18,205.78,0.04715568944811821,-0.2686915993690491,-0.030813470482826233,0.06027693673968315,0.0,0.0,-0.11357983201742172,0.18,-0.07,-0.03,0.0
99.39368800,99393688,1,0.8200000000000001,-0.19,205.74,0.04980555176734924,-0.26893362402915955,-0.030046449974179268,0.0524783581495285,0.0,0.0,-0.10907711088657379,0.18,-0.07,-0.03,0.0
99.49368800,99493688,1,0.8300000000000001,-0.19,205.72,0.049565624445676804,-0.26977452635765076,-0.028625860810279846,0.048947662115097046,0.0,0.0,-0.10417812317609787,0.18,-0.07,-0.03,0.0
99.59368700,99593687,1,0.84,-0.19,205.67000000000002,0.048572953790426254,-0.26991498470306396,-0.027460061013698578,0.04593510925769806,0.0,0.0,-0.099977508187294,0.18,-0.07,-0.03,0.0
99.69366200,99693662,1,0.84,-0.19,205.63,0.04967223107814789,-0.2713402807712555,-0.026382597163319588,0.040728457272052765,0.0,0.0,-0.09574198722839355,0.18,-0.07,-0.03,0.0
99.79366500,99793665,1,0.85,-0.19,205.6,0.04832304269075394,-0.2729932367801666,-0.025348028168082237,0.03894638642668724,0.0,0.0,-0.09195314347743988,0.18,-0.07,-0.03,0.0
99.89375200,99893752,1,0.86,-0.19,205.56,0.050045162439346313,-0.27341872453689575,-0.024638203904032707,0.03010636940598488,0.0,0.0,-0.08894169330596924,0.18,-0.07,-0.03,0.0
99.99374500,99993745,1,0.86,-0.2,205.51,0.05082937330007553,-0.27689841389656067,-0.023799099028110504,0.03124692104756832,0.0,0.0,-0.08541399985551834,0.18,-0.07,-0.03,0.0
100.09373200,100093732,1,0.87,-0.2,205.46,0.051345694810152054,-0.2774784564971924,-0.02288815751671791,0.05534352362155914,0.0,0.0,-0.07942581176757812,0.18,-0.07,-0.02,0.0
100.19373300,100193733,1,0.88,-0.2,205.41,0.051658712327480316,-0.28163403272628784,-0.021567661315202713,0.06963907927274704,0.0,0.0,-0.07336986064910889,0.18,-0.07,-0.02,0.0
100.29373300,100293733,1,0.88,-0.2,205.43,0.050445474684238434,-0.2843097448348999,-0.019496949389576912,0.06294441968202591,0.0,0.0,-0.06783480197191238,0.18,-0.07,-0.02,0.0
100.39372000,100393720,1,0.89,-0.2,205.35,0.05220602825284004,-0.2873992323875427,-0.01749180071055889,0.0640125572681427,0.0,0.0,-0.06164490431547165,0.18,-0.07,-0.02,0.0
100.49371200,100493712,1,0.9,-0.2,205.32,0.05356459692120552,-0.29186660051345825,-0.017800571396946907,0.05306914076209068,0.0,0.0,-0.056926701217889786,0.18,-0.07,-0.02,0.0
100.59372000,100593720,1,0.9,-0.21,205.33,0.05287977308034897,-0.2942263185977936,-0.01631220430135727,0.04011582210659981,0.0,0.0,-0.05274541303515434,0.18,-0.07,-0.02,0.0
100.69372400,100693724,1,0.91,-0.21,205.26,0.05481492355465889,-0.2980395555496216,-0.014963227324187756,0.04519467055797577,0.0,0.0,-0.0478765070438385,0.18,-0.07,-0.02,0.0
100.79368300,100793683,1,0.91,-0.2,205.25,0.05644479766488075,-0.30153313279151917,-0.01401823665946722,0.04381647706031799,0.0,0.0,-0.043708089739084244,0.18,-0.07,-0.02,0.0
100.89368400,100893684,1,0.93,-0.21,205.27,0.05557069182395935,-0.305904358625412,-0.012240123003721237,0.04213535413146019,0.0,0.0,-0.03932064399123192,0.18,-0.07,-0.02,0.0
100.99368000,100993680,1,0.9400000000000001,-0.22,205.21,0.05855477228760719,-0.3104063868522644,-0.0107196606695652,0.05038067325949669,0.0,0.0,-0.034214768558740616,0.18,-0.07,-0.02,0.0
101.09368200,101093682,1,0.9400000000000001,-0.21,205.21,0.0600074827671051,-0.31468862295150757,-0.009788761846721172,0.0520436055958271,0.0,0.0,-0.02927859127521515,0.18,-0.07,-0.02,0.0
101.19369200,101193692,1,0.9500000000000001,-0.22,205.22,0.059970367699861526,-0.3215005099773407,-0.008508560247719288,0.047580186277627945,0.0,0.0,-0.02475382760167122,0.18,-0.07,-0.02,0.0
101.29365600,101293656,1,0.96,-0.23,205.16,0.0630214735865593,-0.32578375935554504,-0.006941627711057663,0.040021974593400955,0.0,0.0,-0.020954960957169533,0.18,-0.07,-0.02,0.0
101.39366900,101393669,1,0.97,-0.22,205.15,0.06560056656599045,-0.33136624097824097,-0.004889740142971277,0.03743275627493858,0.0,0.0,-0.017010992392897606,0.18,-0.07,-0.02,0.0
101.49373800,101493738,1,0.97,-0.22,205.15,0.06580054759979248,-0.33797556161880493,-0.0034270447213202715,0.029183195903897285,0.0,0.0,-0.014315245673060417,0.18,-0.07,-0.02,0.0
101.59373100,101593731,1,0.98,-0.23,205.1,0.06859490275382996,-0.3432139456272125,-0.0028106248937547207,0.02400040067732334,0.0,0.0,-0.011365089565515518,0.18,-0.07,-0.02,0.0
101.69374900,101693749,1,0.99,-0.23,205.1,0.07161304354667664,-0.34904229640960693,-0.0018622537609189749,0.02725709229707718,0.0,0.0,-0.00851826649159193,0.18,-0.07,-0.02,0.0
101.79370800,101793708,1,1.0,-0.23,205.09,0.07129283994436264,-0.35537171363830566,9.311464054917451e-06,0.02468905597925186,0.0,0.0,-0.006025742739439011,0.18,-0.07,-0.02,0.0
101.89371100,101893711,1,1.01,-0.24,205.03,0.07403638958930969,-0.3626493215560913,0.0014323749346658587,0.02978328987956047,0.0,0.0,-0.002767141442745924,0.18,-0.07,-0.02,0.0
101.99373300,101993733,1,1.01,-0.24,205.03,0.07695963978767395,-0.36910584568977356,0.0027725184336304665,0.04483122378587723,0.0,0.0,0.0018104634946212173,0.18,-0.07,-0.02,0.0
102.09371900,102093719,1,1.02,-0.24,205.02,0.07631072402000427,-0.37703025341033936,0.0040972582064569,0.057912472635507584,0.0,0.0,0.0071837641298770905,0.18,-0.07,-0.02,0.0
102.19369900,102193699,1,1.03,-0.25,204.96,0.07775286585092545,-0.3824581801891327,0.004776673391461372,0.062161047011613846,0.0,0.0,0.012872164137661457,0.18,-0.07,-0.02,0.0
102.29366700,102293667,1,1.04,-0.25,204.96,0.08014737814664841,-0.3883245289325714,0.006622143089771271,0.07613459974527359,0.0,0.0,0.020312026143074036,0.18,-0.07,-0.02,0.0
102.39368300,102393683,1,1.04,-0.25,204.94,0.07981440424919128,-0.39666223526000977,0.007987916469573975,0.0824272558093071,0.0,0.0,0.027542661875486374,0.18,-0.07,-0.02,0.0
102.49368300,102493683,1,1.06,-0.25,204.89000000000001,0.08178172260522842,-0.4032103717327118,0.008974524214863777,0.06409689784049988,0.0,0.0,0.03318304568529129,0.18,-0.07,-0.02,0.0
102.59369100,102593691,1,1.07,-0.25,204.9,0.08316830545663834,-0.41021135449409485,0.00993563886731863,0.04659827798604965,0.0,0.0,0.03787338733673096,0.18,-0.07,-0.02,0.0
102.69368500,102693685,1,1.07,-0.24,204.88,0.08304562419652939,-0.41646021604537964,0.01040706131607294,0.04587358981370926,0.0,0.0,0.04305868223309517,0.18,-0.07,-0.02,0.0
102.79370000,102793700,1,1.08,-0.25,204.83,0.08437548577785492,-0.4236200749874115,0.01176625769585371,0.059979721903800964,0.0,0.0,0.04938239976763725,0.18,-0.07,-0.02,0.0
102.89365800,102893658,1,1.09,-0.25,204.84,0.08619813621044159,-0.4302060604095459,0.01300073228776455,0.07039403915405273,0.0,0.0,0.056137438863515854,0.18,-0.07,-0.02,0.0
102.99369900,102993699,1,1.1,-0.25,204.82,0.08610522001981735,-0.4381677210330963,0.014089502394199371,0.07614574581384659,0.0,0.0,0.06342984735965729,0.18,-0.07,-0.02,0.0
103.09374000,103093740,1,1.1,-0.25,204.79,0.08761603385210037,-0.44551968574523926,0.01538925152271986,0.07459867000579834,0.0,0.0,0.07030747830867767,0.18,-0.07,-0.02,0.0
103.19373500,103193735,1,1.11,-0.26,204.79,0.08944284915924072,-0.45234668254852295,0.016005784273147583,0.05306030809879303,0.0,0.0,0.07507507503032684,0.18,-0.07,-0.02,0.0
103.29373300,103293733,1,1.12,-0.26,204.75,0.08969950675964355,-0.4604850113391876,0.016964886337518692,0.04558515548706055,0.0,0.0,0.08036066591739655,0.18,-0.07,-0.02,0.0
103.39373400,103393734,1,1.1300000000000001,-0.26,204.72,0.090622179210186,-0.46720096468925476,0.01819545589387417,0.061812493950128555,0.0,0.0,0.08695966750383377,0.18,-0.07,-0.02,0.0
103.49370000,103493700,1,1.1400000000000001,-0.26,204.73000000000002,0.09173954278230667,-0.47527042031288147,0.01862134225666523,0.056743159890174866,0.0,0.0,0.09202594310045242,0.18,-0.07,-0.02,0.0
103.59372300,103593723,1,1.1500000000000001,-0.26,204.69,0.0929279550909996,-0.48183271288871765,0.01969500258564949,0.03141156584024429,0.0,0.0,0.09497938305139542,0.18,-0.07,-0.02,0.0
103.69374900,103693749,1,1.16,-0.26,204.65,0.09443239122629166,-0.4897465109825134,0.02056283690035343,0.020130392163991928,0.0,0.0,0.09774675220251083,0.18,-0.07,-0.02,0.0
103.79366900,103793669,1,1.17,-0.26,204.66,0.0957086905837059,-0.49692291021347046,0.020762644708156586,0.028522854670882225,0.0,0.0,0.10137628018856049,0.18,-0.07,-0.02,0.0
103.89368300,103893683,1,1.18,-0.26,204.63,0.09682008624076843,-0.504170835018158,0.022280655801296234,0.03930545970797539,0.0,0.0,0.10542834550142288,0.18,-0.07,-0.02,0.0
103.99367500,103993675,1,1.19,-0.26,204.6,0.09819632768630981,-0.511118471622467,0.022298485040664673,0.04448627308011055,0.0,0.0,0.1098453551530838,0.18,-0.07,-0.02,0.0
104.09368500,104093685,1,1.2,-0.26,204.6,0.09899911284446716,-0.5186514258384705,0.023296372964978218,0.05164197459816933,0.0,0.0,0.11484359949827194,0.18,-0.07,-0.02,0.0
104.19368200,104193682,1,1.2,-0.27,204.57,0.09945012629032135,-0.5257381796836853,0.023953506723046303,0.04182567074894905,0.0,0.0,0.11833778023719788,0.18,-0.07,-0.02,0.0
104.29368500,104293685,1,1.21,-0.27,204.55,0.10232255607843399,-0.5322283506393433,0.024505451321601868,0.023512210696935654,0.0,0.0,0.12075594067573547,0.18,-0.07,-0.02,0.0
104.39367900,104393679,1,1.22,-0.27,204.55,0.10221532732248306,-0.5394648313522339,0.025623803958296776,0.031806182116270065,0.0,0.0,0.12472353130578995,0.18,-0.07,-0.02,0.0
104.49370600,104493706,1,1.23,-0.27,204.51,0.1049562618136406,-0.5468453764915466,0.02721632458269596,0.04925376549363136,0.0,0.0,0.1296139806509018,0.18,-0.07,-0.01,0.0
104.59372000,104593720,1,1.24,-0.27,204.49,0.10580074042081833,-0.5528911352157593,0.02816799469292164,0.04186340421438217,0.0,0.0,0.13306917250156403,0.18,-0.07,-0.01,0.0
104.69374200,104693742,1,1.25,-0.27,204.47,0.10686193406581879,-0.5618212819099426,0.028146492317318916,0.02811182476580143,0.0,0.0,0.13597340881824493,0.18,-0.07,-0.01,0.0
104.79374400,104793744,1,1.26,-0.27,204.42000000000002,0.10810008645057678,-0.5668215751647949,0.029102034866809845,0.03334261476993561,0.0,0.0,0.13972218334674835,0.18,-0.07,-0.01,0.0
104.89373600,104893736,1,1.26,-0.27,204.39000000000001,0.1096573919057846,-0.5768466591835022,0.029857976362109184,0.028659438714385033,0.0,0.0,0.14221519231796265,0.18,-0.07,-0.01,0.0
104.99373300,104993733,1,1.27,-0.27,204.37,0.11035522818565369,-0.5814098119735718,0.030533159151673317,0.022001126781105995,0.0,0.0,0.14482299983501434,0.18,-0.07,-0.01,0.0
105.09372900,105093729,1,1.28,-0.28,204.32,0.11167926341295242,-0.5917150974273682,0.030592624098062515,0.03289450705051422,0.0,0.0,0.14852309226989746,0.18,-0.07,-0.01,0.0
105.19372500,105193725,1,1.29,-0.28,204.29,0.11213801801204681,-0.5962569713592529,0.031355440616607666,0.03014795295894146,0.0,0.0,0.1510625034570694,0.18,-0.07,-0.01,0.0
105.29370400,105293704,1,1.29,-0.28,204.27,0.11381147056818008,-0.6045950651168823,0.03216682747006416,0.0291986633092165,0.0,0.0,0.15434294939041138,0.18,-0.07,-0.01,0.0
105.39370500,105393705,1,1.3,-0.28,204.23000000000002,0.1143127977848053,-0.6114266514778137,0.032987385988235474,0.038716793060302734,0.0,0.0,0.15812335908412933,0.18,-0.07,-0.01,0.0
105.49368900,105493689,1,1.31,-0.28,204.20000000000002,0.1156621053814888,-0.6173901557922363,0.03297540917992592,0.02920680120587349,0.0,0.0,0.16063198447227478,0.18,-0.07,-0.01,0.0
105.59368300,105593683,1,1.32,-0.28,204.17000000000002,0.11688528954982758,-0.6264048218727112,0.03341129794716835,0.023428458720445633,0.0,0.0,0.1632891148328781,0.18,-0.07,-0.01,0.0
105.69368900,105693689,1,1.32,-0.29,204.14000000000001,0.11765053123235703,-0.6317836046218872,0.034530796110630035,0.02460269257426262,0.0,0.0,0.16575853526592255,0.18,-0.07,-0.01,0.0
105.79368400,105793684,1,1.33,-0.29,204.12,0.11947891116142273,-0.6396418809890747,0.03512929379940033,0.024964161217212677,0.0,0.0,0.1684768795967102,0.18,-0.07,-0.01,0.0
105.89367000,105893670,1,1.34,-0.29,204.09,0.12108402699232101,-0.6444585919380188,0.03596518933773041,0.03727252036333084,0.0,0.0,0.17243999242782593,0.18,-0.07,-0.01,0.0
105.99365900,105993659,1,1.35,-0.29,204.06,0.12108582258224487,-0.6521652340888977,0.03676207736134529,0.06405360996723175,0.0,0.0,0.1789381057024002,0.18,-0.07,-0.01,0.0
106.09369800,106093698,1,1.36,-0.29,204.04,0.12299258261919022,-0.6579949259757996,0.03769384324550629,0.06718574464321136,0.0,0.0,0.1842818260192871,0.18,-0.07,-0.01,0.0
106.19375100,106193751,1,1.37,-0.3,204.02,0.1245502233505249,-0.6649665832519531,0.038181744515895844,0.04020623862743378,0.0,0.0,0.18764087557792664,0.18,-0.07,-0.01,0.0
106.29375800,106293758,1,1.37,-0.3,203.99,0.12618876993656158,-0.6711428761482239,0.03843984380364418,0.015314791351556778,0.0,0.0,0.18926826119422913,0.18,-0.07,-0.01,0.0
106.39373200,106393732,1,1.3800000000000001,-0.3,203.98000000000002,0.1279231458902359,-0.6778179407119751,0.038797181099653244,0.006183696445077658,0.0,0.0,0.1908271312713623,0.18,-0.07,-0.01,0.0
106.49371200,106493712,1,1.3900000000000001,-0.3,203.94,0.12897172570228577,-0.6848443150520325,0.03947971388697624,0.006597817409783602,0.0,0.0,0.19199417531490326,0.18,-0.07,-0.01,0.0
106.59374700,106593747,1,1.4000000000000001,-0.3,203.93,0.13046540319919586,-0.6907878518104553,0.03950340673327446,0.0005868445732630789,0.0,0.0,0.19249214231967926,0.18,-0.07,-0.01,0.0
106.69372100,106693721,1,1.4000000000000001,-0.3,203.91,0.1314999759197235,-0.6981840133666992,0.03982355445623398,0.007131763733923435,0.0,0.0,0.1939147412776947,0.18,-0.07,-0.01,0.0
106.79372600,106793726,1,1.41,-0.3,203.89000000000001,0.13418076932430267,-0.702944278717041,0.04071826487779617,0.029116882011294365,0.0,0.0,0.19714033603668213,0.18,-0.07,-0.01,0.0
106.89366300,106893663,1,1.41,-0.3,203.88,0.13623765110969543,-0.710286021232605,0.04162696748971939,0.036140624433755875,0.0,0.0,0.2000330239534378,0.18,-0.07,-0.01,0.0
106.99367700,106993677,1,1.42,-0.29,203.86,0.137228861451149,-0.7156462669372559,0.042658209800720215,0.03166649490594864,0.0,0.0,0.2029237449169159,0.18,-0.07,-0.01,0.0
107.09366700,107093667,1,1.43,-0.29,203.84,0.1394403725862503,-0.7215493321418762,0.043532006442546844,0.03376665711402893,0.0,0.0,0.20616942644119263,0.18,-0.07,-0.01,0.0
107.19368300,107193683,1,1.44,-0.3,203.83,0.14119665324687958,-0.7270140051841736,0.043938856571912766,0.029917852953076363,0.0,0.0,0.2089293897151947,0.18,-0.07,-0.01,0.0
107.29368500,107293685,1,1.45,-0.29,203.81,0.14181998372077942,-0.7333760857582092,0.04395010694861412,0.019828571006655693,0.0,0.0,0.21087177097797394,0.18,-0.07,-0.01,0.0
107.39368600,107393686,1,1.46,-0.29,203.79,0.1429934948682785,-0.7394512295722961,0.043813906610012054,0.03296968713402748,0.0,0.0,0.21499477326869965,0.18,-0.07,-0.01,0.0
107.49370300,107493703,1,1.47,-0.3,203.78,0.14432431757450104,-0.745123565196991,0.04441559314727783,0.04946208745241165,0.0,0.0,0.21948499977588654,0.18,-0.07,-0.01,0.0
107.59368300,107593683,1,1.48,-0.3,203.75,0.145557701587677,-0.7505818605422974,0.04464295133948326,0.046486057341098785,0.0,0.0,0.2236946076154709,0.18,-0.07,-0.01,0.0
107.69370600,107693706,1,1.49,-0.3,203.73000000000002,0.14768807590007782,-0.755041778087616,0.044316548854112625,0.03261635825037956,0.0,0.0,0.22646376490592957,0.18,-0.07,-0.01,0.0
107.79374000,107793740,1,1.49,-0.3,203.71,0.1486654430627823,-0.761159360408783,0.0451272688806057,0.014804057776927948,0.0,0.0,0.22811228036880493,0.18,-0.07,-0.01,0.0
107.89374900,107893749,1,1.5,-0.3,203.69,0.14838628470897675,-0.7657090425491333,0.045467399060726166,0.002664542756974697,0.0,0.0,0.2287723869085312,0.18,-0.07,-0.01,0.0
107.99374200,107993742,1,1.5,-0.3,203.67000000000002,0.1391611248254776,-0.7075857520103455,0.04547148197889328,0.03274601325392723,0.0,0.0,0.23365472257137299,0.18,-0.07,-0.01,0.0
108.09371800,108093718,1,1.5,-0.3,203.66,0.12737035751342773,-0.6360083818435669,0.045854050666093826,0.12332472205162048,0.0,0.0,0.246666818857193,0.18,-0.07,-0.01,0.0
108.19372900,108193729,1,1.5,-0.29,203.63,0.1198306679725647,-0.5922719240188599,0.04702311009168625,0.1338963508605957,0.0,0.0,0.2559231221675873,0.18,-0.07,-0.01,0.0
108.29369700,108293697,1,1.5,-0.29,203.59,0.1162896454334259,-0.5649508237838745,0.04801727086305618,0.05538976192474365,0.0,0.0,0.2595577538013458,0.19,-0.07,-0.01,0.0
108.39371600,108393716,1,1.51,-0.29,203.59,0.11530997604131699,-0.5528656244277954,0.04685970023274422,0.014216174371540546,0.0,0.0,0.2621246576309204,0.19,-0.07,-0.01,0.0
108.49366700,108493667,1,1.51,-0.29,203.57,0.11551862210035324,-0.5500131249427795,0.047895483672618866,0.022825798019766808,0.0,0.0,0.26610028743743896,0.19,-0.07,-0.01,0.0
108.59368600,108593686,1,1.51,-0.29,203.55,0.1146048754453659,-0.5499356985092163,0.04744447395205498,0.03294823318719864,0.0,0.0,0.26980867981910706,0.19,-0.07,-0.01,0.0
108.69367900,108693679,1,1.5,-0.29,203.56,0.11602369695901871,-0.5546792149543762,0.04784010350704193,0.0390496663749218,0.0,0.0,0.2741588056087494,0.19,-0.07,-0.01,0.0
108.79369200,108793692,1,1.49,-0.29,203.56,0.11743208020925522,-0.560429573059082,0.048133473843336105,0.031240707263350487,0.0,0.0,0.276752769947052,0.19,-0.07,-0.01,0.0
108.89369300,108893693,1,1.47,-0.28,203.54,0.11755719780921936,-0.5636433959007263,0.04742209613323212,0.0029805812519043684,0.0,0.0,0.27724218368530273,0.19,-0.07,-0.01,0.0
108.99366100,108993661,1,1.45,-0.28,203.56,0.11879020929336548,-0.5671154260635376,0.04788096621632576,-7.597861986141652e-05,0.0,0.0,0.27831441164016724,0.19,-0.07,-0.01,0.0
109.09365100,109093651,1,1.41,-0.27,203.55,0.11774526536464691,-0.5664152503013611,0.04808301851153374,0.027002831920981407,0.0,0.0,0.28198879957199097,0.2,-0.08,-0.01,0.0
109.19367300,109193673,1,1.37,-0.26,203.53,0.11623585969209671,-0.5620056390762329,0.04835193231701851,0.038471199572086334,0.0,0.0,0.2851675748825073,0.2,-0.08,-0.01,0.0
109.29371800,109293718,1,1.31,-0.25,203.54,0.11446423828601837,-0.554644763469696,0.04796512424945831,0.03278089314699173,0.0,0.0,0.28826361894607544,0.2,-0.08,-0.01,0.0
109.39373500,109393735,1,1.25,-0.24,203.53,0.10962856560945511,-0.5397613644599915,0.047070033848285675,0.01602177880704403,0.0,0.0,0.28934475779533386,0.2,-0.08,-0.01,0.0
109.49372300,109493723,1,1.17,-0.22,203.51,0.1057940199971199,-0.5223581790924072,0.04650407284498215,0.0035675365943461657,0.0,0.0,0.2904188930988312,0.21,-0.08,-0.01,0.0
109.59371000,109593710,1,1.09,-0.2,203.52,0.10168411582708359,-0.49910441040992737,0.045617878437042236,0.009372351691126823,0.0,0.0,0.2917780876159668,0.21,-0.08,-0.01,0.0
109.69369700,109693697,1,1.0,-0.18,203.51,0.09461105614900589,-0.47123798727989197,0.04521409422159195,0.02224688231945038,0.0,0.0,0.2944991886615753,0.22,-0.08,-0.01,0.0
109.79370900,109793709,1,0.91,-0.17,203.51,0.0898514837026596,-0.4403518736362457,0.044627197086811066,0.030400346964597702,0.0,0.0,0.2971526086330414,0.22,-0.08,-0.01,0.0
109.89370100,109893701,1,0.8200000000000001,-0.15,203.52,0.08198241144418716,-0.40514442324638367,0.043904513120651245,0.008091459982097149,0.0,0.0,0.29726046323776245,0.22,-0.08,-0.01,0.0
109.99371100,109993711,1,0.73,-0.13,203.51,0.07382635027170181,-0.3682628273963928,0.042735062539577484,-0.022109176963567734,0.0,0.0,0.2954104542732239,0.23,-0.08,-0.01,0.0
110.09365900,110093659,1,0.64,-0.11,203.51,0.0668363869190216,-0.32988911867141724,0.04192143678665161,-0.023288380354642868,0.0,0.0,0.29437121748924255,0.23,-0.08,-0.01,0.0
110.19368100,110193681,1,0.5700000000000001,-0.09,203.53,0.05854932963848114,-0.2921399772167206,0.04145175218582153,-0.01438544224947691,0.0,0.0,0.29336869716644287,0.23,-0.08,-0.01,0.0
110.29369000,110293690,1,0.49,-0.07,203.52,0.05109388753771782,-0.2543613314628601,0.04082758352160454,-0.015986435115337372,0.0,0.0,0.2920026183128357,0.23,-0.08,-0.01,0.0
110.39367800,110393678,1,0.43,-0.06,203.52,0.045004189014434814,-0.21832026541233063,0.04093167185783386,-0.0026274819392710924,0.0,0.0,0.2922923266887665,0.24,-0.09,-0.01,0.0
110.49368300,110493683,1,0.36,-0.04,203.53,0.03804165869951248,-0.18273979425430298,0.04055751487612724,0.010992992669343948,0.0,0.0,0.29309988021850586,0.24,-0.09,-0.01,0.0
110.59365600,110593656,1,0.31,-0.02,203.52,0.03211953863501549,-0.1498902142047882,0.039929505437612534,0.023165395483374596,0.0,0.0,0.29541701078414917,0.24,-0.09,-0.01,0.0
110.69366500,110693665,1,0.26,-0.01,203.52,0.02595415525138378,-0.11862504482269287,0.040321335196495056,0.040377624332904816,0.0,0.0,0.2988860607147217,0.24,-0.09,-0.01,0.0
110.79368500,110793685,1,0.22,0.0,203.54,0.019727172330021858,-0.08953993767499924,0.040556877851486206,0.05334022641181946,0.0,0.0,0.3036818206310272,0.24,-0.09,-0.01,0.0
110.89371800,110893718,1,0.18,0.01,203.53,0.015220352448523045,-0.0630459189414978,0.04052000492811203,0.032655902206897736,0.0,0.0,0.30542802810668945,0.24,-0.09,-0.01,0.0
110.99373000,110993730,1,0.15,0.01,203.53,0.010712570510804653,-0.03862913325428963,0.040254391729831696,-0.0037795742973685265,0.0,0.0,0.30521610379219055,0.24,-0.09,-0.01,0.0
111.09372900,111093729,1,0.13,0.02,203.54,0.00714758550748229,-0.017528312280774117,0.039805471897125244,-0.004392408300191164,0.0,0.0,0.3059334456920624,0.24,-0.09,-0.01,0.0
111.19372200,111193722,1,0.11,0.02,203.54,0.004047537222504616,0.0015564400237053633,0.039050597697496414,-0.010406386107206345,0.0,0.0,0.3049485385417938,0.25,-0.09,-0.01,0.0
111.29370900,111293709,1,0.09,0.03,203.55,0.00029305918724276125,0.01882803998887539,0.03849707171320915,-0.010516898706555367,0.0,0.0,0.30495524406433105,0.25,-0.09,-0.01,0.0
111.39377800,111393778,1,0.07,0.03,203.56,-0.0021857053507119417,0.03245905414223671,0.037199966609478,-0.02149978280067444,0.0,0.0,0.30237671732902527,0.25,-0.09,-0.01,0.0
111.49370900,111493709,1,0.06,0.03,203.56,-0.004886992741376162,0.044931959360837936,0.03543965518474579,-0.04433206841349602,0.0,0.0,0.2988433241844177,0.25,-0.09,-0.01,0.0
111.59366000,111593660,1,0.05,0.03,203.58,-0.006991864647716284,0.05607694014906883,0.03337923064827919,-0.04989603906869888,0.0,0.0,0.2945692241191864,0.25,-0.09,-0.01,0.0
111.69366200,111693662,1,0.05,0.04,203.59,-0.00966012291610241,0.0647943839430809,0.0323234386742115,-0.04990394786000252,0.0,0.0,0.2904718816280365,0.25,-0.09,-0.01,0.0
111.79368000,111793680,1,0.04,0.04,203.59,-0.0116720050573349,0.07317034155130386,0.03119942732155323,-0.039673879742622375,0.0,0.0,0.28700387477874756,0.25,-0.09,-0.01,0.0
111.89367900,111893679,1,0.04,0.04,203.6,-0.013044512830674648,0.07958023995161057,0.030919324606657028,-0.011955847032368183,0.0,0.0,0.2864420413970947,0.25,-0.09,-0.01,0.0
111.99368100,111993681,1,0.04,0.04,203.61,-0.014121915213763714,0.08565737307071686,0.029500816017389297,-0.0033918533008545637,0.0,0.0,0.28495773673057556,0.25,-0.09,-0.01,0.0
112.09367800,112093678,1,0.04,0.04,203.61,-0.015458757057785988,0.09023510664701462,0.02818293124437332,-0.02014215476810932,0.0,0.0,0.2825957238674164,0.25,-0.09,-0.01,0.0
112.19365300,112193653,1,0.04,0.04,203.61,-0.015602192841470242,0.09371884912252426,0.02803826704621315,-0.015486890450119972,0.0,0.0,0.2813558578491211,0.25,-0.09,-0.02,0.0
112.29371500,112293715,1,0.04,0.03,203.62,-0.01640377752482891,0.09660813957452774,0.02748464047908783,-0.018637577071785927,0.0,0.0,0.27907630801200867,0.25,-0.09,-0.02,0.0
112.39370700,112393707,1,0.05,0.04,203.62,-0.017034385353326797,0.09890677034854889,0.02654324658215046,-0.020940251648426056,0.0,0.0,0.2773953378200531,0.25,-0.09,-0.02,0.0
112.49373200,112493732,1,0.05,0.04,203.63,-0.01747625693678856,0.1004418209195137,0.025744963437318802,-0.020346559584140778,0.0,0.0,0.2751941680908203,0.25,-0.09,-0.02,0.0
112.59373100,112593731,1,0.06,0.04,203.63,-0.01850699447095394,0.10089091211557388,0.024447044357657433,-0.018697427585721016,0.0,0.0,0.273756742477417,0.25,-0.09,-0.02,0.0
112.69371800,112693718,1,0.06,0.04,203.64000000000001,-0.018365105614066124,0.1013273298740387,0.023346751928329468,-0.008322510868310928,0.0,0.0,0.27289319038391113,0.25,-0.09,-0.02,0.0
112.79371100,112793711,1,0.07,0.04,203.65,-0.01825186423957348,0.10043376684188843,0.02368549443781376,0.013348564505577087,0.0,0.0,0.27449727058410645,0.25,-0.09,-0.02,0.0
112.89372700,112893727,1,0.07,0.03,203.66,-0.01774775981903076,0.09980423748493195,0.023419957607984543,0.011939508840441704,0.0,0.0,0.2742603123188019,0.25,-0.09,-0.02,0.0
112.99369000,112993690,1,0.08,0.03,203.67000000000002,-0.017458029091358185,0.09872669726610184,0.022516189143061638,-0.02213035523891449,0.0,0.0,0.27168354392051697,0.25,-0.09,-0.02,0.0
113.09370600,113093706,1,0.08,0.03,203.68,-0.017911240458488464,0.0980270653963089,0.020755911245942116,-0.045246709138154984,0.0,0.0,0.26772281527519226,0.25,-0.09,-0.02,0.0
113.19367600,113193676,1,0.09,0.03,203.68,-0.01825331337749958,0.09685204923152924,0.020002204924821854,-0.044351980090141296,0.0,0.0,0.2644833028316498,0.25,-0.09,-0.02,0.0
113.29367100,113293671,1,0.1,0.02,203.69,-0.017859356477856636,0.09521181136369705,0.018309641629457474,-0.038854509592056274,0.0,0.0,0.2609715163707733,0.25,-0.09,-0.02,0.0
113.39367600,113393676,1,0.1,0.02,203.69,-0.018273400142788887,0.09374764561653137,0.017027191817760468,-0.04379313066601753,0.0,0.0,0.2568565011024475,0.25,-0.09,-0.02,0.0
113.49367700,113493677,1,0.11,0.02,203.68,-0.018277915194630623,0.0913766548037529,0.017022015526890755,-0.019458750262856483,0.0,0.0,0.25587061047554016,0.25,-0.09,-0.02,0.0
113.59367900,113593679,1,0.11,0.02,203.68,-0.016380401328206062,0.08854810148477554,0.017764471471309662,0.019506122916936874,0.0,0.0,0.257453978061676,0.25,-0.09,-0.02,0.0
113.69365000,113693650,1,0.12,0.02,203.68,-0.01627316325902939,0.0854477733373642,0.017984848469495773,0.050169687718153,0.0,0.0,0.2617298662662506,0.25,-0.09,-0.02,0.0
113.79365100,113793651,1,0.13,0.02,203.68,-0.01545597892254591,0.08229447901248932,0.01883121393620968,0.06691978126764297,0.0,0.0,0.26677826046943665,0.25,-0.09,-0.02,0.0
113.89367600,113893676,1,0.13,0.02,203.68,-0.015071064233779907,0.0796879231929779,0.020255476236343384,0.06164262443780899,0.0,0.0,0.27156880497932434,0.25,-0.09,-0.02,0.0
113.99371700,113993717,1,0.14,0.02,203.69,-0.014483868144452572,0.07666966319084167,0.020892629399895668,0.05609038472175598,0.0,0.0,0.2765502631664276,0.25,-0.09,-0.02,0.0
114.09374500,114093745,1,0.15,0.02,203.69,-0.013574943877756596,0.07307931780815125,0.020948514342308044,0.030138330534100533,0.0,0.0,0.2786391079425812,0.25,-0.09,-0.02,0.0
114.19373600,114193736,1,0.16,0.01,203.69,-0.013508985750377178,0.0698929876089096,0.020566901192069054,0.005196047015488148,0.0,0.0,0.2798350155353546,0.25,-0.09,-0.02,0.0
114.29371500,114293715,1,0.16,0.02,203.69,-0.012324228882789612,0.06665125489234924,0.02077474631369114,0.012343375012278557,0.0,0.0,0.2819928228855133,0.25,-0.09,-0.02,0.0
114.39371200,114393712,1,0.17,0.01,203.69,-0.011719539761543274,0.0625993013381958,0.02098710462450981,0.030464502051472664,0.0,0.0,0.28552937507629395,0.25,-0.09,-0.02,0.0
114.49371200,114493712,1,0.18,0.01,203.69,-0.01184865366667509,0.059187039732933044,0.022109661251306534,0.04419604688882828,0.0,0.0,0.28962814807891846,0.25,-0.09,-0.02,0.0
114.59371900,114593719,1,0.19,0.01,203.70000000000002,-0.011093977838754654,0.055946819484233856,0.022678028792142868,0.04769023507833481,0.0,0.0,0.2939765751361847,0.25,-0.09,-0.02,0.0
114.69371000,114693710,1,0.19,0.01,203.69,-0.009854151867330074,0.05160051956772804,0.02275281772017479,0.039243973791599274,0.0,0.0,0.2973179221153259,0.25,-0.09,-0.02,0.0
114.79368500,114793685,1,0.2,0.0,203.70000000000002,-0.009646570309996605,0.04791784659028053,0.023340361192822456,0.020451627671718597,0.0,0.0,0.29917600750923157,0.25,-0.09,-0.02,0.0
114.89368100,114893681,1,0.21,0.0,203.70000000000002,-0.009383214637637138,0.04394123703241348,0.022863276302814484,0.0010094245662912726,0.0,0.0,0.2995835840702057,0.25,-0.09,-0.02,0.0
114.99368500,114993685,1,0.22,0.0,203.70000000000002,-0.008971434086561203,0.03989864140748978,0.021716661751270294,-0.010208414867520332,0.0,0.0,0.2994016706943512,0.25,-0.09,-0.02,0.0
115.09368100,115093681,1,0.23,0.0,203.71,-0.00825430452823639,0.036574020981788635,0.020894259214401245,-0.0076299444772303104,0.0,0.0,0.2994404137134552,0.25,-0.09,-0.02,0.0
115.19368600,115193686,1,0.24,0.0,203.71,-0.008435170166194439,0.03296652436256409,0.020028989762067795,-0.020897047594189644,0.0,0.0,0.297244131565094,0.25,-0.09,-0.02,0.0
115.29365200,115293652,1,0.25,0.0,203.70000000000002,-0.007346889935433865,0.029605098068714142,0.019138792529702187,-0.03871890529990196,0.0,0.0,0.2941764295101166,0.25,-0.09,-0.02,0.0
115.39365400,115393654,1,0.25,0.0,203.71,-0.006653946824371815,0.025630660355091095,0.018078027293086052,-0.02702677622437477,0.0,0.0,0.29260534048080444,0.25,-0.09,-0.02,0.0
115.49369400,115493694,1,0.26,0.0,203.71,-0.006140634883195162,0.022103043273091316,0.016856668516993523,-0.03078269772231579,0.0,0.0,0.28921809792518616,0.25,-0.09,-0.02,0.0
115.59372400,115593724,1,0.27,0.0,203.71,-0.005379536189138889,0.01813616044819355,0.016369923949241638,-0.03294000029563904,0.0,0.0,0.2867268919944763,0.25,-0.09,-0.02,0.0
115.69374500,115693745,1,0.27,0.0,203.72,-0.004837296437472105,0.014396966435015202,0.01571878418326378,0.0007258391124196351,0.0,0.0,0.287416934967041,0.25,-0.09,-0.02,0.0
115.79371500,115793715,1,0.28,0.0,203.72,-0.004008905962109566,0.010694283992052078,0.014594442211091518,0.0076797232031822205,0.0,0.0,0.2869953513145447,0.24,-0.09,-0.02,0.0
115.89372300,115893723,1,0.29,0.0,203.72,-0.0033528071362525225,0.00684920372441411,0.014537069946527481,0.0003484449989628047,0.0,0.0,0.28682902455329895,0.24,-0.09,-0.02,0.0
115.99373500,115993735,1,0.3,0.0,203.72,-0.003066388424485922,0.002483485732227564,0.01450931653380394,0.00755676906555891,0.0,0.0,0.2873896062374115,0.24,-0.09,-0.02,0.0
116.09370300,116093703,1,0.31,0.0,203.72,-0.002282849745824933,-0.001616275287233293,0.015073846094310284,0.02238166518509388,0.0,0.0,0.28966158628463745,0.24,-0.09,-0.03,0.0
116.19370700,116193707,1,0.31,0.0,203.72,-0.0012669708812609315,-0.0050426931120455265,0.01482168398797512,0.0340237021446228,0.0,0.0,0.29240769147872925,0.24,-0.09,-0.03,0.0
116.29367900,116293679,1,0.32,0.0,203.72,-6.232567102415487e-05,-0.009144570678472519,0.01514076441526413,0.024839911609888077,0.0,0.0,0.2940555810928345,0.24,-0.09,-0.03,0.0
116.39366300,116393663,1,0.32,0.0,203.72,0.001016547903418541,-0.013249697163701057,0.014490822330117226,0.007257397286593914,0.0,0.0,0.2945631742477417,0.24,-0.09,-0.03,0.0
116.49366800,116493668,1,0.33,0.0,203.71,0.0020037582144141197,-0.0169259924441576,0.01444961130619049,0.003277368610724807,0.0,0.0,0.2953765392303467,0.24,-0.09,-0.03,0.0
116.59368900,116593689,1,0.34,0.0,203.72,0.002829347038641572,-0.019638514146208763,0.01500085461884737,0.020968735218048096,0.0,0.0,0.2979837656021118,0.24,-0.09,-0.03,0.0
116.69367800,116693678,1,0.34,0.0,203.72,0.0037912195548415184,-0.0235245693475008,0.015197080560028553,0.03863918408751488,0.0,0.0,0.30157455801963806,0.24,-0.09,-0.03,0.0
116.79368100,116793681,1,0.35000000000000003,0.0,203.72,0.004948481451719999,-0.02651407942175865,0.015300755389034748,0.042700596153736115,0.0,0.0,0.30525147914886475,0.24,-0.09,-0.03,0.0
116.89365500,116893655,1,0.36,0.0,203.73000000000002,0.004973387811332941,-0.029247716069221497,0.015554800629615784,0.043886590749025345,0.0,0.0,0.3092558979988098,0.24,-0.09,-0.03,0.0
116.99372100,116993721,1,0.37,0.0,203.73000000000002,0.006349173374474049,-0.032274357974529266,0.01554671861231327,0.027716847136616707,0.0,0.0,0.3112795352935791,0.24,-0.09,-0.03,0.0
117.09370000,117093700,1,0.37,0.0,203.72,0.007443723268806934,-0.035489488393068314,0.014521317556500435,-0.012138193473219872,0.0,0.0,0.30992981791496277,0.24,-0.09,-0.03,0.0
117.19374900,117193749,1,0.38,0.0,203.72,0.008379695005714893,-0.039278581738471985,0.013482654467225075,-0.025645559653639793,0.0,0.0,0.3088908791542053,0.24,-0.09,-0.03,0.0
117.29368700,117293687,1,0.38,0.0,203.72,0.009208401665091515,-0.04254307597875595,0.012138009071350098,-0.00629648519679904,0.0,0.0,0.3093675374984741,0.24,-0.09,-0.03,0.0
117.39370700,117393707,1,0.39,0.0,203.72,0.009139865636825562,-0.04559361934661865,0.010922233574092388,-0.00018126623763237149,0.0,0.0,0.30921950936317444,0.24,-0.09,-0.03,0.0
117.49369900,117493699,1,0.39,0.0,203.72,0.009701075963675976,-0.04855243116617203,0.010390045121312141,-0.006059309002012014,0.0,0.0,0.3086167871952057,0.24,-0.09,-0.03,0.0
117.59371400,117593714,1,0.4,0.0,203.71,0.011113756336271763,-0.05208081007003784,0.010191677138209343,-0.0013577946228906512,0.0,0.0,0.3087526261806488,0.25,-0.09,-0.03,0.0
117.69371000,117693710,1,0.4,-0.01,203.71,0.011673664674162865,-0.053894124925136566,0.010338297113776207,0.0022676275111734867,0.0,0.0,0.3087747395038605,0.25,-0.09,-0.03,0.0
117.79370800,117793708,1,0.41000000000000003,-0.01,203.72,0.01303122378885746,-0.05722556635737419,0.01038802694529295,-0.0026461631059646606,0.0,0.0,0.308357298374176,0.25,-0.09,-0.03,0.0
117.89368300,117893683,1,0.41000000000000003,-0.01,203.72,0.013463460840284824,-0.059826746582984924,0.009603510610759258,-0.006215820554643869,0.0,0.0,0.3078516721725464,0.25,-0.09,-0.03,0.0
117.99368000,117993680,1,0.41000000000000003,0.0,203.72,0.014325883239507675,-0.062292106449604034,0.008811172097921371,-0.00532709201797843,0.0,0.0,0.3075142204761505,0.25,-0.09,-0.03,0.0
118.09367800,118093678,1,0.42,0.0,203.73000000000002,0.01536245085299015,-0.06467048823833466,0.0079179173335433,-0.00449685612693429,0.0,0.0,0.30710679292678833,0.25,-0.09,-0.03,0.0
118.19369100,118193691,1,0.42,0.0,203.74,0.0157035980373621,-0.0663389042019844,0.007790645118802786,0.004517320543527603,0.0,0.0,0.3078075051307678,0.25,-0.09,-0.03,0.0
118.29368000,118293680,1,0.43,0.0,203.74,0.016566244885325432,-0.06804505735635757,0.007845107465982437,0.012280619703233242,0.0,0.0,0.3086733818054199,0.25,-0.09,-0.03,0.0
118.39365100,118393651,1,0.43,0.0,203.75,0.018141165375709534,-0.06908590346574783,0.00862023513764143,0.023743702098727226,0.0,0.0,0.31107833981513977,0.25,-0.09,-0.03,0.0
118.49370100,118493701,1,0.43,0.0,203.75,0.019282016903162003,-0.07111722230911255,0.009006623178720474,0.02308344654738903,0.0,0.0,0.3124346435070038,0.25,-0.09,-0.03,0.0
118.59369100,118593691,1,0.44,0.0,203.75,0.020817989483475685,-0.07383765280246735,0.009093224070966244,0.0056801908649504185,0.0,0.0,0.3128214180469513,0.25,-0.09,-0.03,0.0
118.69371600,118693716,1,0.44,0.0,203.76,0.022603651508688927,-0.07566127926111221,0.00872017815709114,-0.010985484346747398,0.0,0.0,0.31169986724853516,0.25,-0.09,-0.03,0.0
118.79372500,118793725,1,0.44,0.0,203.76,0.02403399534523487,-0.0777306854724884,0.007980916649103165,-0.017073404043912888,0.0,0.0,0.31086474657058716,0.25,-0.09,-0.03,0.0
118.89374100,118893741,1,0.45,0.0,203.76,0.024818990379571915,-0.07920325547456741,0.007626145612448454,-0.010887833312153816,0.0,0.0,0.310140997171402,0.25,-0.09,-0.03,0.0
118.99371400,118993714,1,0.45,0.0,203.76,0.026020517572760582,-0.08104844391345978,0.007542322855442762,-0.006374691613018513,0.0,0.0,0.30977094173431396,0.25,-0.09,-0.03,0.0
119.09371800,119093718,1,0.45,0.0,203.77,0.027142632752656937,-0.08266237378120422,0.00705731613561511,-0.015902088955044746,0.0,0.0,0.3077738285064697,0.25,-0.09,-0.03,0.0
119.19368500,119193685,1,0.46,0.0,203.77,0.027765797451138496,-0.08378363400697708,0.006122812628746033,-0.024322347715497017,0.0,0.0,0.3059456944465637,0.25,-0.09,-0.03,0.0
119.29372300,119293723,1,0.46,0.0,203.77,0.028923742473125458,-0.085812509059906,0.005582999903708696,-0.06663411110639572,0.0,0.0,0.28946375846862793,0.25,-0.09,-0.03,0.0
119.39365900,119393659,1,0.46,0.0,203.77,0.03011295013129711,-0.08759449422359467,0.005569906439632177,-0.9412201642990112,0.0,0.0,0.19067731499671936,0.25,-0.09,-0.03,0.0
119.49366200,119493662,1,0.46,0.0,203.77,0.030750451609492302,-0.09019216895103455,0.005386766511946917,-0.9503601789474487,0.0,0.0,0.12283098697662354,0.25,-0.09,-0.03,0.0
119.59366600,119593666,1,0.47000000000000003,0.0,203.76,0.031092917546629906,-0.09333207458257675,0.0048398603685200214,-0.6155449748039246,0.0,0.0,0.07635737955570221,0.25,-0.09,-0.03,0.0
119.69369200,119693692,1,0.47000000000000003,0.0,203.76,0.03275229409337044,-0.09699984639883041,0.004239503759890795,-0.3303780257701874,0.0,0.0,0.04471297189593315,0.25,-0.09,-0.03,0.0
119.79367500,119793675,1,0.48,0.0,203.76,0.0335845872759819,-0.10079731792211533,0.0034099400509148836,-0.15959110856056213,0.0,0.0,0.023764202371239662,0.25,-0.09,-0.03,0.0
119.89368200,119893682,1,0.48,0.0,203.76,0.03551775962114334,-0.10502270609140396,0.0031927828676998615,-0.0750407949090004,0.0,0.0,0.00930359959602356,0.25,-0.09,-0.03,0.0
119.99365600,119993656,1,0.49,0.0,203.76,0.037384673953056335,-0.10975661128759384,0.0026532048359513283,-0.039968330413103104,0.0,0.0,-0.0007381156901828945,0.25,-0.09,-0.03,0.0
120.09367900,120093679,1,0.5,0.0,203.76,0.039070311933755875,-0.11407176405191422,0.0023679842706769705,-0.021012596786022186,0.0,0.0,-0.0074539813213050365,0.25,-0.09,-0.03,0.0
120.19370400,120193704,1,0.5,0.0,203.76,0.04059183970093727,-0.11967762559652328,0.00163993239402771,-0.012639560736715794,0.0,0.0,-0.01215052604675293,0.25,-0.09,-0.03,0.0
120.29372800,120293728,1,0.51,0.0,203.76,0.04230288788676262,-0.12436239421367645,0.0014560912968590856,-0.004043580964207649,0.0,0.0,-0.014821326360106468,0.25,-0.09,-0.03,0.0
120.39372800,120393728,1,0.52,0.0,203.77,0.04446997120976448,-0.1299743950366974,0.0012107447255402803,0.010132822208106518,0.0,0.0,-0.015447908081114292,0.25,-0.09,-0.03,0.0
120.49372500,120493725,1,0.53,0.0,203.77,0.046246398240327835,-0.13589589297771454,0.0016407165676355362,0.021296977996826172,0.0,0.0,-0.014839381910860538,0.25,-0.09,-0.03,0.0
120.59373500,120593735,1,0.53,0.0,203.78,0.04852711036801338,-0.1413893848657608,0.0018614804139360785,0.019041145220398903,0.0,0.0,-0.014334629289805889,0.25,-0.09,-0.03,0.0
120.69372400,120693724,1,0.54,0.0,203.78,0.05025811865925789,-0.1466834992170334,0.0016258519608527422,0.01139400526881218,0.0,0.0,-0.013886841014027596,0.25,-0.09,-0.03,0.0
120.79369400,120793694,1,0.55,0.0,203.79,0.05248086526989937,-0.15289489924907684,0.0012527450453490019,0.008382704108953476,0.0,0.0,-0.013339661993086338,0.25,-0.09,-0.04,0.0
120.89371700,120893717,1,0.56,0.0,203.79,0.0544419065117836,-0.15873171389102936,0.0013476986205205321,0.0053714304231107235,0.0,0.0,-0.01302303560078144,0.25,-0.09,-0.04,0.0
120.99366400,120993664,1,0.5700000000000001,0.0,203.79,0.0568455271422863,-0.16450665891170502,0.0009423922747373581,-0.0010098502971231937,0.0,0.0,-0.013201785273849964,0.25,-0.09,-0.04,0.0
121.09369100,121093691,1,0.58,0.0,203.79,0.05874714255332947,-0.17049060761928558,0.0009110980900004506,-0.00813159067183733,0.0,0.0,-0.01395608764141798,0.25,-0.09,-0.04,0.0
121.19368200,121193682,1,0.59,0.0,203.78,0.060928553342819214,-0.1769096851348877,-2.4654384105815552e-05,-0.009180564433336258,0.0,0.0,-0.014453993178904057,0.25,-0.09,-0.04,0.0
121.29368200,121293682,1,0.59,0.0,203.78,0.06262668967247009,-0.18331803381443024,-0.000675041344948113,-0.008602133020758629,0.0,0.0,-0.015226269140839577,0.25,-0.09,-0.04,0.0
121.39368400,121393684,1,0.6,-0.01,203.77,0.06411901116371155,-0.18920058012008667,-0.001530681038275361,-0.011101188138127327,0.0,0.0,-0.01619323156774044,0.25,-0.09,-0.04,0.0
121.49374200,121493742,1,0.6,-0.01,203.77,0.06618362665176392,-0.19627194106578827,-0.0020604985766112804,-0.008396628312766552,0.0,0.0,-0.016829071566462517,0.25,-0.09,-0.04,0.0
121.59366300,121593663,1,0.61,-0.01,203.77,0.06709174066781998,-0.20236366987228394,-0.0024637554306536913,-0.002070637885481119,0.0,0.0,-0.016958560794591904,0.25,-0.09,-0.04,0.0
121.69367900,121693679,1,0.63,-0.01,203.77,0.06911293417215347,-0.20883135497570038,-0.0030993930995464325,0.0038913239259272814,0.0,0.0,-0.016658473759889603,0.25,-0.09,-0.04,0.0
121.79372400,121793724,1,0.63,-0.01,203.77,0.0704943984746933,-0.21535713970661163,-0.0032523320987820625,0.004334305413067341,0.0,0.0,-0.01655111461877823,0.25,-0.09,-0.04,0.0
121.89373200,121893732,1,0.64,-0.01,203.76,0.07270777970552444,-0.2215149700641632,-0.004717902280390263,-0.005517340265214443,0.0,0.0,-0.017277592793107033,0.25,-0.09,-0.04,0.0
121.99374400,121993744,1,0.64,-0.01,203.77,0.07395796477794647,-0.2271135449409485,-0.004065240733325481,-0.016863837838172913,0.0,0.0,-0.018968136981129646,0.25,-0.09,-0.04,0.0
122.09371100,122093711,1,0.65,-0.01,203.75,0.07491602748632431,-0.23298564553260803,-0.004387719556689262,-0.017601683735847473,0.0,0.0,-0.020179394632577896,0.25,-0.09,-0.04,0.0
122.19373400,122193734,1,0.66,-0.01,203.76,0.07563649863004684,-0.23999346792697906,-0.004093545489013195,-0.006626122165471315,0.0,0.0,-0.020572884008288383,0.25,-0.09,-0.04,0.0
122.29372200,122293722,1,0.66,-0.01,203.76,0.0780886858701706,-0.24504496157169342,-0.004324860405176878,0.005306603852659464,0.0,0.0,-0.01999763958156109,0.25,-0.09,-0.04,0.0
122.39371600,122393716,1,0.67,-0.01,203.72,0.07986661046743393,-0.24964627623558044,-0.004735869821161032,0.02085874043405056,0.0,0.0,-0.01806822419166565,0.25,-0.09,-0.04,0.0
122.49372600,122493726,1,0.68,-0.01,203.73000000000002,0.08129353821277618,-0.25515130162239075,-0.004163575824350119,0.028959710150957108,0.0,0.0,-0.015890097245573997,0.25,-0.09,-0.04,0.0
122.59368500,122593685,1,0.67,-0.01,203.72,0.0832597091794014,-0.25896215438842773,-0.003916501067578793,0.030630717054009438,0.0,0.0,-0.013268758542835712,0.25,-0.09,-0.04,0.0
122.69366400,122693664,1,0.6900000000000001,-0.01,203.69,0.0859455019235611,-0.2627013325691223,-0.0031459734309464693,0.025835493579506874,0.0,0.0,-0.011343266814947128,0.25,-0.09,-0.04,0.0
122.79368500,122793685,1,0.7000000000000001,-0.01,203.69,0.08696538209915161,-0.2672797739505768,-0.0030879054684191942,0.014888937585055828,0.0,0.0,-0.009977803565561771,0.25,-0.09,-0.04,0.0
122.89369300,122893693,1,0.7000000000000001,-0.01,203.68,0.08816146105527878,-0.2708134353160858,-0.0029561768751591444,0.008139931596815586,0.0,0.0,-0.009084369987249374,0.25,-0.09,-0.04,0.0
122.99369700,122993697,1,0.71,-0.01,203.66,0.09015151858329773,-0.2735784947872162,-0.0029533696360886097,0.011625095270574093,0.0,0.0,-0.007455633021891117,0.25,-0.09,-0.04,0.0
123.09370300,123093703,1,0.71,0.0,203.66,0.0906568095088005,-0.2760108709335327,-0.0033655641600489616,0.010649066418409348,0.0,0.0,-0.006639258470386267,0.25,-0.09,-0.04,0.0
123.19366100,123193661,1,0.72,-0.01,203.65,0.09034155309200287,-0.27881714701652527,-0.003490092931315303,0.002875532954931259,0.0,0.0,-0.0061963992193341255,0.25,-0.09,-0.04,0.0
123.29373800,123293738,1,0.72,-0.01,203.62,0.09309305995702744,-0.2799544930458069,-0.004111187998205423,0.004672525450587273,0.0,0.0,-0.005438463296741247,0.25,-0.09,-0.04,0.0
123.39373200,123393732,1,0.73,-0.01,203.62,0.09282103925943375,-0.28166791796684265,-0.004403864499181509,0.00701322965323925,0.0,0.0,-0.004681383725255728,0.25,-0.09,-0.04,0.0
123.49373400,123493734,1,0.74,-0.01,203.6,0.0931340828537941,-0.2828119397163391,-0.004430656787008047,0.00844130665063858,0.0,0.0,-0.003821390913799405,0.25,-0.09,-0.04,0.0
123.59372300,123593723,1,0.75,0.0,203.58,0.09418491274118423,-0.28364241123199463,-0.004302854184061289,0.01334792748093605,0.0,0.0,-0.002451989334076643,0.25,-0.09,-0.04,0.0
123.69372700,123693727,1,0.75,0.0,203.58,0.09390099346637726,-0.2842649817466736,-0.004235794302076101,0.018062731251120567,0.0,0.0,-0.0008191836532205343,0.25,-0.09,-0.04,0.0
123.79370800,123793708,1,0.76,0.0,203.56,0.09256600588560104,-0.2845908999443054,-0.004687432665377855,0.005350167863070965,0.0,0.0,-0.0008236974244937301,0.25,-0.09,-0.04,0.0
123.89369200,123893692,1,0.76,0.0,203.53,0.09347383677959442,-0.28472521901130676,-0.004950168542563915,-0.0013485160889104009,0.0,0.0,-0.00044173310743644834,0.25,-0.09,-0.04,0.0
123.99369600,123993696,1,0.77,0.0,203.52,0.09369857609272003,-0.28353017568588257,-0.004881429951637983,0.007319773081690073,0.0,0.0,0.00046301927068270743,0.25,-0.09,-0.04,0.0
124.09370600,124093706,1,0.77,0.0,203.5,0.09285067021846771,-0.28323373198509216,-0.004286301322281361,0.009773078374564648,0.0,0.0,0.0013096440816298127,0.25,-0.09,-0.03,0.0
124.19368300,124193683,1,0.78,0.0,203.48000000000002,0.09216252714395523,-0.28120481967926025,-0.005186436697840691,0.0004375137505121529,0.0,0.0,0.0010959409410133958,0.25,-0.09,-0.03,0.0
124.29368600,124293686,1,0.79,0.0,203.47,0.09213018417358398,-0.28031399846076965,-0.00539708836004138,-0.01670612394809723,0.0,0.0,-0.0005269129760563374,0.25,-0.09,-0.03,0.0
124.39368600,124393686,1,0.79,0.0,203.44,0.09039401262998581,-0.27880215644836426,-0.005653842352330685,-0.019572215154767036,0.0,0.0,-0.0017261822940781713,0.25,-0.09,-0.03,0.0
124.49368200,124493682,1,0.8,0.0,203.43,0.0907810851931572,-0.27696555852890015,-0.006467466242611408,-0.014832963235676289,0.0,0.0,-0.002925701905041933,0.25,-0.09,-0.03,0.0
124.59369200,124593692,1,0.81,0.0,203.42000000000002,0.090887650847435,-0.2750328481197357,-0.006713912822306156,-0.004276089370250702,0.0,0.0,-0.002934249583631754,0.25,-0.09,-0.03,0.0
124.69366100,124693661,1,0.81,0.0,203.4,0.0894780158996582,-0.27290913462638855,-0.006348399445414543,0.010050290264189243,0.0,0.0,-0.0021615333389490843,0.25,-0.09,-0.03,0.0
124.79370800,124793708,1,0.8200000000000001,0.0,203.38,0.08849900960922241,-0.2716548442840576,-0.007478505373001099,0.011186293326318264,0.0,0.0,-0.0014470787718892097,0.25,-0.09,-0.03,0.0
124.89371300,124893713,1,0.8300000000000001,0.0,203.36,0.08713279664516449,-0.26939964294433594,-0.00783826969563961,0.019760921597480774,0.0,0.0,0.0005221904721111059,0.25,-0.09,-0.03,0.0
124.99374700,124993747,1,0.8300000000000001,-0.01,203.34,0.0860508382320404,-0.2669677138328552,-0.00910248700529337,0.01437919307500124,0.0,0.0,0.0011139818234369159,0.25,-0.09,-0.03,0.0
125.09369700,125093697,1,0.84,-0.01,203.32,0.08607344329357147,-0.26570701599121094,-0.009816196747124195,-0.00477113900706172,0.0,0.0,0.0005391128943301737,0.25,-0.09,-0.03,0.0
125.19374300,125193743,1,0.85,-0.01,203.31,0.08462261408567429,-0.2629871666431427,-0.010298138484358788,-0.013352536596357822,0.0,0.0,-0.0005012807087041438,0.25,-0.09,-0.03,0.0
125.29372700,125293727,1,0.85,-0.01,203.28,0.08388445526361465,-0.26195424795150757,-0.011769454926252365,-0.017455855384469032,0.0,0.0,-0.0017899110680446029,0.25,-0.09,-0.03,0.0
125.39373400,125393734,1,0.86,-0.01,203.27,0.08345308154821396,-0.2603966295719147,-0.012872005812823772,-0.01584700495004654,0.0,0.0,-0.0030273364391177893,0.25,-0.09,-0.03,0.0
125.49372700,125493727,1,0.86,0.0,203.25,0.08176296204328537,-0.25955939292907715,-0.014911619015038013,-0.02499021217226982,0.0,0.0,-0.005576624535024166,0.25,-0.09,-0.03,0.0
125.59368600,125593686,1,0.87,0.0,203.23000000000002,0.0809997022151947,-0.2585654556751251,-0.01664278656244278,-0.03334188461303711,0.0,0.0,-0.008399257436394691,0.25,-0.09,-0.03,0.0
125.69369200,125693692,1,0.88,-0.01,203.22,0.0801960825920105,-0.2578652501106262,-0.017706025391817093,-0.019792215898633003,0.0,0.0,-0.009755576029419899,0.25,-0.09,-0.03,0.0
125.79369800,125793698,1,0.88,-0.01,203.20000000000002,0.07943584769964218,-0.25761622190475464,-0.018831953406333923,0.004428256303071976,0.0,0.0,-0.009195736609399319,0.25,-0.09,-0.03,0.0
125.89368600,125893686,1,0.89,-0.01,203.18,0.07963203638792038,-0.2568833529949188,-0.01940227299928665,0.02433742769062519,0.0,0.0,-0.00737545033916831,0.25,-0.09,-0.03,0.0
125.99368800,125993688,1,0.89,-0.01,203.17000000000002,0.07886617630720139,-0.2568373382091522,-0.018927045166492462,0.021683238446712494,0.0,0.0,-0.006436875555664301,0.25,-0.09,-0.03,0.0
126.09368800,126093688,1,0.9,-0.01,203.15,0.07919906824827194,-0.25746554136276245,-0.020193209871649742,0.010177697986364365,0.0,0.0,-0.005717902444303036,0.25,-0.09,-0.03,0.0
126.19368100,126193681,1,0.9,-0.02,203.13,0.07795437425374985,-0.2581764757633209,-0.02073950134217739,0.00679970346391201,0.0,0.0,-0.00519856670871377,0.25,-0.09,-0.03,0.0
126.29366300,126293663,1,0.91,-0.02,203.11,0.07769161462783813,-0.25780680775642395,-0.021561888977885246,-0.0030572640243917704,0.0,0.0,-0.00565019715577364,0.25,-0.09,-0.03,0.0
126.39373000,126393730,1,0.92,-0.02,203.09,0.07774493098258972,-0.2596009373664856,-0.021451391279697418,-0.0017099110409617424,0.0,0.0,-0.005384389311075211,0.25,-0.09,-0.03,0.0
