timestamp,TimeUS,I,Status,GMS,GWk,NSats,HDop,Lat,Lng,Alt,Spd,GCrs,VZ,Yaw,U
1683153172.31385803,10489288,0,1,0,0,0,100.0,0.0,0.0,0.0,0.0,0.0,0.0,0.0,1
1683153172.51385903,10689289,0,1,0,0,0,100.0,0.0,0.0,0.0,0.0,0.0,0.0,0.0,1
1683153172.71380901,10889239,0,1,0,0,0,100.0,0.0,0.0,0.0,0.0,0.0,0.0,0.0,1
1683153172.91385889,11089289,0,1,0,0,0,100.0,0.0,0.0,0.0,0.0,0.0,0.0,0.0,1
1683153173.11392593,11289356,0,1,0,0,0,100.0,0.0,0.0,0.0,0.0,0.0,0.0,0.0,1
1683153173.31407785,11489508,0,1,0,0,0,100.0,0.0,0.0,0.0,0.0,0.0,0.0,0.0,1
1683153173.51397991,11689410,0,1,0,0,0,100.0,0.0,0.0,0.0,0.0,0.0,0.0,0.0,1
1683153173.71392989,11889360,0,1,0,0,0,100.0,0.0,0.0,0.0,0.0,0.0,0.0,0.0,1
1683153173.91402483,12089455,0,1,0,0,0,100.0,0.0,0.0,0.0,0.0,0.0,0.0,0.0,1
1683153174.11406183,12289492,0,1,0,0,0,100.0,0.0,0.0,0.0,0.0,0.0,0.0,0.0,1
1683153174.31416798,12489598,0,1,0,0,0,100.0,0.0,0.0,0.0,0.0,0.0,0.0,0.0,1
1683153174.51396084,12689391,0,1,0,0,0,100.0,0.0,0.0,0.0,0.0,0.0,0.0,0.0,1
1683153174.71399093,12889421,0,1,0,0,0,100.0,0.0,0.0,0.0,0.0,0.0,0.0,0.0,1
1683153174.91412401,13089554,0,1,0,0,0,100.0,0.0,0.0,0.0,0.0,0.0,0.0,0.0,1
1683153175.11413693,13289567,0,1,0,0,0,100.0,0.0,0.0,0.0,0.0,0.0,0.0,0.0,1
1683153175.31403089,13489461,0,1,0,0,0,100.0,0.0,0.0,0.0,0.0,0.0,0.0,0.0,1
1683153175.51399994,13689430,0,1,0,0,0,100.0,0.0,0.0,0.0,0.0,0.0,0.0,0.0,1
1683153175.71409392,13889524,0,1,0,0,0,100.0,0.0,0.0,0.0,0.0,0.0,0.0,0.0,1
1683153175.91430593,14089736,0,1,0,0,0,100.0,0.0,0.0,0.0,0.0,0.0,0.0,0.0,1
1683153176.11432004,14289750,0,1,0,0,0,100.0,0.0,0.0,0.0,0.0,0.0,0.0,0.0,1
1683153176.31395698,14489387,0,1,0,0,0,100.0,0.0,0.0,0.0,0.0,0.0,0.0,0.0,1
1683153176.51399684,14689427,0,1,0,0,0,100.0,0.0,0.0,0.0,0.0,0.0,0.0,0.0,1
1683153176.71430588,14889736,0,1,0,0,0,100.0,0.0,0.0,0.0,0.0,0.0,0.0,0.0,1
1683153176.91428494,15089715,0,1,0,0,0,100.0,0.0,0.0,0.0,0.0,0.0,0.0,0.0,1
1683153177.11433101,15289761,0,1,0,0,0,100.0,0.0,0.0,0.0,0.0,0.0,0.0,0.0,1
1683153177.31416082,15489591,0,1,0,0,0,100.0,0.0,0.0,0.0,0.0,0.0,0.0,0.0,1
1683153177.51420903,15689639,0,1,0,0,0,100.0,0.0,0.0,0.0,0.0,0.0,0.0,0.0,1
1683153177.71448684,15889917,0,1,0,0,0,100.0,0.0,0.0,0.0,0.0,0.0,0.0,0.0,1
1683153177.91428900,16089719,0,1,0,0,0,100.0,0.0,0.0,0.0,0.0,0.0,0.0,0.0,1
1683153178.11417794,16289608,0,1,0,0,0,100.0,0.0,0.0,0.0,0.0,0.0,0.0,0.0,1
1683153178.31438804,16489818,0,1,0,0,0,100.0,0.0,0.0,0.0,0.0,0.0,0.0,0.0,1
1683153178.51427102,16689701,0,1,0,0,0,100.0,0.0,0.0,0.0,0.0,0.0,0.0,0.0,1
1683153178.71428704,16889717,0,1,0,0,0,100.0,0.0,0.0,0.0,0.0,0.0,0.0,0.0,1
1683153178.91431785,17089748,0,1,0,0,0,100.0,0.0,0.0,0.0,0.0,0.0,0.0,0.0,1
1683153179.11415792,17289588,0,1,0,0,0,100.0,0.0,0.0,0.0,0.0,0.0,0.0,0.0,1
1683153179.31423593,17489666,0,1,0,0,0,100.0,0.0,0.0,0.0,0.0,0.0,0.0,0.0,1
1683153179.51431203,17689742,0,1,0,0,0,100.0,0.0,0.0,0.0,0.0,0.0,0.0,0.0,1
1683153179.71439600,17889826,0,1,0,0,0,100.0,0.0,0.0,0.0,0.0,0.0,0.0,0.0,1
1683153179.91420984,18089640,0,1,0,0,0,100.0,0.0,0.0,0.0,0.0,0.0,0.0,0.0,1
1683153180.11418486,18289615,0,1,0,0,0,100.0,0.0,0.0,0.0,0.0,0.0,0.0,0.0,1
1683153180.31428790,18489718,0,1,0,0,0,100.0,0.0,0.0,0.0,0.0,0.0,0.0,0.0,1
1683153180.51429605,18689726,0,1,0,0,0,100.0,0.0,0.0,0.0,0.0,0.0,0.0,0.0,1
1683153180.71459794,18890028,0,1,0,0,0,100.0,0.0,0.0,0.0,0.0,0.0,0.0,0.0,1
1683153180.91425586,19089686,0,1,0,0,0,100.0,0.0,0.0,0.0,0.0,0.0,0.0,0.0,1
1683153181.19400001,19369430,0,3,340399194,2260,7,3.64,42.6891536,-84.48895189999999,270.66,0.04295346513390541,335.224853515625,0.09700000286102295,0.0,1
1683153181.33427882,19509709,0,3,340399394,2260,7,3.64,42.6891453,-84.4889571,269.32,0.02408318966627121,41.63353729248047,0.06700000166893005,0.0,1
1683153181.53416705,19709597,0,3,340399599,2260,7,3.64,42.6891466,-84.4889559,268.89,0.025079872459173203,184.5739288330078,-0.0560000017285347,0.0,1
1683153181.73414493,19909575,0,3,340399799,2260,7,3.64,42.6891483,-84.48895519999999,268.6,0.07280110567808151,142.81529235839844,-0.05900000408291817,0.0,1
1683153181.93446898,20109899,0,3,340399999,2260,7,3.64,42.6891494,-84.4889555,268.37,0.11601724475622177,305.88214111328125,0.01600000075995922,0.0,1
1683153182.13430691,20309737,0,3,340400199,2260,7,3.64,42.68915,-84.4889551,268.35,0.04464302957057953,164.4071807861328,-0.03400000184774399,0.0,1
1683153182.33402991,20509460,0,3,340400399,2260,7,3.64,42.689150399999995,-84.4889549,268.32,0.0502493791282177,42.58049011230469,0.09100000560283661,0.0,1
1683153182.53401804,20709448,0,3,340400599,2260,7,3.64,42.6891512,-84.48895499999999,268.17,0.07741447538137436,354.0684814453125,0.1290000081062317,0.0,1
1683153182.73406386,20909494,0,3,340400799,2260,7,3.64,42.689151599999995,-84.4889539,268.3,0.08697701245546341,19.476573944091797,0.1340000033378601,0.0,1
1683153182.93431687,21109747,0,3,340400999,2260,7,3.64,42.689152,-84.48895399999999,268.2,0.06824954599142075,10.980649948120117,0.19300000369548798,0.0,1
1683153183.13411593,21309546,0,3,340401199,2260,7,3.64,42.6891524,-84.4889549,268.03000000000003,0.06432729214429855,11.659292221069336,0.1290000081062317,0.0,1
1683153183.33395600,21509386,0,3,340401399,2260,7,3.64,42.6891526,-84.4889553,267.94,0.04114608094096184,25.94229507446289,0.11900000274181366,0.0,1
1683153183.53417993,21709610,0,3,340401599,2260,7,3.64,42.689152899999996,-84.48895569999999,267.83,0.07002856582403183,1.6365770101547241,0.16100001335144043,0.0,1
1683153183.73411703,21909547,0,3,340401799,2260,7,3.64,42.689153,-84.4889555,267.87,0.10208330303430557,29.327177047729492,0.17800000309944153,0.0,1
1683153183.93414402,22109574,0,3,340401999,2260,7,3.64,42.6891532,-84.4889559,267.81,0.08973851799964905,14.191096305847168,0.08400000631809235,0.0,1
1683153184.13403296,22309463,0,3,340402199,2260,7,3.64,42.689153499999996,-84.488956,267.78000000000003,0.14138247072696686,342.718505859375,0.23000000417232513,0.0,1
1683153184.33415699,22509587,0,3,340402399,2260,7,3.64,42.689153499999996,-84.4889561,267.76,0.060074955224990845,357.1376037597656,0.13500000536441803,0.0,1
1683153184.53423905,22709669,0,3,340402599,2260,7,3.64,42.6891533,-84.488956,267.85,0.09035485982894897,354.9203796386719,0.17400000989437103,0.0,1
1683153184.73427987,22909710,0,3,340402799,2260,7,3.64,42.6891531,-84.4889559,267.92,0.16924834251403809,20.040950775146484,0.26100000739097595,0.0,1
1683153184.93450785,23109938,0,3,340402999,2260,7,3.64,42.689153,-84.4889556,268.01,0.12918978929519653,356.89398193359375,0.13199999928474426,0.0,1
1683153185.13417792,23309608,0,3,340403199,2260,7,3.64,42.689152899999996,-84.48895569999999,268.03000000000003,0.13901439309120178,344.56414794921875,0.3410000205039978,0.0,1
1683153185.33414888,23509579,0,3,340403399,2260,7,3.64,42.689152799999995,-84.4889558,268.06,0.11896218359470367,26.995834350585938,0.26600000262260437,0.0,1
1683153185.53447294,23709903,0,3,340403599,2260,7,3.64,42.6891527,-84.4889558,268.09000000000003,0.1291394680738449,2.6630003452301025,0.2930000126361847,0.0,1
1683153185.73412299,23909553,0,3,340403799,2260,7,3.64,42.6891525,-84.4889558,268.14,0.11783463507890701,6.823462009429932,0.25600001215934753,0.0,1
1683153185.93404698,24109477,0,3,340403999,2260,7,3.64,42.689152199999995,-84.4889559,268.2,0.10066280514001846,13.207927703857422,0.1680000126361847,0.0,1
1683153186.13400602,24309436,0,3,340404199,2260,7,3.64,42.689152,-84.4889559,268.26,0.13352154195308685,16.53483772277832,0.27800002694129944,0.0,1
1683153186.33425283,24509683,0,3,340404399,2260,7,3.64,42.6891517,-84.4889559,268.32,0.10375452041625977,10.551809310913086,0.15400001406669617,0.0,1
1683153186.53413486,24709565,0,3,340404599,2260,7,3.64,42.6891513,-84.4889561,268.39,0.12625372409820557,356.3670349121094,0.24500000476837158,0.0,1
1683153186.73412395,24909554,0,3,340404799,2260,7,3.64,42.689150999999995,-84.4889561,268.43,0.130061537027359,1.7623908519744873,0.3020000159740448,0.0,1
1683153186.93420005,25109630,0,3,340404999,2260,7,3.64,42.6891507,-84.4889561,268.47,0.107703298330307,15.068487167358398,0.20400001108646393,0.0,1
1683153187.13399601,25309426,0,3,340405199,2260,7,3.64,42.6891503,-84.488956,268.55,0.1200166717171669,23.574703216552734,0.17800000309944153,0.0,1
1683153187.33411193,25509542,0,3,340405399,2260,7,3.64,42.68915,-84.4889558,268.62,0.030016662552952766,358.0908508300781,0.07500000298023224,0.0,1
1683153187.53430200,25709732,0,3,340405599,2260,7,3.64,42.6891495,-84.4889556,268.72,0.08908984065055847,357.4266357421875,0.15900000929832458,0.0,1
1683153187.73404193,25909472,0,3,340405799,2260,7,3.64,42.689149,-84.4889555,268.81,0.08584287762641907,8.035710334777832,0.14000000059604645,0.0,1
1683153187.93400693,26109437,0,3,340405999,2260,7,3.64,42.689148499999995,-84.4889553,268.92,0.12316656112670898,10.762537002563477,0.23100000619888306,0.0,1
1683153188.13407683,26309507,0,3,340406199,2260,7,3.64,42.689147999999996,-84.48895519999999,269.0,0.12218429148197174,349.14990234375,0.24800001084804535,0.0,1
1683153188.33429098,26509721,0,3,340406399,2260,7,3.64,42.6891475,-84.48895499999999,269.08,0.09914131462574005,8.70222282409668,0.2290000170469284,0.0,1
1683153188.53415704,26709587,0,3,340406599,2260,7,3.64,42.689147,-84.4889548,269.16,0.11423222720623016,20.49734115600586,0.20000000298023224,0.0,1
1683153188.73396087,26909391,0,3,340406799,2260,7,3.64,42.6891464,-84.48895449999999,269.28000000000003,0.19416488707065582,11.888657569885254,0.36900001764297485,0.0,1
1683153188.93400383,27109434,0,3,340406999,2260,7,3.64,42.689146,-84.4889543,269.36,0.1366930902004242,11.392134666442871,0.2540000081062317,0.0,1
1683153189.15412688,27329557,0,3,340407199,2260,7,3.64,42.689145499999995,-84.4889541,269.45,0.17988885939121246,8.31027603149414,0.3460000157356262,0.0,1
1683153189.35403204,27529462,0,3,340407399,2260,7,3.64,42.689144999999996,-84.4889539,269.53000000000003,0.1735655665397644,4.626570701599121,0.35500001907348633,0.0,1
1683153189.55402303,27729453,0,3,340407599,2260,7,3.64,42.6891445,-84.4889537,269.61,0.17010584473609924,2.02136492729187,0.3320000171661377,0.0,1
1683153189.75407791,27929508,0,3,340407799,2260,7,3.64,42.689144,-84.4889535,269.69,0.17418383061885834,15.312817573547363,0.35200002789497375,0.0,1
1683153189.95430899,28129739,0,3,340407999,2260,7,3.64,42.6891436,-84.48895329999999,269.77,0.14508618414402008,1.9749339818954468,0.27400001883506775,0.0,1
1683153190.15431595,28329746,0,3,340408199,2260,7,3.64,42.689143099999995,-84.48895309999999,269.84000000000003,0.17018812894821167,2.694284200668335,0.30000001192092896,0.0,1
1683153190.35395288,28529383,0,3,340408399,2260,7,3.64,42.6891427,-84.488953,269.93,0.10375452041625977,10.551809310913086,0.1900000125169754,0.0,1
1683153190.55401182,28729442,0,3,340408599,2260,7,3.64,42.6891422,-84.48895279999999,270.0,0.09433981776237488,21.124717712402344,0.18300001323223114,0.0,1
1683153190.75410604,28929536,0,3,340408799,2260,7,3.64,42.6891417,-84.4889527,270.09000000000003,0.09400532394647598,0.6095065474510193,0.22200001776218414,0.0,1
1683153190.95431685,29129747,0,3,340408999,2260,7,3.64,42.689141199999995,-84.4889525,270.19,0.10938464850187302,14.290323257446289,0.20900000631809235,0.0,1
1683153191.17401385,29349444,0,3,340408199,2260,10,2.57,42.6891404,-84.4889524,270.32,0.1219262182712555,7.066729545593262,0.23500001430511475,0.0,1
1683153191.33429384,29509724,0,3,340408399,2260,10,2.57,42.6891399,-84.4889522,270.42,0.07502666115760803,358.47247314453125,0.09100000560283661,0.0,1
1683153191.55423999,29729670,0,3,340408599,2260,10,2.57,42.6891392,-84.48895209999999,270.55,0.08041144162416458,338.86016845703125,0.16100001335144043,0.0,1
1683153191.75414586,29929576,0,3,340408799,2260,10,2.57,42.6891386,-84.488952,270.65,0.05578530579805374,75.46553802490234,-0.02500000037252903,0.0,1
1683153191.95411301,30129543,0,3,340408999,2260,10,2.57,42.6891378,-84.4889517,270.77,0.10666771233081818,38.911468505859375,0.23100000619888306,0.0,1
1683153192.15394592,30329376,0,3,340409199,2260,10,2.57,42.6891373,-84.4889516,270.85,0.10756394267082214,354.1304016113281,0.20000000298023224,0.0,1
1683153192.33419394,30509624,0,3,340409399,2260,10,2.57,42.6891368,-84.4889515,270.92,0.067119300365448,3.416588068008423,0.1080000028014183,0.0,1
1683153192.55428100,30729711,0,3,340409599,2260,10,2.57,42.6891363,-84.48895139999999,270.99,0.09674710035324097,29.7448787689209,0.13500000536441803,0.0,1
1683153192.73432994,30909760,0,3,340409799,2260,10,2.57,42.6891359,-84.4889513,271.05,0.0560000017285347,0.0,0.1600000113248825,0.0,1
1683153192.95403290,31129463,0,3,340409999,2260,10,2.57,42.6891354,-84.4889513,271.11,0.03324154019355774,276.9112243652344,0.11800000816583633,0.0,1
1683153193.17422891,31349659,0,3,340410199,2260,10,2.57,42.6891348,-84.4889513,271.2,0.05502726882696152,19.093490600585938,0.1380000114440918,0.0,1
1683153193.35424399,31529674,0,3,340410399,2260,10,2.57,42.6891343,-84.4889513,271.27,0.06400781124830246,0.8951736688613892,0.19500000774860382,0.0,1
1683153193.53426695,31709697,0,3,340410599,2260,10,2.57,42.689133899999995,-84.4889513,271.32,0.07655064016580582,19.855213165283203,0.2120000123977661,0.0,1
1683153193.75411487,31929545,0,3,340410799,2260,10,2.57,42.6891335,-84.4889513,271.38,0.07116881757974625,342.83807373046875,0.1550000011920929,0.0,1
1683153193.93429995,32109730,0,3,340410999,2260,10,2.57,42.6891331,-84.4889513,271.46,0.10304368287324905,1.6683372259140015,0.18700000643730164,0.0,1
1683153194.13419795,32309628,0,3,340411199,2260,10,2.57,42.689132699999995,-84.4889513,271.51,0.055154331028461456,22.38013458251953,0.18800000846385956,0.0,1
1683153194.33441305,32509843,0,3,340411399,2260,10,2.57,42.6891323,-84.48895139999999,271.57,0.11903780698776245,301.9543762207031,0.10700000822544098,0.0,1
1683153194.53410101,32709531,0,3,340411599,2260,10,2.57,42.6891319,-84.4889516,271.63,0.037336308509111404,7.696051597595215,0.1900000125169754,0.0,1
1683153194.73413801,32909568,0,3,340411799,2260,10,2.57,42.6891314,-84.4889516,271.71,0.038832977414131165,304.5085144042969,0.08100000023841858,0.0,1
1683153194.93402696,33109457,0,3,340411999,2260,10,2.57,42.689130999999996,-84.4889518,271.77,0.06545991450548172,18.71173667907715,0.1730000078678131,0.0,1
1683153195.15420985,33329640,0,3,340412199,2260,10,2.57,42.6891305,-84.4889518,271.84000000000003,0.061522357165813446,7.471558094024658,0.12700000405311584,0.0,1
1683153195.35428190,33529712,0,3,340412399,2260,10,2.57,42.6891301,-84.488952,271.88,0.040049970149993896,357.1376037597656,0.12300000339746475,0.0,1
1683153195.53430986,33709740,0,3,340412599,2260,10,2.57,42.689129799999996,-84.48895209999999,271.94,0.0660984143614769,349.54010009765625,0.18000000715255737,0.0,1
1683153195.75419688,33929627,0,3,340412799,2260,10,2.57,42.6891294,-84.4889524,271.97,0.0863712951540947,354.6854553222656,0.11800000816583633,0.0,1
1683153195.95399690,34129427,0,3,340412999,2260,10,2.57,42.689129099999995,-84.48895259999999,272.0,0.058523502200841904,19.983104705810547,0.13300000131130219,0.0,1
1683153196.15410805,34329538,0,3,340413199,2260,10,2.57,42.6891289,-84.4889529,272.01,0.08127115666866302,18.657886505126953,0.242000013589859,0.0,1
1683153196.35413289,34529563,0,3,340413399,2260,10,2.57,42.689128499999995,-84.48895309999999,272.04,0.06818357855081558,355.7946472167969,0.12300000339746475,0.0,1
1683153196.55403495,34729465,0,3,340413599,2260,10,2.57,42.6891282,-84.48895329999999,272.08,0.05824946612119675,11.888656616210938,0.1550000011920929,0.0,1
1683153196.75399184,34929422,0,3,340413799,2260,10,2.57,42.689127899999995,-84.4889535,272.15,0.05842088907957077,6.881722927093506,0.05900000408291817,0.0,1
1683153196.95407104,35129501,0,3,340413999,2260,10,2.57,42.6891277,-84.4889537,272.17,0.0623939111828804,21.63088607788086,0.11100000888109207,0.0,1
1683153197.15411687,35329547,0,3,340414199,2260,10,2.57,42.6891275,-84.48895399999999,272.19,0.04019950330257416,5.710592269897461,0.10100000351667404,0.0,1
1683153197.35443306,35529863,0,3,340414399,2260,10,2.57,42.6891272,-84.4889543,272.22,0.031048350036144257,345.0685729980469,0.08900000154972076,0.0,1
1683153197.55395389,35729384,0,3,340414599,2260,10,2.57,42.689127,-84.4889546,272.26,0.041593268513679504,350.31121826171875,0.11500000208616257,0.0,1
1683153197.75399804,35929428,0,3,340414799,2260,10,2.57,42.689126699999996,-84.4889547,272.3,0.015652475878596306,153.43495178222656,0.014000000432133675,0.0,1
1683153197.95410800,36129538,0,3,340414999,2260,10,2.57,42.6891264,-84.4889548,272.38,0.07940403372049332,36.29262924194336,0.0820000022649765,0.0,1
1683153198.13424492,36309675,0,3,340415199,2260,10,2.57,42.689126099999996,-84.4889549,272.45,0.06419502198696136,4.467158794403076,0.0690000057220459,0.0,1
1683153198.35401988,36529450,0,3,340415399,2260,10,2.57,42.689125999999995,-84.4889551,272.46,0.03405877575278282,229.76365661621094,0.18200001120567322,0.0,1
1683153198.55416799,36729598,0,3,340415599,2260,10,2.57,42.6891257,-84.4889553,272.49,0.06435060501098633,327.05078125,0.22700001299381256,0.0,1
1683153198.75423193,36929662,0,3,340415799,2260,10,2.57,42.689125399999995,-84.4889554,272.53000000000003,0.08044874668121338,34.875328063964844,0.2720000147819519,0.0,1
1683153198.95411396,37129544,0,3,340415999,2260,10,2.57,42.6891252,-84.4889556,272.56,0.12794139981269836,332.03289794921875,0.3110000193119049,0.0,1
1683153199.15411901,37329549,0,3,340416199,2260,10,2.57,42.689124899999996,-84.48895569999999,272.62,0.04522167891263962,18.034284591674805,0.27300000190734863,0.0,1
1683153199.35395002,37529380,0,3,340416399,2260,10,2.57,42.689124799999995,-84.4889558,272.65,0.13595955073833466,9.739445686340332,0.24500000476837158,0.0,1
1683153199.53415799,37709588,0,3,340416599,2260,10,2.57,42.6891246,-84.4889559,272.7,0.08420214056968689,344.1480712890625,0.22300000488758087,0.0,1
1683153199.75408483,37929515,0,3,340416799,2260,10,2.57,42.689124299999996,-84.4889561,272.75,0.06702984869480133,358.2901916503906,0.22800001502037048,0.0,1
1683153199.95411897,38129549,0,3,340416999,2260,10,2.57,42.689124,-84.48895619999999,272.81,0.09900505840778351,0.5787255167961121,0.20500001311302185,0.0,1
1683153200.15402794,38329458,0,3,340417199,2260,10,2.57,42.6891239,-84.48895639999999,272.85,0.04356604442000389,328.134033203125,0.2330000102519989,0.0,1
1683153200.35421395,38529644,0,3,340417399,2260,10,2.57,42.6891235,-84.4889566,272.9,0.039661064743995667,303.6900634765625,0.16200000047683716,0.0,1
1683153200.55404305,38729473,0,3,340417599,2260,10,2.57,42.6891233,-84.4889568,272.95,0.07749193906784058,340.3959045410156,0.18400001525878906,0.0,1
1683153200.75410986,38929540,0,3,340417799,2260,10,2.57,42.689123099999996,-84.488957,273.0,0.07440430670976639,306.25384521484375,0.13100001215934753,0.0,1
1683153200.93412590,39109556,0,3,340417999,2260,10,2.57,42.6891229,-84.4889572,273.05,0.046324942260980606,346.26373291015625,0.16600000858306885,0.0,1
1683153201.15418983,39329620,0,3,340418199,2260,10,2.57,42.6891227,-84.48895739999999,273.09000000000003,0.10480935126543045,352.8749694824219,0.23900000751018524,0.0,1
1683153201.35397887,39529409,0,3,340418399,2260,10,2.57,42.6891226,-84.48895759999999,273.15000000000003,0.09391485899686813,333.4349365234375,0.1990000158548355,0.0,1
1683153201.55412483,39729555,0,3,340418599,2260,10,2.57,42.689122399999995,-84.4889578,273.2,0.09847334772348404,325.3416442871094,0.2580000162124634,0.0,1
1683153201.75413704,39929567,0,3,340418799,2260,10,2.57,42.6891223,-84.488958,273.25,0.11375852674245834,345.2308044433594,0.23400001227855682,0.0,1
1683153201.95402002,40129450,0,3,340418999,2260,10,2.57,42.689122,-84.4889582,273.33,0.04925444349646568,275.82635498046875,0.15200001001358032,0.0,1
1683153202.15398598,40329416,0,3,340419199,2260,10,2.57,42.689121899999996,-84.4889584,273.37,0.09025519341230392,350.4333190917969,0.10700000822544098,0.0,1
1683153202.33400083,40509431,0,3,340419399,2260,10,2.57,42.689121799999995,-84.4889585,273.42,0.06888396292924881,9.188836097717285,0.2160000056028366,0.0,1
1683153202.55409193,40729522,0,3,340419599,2260,10,2.57,42.689121799999995,-84.4889587,273.43,0.0428018718957901,322.59466552734375,0.17100000381469727,0.0,1
1683153202.75430584,40929736,0,3,340419799,2260,10,2.57,42.6891216,-84.48895879999999,273.51,0.09300537407398224,306.25384521484375,0.08100000023841858,0.0,1
1683153202.95394397,41129374,0,3,340419999,2260,10,2.57,42.6891215,-84.488959,273.57,0.08273451775312424,7.640406131744385,0.1510000079870224,0.0,1
1683153203.15399599,41329426,0,3,340420199,2260,10,2.57,42.6891214,-84.4889592,273.59000000000003,0.03623534366488457,297.9794616699219,0.16700001060962677,0.0,1
1683153203.35428786,41529718,0,3,340420399,2260,10,2.57,42.689121199999995,-84.48895929999999,273.63,0.0955248698592186,42.878902435302734,0.15200001001358032,0.0,1
1683153203.55411601,41729546,0,3,340420599,2260,10,2.57,42.6891211,-84.4889594,273.68,0.05692100152373314,341.5650634765625,0.14600001275539398,0.0,1
1683153203.75402689,41929457,0,3,340420799,2260,10,2.57,42.689121,-84.48895949999999,273.72,0.08761849999427795,38.04703903198242,0.07000000029802322,0.0,1
1683153203.95399094,42129421,0,3,340420999,2260,10,2.57,42.6891209,-84.4889596,273.75,0.015811389312148094,288.4349365234375,0.07500000298023224,0.0,1
1683153204.15423203,42329662,0,3,340421199,2260,10,2.57,42.689120599999995,-84.4889597,273.81,0.11268097162246704,31.574190139770508,0.12400000542402267,0.0,1
1683153204.35410786,42529538,0,3,340421399,2260,10,2.57,42.6891204,-84.4889597,273.89,0.10017984360456467,26.053495407104492,0.13600000739097595,0.0,1
1683153204.55405402,42729484,0,3,340421599,2260,10,2.57,42.6891204,-84.48895979999999,273.89,0.06688796728849411,238.44862365722656,0.08100000023841858,0.0,1
1683153204.75419593,42929626,0,3,340421799,2260,10,2.57,42.6891201,-84.4889599,273.97,0.11636151373386383,28.76764488220215,0.08800000697374344,0.0,1
1683153204.95413184,43129562,0,3,340421999,2260,10,2.57,42.689119999999996,-84.48895999999999,274.01,0.029068883508443832,273.9451904296875,0.07200000435113907,0.0,1
1683153205.15426588,43329696,0,3,340422199,2260,10,2.57,42.6891198,-84.4889601,274.07,0.09330059587955475,19.405969619750977,0.09700000286102295,0.0,1
1683153205.35426593,43529696,0,3,340422399,2260,10,2.57,42.6891198,-84.4889602,274.1,0.003162277862429619,18.434947967529297,0.03100000135600567,0.0,1
1683153205.55428600,43729716,0,3,340422599,2260,10,2.57,42.6891196,-84.4889603,274.16,0.04114608094096184,25.94229507446289,0.05700000375509262,0.0,1
1683153205.75413489,43929565,0,3,340422799,2260,10,2.57,42.6891195,-84.4889604,274.18,0.044721364974975586,26.56505012512207,0.1300000101327896,0.0,1
1683153205.95424199,44129672,0,3,340422999,2260,10,2.57,42.6891195,-84.48896049999999,274.2,0.0655515119433403,338.5232238769531,0.1210000067949295,0.0,1
1683153206.15410590,44329536,0,3,340423199,2260,10,2.57,42.6891195,-84.48896069999999,274.23,0.09235800802707672,340.3879089355469,0.15300001204013824,0.0,1
1683153206.35412002,44529550,0,3,340423399,2260,10,2.57,42.6891195,-84.4889608,274.26,0.05360037460923195,8.58362102508545,0.11300000548362732,0.0,1
1683153206.55419993,44729630,0,3,340423599,2260,10,2.57,42.6891195,-84.4889608,274.28000000000003,0.0879204198718071,19.25929069519043,0.20500001311302185,0.0,1
1683153206.75416899,44929599,0,3,340423799,2260,10,2.57,42.6891196,-84.4889609,274.28000000000003,0.08920201659202576,356.1431884765625,0.17500001192092896,0.0,1
1683153206.95408702,45129517,0,3,340423999,2260,10,2.57,42.6891196,-84.48896099999999,274.28000000000003,0.021954499185085297,300.0685729980469,0.1860000044107437,0.0,1
1683153207.15412092,45329551,0,3,340424199,2260,10,2.57,42.6891196,-84.48896099999999,274.28000000000003,0.09920182079076767,345.4034118652344,0.15900000929832458,0.0,1
1683153207.35402298,45529453,0,3,340424399,2260,10,2.57,42.6891198,-84.4889611,274.26,0.0752396211028099,23.498563766479492,0.18800000846385956,0.0,1
1683153207.55399704,45729427,0,3,340424599,2260,10,2.57,42.6891199,-84.4889611,274.24,0.04134005308151245,302.15228271484375,0.16500000655651093,0.0,1
1683153207.75404787,45929478,0,3,340424799,2260,10,2.57,42.689119999999996,-84.4889613,274.21,0.0442831814289093,334.59228515625,0.10300000756978989,0.0,1
1683153207.95409703,46129527,0,3,340424999,2260,10,2.57,42.6891202,-84.4889613,274.19,0.03671512007713318,330.6422424316406,0.14400000870227814,0.0,1
1683153208.15413499,46329565,0,3,340425199,2260,10,2.57,42.6891203,-84.4889614,274.18,0.04901020601391792,1.1691392660140991,0.12700000405311584,0.0,1
1683153208.35420203,46529632,0,3,340425399,2260,10,2.57,42.6891204,-84.4889614,274.17,0.0764852911233902,348.6900634765625,0.18700000643730164,0.0,1
1683153208.55397987,46729410,0,3,340425599,2260,10,2.57,42.689120599999995,-84.4889615,274.14,0.02906888537108898,319.1849365234375,0.06300000101327896,0.0,1
1683153208.75409794,46929528,0,3,340425799,2260,10,2.57,42.6891207,-84.48896169999999,274.11,0.0836002454161644,353.1300048828125,0.23500001430511475,0.0,1
1683153208.95411992,47129550,0,3,340425999,2260,10,2.57,42.6891209,-84.48896169999999,274.09000000000003,0.07134423404932022,5.630682468414307,0.18200001120567322,0.0,1
1683153209.15431786,47329748,0,3,340426199,2260,10,2.57,42.6891211,-84.48896169999999,274.05,0.07858753949403763,345.2564392089844,0.20500001311302185,0.0,1
1683153209.35399294,47529423,0,3,340426399,2260,10,2.57,42.6891213,-84.4889618,274.0,0.09687621146440506,352.2881164550781,0.2800000011920929,0.0,1
1683153209.55406904,47729499,0,3,340426599,2260,10,2.57,42.6891215,-84.4889618,273.96,0.08521150052547455,355.9622802734375,0.26600000262260437,0.0,1
1683153209.75410104,47929531,0,3,340426799,2260,10,2.57,42.6891216,-84.48896189999999,273.95,0.07615773379802704,293.1986083984375,0.21900001168251038,0.0,1
1683153209.95439601,48129826,0,3,340426999,2260,10,2.57,42.689121799999995,-84.4889618,273.91,0.06628725677728653,11.309930801391602,0.2410000115633011,0.0,1
1683153210.15393901,48329369,0,3,340427199,2260,10,2.57,42.689122,-84.4889618,273.87,0.0991261899471283,357.1087341308594,0.28300002217292786,0.0,1
1683153210.35398793,48529418,0,3,340427399,2260,10,2.57,42.6891222,-84.48896169999999,273.84000000000003,0.07125306874513626,4.830419540405273,0.27000001072883606,0.0,1
1683153210.55408692,48729517,0,3,340427599,2260,10,2.57,42.6891223,-84.48896169999999,273.81,0.12560255825519562,307.2348327636719,0.3160000145435333,0.0,1
1683153210.75411296,48929543,0,3,340427799,2260,10,2.57,42.689122499999996,-84.48896169999999,273.8,0.09080198407173157,16.638803482055664,0.19300000369548798,0.0,1
1683153210.95431995,49129750,0,3,340427999,2260,10,2.57,42.6891227,-84.4889616,273.8,0.05400000140070915,0.0,0.1680000126361847,0.0,1
1683153211.17423701,49349667,0,3,340428199,2260,11,2.5300000000000002,42.6891228,-84.4889614,273.79,0.04257934167981148,99.46231842041016,0.10300000756978989,0.0,1
1683153211.35422897,49529659,0,3,340428399,2260,11,2.5300000000000002,42.6891228,-84.48896119999999,273.79,0.008602325804531574,125.53766632080078,0.10300000756978989,0.0,1
1683153211.55429292,49729723,0,3,340428599,2260,11,2.5300000000000002,42.6891232,-84.4889611,273.71,0.10412012040615082,343.8278503417969,0.2510000169277191,0.0,1
1683153211.75411296,49929543,0,3,340428799,2260,11,2.5300000000000002,42.6891235,-84.4889611,273.68,0.06440497189760208,334.2306823730469,0.16900001466274261,0.0,1
1683153211.95394683,50129377,0,3,340428999,2260,11,2.5300000000000002,42.689123699999996,-84.4889611,273.67,0.04134005308151245,302.15228271484375,0.15000000596046448,0.0,1
1683153212.15417099,50329601,0,3,340429199,2260,11,2.5300000000000002,42.6891239,-84.48896099999999,273.65000000000003,0.06313478201627731,29.40718650817871,0.2120000123977661,0.0,1
1683153212.35408688,50529517,0,3,340429399,2260,11,2.5300000000000002,42.6891241,-84.4889609,273.64,0.07615773379802704,346.3287048339844,0.1290000081062317,0.0,1
1683153212.55413294,50729563,0,3,340429599,2260,11,2.5300000000000002,42.689124299999996,-84.4889609,273.62,0.042520586401224136,311.1859130859375,0.09100000560283661,0.0,1
1683153212.75403285,50929463,0,3,340429799,2260,11,2.5300000000000002,42.6891245,-84.48896099999999,273.61,0.03584690019488335,300.1413879394531,0.07200000435113907,0.0,1
1683153212.95416498,51129595,0,3,340429999,2260,11,2.5300000000000002,42.6891247,-84.48896099999999,273.6,0.05124451220035553,342.9794616699219,0.125,0.0,1
1683153213.15423083,51329661,0,3,340430199,2260,11,2.5300000000000002,42.689125,-84.48896099999999,273.58,0.0682641938328743,328.17254638671875,0.18000000715255737,0.0,1
1683153213.35409093,51529521,0,3,340430399,2260,11,2.5300000000000002,42.6891252,-84.4889611,273.54,0.03500000014901161,323.1300964355469,0.05900000408291817,0.0,1
1683153213.55412889,51729559,0,3,340430599,2260,11,2.5300000000000002,42.689125399999995,-84.48896099999999,273.53000000000003,0.05063595622777939,9.090276718139648,0.14900000393390656,0.0,1
1683153213.75419784,51929628,0,3,340430799,2260,11,2.5300000000000002,42.6891257,-84.4889609,273.52,0.07410803437232971,356.90594482421875,0.11800000816583633,0.0,1
1683153213.95397997,52129410,0,3,340430999,2260,11,2.5300000000000002,42.6891259,-84.4889609,273.49,0.05154609680175781,18.083444595336914,0.17100000381469727,0.0,1
1683153214.15412903,52329559,0,3,340431199,2260,11,2.5300000000000002,42.6891262,-84.4889608,273.48,0.0723394826054573,5.5529704093933105,0.14300000667572021,0.0,1
1683153214.35412502,52529555,0,3,340431399,2260,11,2.5300000000000002,42.6891265,-84.4889608,273.45,0.05894065275788307,14.743559837341309,0.1290000081062317,0.0,1
1683153214.55402184,52729452,0,3,340431599,2260,11,2.5300000000000002,42.6891268,-84.4889608,273.41,0.07839005440473557,299.8355407714844,0.12200000882148743,0.0,1
1683153214.75402904,52929459,0,3,340431799,2260,11,2.5300000000000002,42.689127,-84.4889608,273.41,0.05521775409579277,54.582942962646484,0.12800000607967377,0.0,1
1683153214.95405889,53129489,0,3,340431999,2260,11,2.5300000000000002,42.6891271,-84.48896069999999,273.42,0.06378871202468872,350.9806823730469,0.09300000220537186,0.0,1
1683153215.15429997,53329730,0,3,340432199,2260,11,2.5300000000000002,42.6891274,-84.48896069999999,273.39,0.046861499547958374,39.80556869506836,0.1340000033378601,0.0,1
1683153215.35426998,53529700,0,3,340432399,2260,11,2.5300000000000002,42.6891277,-84.48896069999999,273.36,0.06378087401390076,318.8140869140625,0.14500001072883606,0.0,1
1683153215.55416489,53729595,0,3,340432599,2260,11,2.5300000000000002,42.689127899999995,-84.48896069999999,273.35,0.047518420964479446,351.52886962890625,0.18200001120567322,0.0,1
1683153215.75415492,53929585,0,3,340432799,2260,11,2.5300000000000002,42.6891281,-84.48896049999999,273.35,0.06488451361656189,61.46001434326172,0.07600000500679016,0.0,1
1683153215.95446301,54129893,0,3,340432999,2260,11,2.5300000000000002,42.689128499999995,-84.4889603,273.33,0.14477914571762085,34.01934814453125,0.05300000309944153,0.0,1
1683153216.15411901,54329549,0,3,340433199,2260,11,2.5300000000000002,42.6891288,-84.4889602,273.31,0.07340981066226959,335.8790283203125,0.1080000028014183,0.0,1
1683153216.35404396,54529474,0,3,340433399,2260,11,2.5300000000000002,42.689129,-84.4889602,273.28000000000003,0.03939543291926384,66.03750610351562,0.12600000202655792,0.0,1
1683153216.55399489,54729425,0,3,340433599,2260,11,2.5300000000000002,42.6891293,-84.4889601,273.25,0.0836002379655838,323.2671813964844,0.16200000047683716,0.0,1
1683153216.75424385,54929674,0,3,340433799,2260,11,2.5300000000000002,42.6891295,-84.4889602,273.23,0.07247068732976913,332.0205383300781,0.1900000125169754,0.0,1
1683153216.95409989,55129530,0,3,340433999,2260,11,2.5300000000000002,42.689129699999995,-84.4889602,273.2,0.020615529268980026,320.9061279296875,0.024000000208616257,0.0,1
1683153217.15404797,55329478,0,3,340434199,2260,11,2.5300000000000002,42.68913,-84.4889601,273.18,0.01612451672554016,29.74488067626953,0.10400000214576721,0.0,1
1683153217.35395193,55529382,0,3,340434399,2260,11,2.5300000000000002,42.689130299999995,-84.4889599,273.16,0.0698927789926529,340.7873229980469,0.11500000208616257,0.0,1
1683153217.55418086,55729611,0,3,340434599,2260,11,2.5300000000000002,42.6891306,-84.48895979999999,273.17,0.09602083265781403,1.1934893131256104,0.15800000727176666,0.0,1
1683153217.75409985,55929530,0,3,340434799,2260,11,2.5300000000000002,42.689130899999995,-84.4889597,273.14,0.03162277862429619,325.3048400878906,0.16100001335144043,0.0,1
1683153217.95412397,56129554,0,3,340434999,2260,11,2.5300000000000002,42.6891311,-84.48895949999999,273.11,0.05314132198691368,19.79887580871582,0.10300000756978989,0.0,1
1683153218.15402198,56329452,0,3,340435199,2260,11,2.5300000000000002,42.6891313,-84.48895949999999,273.11,0.10406248271465302,317.726318359375,0.17600001394748688,0.0,1
1683153218.35401201,56529442,0,3,340435399,2260,11,2.5300000000000002,42.689131599999996,-84.48895949999999,273.07,0.08542248606681824,27.164979934692383,0.15700000524520874,0.0,1
1683153218.55424905,56729679,0,3,340435599,2260,11,2.5300000000000002,42.6891319,-84.48895929999999,273.03000000000003,0.04534313827753067,41.42366409301758,0.10200000554323196,0.0,1
1683153218.75428295,56929713,0,3,340435799,2260,11,2.5300000000000002,42.6891323,-84.4889592,272.99,0.0962081104516983,339.3045654296875,0.13100001215934753,0.0,1
1683153218.95430803,57129738,0,3,340435999,2260,11,2.5300000000000002,42.6891326,-84.488959,272.99,0.0970463827252388,358.228515625,0.17600001394748688,0.0,1
1683153219.17399383,57349424,0,3,340436199,2260,13,2.31,42.689133,-84.4889589,272.97,0.05331041291356087,336.8014221191406,0.20600001513957977,0.0,1
1683153219.35413599,57529566,0,3,340436399,2260,13,2.31,42.6891332,-84.4889587,272.97,0.09577056765556335,331.2940368652344,0.23000000417232513,0.0,1
1683153219.57413101,57749561,0,3,340436599,2260,13,2.31,42.6891335,-84.4889585,272.98,0.11321660876274109,3.5447661876678467,0.20100000500679016,0.0,1
1683153219.75425005,57929680,0,3,340436799,2260,13,2.31,42.6891338,-84.4889582,273.0,0.1236850842833519,6.033252716064453,0.25200000405311584,0.0,1
1683153219.95429397,58129724,0,3,340436999,2260,13,2.31,42.6891341,-84.488958,272.97,0.0655209943652153,344.0545959472656,0.18200001120567322,0.0,1
1683153220.15416384,58329594,0,3,340437199,2260,13,2.31,42.6891344,-84.488958,272.95,0.07138627767562866,11.309931755065918,0.15400001406669617,0.0,1
1683153220.35419297,58529623,0,3,340437399,2260,13,2.31,42.6891347,-84.4889578,272.91,0.13296616077423096,6.911226749420166,0.21700000762939453,0.0,1
1683153220.55430698,58729737,0,3,340437599,2260,13,2.31,42.689135,-84.4889577,272.88,0.046840157359838486,343.8865966796875,0.18900001049041748,0.0,1
1683153220.75430703,58929737,0,3,340437799,2260,13,2.31,42.689135199999996,-84.4889577,272.85,0.07119691371917725,330.5545654296875,0.12600000202655792,0.0,1
1683153220.95394683,59129377,0,3,340437999,2260,13,2.31,42.6891354,-84.4889575,272.86,0.024041632190346718,16.92751121520996,0.04400000348687172,0.0,1
1683153221.15399384,59329424,0,3,340438199,2260,13,2.31,42.6891356,-84.48895739999999,272.89,0.047381430864334106,45.855098724365234,0.04500000178813934,0.0,1
1683153221.35427284,59529703,0,3,340438399,2260,13,2.31,42.689135799999995,-84.4889572,272.89,0.044721364974975586,349.6951599121094,0.10400000214576721,0.0,1
1683153221.55410886,59729539,0,3,340438599,2260,13,2.31,42.689136,-84.488957,272.91,0.08286133408546448,17.560270309448242,0.13100001215934753,0.0,1
1683153221.75402284,59929453,0,3,340438799,2260,13,2.31,42.6891363,-84.4889568,272.89,0.036221545189619064,276.3402099609375,0.032999999821186066,0.0,1
1683153221.95398402,60129414,0,3,340438999,2260,13,2.31,42.6891365,-84.4889567,272.91,0.021095024421811104,148.5704345703125,0.01900000125169754,0.0,1
1683153222.15406895,60329499,0,3,340439199,2260,13,2.31,42.6891366,-84.4889565,272.95,0.10183320194482803,17.723236083984375,0.20900000631809235,0.0,1
1683153222.35409284,60529523,0,3,340439399,2260,13,2.31,42.689136999999995,-84.48895619999999,272.96,0.05968249961733818,8.673173904418945,0.06000000238418579,0.0,1
1683153222.55413795,60729568,0,3,340439599,2260,13,2.31,42.6891373,-84.488956,272.98,0.04981967806816101,321.5198059082031,0.16300000250339508,0.0,1
1683153222.75394487,60929375,0,3,340439799,2260,13,2.31,42.6891374,-84.4889559,273.03000000000003,0.06040695682168007,353.3455810546875,0.14400000870227814,0.0,1
1683153222.95398402,61129414,0,3,340439999,2260,13,2.31,42.689137599999995,-84.4889558,273.06,0.07009279727935791,14.036242485046387,0.16700001060962677,0.0,1
1683153223.15430188,61329732,0,3,340440199,2260,13,2.31,42.6891378,-84.48895569999999,273.08,0.04130375385284424,6.9529571533203125,0.16500000655651093,0.0,1
1683153223.35411096,61529541,0,3,340440399,2260,13,2.31,42.6891381,-84.4889556,273.06,0.014035669155418873,94.08560943603516,0.0560000017285347,0.0,1
1683153223.55402994,61729460,0,3,340440599,2260,13,2.31,42.689138299999996,-84.48895569999999,273.04,0.055000003427267075,0.0,0.1720000058412552,0.0,1
1683153223.75403094,61929461,0,3,340440799,2260,13,2.31,42.6891386,-84.4889558,273.03000000000003,0.07443118095397949,353.829833984375,0.03500000014901161,0.0,1
1683153223.95405698,62129487,0,3,340440999,2260,13,2.31,42.689138899999996,-84.488956,272.99,0.030413813889026642,260.5376892089844,0.08000000566244125,0.0,1
1683153224.15430188,62329732,0,3,340441199,2260,13,2.31,42.689139,-84.4889561,272.99,0.03661966696381569,55.007972717285156,0.06800000369548798,0.0,1
1683153224.35429692,62529727,0,3,340441399,2260,13,2.31,42.6891392,-84.4889563,272.96,0.07111258804798126,3.224522590637207,0.14500001072883606,0.0,1
1683153224.55420589,62729636,0,3,340441599,2260,13,2.31,42.689139499999996,-84.48895639999999,272.93,0.03538361191749573,312.7093811035156,0.09600000083446503,0.0,1
1683153224.75416803,62929598,0,3,340441799,2260,13,2.31,42.6891397,-84.4889566,272.91,0.03413209691643715,328.17254638671875,0.11400000751018524,0.0,1
1683153224.95448899,63129919,0,3,340441999,2260,13,2.31,42.6891399,-84.4889567,272.92,0.08260750770568848,6.9529571533203125,0.14500001072883606,0.0,1
1683153225.15413404,63329564,0,3,340442199,2260,13,2.31,42.6891402,-84.48895689999999,272.88,0.07559100538492203,332.41796875,0.13199999928474426,0.0,1
1683153225.35403204,63529462,0,3,340442399,2260,13,2.31,42.6891405,-84.488957,272.87,0.04527692496776581,313.2100830078125,0.15000000596046448,0.0,1
1683153225.55398798,63729418,0,3,340442599,2260,13,2.31,42.689140699999996,-84.4889571,272.87,0.040049970149993896,357.1376037597656,0.12200000882148743,0.0,1
1683153225.75424790,63929678,0,3,340442799,2260,13,2.31,42.6891409,-84.4889572,272.86,0.032572995871305466,342.1213073730469,0.12200000882148743,0.0,1
1683153225.95429301,64129723,0,3,340442999,2260,13,2.31,42.6891411,-84.4889573,272.84000000000003,0.03649657592177391,350.5376892089844,0.14600001275539398,0.0,1
1683153226.15413499,64329565,0,3,340443199,2260,13,2.31,42.689141299999996,-84.48895739999999,272.84000000000003,0.03894868493080139,330.8025207519531,0.12200000882148743,0.0,1
1683153226.35394883,64529379,0,3,340443399,2260,13,2.31,42.6891415,-84.4889575,272.83,0.07269113510847092,352.09283447265625,0.15600000321865082,0.0,1
1683153226.55418801,64729618,0,3,340443599,2260,13,2.31,42.6891418,-84.4889575,272.83,0.06389053165912628,17.300525665283203,0.17600001394748688,0.0,1
1683153226.75412893,64929559,0,3,340443799,2260,13,2.31,42.6891421,-84.48895759999999,272.79,0.03860051929950714,323.4269714355469,0.04400000348687172,0.0,1
1683153226.95412588,65129556,0,3,340443999,2260,13,2.31,42.6891424,-84.4889575,272.8,0.017720045521855354,106.38953399658203,0.055000003427267075,0.0,1
1683153227.15403605,65329466,0,3,340444199,2260,13,2.31,42.6891426,-84.48895739999999,272.85,0.01984943449497223,49.08561325073242,-0.036000002175569534,0.0,1
1683153227.35400200,65529432,0,3,340444399,2260,13,2.31,42.6891429,-84.48895739999999,272.84000000000003,0.052239831537008286,264.5076904296875,-0.012000000104308128,0.0,1
1683153227.55408502,65729515,0,3,340444599,2260,13,2.31,42.689143099999995,-84.48895739999999,272.83,0.0374833308160305,133.9190673828125,-0.00800000037997961,0.0,1
1683153227.75413895,65929569,0,3,340444799,2260,13,2.31,42.6891433,-84.48895739999999,272.83,0.03036445379257202,17.241458892822266,0.029000001028180122,0.0,1
1683153227.95405388,66129484,0,3,340444999,2260,13,2.31,42.6891436,-84.48895739999999,272.83,0.030016662552952766,29.98163604736328,0.11000000685453415,0.0,1
1683153228.15428305,66329713,0,3,340445199,2260,13,2.31,42.6891439,-84.48895739999999,272.81,0.08221922069787979,18.434947967529297,0.1600000113248825,0.0,1
1683153228.35399795,66529428,0,3,340445399,2260,13,2.31,42.6891442,-84.48895759999999,272.77,0.12165936827659607,308.6598205566406,0.19500000774860382,0.0,1
1683153228.55411506,66729545,0,3,340445599,2260,13,2.31,42.689144399999996,-84.488958,272.73,0.13314653933048248,302.7352294921875,0.24800001084804535,0.0,1
1683153228.75414205,66929572,0,3,340445799,2260,12,2.41,42.6891448,-84.4889582,272.64,0.08570297807455063,19.06919288635254,0.32600000500679016,0.0,1
1683153228.95402002,67129450,0,3,340445999,2260,12,2.41,42.689144899999995,-84.4889584,272.62,0.11280515044927597,282.80426025390625,0.16200000047683716,0.0,1
1683153229.15400600,67329436,0,3,340446199,2260,13,2.3000000000000003,42.6891451,-84.48895859999999,272.63,0.0636003240942955,343.55963134765625,0.1850000023841858,0.0,1
1683153229.35423183,67529662,0,3,340446399,2260,13,2.3000000000000003,42.6891452,-84.4889587,272.64,0.09712878614664078,357.0492248535156,0.15400001406669617,0.0,1
1683153229.55426502,67729695,0,3,340446599,2260,13,2.3000000000000003,42.6891457,-84.48895879999999,272.56,0.011661904864013195,210.96376037597656,0.1990000158548355,0.0,1
1683153229.75428987,67929720,0,3,340446799,2260,12,2.41,42.6891458,-84.488959,272.57,0.12111565470695496,341.71466064453125,0.19600000977516174,0.0,1
1683153229.95415497,68129585,0,3,340446999,2260,13,2.3000000000000003,42.689146,-84.4889592,272.55,0.10829588770866394,265.76361083984375,0.15900000929832458,0.0,1
1683153230.15415096,68329581,0,3,340447199,2260,13,2.3000000000000003,42.689146099999995,-84.48895949999999,272.58,0.15728001296520233,286.2456359863281,0.04700000211596489,0.0,1
1683153230.35426497,68529695,0,3,340447399,2260,13,2.3000000000000003,42.6891465,-84.4889597,272.52,0.09276314824819565,41.94129943847656,0.1810000091791153,0.0,1
1683153230.55427194,68729702,0,3,340447599,2260,13,2.3000000000000003,42.6891465,-84.48895979999999,272.56,0.11574110388755798,279.95062255859375,0.08100000023841858,0.0,1
1683153230.75427985,68929710,0,3,340447799,2260,13,2.3000000000000003,42.6891466,-84.48895999999999,272.56,0.06576474010944366,28.123733520507812,0.10600000619888306,0.0,1
1683153230.95416188,69129592,0,3,340447999,2260,13,2.3000000000000003,42.689146799999996,-84.4889599,272.56,0.04019950330257416,95.71058654785156,-0.03400000184774399,0.0,1
1683153231.17411399,69349544,0,3,340448199,2260,13,2.3000000000000003,42.6891469,-84.4889597,272.64,0.0598163865506649,308.2110290527344,0.13199999928474426,0.0,1
1683153231.35449004,69529920,0,3,340448399,2260,13,2.3000000000000003,42.6891472,-84.48895979999999,272.62,0.026476405560970306,10.885526657104492,-0.010000000707805157,0.0,1
1683153231.55413198,69729562,0,3,340448599,2260,13,2.3000000000000003,42.689147399999996,-84.48895979999999,272.62,0.025961510837078094,74.35774993896484,0.03700000047683716,0.0,1
1683153231.75395489,69929385,0,3,340448799,2260,13,2.3000000000000003,42.6891476,-84.48895979999999,272.6,0.050803545862436295,10.203973770141602,0.039000000804662704,0.0,1
1683153231.95397401,70129404,0,3,340448999,2260,13,2.3000000000000003,42.6891477,-84.48895999999999,272.6,0.013038406148552895,212.47120666503906,0.07500000298023224,0.0,1
1683153232.15428090,70329711,0,3,340449199,2260,13,2.3000000000000003,42.6891477,-84.4889601,272.62,0.02370654046535492,117.64595794677734,0.024000000208616257,0.0,1
1683153232.35411191,70529542,0,3,340449399,2260,12,2.41,42.689147899999995,-84.48895999999999,272.6,0.003162277862429619,108.43494415283203,-0.0020000000949949026,0.0,1
1683153232.55403090,70729461,0,3,340449599,2260,13,2.3000000000000003,42.6891482,-84.48895979999999,272.55,0.1073545590043068,62.241455078125,0.15900000929832458,0.0,1
1683153232.75400496,70929435,0,3,340449799,2260,13,2.3000000000000003,42.6891482,-84.48895979999999,272.58,0.0430464893579483,329.2645263671875,0.13600000739097595,0.0,1
1683153232.95422888,71129659,0,3,340449999,2260,13,2.3000000000000003,42.6891483,-84.4889594,272.63,0.027856776490807533,21.03750991821289,0.09200000762939453,0.0,1
1683153233.17447996,71349910,0,3,340450199,2260,12,2.41,42.6891484,-84.48895929999999,272.65,0.049648769199848175,55.66978073120117,0.05100000277161598,0.0,1
1683153233.35405898,71529489,0,3,340450399,2260,12,2.41,42.689148599999996,-84.4889592,272.63,0.0660681426525116,2.602562189102173,0.055000003427267075,0.0,1
1683153233.55419397,71729624,0,3,340450599,2260,12,2.41,42.6891487,-84.4889594,272.62,0.015811389312148094,108.43494415283203,0.058000002056360245,0.0,1
1683153233.75416994,71929600,0,3,340450799,2260,13,2.3000000000000003,42.689149,-84.48895929999999,272.57,0.0655515119433403,21.476789474487305,0.08100000023841858,0.0,1
1683153233.95408893,72129519,0,3,340450999,2260,13,2.3000000000000003,42.6891493,-84.4889591,272.56,0.10346497595310211,32.768497467041016,0.11100000888109207,0.0,1
1683153234.15427804,72329708,0,3,340451199,2260,13,2.3000000000000003,42.6891495,-84.4889589,272.55,0.09079647809267044,352.4053649902344,0.10600000619888306,0.0,1
1683153234.35427284,72529703,0,3,340451399,2260,13,2.3000000000000003,42.6891496,-84.4889587,272.58,0.12660568952560425,13.706960678100586,0.18900001049041748,0.0,1
1683153234.55412483,72729555,0,3,340451599,2260,13,2.3000000000000003,42.6891496,-84.4889585,272.62,0.0531507283449173,11.944177627563477,0.16700001060962677,0.0,1
1683153234.75420904,72929639,0,3,340451799,2260,13,2.3000000000000003,42.689149799999996,-84.4889583,272.63,0.13060244917869568,18.29621696472168,0.1600000113248825,0.0,1
1683153234.95424700,73129677,0,3,340451999,2260,13,2.3000000000000003,42.6891502,-84.4889578,272.61,0.06400781124830246,28.967660903930664,0.06300000101327896,0.0,1
1683153235.15440583,73329836,0,3,340452199,2260,13,2.3000000000000003,42.6891505,-84.4889573,272.58,0.14139659702777863,19.844627380371094,0.18900001049041748,0.0,1
1683153235.37399197,73549422,0,3,340452399,2260,13,2.3000000000000003,42.6891507,-84.488957,272.6,0.1164989247918129,34.508522033691406,0.15200001001358032,0.0,1
1683153235.57438993,73749820,0,3,340452599,2260,13,2.3000000000000003,42.6891509,-84.4889565,272.62,0.13484807312488556,35.34010314941406,0.16200000047683716,0.0,1
1683153235.77412391,73949554,0,3,340452799,2260,13,2.3000000000000003,42.6891513,-84.4889561,272.58,0.12210242450237274,357.65313720703125,0.242000013589859,0.0,1
1683153235.97432494,74149755,0,3,340452999,2260,13,2.3000000000000003,42.6891514,-84.4889558,272.59000000000003,0.09126884490251541,57.52880859375,0.27900001406669617,0.0,1
1683153236.17421484,74349645,0,3,340453199,2260,13,2.3000000000000003,42.689151599999995,-84.4889554,272.6,0.1230650246143341,38.73251724243164,0.07800000160932541,0.0,1
1683153236.35400295,74529433,0,3,340453399,2260,13,2.3000000000000003,42.6891518,-84.48895499999999,272.64,0.17389941215515137,56.49269485473633,0.17000000178813934,0.0,1
1683153236.55404592,74729476,0,3,340453599,2260,13,2.3000000000000003,42.689152,-84.4889546,272.66,0.06747592240571976,50.411865234375,0.13100001215934753,0.0,1
1683153236.77405691,74949487,0,3,340453799,2260,13,2.3000000000000003,42.689152299999996,-84.4889543,272.66,0.011180341243743896,26.56505012512207,0.06599999964237213,0.0,1
1683153236.97394490,75149375,0,3,340453999,2260,13,2.3000000000000003,42.6891525,-84.4889541,272.67,0.019313208758831024,248.74951171875,0.004000000189989805,0.0,1
1683153237.17417288,75349603,0,3,340454199,2260,13,2.3000000000000003,42.6891527,-84.4889539,272.68,0.09948869794607162,39.289405822753906,0.12000000476837158,0.0,1
1683153237.37409496,75549525,0,3,340454399,2260,13,2.3000000000000003,42.689153,-84.4889536,272.68,0.03224903345108032,330.255126953125,0.08100000023841858,0.0,1
1683153237.57412004,75749550,0,3,340454599,2260,13,2.3000000000000003,42.6891532,-84.4889535,272.71,0.07338937371969223,70.08358764648438,0.07000000029802322,0.0,1
1683153237.77403593,75949466,0,3,340454799,2260,13,2.3000000000000003,42.689153399999995,-84.48895329999999,272.72,0.03157530725002289,349.0459289550781,0.01900000125169754,0.0,1
1683153237.97399282,76149423,0,3,340454999,2260,13,2.3000000000000003,42.6891537,-84.48895329999999,272.72,0.06670832633972168,319.864501953125,0.0560000017285347,0.0,1
1683153238.17406392,76349494,0,3,340455199,2260,13,2.3000000000000003,42.6891539,-84.48895329999999,272.73,0.034176018089056015,69.4439468383789,-0.032999999821186066,0.0,1
1683153238.37413096,76549561,0,3,340455399,2260,13,2.3000000000000003,42.6891543,-84.4889532,272.72,0.09436631202697754,40.272010803222656,0.1210000067949295,0.0,1
1683153238.57431102,76749741,0,3,340455599,2260,13,2.3000000000000003,42.689154599999995,-84.488953,272.69,0.04468780755996704,40.462223052978516,0.16200000047683716,0.0,1
1683153238.77395105,76949381,0,3,340455799,2260,13,2.3000000000000003,42.689155,-84.4889529,272.66,0.09235800802707672,19.612092971801758,0.1510000079870224,0.0,1
1683153238.95450902,77129939,0,3,340455999,2260,13,2.3000000000000003,42.689155199999995,-84.48895279999999,272.66,0.1249079704284668,29.23281478881836,0.16900001466274261,0.0,1
1683153239.17445493,77349885,0,3,340456199,2260,12,2.32,42.6891555,-84.48895279999999,272.66,0.11641735583543777,13.916876792907715,0.20900000631809235,0.0,1
1683153239.37411284,77549543,0,3,340456399,2260,12,2.32,42.6891556,-84.48895279999999,272.67,0.09484724700450897,42.43622970581055,0.21900001168251038,0.0,1
1683153239.57403302,77749463,0,3,340456599,2260,12,2.32,42.689155799999995,-84.4889527,272.67,0.09183137118816376,38.36748504638672,0.1720000058412552,0.0,1
1683153239.77415705,77949587,0,3,340456799,2260,12,2.32,42.689156,-84.4889527,272.67,0.07623647898435593,4.513988018035889,0.1210000067949295,0.0,1
1683153239.97423601,78149666,0,3,340456999,2260,12,2.32,42.6891562,-84.4889527,272.68,0.110353983938694,14.162166595458984,0.20900000631809235,0.0,1
1683153240.17410183,78349532,0,3,340457199,2260,13,2.3000000000000003,42.689156399999995,-84.4889527,272.68,0.07615773379802704,23.198589324951172,0.16700001060962677,0.0,1
1683153240.35411787,78529548,0,3,340457399,2260,13,2.3000000000000003,42.689156499999996,-84.48895279999999,272.72,0.15463829040527344,341.91656494140625,0.0690000057220459,0.0,1
1683153240.57394505,78749375,0,3,340457599,2260,13,2.3000000000000003,42.689157,-84.4889527,272.69,0.034885529428720474,297.299560546875,-0.036000002175569534,0.0,1
1683153240.77416801,78949598,0,3,340457799,2260,13,2.3000000000000003,42.689157099999996,-84.4889527,272.7,0.04100000113248825,12.680381774902344,0.10900000482797623,0.0,1
1683153240.97411799,79149548,0,3,340457999,2260,13,2.3000000000000003,42.6891573,-84.4889525,272.68,0.08348653465509415,55.738895416259766,0.0820000022649765,0.0,1
1683153241.17413282,79349563,0,3,340458199,2260,13,2.3000000000000003,42.689157699999996,-84.4889522,272.64,0.06545991450548172,18.71173667907715,0.16500000655651093,0.0,1
1683153241.37402582,79549456,0,3,340458399,2260,13,2.3000000000000003,42.6891579,-84.488952,272.62,0.040792159736156464,11.309930801391602,0.09300000220537186,0.0,1
1683153241.57402492,79749455,0,3,340458599,2260,13,2.3000000000000003,42.6891581,-84.4889517,272.62,0.10820813477039337,46.12329864501953,0.11300000548362732,0.0,1
1683153241.75413489,79929565,0,3,340458799,2260,13,2.3000000000000003,42.6891584,-84.4889515,272.59000000000003,0.04360045865178108,323.3929138183594,0.12600000202655792,0.0,1
1683153241.97427583,80149706,0,3,340458999,2260,13,2.3000000000000003,42.6891585,-84.4889513,272.6,0.07710383087396622,46.57654571533203,0.15700000524520874,0.0,1
1683153242.17457604,80350006,0,3,340459199,2260,13,2.3000000000000003,42.6891588,-84.488951,272.57,0.08134494721889496,20.885799407958984,0.11100000888109207,0.0,1
1683153242.37394404,80549374,0,3,340459399,2260,13,2.3000000000000003,42.689159,-84.48895069999999,272.56,0.11166468262672424,19.895429611206055,0.20600001513957977,0.0,1
1683153242.57399893,80749429,0,3,340459599,2260,13,2.3000000000000003,42.6891593,-84.4889504,272.53000000000003,0.03452535346150398,10.007978439331055,0.1420000046491623,0.0,1
1683153242.77428102,80949711,0,3,340459799,2260,13,2.3000000000000003,42.6891594,-84.48895019999999,272.52,0.124326191842556,26.771148681640625,0.17800000309944153,0.0,1
1683153242.97412491,81149555,0,3,340459999,2260,13,2.3000000000000003,42.689159599999996,-84.48895,272.52,0.10465658456087112,27.299570083618164,0.08500000089406967,0.0,1
1683153243.15411401,81329544,0,3,340460199,2260,13,2.3000000000000003,42.6891597,-84.4889499,272.52,0.026305893436074257,8.746161460876465,0.10300000756978989,0.0,1
1683153243.37399793,81549428,0,3,340460399,2260,13,2.3000000000000003,42.689159599999996,-84.4889499,272.54,0.08381527662277222,17.354022979736328,0.14500001072883606,0.0,1
1683153243.57405686,81749487,0,3,340460599,2260,13,2.3000000000000003,42.6891597,-84.4889499,272.54,0.06293647736310959,17.571258544921875,0.1340000033378601,0.0,1
1683153243.77426887,81949699,0,3,340460799,2260,13,2.3000000000000003,42.6891597,-84.48895,272.56,0.0747261717915535,15.524110794067383,0.1210000067949295,0.0,1
1683153243.97433686,82149767,0,3,340460999,2260,13,2.3000000000000003,42.6891598,-84.4889499,272.56,0.1600562483072281,17.07640838623047,0.2550000250339508,0.0,1
1683153244.17449498,82349925,0,3,340461199,2260,13,2.3000000000000003,42.6891598,-84.4889499,272.57,0.04904080182313919,2.337305784225464,0.18700000643730164,0.0,1
1683153244.37399292,82549423,0,3,340461399,2260,13,2.3000000000000003,42.6891598,-84.4889499,272.58,0.11552055925130844,20.788244247436523,0.12400000542402267,0.0,1
1683153244.57411003,82749540,0,3,340461599,2260,13,2.3000000000000003,42.6891597,-84.48895,272.61,0.03901281952857971,358.53118896484375,0.11300000548362732,0.0,1
1683153244.77413297,82949563,0,3,340461799,2260,13,2.3000000000000003,42.689159599999996,-84.48895,272.64,0.07220111042261124,30.827661514282227,0.11800000816583633,0.0,1
1683153244.97402096,83149451,0,3,340461999,2260,13,2.3000000000000003,42.689159499999995,-84.48895,272.67,0.006708203814923763,296.5650634765625,0.05100000277161598,0.0,1
1683153245.17398787,83349418,0,3,340462199,2260,12,2.4,42.6891598,-84.4889499,272.63,0.0863712951540947,5.314545631408691,0.14800000190734863,0.0,1
1683153245.37405896,83549489,0,3,340462399,2260,13,2.3000000000000003,42.6891593,-84.4889499,272.74,0.07521303743124008,125.80333709716797,0.021000001579523087,0.0,1
1683153245.57409191,83749522,0,3,340462599,2260,13,2.3000000000000003,42.689159499999995,-84.48894969999999,272.7,0.07924645394086838,317.04541015625,-0.007000000216066837,0.0,1
1683153245.75428605,83929716,0,3,340462799,2260,13,2.3000000000000003,42.689159499999995,-84.4889496,272.72,0.03465544804930687,133.8308563232422,-0.039000000804662704,0.0,1
1683153245.97416401,84149594,0,3,340462999,2260,13,2.3000000000000003,42.6891597,-84.4889494,272.7,0.037947334349155426,18.434947967529297,0.015000000596046448,0.0,1
1683153246.17435503,84349785,0,3,340463199,2260,13,2.3000000000000003,42.6891599,-84.4889492,272.68,0.11880236119031906,44.31793975830078,0.00800000037997961,0.0,1
1683153246.37410688,84549537,0,3,340463399,2260,13,2.3000000000000003,42.689160099999995,-84.4889489,272.66,0.05288667604327202,15.350135803222656,0.08900000154972076,0.0,1
1683153246.57413006,84749560,0,3,340463599,2260,13,2.3000000000000003,42.689160199999996,-84.4889488,272.66,0.09013878554105759,17.429861068725586,0.17600001394748688,0.0,1
1683153246.77402091,84949451,0,3,340463799,2260,13,2.3000000000000003,42.689160199999996,-84.4889487,272.67,0.042059484869241714,251.995849609375,0.014000000432133675,0.0,1
1683153246.97395897,85149389,0,3,340463999,2260,13,2.3000000000000003,42.6891603,-84.48894849999999,272.67,0.02801785245537758,34.824485778808594,-0.00800000037997961,0.0,1
1683153247.17424583,85349676,0,3,340464199,2260,13,2.3000000000000003,42.6891604,-84.4889484,272.69,0.08127115666866302,18.657886505126953,0.07400000095367432,0.0,1
1683153247.37428594,85549716,0,3,340464399,2260,13,2.3000000000000003,42.6891605,-84.4889482,272.69,0.06140033155679703,16.07357406616211,0.1120000034570694,0.0,1
1683153247.57430291,85749733,0,3,340464599,2260,13,2.3000000000000003,42.6891606,-84.4889481,272.71,0.13314653933048248,32.73522186279297,0.1380000114440918,0.0,1
1683153247.77451205,85949942,0,3,340464799,2260,13,2.3000000000000003,42.689160699999995,-84.48894779999999,272.7,0.060207974165678024,48.366458892822266,0.08500000089406967,0.0,1
1683153247.97398996,86149420,0,3,340464999,2260,13,2.3000000000000003,42.6891604,-84.4889479,272.75,0.10307765007019043,357.7760314941406,0.22500000894069672,0.0,1
1683153248.17409992,86349530,0,3,340465199,2260,13,2.3000000000000003,42.6891605,-84.48894779999999,272.74,0.0980612114071846,11.768288612365723,0.11500000208616257,0.0,1
1683153248.37411904,86549549,0,3,340465399,2260,13,2.3000000000000003,42.6891605,-84.48894779999999,272.75,0.10030453652143478,20.422330856323242,0.18300001323223114,0.0,1
1683153248.55429888,86729729,0,3,340465599,2260,13,2.3000000000000003,42.6891604,-84.4889477,272.78000000000003,0.1140175461769104,52.12501525878906,0.15000000596046448,0.0,1
1683153248.77399302,86949423,0,3,340465799,2260,13,2.3000000000000003,42.689160099999995,-84.4889476,272.81,0.11813975125551224,43.28506851196289,0.17900000512599945,0.0,1
1683153248.97406292,87149493,0,3,340465999,2260,13,2.3000000000000003,42.68916,-84.4889475,272.82,0.10855874419212341,5.815626621246338,0.23900000751018524,0.0,1
1683153249.17429090,87349721,0,3,340466199,2260,14,1.6500000000000001,42.6891599,-84.4889475,272.84000000000003,0.12657013535499573,31.4295654296875,0.1810000091791153,0.0,1
1683153249.37426805,87549698,0,3,340466399,2260,14,1.6500000000000001,42.6891597,-84.4889476,272.89,0.1344507336616516,4.692862510681152,0.2720000147819519,0.0,1
1683153249.57416987,87749600,0,3,340466599,2260,14,1.6500000000000001,42.6891597,-84.4889477,272.88,0.06905070692300797,10.007978439331055,0.164000004529953,0.0,1
1683153249.77438688,87949817,0,3,340466799,2260,14,1.6500000000000001,42.689159599999996,-84.48894779999999,272.91,0.07840918749570847,354.14398193359375,0.15600000321865082,0.0,1
1683153249.97411704,88149547,0,3,340466999,2260,14,1.6500000000000001,42.6891593,-84.488948,272.96,0.14016063511371613,29.491357803344727,0.21900001168251038,0.0,1
1683153250.17431188,88349742,0,3,340467199,2260,14,1.6500000000000001,42.6891592,-84.4889479,272.97,0.12371338158845901,57.2091178894043,0.1469999998807907,0.0,1
1683153250.37433004,88549760,0,3,340467399,2260,14,1.6500000000000001,42.6891591,-84.4889477,272.97,0.15274162590503693,45.530494689941406,0.14100000262260437,0.0,1
1683153250.57416701,88749597,0,3,340467599,2260,14,1.6500000000000001,42.6891591,-84.4889477,272.98,0.09527329355478287,25.489198684692383,0.12300000339746475,0.0,1
1683153250.77425289,88949683,0,3,340467799,2260,14,1.6500000000000001,42.6891591,-84.48894779999999,272.98,0.06216912716627121,348.8708190917969,0.1340000033378601,0.0,1
1683153250.97429895,89149729,0,3,340467999,2260,14,1.6500000000000001,42.689158899999995,-84.4889479,272.99,0.051623642444610596,351.0850830078125,0.0990000069141388,0.0,1
1683153251.17431784,89349748,0,3,340468199,2260,14,1.6500000000000001,42.689158899999995,-84.488948,273.0,0.052239831537008286,5.492324352264404,0.10300000756978989,0.0,1
1683153251.37451601,89549946,0,3,340468399,2260,14,1.6500000000000001,42.6891588,-84.4889481,273.01,0.09982485324144363,10.97223949432373,0.16600000858306885,0.0,1
