timestamp,TimeUS,DesRoll,Roll,DesPitch,Pitch,DesYaw,Yaw,ErrRP,ErrYaw,AEKF
1683153172.35430193,10529732,0.0,-1.11,0.0,0.36,0.01,0.01,1.0,1.0,0
1683153172.45404983,10629480,0.0,-1.06,0.0,0.38,334.41,334.42,1.0,0.8,0
1683153172.55404782,10729478,0.0,-1.12,0.0,0.32,334.40000000000003,334.41,0.8,0.64,0
1683153172.65411782,10829548,0.0,-1.1,0.0,0.25,334.42,334.43,0.8,0.51,0
1683153172.75415206,10929582,0.0,-1.16,0.0,0.26,334.51,334.52,0.64,0.41000000000000003,0
1683153172.85415483,11029585,0.0,-1.2,0.0,0.28,334.5,334.51,0.64,0.33,0
1683153172.95423198,11129662,0.0,-1.16,0.0,0.26,334.55,334.56,0.51,0.26,0
1683153173.05417800,11229608,0.0,-1.19,0.0,0.27,334.68,334.69,0.51,0.21,0
1683153173.15407395,11329504,0.0,-1.1500000000000001,0.0,0.25,334.71,334.72,0.41000000000000003,0.17,0
1683153173.25401688,11429447,0.0,-1.1400000000000001,0.0,0.22,334.67,334.68,0.41000000000000003,0.14,0
1683153173.35412598,11529556,0.0,-1.1400000000000001,0.0,0.24,334.73,334.74,0.32,0.11,0
1683153173.45413494,11629565,0.0,-1.1300000000000001,0.0,0.24,334.77,334.78000000000003,0.32,0.09,0
1683153173.55419397,11729624,0.0,-1.1400000000000001,0.0,0.26,334.84000000000003,334.85,0.26,0.07,0
1683153173.65423393,11829664,0.0,-1.1400000000000001,0.0,0.29,334.94,334.95,0.26,0.06,0
1683153173.75424385,11929674,0.0,-1.05,0.0,0.33,334.98,334.99,0.21,0.05,0
1683153173.85424185,12029672,0.0,-1.2,0.0,0.19,335.0,335.01,0.21,0.04,0
1683153173.95426893,12129699,0.0,-1.1,0.0,0.12,334.73,334.74,0.17,0.03,0
1683153174.05427098,12229701,0.0,-1.1500000000000001,0.0,0.2,334.71,334.72,0.17,0.03,0
1683153174.15415001,12329580,0.0,-1.12,0.0,0.12,334.85,334.86,0.13,0.02,0
1683153174.25414586,12429576,0.0,-1.16,0.0,0.12,334.73,334.74,0.13,0.02,0
1683153174.35439587,12529826,-0.27,-1.6400000000000001,-0.05,0.03,359.97,359.98,0.11,0.02,3
1683153174.45442605,12629856,-0.13,-1.6500000000000001,-0.02,0.0,0.07,0.07,0.11,0.01,3
1683153174.55428386,12729714,-0.07,-1.6600000000000001,-0.01,0.03,0.05,0.05,0.09,0.01,3
1683153174.65429688,12829727,-0.03,-1.62,0.0,0.01,359.98,359.99,0.09,0.01,3
1683153174.75430989,12929740,-0.01,-1.67,0.0,0.0,0.07,0.07,0.07,0.01,3
1683153174.85432196,13029752,0.0,-1.6,0.0,0.02,359.98,359.99,0.07,0.01,3
1683153174.95434189,13129772,0.0,-1.6400000000000001,0.0,0.01,0.03,0.03,0.05,0.01,3
1683153175.05453491,13229965,0.0,-1.58,0.0,0.05,0.16,0.16,0.05,0.0,3
1683153175.15414786,13329578,0.0,-1.61,0.0,0.04,0.16,0.16,0.04,0.0,3
1683153175.25419497,13429625,0.0,-1.6300000000000001,0.0,0.02,0.21,0.21,0.04,0.0,3
1683153175.35424185,13529672,0.0,-1.67,0.0,0.0,0.02,0.02,0.03,0.0,3
1683153175.45428491,13629715,0.0,-1.67,0.0,-0.02,0.18,0.18,0.03,0.0,3
1683153175.55429387,13729724,0.0,-1.74,0.0,-0.03,0.29,0.29,0.03,0.0,3
1683153175.65430093,13829731,0.0,-1.75,0.0,-0.1,359.91,359.92,0.03,0.0,3
1683153175.75458002,13930010,0.0,-1.79,0.0,-0.11,0.1,0.1,0.02,0.0,3
1683153175.85432196,14029752,-0.02,-1.83,0.0,-0.13,334.0,334.01,0.02,0.0,3
1683153175.95421600,14129646,-0.01,-1.84,0.0,-0.19,333.66,333.67,0.02,0.0,3
1683153176.05428195,14229712,0.0,-1.84,0.0,-0.2,333.75,333.76,0.02,0.0,3
1683153176.15417385,14329604,0.0,-1.84,0.0,-0.23,333.92,333.93,0.01,0.0,3
1683153176.25428200,14429712,0.0,-1.81,0.0,-0.23,333.59000000000003,333.6,0.01,0.01,3
1683153176.35439301,14529823,0.0,-1.79,0.0,-0.18,333.56,333.57,0.01,0.0,3
1683153176.45430303,14629733,0.0,-1.82,0.0,-0.22,333.64,333.65000000000003,0.01,0.0,3
1683153176.55430889,14729739,0.0,-1.84,0.0,-0.23,333.54,333.55,0.01,0.0,3
1683153176.65458989,14830020,0.0,-1.78,0.0,-0.24,333.59000000000003,333.6,0.01,0.0,3
1683153176.75433087,14929761,0.0,-1.83,0.0,-0.26,333.66,333.67,0.01,0.0,3
1683153176.85419202,15029622,0.0,-1.79,0.0,-0.25,333.58,333.59000000000003,0.01,0.0,3
1683153176.95426083,15129691,0.0,-1.83,0.0,-0.31,333.58,333.59000000000003,0.01,0.01,3
1683153177.05417991,15229610,0.0,-1.82,0.0,-0.31,333.64,333.65000000000003,0.01,0.01,3
1683153177.15424085,15329671,0.0,-1.82,0.0,-0.32,333.61,333.62,0.0,0.01,3
1683153177.25430703,15429737,0.0,-1.82,0.0,-0.37,333.51,333.52,0.0,0.01,3
1683153177.35430503,15529735,0.0,-1.83,0.0,-0.39,333.52,333.53000000000003,0.0,0.0,3
1683153177.45431185,15629742,0.0,-1.84,0.0,-0.42,333.47,333.48,0.0,0.01,3
1683153177.55452204,15729952,0.0,-1.85,0.0,-0.48,333.42,333.43,0.0,0.01,3
1683153177.65433097,15829761,0.0,-1.86,0.0,-0.48,333.5,333.51,0.0,0.01,3
1683153177.75418186,15929612,0.0,-1.85,0.0,-0.51,333.44,333.45,0.0,0.0,3
1683153177.85427499,16029705,0.0,-1.87,0.0,-0.52,333.39,333.40000000000003,0.0,0.0,3
1683153177.95418787,16129618,0.0,-1.87,0.0,-0.55,333.39,333.40000000000003,0.0,0.0,3
1683153178.05423594,16229666,0.0,-1.8800000000000001,0.0,-0.54,333.46,333.47,0.0,0.0,3
1683153178.15450597,16329936,0.0,-1.8900000000000001,0.0,-0.56,333.43,333.44,0.0,0.0,3
1683153178.25456595,16429996,0.0,-1.87,0.0,-0.5700000000000001,333.33,333.34000000000003,0.0,0.0,3
1683153178.35431695,16529747,0.0,-1.9100000000000001,0.0,-0.58,333.38,333.39,0.0,0.0,3
1683153178.45441985,16629850,0.0,-1.9000000000000001,0.0,-0.59,333.37,333.38,0.0,0.0,3
1683153178.55433583,16729766,0.0,-1.9100000000000001,0.0,-0.58,333.32,333.33,0.0,0.0,3
1683153178.65419602,16829626,0.0,-1.8800000000000001,0.0,-0.5700000000000001,333.40000000000003,333.41,0.0,0.0,3
1683153178.75418305,16929613,0.0,-1.9000000000000001,0.0,-0.5700000000000001,333.33,333.34000000000003,0.0,0.0,3
1683153178.85417604,17029606,0.0,-1.8900000000000001,0.0,-0.5700000000000001,333.26,333.27,0.0,0.01,3
1683153178.95445991,17129890,0.0,-1.9000000000000001,0.0,-0.56,333.33,333.34000000000003,0.0,0.0,3
1683153179.05429482,17229725,0.0,-1.9000000000000001,0.0,-0.55,333.28000000000003,333.29,0.0,0.0,3
1683153179.15428305,17329713,0.0,-1.9000000000000001,0.0,-0.55,333.2,333.21,0.0,0.0,3
1683153179.25432491,17429755,0.0,-1.9000000000000001,0.0,-0.54,333.27,333.28000000000003,0.0,0.01,3
1683153179.35432196,17529752,0.0,-1.9000000000000001,0.0,-0.54,333.26,333.27,0.0,0.0,3
1683153179.45450306,17629933,0.0,-1.9000000000000001,0.0,-0.54,333.22,333.23,0.0,0.0,3
1683153179.55449200,17729922,0.0,-1.8900000000000001,0.0,-0.53,333.32,333.33,0.0,0.0,3
1683153179.65450191,17829932,0.0,-1.9000000000000001,0.0,-0.52,333.32,333.33,0.0,0.0,3
1683153179.75439095,17929821,0.0,-1.8900000000000001,0.0,-0.52,333.28000000000003,333.29,0.0,0.0,3
1683153179.85441804,18029848,0.0,-1.8900000000000001,0.0,-0.51,333.36,333.37,0.0,0.01,3
1683153179.95446587,18129896,0.0,-1.8800000000000001,0.0,-0.52,333.33,333.34000000000003,0.0,0.0,3
1683153180.05446982,18229900,0.0,-1.8900000000000001,0.0,-0.51,333.27,333.28000000000003,0.0,0.0,3
1683153180.15449095,18329921,0.0,-1.8800000000000001,0.0,-0.51,333.32,333.33,0.0,0.0,3
1683153180.25478601,18430216,0.0,-1.8800000000000001,0.0,-0.5,333.3,333.31,0.0,0.0,3
1683153180.35459805,18530028,0.0,-1.8900000000000001,0.0,-0.5,333.25,333.26,0.0,0.0,3
1683153180.45453787,18629968,0.0,-1.86,0.0,-0.49,333.3,333.31,0.0,0.0,3
1683153180.55413795,18729568,0.0,-1.87,0.0,-0.49,333.31,333.32,0.0,0.0,3
1683153180.65417194,18829602,0.0,-1.86,0.0,-0.49,333.25,333.26,0.0,0.0,3
1683153180.75423884,18929669,0.0,-1.87,0.0,-0.49,333.29,333.3,0.0,0.0,3
1683153180.85429382,19029724,0.0,-1.84,0.0,-0.49,333.33,333.34000000000003,0.0,0.0,3
1683153180.95430684,19129737,0.0,-1.87,0.0,-0.49,333.3,333.31,0.0,0.0,3
1683153181.05451083,19229941,0.0,-1.83,0.0,-0.49,333.34000000000003,333.35,0.0,0.0,3
1683153181.15457487,19330005,0.0,-1.85,0.0,-0.49,333.37,333.38,0.0,0.0,3
1683153181.25444102,19429871,0.0,-1.84,0.0,-0.49,333.34000000000003,333.35,0.0,0.0,3
1683153181.35419989,19529630,0.0,-1.85,0.0,-0.48,333.31,333.32,0.0,0.02,3
1683153181.45421100,19629641,0.0,-1.84,0.0,-0.47000000000000003,333.21,333.22,0.0,0.04,3
1683153181.55418491,19729615,0.0,-1.84,0.0,-0.47000000000000003,332.96,332.97,0.0,0.05,3
1683153181.65425301,19829683,0.0,-1.84,0.0,-0.47000000000000003,332.71,332.72,0.0,0.06,3
1683153181.75428391,19929714,0.0,-1.84,0.0,-0.48,332.45,332.46,0.0,0.07,3
1683153181.85430098,20029731,0.0,-1.87,0.0,-0.51,332.1,332.11,0.0,0.07,3
1683153181.95432305,20129753,0.0,-1.83,0.0,-0.49,331.74,331.75,0.0,0.07,3
1683153182.05434394,20229774,0.0,-1.81,0.0,-0.47000000000000003,331.43,331.44,0.0,0.06,3
1683153182.15438390,20329814,0.0,-1.82,0.0,-0.5,331.21,331.22,0.0,0.05,3
1683153182.25428987,20429720,0.0,-1.82,0.0,-0.46,330.92,330.93,0.0,0.05,3
1683153182.35426688,20529697,0.0,-1.81,0.0,-0.47000000000000003,330.64,330.65000000000003,0.0,0.05,3
1683153182.45441985,20629850,0.0,-1.82,0.0,-0.47000000000000003,330.5,330.51,0.0,0.05,3
1683153182.55446291,20729893,0.0,-1.8,0.0,-0.46,330.29,330.3,0.0,0.05,3
1683153182.65440583,20829836,0.0,-1.8,0.0,-0.46,330.06,330.07,0.0,0.04,3
1683153182.75431585,20929746,0.0,-1.78,0.0,-0.45,329.93,329.94,0.0,0.04,3
1683153182.85433197,21029762,0.0,-1.79,0.0,-0.45,329.71,329.72,0.0,0.04,3
1683153182.95434093,21129771,0.0,-1.81,0.0,-0.47000000000000003,329.54,329.55,0.0,0.04,3
1683153183.05437303,21229803,0.0,-1.79,0.0,-0.45,329.35,329.36,0.0,0.03,3
1683153183.15453506,21329965,0.0,-1.8,0.0,-0.45,329.07,329.08,0.0,0.03,3
1683153183.25460887,21430039,0.0,-1.77,0.0,-0.44,328.97,328.98,0.0,0.03,3
1683153183.35440183,21529832,0.0,-1.79,0.0,-0.45,328.87,328.88,0.0,0.03,3
1683153183.45443106,21629861,0.0,-1.75,0.0,-0.44,328.66,328.67,0.0,0.02,3
1683153183.55448699,21729917,0.0,-1.77,0.0,-0.43,328.47,328.48,0.0,0.02,3
1683153183.65449691,21829927,0.0,-1.76,0.0,-0.44,328.40000000000003,328.41,0.0,0.02,3
1683153183.75449896,21929929,0.0,-1.76,0.0,-0.43,328.22,328.23,0.0,0.02,3
1683153183.85475397,22030184,0.0,-1.77,0.0,-0.43,328.05,328.06,0.0,0.02,3
1683153183.95461893,22130049,0.0,-1.76,0.0,-0.43,327.98,327.99,0.0,0.02,3
1683153184.05420995,22229640,0.0,-1.76,0.0,-0.44,327.82,327.83,0.0,0.02,3
1683153184.15424395,22329674,0.0,-1.77,0.0,-0.43,327.65000000000003,327.66,0.0,0.02,3
1683153184.25423384,22429664,0.0,-1.77,0.0,-0.44,327.56,327.57,0.0,0.01,3
1683153184.35426688,22529697,0.0,-1.77,0.0,-0.44,327.41,327.42,0.0,0.01,3
1683153184.45451403,22629944,0.0,-1.76,0.0,-0.43,327.26,327.27,0.0,0.01,3
1683153184.55452394,22729954,0.0,-1.76,0.0,-0.44,327.18,327.19,0.0,0.01,3
1683153184.65432096,22829751,0.0,-1.77,0.0,-0.43,327.06,327.07,0.0,0.01,3
1683153184.75441098,22929841,0.0,-1.75,0.0,-0.43,326.93,326.94,0.0,0.01,3
1683153184.85432982,23029760,0.0,-1.76,0.0,-0.43,326.89,326.90000000000003,0.0,0.01,3
1683153184.95420790,23129638,0.0,-1.74,0.0,-0.42,326.78000000000003,326.79,0.0,0.01,3
1683153185.05426502,23229695,0.0,-1.73,0.0,-0.42,326.67,326.68,0.0,0.01,3
1683153185.15442586,23329856,0.0,-1.74,0.0,-0.42,326.66,326.67,0.0,0.01,3
1683153185.25458193,23430012,0.0,-1.73,0.0,-0.42,326.57,326.58,0.0,0.01,3
1683153185.35429692,23529727,0.0,-1.74,0.0,-0.43,326.46,326.47,0.0,0.01,3
1683153185.45429206,23629722,0.0,-1.74,0.0,-0.43,326.41,326.42,0.0,0.01,3
1683153185.55432701,23729757,0.0,-1.76,0.0,-0.43,326.3,326.31,0.0,0.01,3
1683153185.65432000,23829750,0.0,-1.74,0.0,-0.42,326.2,326.21,0.0,0.01,3
1683153185.75432706,23929757,0.0,-1.76,0.0,-0.43,326.16,326.17,0.0,0.01,3
1683153185.85452890,24029959,0.0,-1.75,0.0,-0.42,326.07,326.08,0.0,0.01,3
1683153185.95425797,24129688,0.0,-1.76,0.0,-0.42,325.99,326.0,0.0,0.01,3
1683153186.05417299,24229603,0.0,-1.77,0.0,-0.42,325.96,325.97,0.0,0.01,3
1683153186.15425491,24329685,0.0,-1.74,0.0,-0.42,325.88,325.89,0.0,0.01,3
1683153186.25433183,24429762,0.0,-1.76,0.0,-0.42,325.82,325.83,0.0,0.01,3
1683153186.35430384,24529734,0.0,-1.74,0.0,-0.41000000000000003,325.8,325.81,0.0,0.01,3
1683153186.45452785,24629958,0.0,-1.75,0.0,-0.41000000000000003,325.73,325.74,0.0,0.01,3
1683153186.55458188,24730012,0.0,-1.75,0.0,-0.41000000000000003,325.67,325.68,0.0,0.0,3
1683153186.65434194,24829772,0.0,-1.75,0.0,-0.41000000000000003,325.64,325.65000000000003,0.0,0.01,3
1683153186.75420594,24929636,0.0,-1.74,0.0,-0.42,325.58,325.59000000000003,0.0,0.01,3
1683153186.85455394,25029984,0.0,-1.75,0.0,-0.41000000000000003,325.55,325.56,0.0,0.01,3
1683153186.95439601,25129826,0.0,-1.74,0.0,-0.42,325.53000000000003,325.54,0.0,0.01,3
1683153187.05442405,25229854,0.0,-1.75,0.0,-0.41000000000000003,325.47,325.48,0.0,0.0,3
1683153187.15446806,25329898,0.0,-1.74,0.0,-0.41000000000000003,325.43,325.44,0.0,0.0,3
1683153187.25483584,25430266,0.0,-1.75,0.0,-0.41000000000000003,325.42,325.43,0.0,0.0,3
1683153187.35450697,25529937,0.0,-1.74,0.0,-0.41000000000000003,325.36,325.37,0.0,0.0,3
1683153187.45448685,25629917,0.0,-1.74,0.0,-0.42,325.33,325.34000000000003,0.0,0.0,3
1683153187.55457306,25730003,0.0,-1.74,0.0,-0.41000000000000003,325.31,325.32,0.0,0.0,3
1683153187.65449691,25829927,0.0,-1.73,0.0,-0.41000000000000003,325.25,325.26,0.0,0.0,3
1683153187.75455999,25929990,0.0,-1.74,0.0,-0.41000000000000003,325.22,325.23,0.0,0.0,3
1683153187.85466886,26030099,0.0,-1.73,0.0,-0.41000000000000003,325.21,325.22,0.0,0.0,3
1683153187.95445800,26129888,0.0,-1.74,0.0,-0.42,325.17,325.18,0.0,0.0,3
1683153188.05430603,26229736,0.0,-1.73,0.0,-0.42,325.17,325.18,0.0,0.0,3
1683153188.15431905,26329749,0.0,-1.74,0.0,-0.42,325.17,325.18,0.0,0.0,3
1683153188.25440192,26429832,0.0,-1.72,0.0,-0.42,325.14,325.15000000000003,0.0,0.0,3
1683153188.35431504,26529745,0.0,-1.73,0.0,-0.42,325.14,325.15000000000003,0.0,0.0,3
1683153188.45436287,26629793,0.0,-1.72,0.0,-0.42,325.14,325.15000000000003,0.0,0.0,3
1683153188.55452991,26729960,0.0,-1.73,0.0,-0.42,325.12,325.13,0.0,0.0,3
1683153188.65425992,26829690,0.0,-1.72,0.0,-0.42,325.12,325.13,0.0,0.0,3
1683153188.75417185,26929602,0.0,-1.73,0.0,-0.43,325.12,325.13,0.0,0.0,3
1683153188.85425401,27029684,0.0,-1.73,0.0,-0.43,325.08,325.09000000000003,0.0,0.0,3
1683153188.95435905,27129789,0.0,-1.72,0.0,-0.43,325.07,325.08,0.0,0.0,3
1683153189.05429888,27229729,0.0,-1.72,0.0,-0.42,325.05,325.06,0.0,0.0,3
1683153189.15432191,27329752,0.0,-1.72,0.0,-0.43,325.03000000000003,325.04,0.0,0.0,3
1683153189.25440383,27429834,0.0,-1.73,0.0,-0.42,325.03000000000003,325.04,0.0,0.0,3
1683153189.35436201,27529792,0.0,-1.72,0.0,-0.42,325.03000000000003,325.04,0.0,0.0,3
1683153189.45420885,27629639,0.0,-1.73,0.0,-0.42,325.01,325.02,0.0,0.01,3
1683153189.55427694,27729707,0.0,-1.73,0.0,-0.42,325.03000000000003,325.04,0.0,0.01,3
1683153189.65418696,27829617,0.0,-1.73,0.0,-0.42,325.02,325.03000000000003,0.0,0.01,3
1683153189.75426197,27929692,0.0,-1.73,0.0,-0.42,324.99,325.0,0.0,0.0,3
1683153189.85451603,28029946,0.0,-1.72,0.0,-0.42,324.99,325.0,0.0,0.0,3
1683153189.95457792,28130008,0.0,-1.73,0.0,-0.43,324.98,324.99,0.0,0.0,3
1683153190.05452394,28229954,0.0,-1.72,0.0,-0.43,324.96,324.97,0.0,0.0,3
1683153190.15458488,28330015,0.0,-1.73,0.0,-0.43,324.97,324.98,0.0,0.01,3
1683153190.25441289,28429843,0.0,-1.72,0.0,-0.44,324.96,324.97,0.0,0.01,3
1683153190.35420799,28529638,0.0,-1.73,0.0,-0.43,324.92,324.93,0.0,0.01,3
1683153190.45428205,28629712,0.0,-1.72,0.0,-0.43,324.92,324.93,0.0,0.01,3
1683153190.55420899,28729639,0.0,-1.72,0.0,-0.43,324.90000000000003,324.91,0.0,0.01,3
1683153190.65425491,28829685,0.0,-1.72,0.0,-0.43,324.88,324.89,0.0,0.01,3
1683153190.75431299,28929743,0.0,-1.73,0.0,-0.44,324.89,324.90000000000003,0.0,0.01,3
1683153190.85451603,29029946,0.0,-1.72,0.0,-0.43,324.89,324.90000000000003,0.0,0.01,3
1683153190.95459604,29130026,0.0,-1.73,0.0,-0.44,324.86,324.87,0.0,0.01,3
1683153191.05468893,29230119,0.0,-1.73,0.0,-0.44,324.86,324.87,0.0,0.0,3
1683153191.15459394,29330024,0.0,-1.73,0.0,-0.43,324.85,324.86,0.0,0.0,3
1683153191.25457287,29430003,0.0,-1.73,0.0,-0.44,324.83,324.84000000000003,0.0,0.01,3
1683153191.35461497,29530045,0.0,-1.72,0.0,-0.44,324.83,324.84000000000003,0.0,0.01,3
1683153191.45477104,29630201,0.0,-1.74,0.0,-0.44,324.82,324.83,0.0,0.01,3
1683153191.55454302,29729973,0.0,-1.73,0.0,-0.44,324.8,324.81,0.0,0.01,3
1683153191.65429282,29829723,0.0,-1.74,0.0,-0.43,324.79,324.8,0.0,0.01,3
1683153191.75433302,29929763,0.0,-1.73,0.0,-0.44,324.77,324.78000000000003,0.0,0.01,3
1683153191.85430884,30029739,0.0,-1.74,0.0,-0.44,324.74,324.75,0.0,0.01,3
1683153191.95432305,30129753,0.0,-1.74,0.0,-0.44,324.73,324.74,0.0,0.0,3
1683153192.05434084,30229771,0.0,-1.74,0.0,-0.44,324.72,324.73,0.0,0.01,3
1683153192.15419984,30329630,0.0,-1.74,0.0,-0.44,324.7,324.71,0.0,0.01,3
1683153192.25426888,30429699,0.0,-1.73,0.0,-0.44,324.7,324.71,0.0,0.01,3
1683153192.35417795,30529608,0.0,-1.74,0.0,-0.44,324.69,324.7,0.0,0.01,3
1683153192.45424104,30629671,0.0,-1.73,0.0,-0.45,324.67,324.68,0.0,0.0,3
1683153192.55451488,30729945,0.0,-1.74,0.0,-0.44,324.67,324.68,0.0,0.0,3
1683153192.65449786,30829928,0.0,-1.73,0.0,-0.44,324.65000000000003,324.66,0.0,0.0,3
1683153192.75431585,30929746,0.0,-1.74,0.0,-0.45,324.63,324.64,0.0,0.0,3
1683153192.85432887,31029759,0.0,-1.74,0.0,-0.44,324.64,324.65000000000003,0.0,0.0,3
1683153192.95435905,31129789,0.0,-1.74,0.0,-0.45,324.63,324.64,0.0,0.01,3
1683153193.05418897,31229619,0.0,-1.74,0.0,-0.45,324.62,324.63,0.0,0.01,3
1683153193.15427089,31329701,0.0,-1.73,0.0,-0.45,324.64,324.65000000000003,0.0,0.0,3
1683153193.25420904,31429639,0.0,-1.73,0.0,-0.45,324.65000000000003,324.66,0.0,0.01,3
1683153193.35446596,31529896,0.0,-1.73,0.0,-0.45,324.64,324.65000000000003,0.0,0.01,3
1683153193.45429587,31629726,0.0,-1.73,0.0,-0.45,324.65000000000003,324.66,0.0,0.01,3
1683153193.55431604,31729746,0.0,-1.73,0.0,-0.45,324.66,324.67,0.0,0.01,3
1683153193.65431499,31829745,0.0,-1.73,0.0,-0.46,324.67,324.68,0.0,0.01,3
1683153193.75432587,31929756,0.0,-1.72,0.0,-0.46,324.68,324.69,0.0,0.01,3
1683153193.85433888,32029769,0.0,-1.72,0.0,-0.46,324.68,324.69,0.0,0.01,3
1683153193.95452595,32129956,0.0,-1.72,0.0,-0.46,324.67,324.68,0.0,0.01,3
1683153194.05425787,32229688,0.0,-1.72,0.0,-0.46,324.67,324.68,0.0,0.0,3
1683153194.15417385,32329604,0.0,-1.72,0.0,-0.47000000000000003,324.67,324.68,0.0,0.01,3
1683153194.25428295,32429713,0.0,-1.72,0.0,-0.47000000000000003,324.66,324.67,0.0,0.01,3
1683153194.35429096,32529721,0.0,-1.72,0.0,-0.47000000000000003,324.66,324.67,0.0,0.01,3
1683153194.45430183,32629732,0.0,-1.71,0.0,-0.47000000000000003,324.65000000000003,324.66,0.0,0.0,3
1683153194.55431294,32729743,0.0,-1.72,0.0,-0.47000000000000003,324.64,324.65000000000003,0.0,0.0,3
1683153194.65458894,32830019,0.0,-1.71,0.0,-0.47000000000000003,324.64,324.65000000000003,0.0,0.0,3
1683153194.75451994,32929950,0.0,-1.72,0.0,-0.47000000000000003,324.63,324.64,0.0,0.0,3
1683153194.85450387,33029934,0.0,-1.71,0.0,-0.48,324.62,324.63,0.0,0.0,3
1683153194.95454288,33129973,0.0,-1.72,0.0,-0.48,324.63,324.64,0.0,0.0,3
1683153195.05438995,33229820,0.0,-1.72,0.0,-0.48,324.63,324.64,0.0,0.01,3
1683153195.15443397,33329864,0.0,-1.72,0.0,-0.48,324.62,324.63,0.0,0.0,3
1683153195.25473404,33430164,0.0,-1.72,0.0,-0.49,324.63,324.64,0.0,0.01,3
1683153195.35450101,33529931,0.0,-1.72,0.0,-0.49,324.62,324.63,0.0,0.0,3
1683153195.45447803,33629908,0.0,-1.73,0.0,-0.5,324.61,324.62,0.0,0.0,3
1683153195.55449605,33729926,0.0,-1.73,0.0,-0.5,324.61,324.62,0.0,0.0,3
1683153195.65450001,33829930,0.0,-1.73,0.0,-0.5,324.61,324.62,0.0,0.0,3
1683153195.75453591,33929966,0.0,-1.72,0.0,-0.5,324.61,324.62,0.0,0.0,3
1683153195.85416293,34029593,0.0,-1.73,0.0,-0.5,324.62,324.63,0.0,0.0,3
1683153195.95418501,34129615,0.0,-1.72,0.0,-0.5,324.63,324.64,0.0,0.0,3
1683153196.05424905,34229679,0.0,-1.72,0.0,-0.5,324.63,324.64,0.0,0.0,3
1683153196.15430093,34329731,0.0,-1.72,0.0,-0.5,324.64,324.65000000000003,0.0,0.0,3
1683153196.25433683,34429767,0.0,-1.72,0.0,-0.51,324.64,324.65000000000003,0.0,0.0,3
1683153196.35432982,34529760,0.0,-1.72,0.0,-0.51,324.64,324.65000000000003,0.0,0.0,3
1683153196.45431685,34629747,0.0,-1.72,0.0,-0.51,324.65000000000003,324.66,0.0,0.0,3
1683153196.55437303,34729803,0.0,-1.73,0.0,-0.51,324.66,324.67,0.0,0.0,3
1683153196.65453291,34829963,0.0,-1.72,0.0,-0.52,324.66,324.67,0.0,0.0,3
1683153196.75423002,34929660,0.0,-1.72,0.0,-0.52,324.67,324.68,0.0,0.0,3
1683153196.85416102,35029591,0.0,-1.72,0.0,-0.52,324.66,324.67,0.0,0.0,3
1683153196.95425892,35129689,0.0,-1.72,0.0,-0.52,324.67,324.68,0.0,0.0,3
1683153197.05430388,35229734,0.0,-1.72,0.0,-0.52,324.67,324.68,0.0,0.0,3
1683153197.15430999,35329740,0.0,-1.72,0.0,-0.52,324.65000000000003,324.66,0.0,0.0,3
1683153197.25438690,35429817,0.0,-1.72,0.0,-0.52,324.65000000000003,324.66,0.0,0.0,3
1683153197.35472393,35530154,0.0,-1.71,0.0,-0.52,324.66,324.67,0.0,0.0,3
1683153197.45432091,35629751,0.0,-1.72,0.0,-0.52,324.66,324.67,0.0,0.01,3
1683153197.55420399,35729634,0.0,-1.71,0.0,-0.52,324.66,324.67,0.0,0.01,3
1683153197.65421700,35829647,0.0,-1.71,0.0,-0.52,324.66,324.67,0.0,0.0,3
1683153197.75418496,35929615,0.0,-1.71,0.0,-0.53,324.66,324.67,0.0,0.0,3
1683153197.85424089,36029671,0.0,-1.71,0.0,-0.53,324.67,324.68,0.0,0.0,3
1683153197.95429993,36129730,0.0,-1.71,0.0,-0.54,324.67,324.68,0.0,0.0,3
1683153198.05429006,36229720,0.0,-1.71,0.0,-0.54,324.68,324.69,0.0,0.0,3
1683153198.15429592,36329726,0.0,-1.71,0.0,-0.54,324.69,324.7,0.0,0.0,3
1683153198.25439191,36429822,0.0,-1.7,0.0,-0.54,324.7,324.71,0.0,0.01,3
1683153198.35435891,36529789,0.0,-1.71,0.0,-0.54,324.71,324.72,0.0,0.01,3
1683153198.45452785,36629958,0.0,-1.7,0.0,-0.54,324.73,324.74,0.0,0.01,3
1683153198.55458498,36730015,0.0,-1.71,0.0,-0.53,324.75,324.76,0.0,0.01,3
1683153198.65442395,36829854,0.0,-1.71,0.0,-0.53,324.76,324.77,0.0,0.01,3
1683153198.75446391,36929894,0.0,-1.71,0.0,-0.53,324.77,324.78000000000003,0.0,0.01,3
1683153198.85427594,37029706,0.0,-1.71,0.0,-0.53,324.78000000000003,324.79,0.0,0.01,3
1683153198.95430183,37129732,0.0,-1.71,0.0,-0.53,324.77,324.78000000000003,0.0,0.01,3
1683153199.05430603,37229736,0.0,-1.71,0.0,-0.53,324.78000000000003,324.79,0.0,0.01,3
1683153199.15431690,37329747,0.0,-1.71,0.0,-0.53,324.78000000000003,324.79,0.0,0.01,3
1683153199.25440288,37429833,0.0,-1.71,0.0,-0.53,324.79,324.8,0.0,0.01,3
1683153199.35421705,37529647,0.0,-1.7,0.0,-0.53,324.8,324.81,0.0,0.01,3
1683153199.45415497,37629585,0.0,-1.7,0.0,-0.54,324.81,324.82,0.0,0.01,3
1683153199.55442095,37729851,0.0,-1.7,0.0,-0.54,324.82,324.83,0.0,0.01,3
1683153199.65425086,37829681,0.0,-1.7,0.0,-0.53,324.82,324.83,0.0,0.01,3
1683153199.75428891,37929719,0.0,-1.7,0.0,-0.53,324.82,324.83,0.0,0.0,3
1683153199.85427403,38029704,0.0,-1.7,0.0,-0.53,324.82,324.83,0.0,0.0,3
1683153199.95430994,38129740,0.0,-1.7,0.0,-0.54,324.82,324.83,0.0,0.0,3
1683153200.05432391,38229754,0.0,-1.69,0.0,-0.54,324.81,324.82,0.0,0.0,3
1683153200.15439487,38329825,0.0,-1.69,0.0,-0.54,324.82,324.83,0.0,0.01,3
1683153200.25457287,38430003,0.0,-1.69,0.0,-0.54,324.82,324.83,0.0,0.0,3
1683153200.35460591,38530036,0.0,-1.7,0.0,-0.54,324.82,324.83,0.0,0.0,3
1683153200.45416188,38629592,0.0,-1.69,0.0,-0.54,324.82,324.83,0.0,0.0,3
1683153200.55425000,38729680,0.0,-1.69,0.0,-0.54,324.83,324.84000000000003,0.0,0.0,3
1683153200.65428996,38829720,0.0,-1.69,0.0,-0.54,324.84000000000003,324.85,0.0,0.0,3
1683153200.75430298,38929733,0.0,-1.69,0.0,-0.54,324.84000000000003,324.85,0.0,0.0,3
1683153200.85430002,39029730,0.0,-1.69,0.0,-0.54,324.85,324.86,0.0,0.0,3
1683153200.95451593,39129946,0.0,-1.69,0.0,-0.54,324.85,324.86,0.0,0.0,3
1683153201.05458784,39230018,0.0,-1.69,0.0,-0.54,324.85,324.86,0.0,0.0,3
1683153201.15452790,39329958,0.0,-1.69,0.0,-0.54,324.86,324.87,0.0,0.0,3
1683153201.25430799,39429738,0.0,-1.69,0.0,-0.54,324.87,324.88,0.0,0.0,3
1683153201.35418105,39529611,0.0,-1.68,0.0,-0.54,324.87,324.88,0.0,0.0,3
1683153201.45424604,39629676,0.0,-1.68,0.0,-0.54,324.88,324.89,0.0,0.0,3
1683153201.55439186,39729822,0.0,-1.68,0.0,-0.53,324.89,324.90000000000003,0.0,0.0,3
1683153201.65429688,39829727,0.0,-1.68,0.0,-0.53,324.89,324.90000000000003,0.0,0.0,3
1683153201.75432897,39929759,0.0,-1.68,0.0,-0.53,324.89,324.90000000000003,0.0,0.0,3
1683153201.85432386,40029754,0.0,-1.67,0.0,-0.53,324.89,324.90000000000003,0.0,0.0,3
1683153201.95434189,40129772,0.0,-1.67,0.0,-0.53,324.90000000000003,324.91,0.0,0.01,3
1683153202.05451894,40229949,0.0,-1.67,0.0,-0.53,324.91,324.92,0.0,0.01,3
1683153202.15421796,40329648,0.0,-1.6600000000000001,0.0,-0.53,324.93,324.94,0.0,0.01,3
1683153202.25421786,40429648,0.0,-1.6600000000000001,0.0,-0.53,324.95,324.96,0.0,0.01,3
1683153202.35423589,40529666,0.0,-1.6600000000000001,0.0,-0.53,324.97,324.98,0.0,0.01,3
1683153202.45426989,40629700,0.0,-1.6600000000000001,0.0,-0.53,324.99,325.0,0.0,0.01,3
1683153202.55429101,40729721,0.0,-1.6600000000000001,0.0,-0.53,325.01,325.02,0.0,0.01,3
1683153202.65430784,40829738,0.0,-1.6500000000000001,0.0,-0.53,325.02,325.03000000000003,0.0,0.01,3
1683153202.75456500,40929995,0.0,-1.6500000000000001,0.0,-0.53,325.03000000000003,325.04,0.0,0.0,3
1683153202.85457802,41030008,0.0,-1.6500000000000001,0.0,-0.53,325.04,325.05,0.0,0.0,3
1683153202.95420790,41129638,0.0,-1.6500000000000001,0.0,-0.53,325.04,325.05,0.0,0.0,3
1683153203.05421305,41229643,0.0,-1.6400000000000001,0.0,-0.53,325.05,325.06,0.0,0.0,3
1683153203.15418983,41329620,0.0,-1.6400000000000001,0.0,-0.52,325.06,325.07,0.0,0.0,3
1683153203.25428200,41429712,0.0,-1.6400000000000001,0.0,-0.52,325.06,325.07,0.0,0.0,3
1683153203.35451889,41529949,0.0,-1.6300000000000001,0.0,-0.52,325.07,325.08,0.0,0.0,3
1683153203.45451093,41629941,0.0,-1.6300000000000001,0.0,-0.52,325.07,325.08,0.0,0.0,3
1683153203.55430484,41729735,0.0,-1.6300000000000001,0.0,-0.52,325.08,325.09000000000003,0.0,0.0,3
1683153203.65440297,41829833,0.0,-1.6300000000000001,0.0,-0.52,325.08,325.09000000000003,0.0,0.0,3
1683153203.75433898,41929769,0.0,-1.6300000000000001,0.0,-0.52,325.08,325.09000000000003,0.0,0.0,3
1683153203.85428596,42029716,0.0,-1.6300000000000001,0.0,-0.52,325.08,325.09000000000003,0.0,0.01,3
1683153203.95421290,42129643,0.0,-1.62,0.0,-0.52,325.08,325.09000000000003,0.0,0.0,3
1683153204.05441999,42229850,0.0,-1.62,0.0,-0.52,325.09000000000003,325.1,0.0,0.0,3
1683153204.15446091,42329891,0.0,-1.62,0.0,-0.51,325.1,325.11,0.0,0.0,3
1683153204.25431800,42429748,0.0,-1.62,0.0,-0.51,325.11,325.12,0.0,0.0,3
1683153204.35429788,42529728,0.0,-1.62,0.0,-0.51,325.12,325.13,0.0,0.0,3
1683153204.45431304,42629743,0.0,-1.62,0.0,-0.5,325.13,325.14,0.0,0.0,3
1683153204.55432296,42729753,0.0,-1.62,0.0,-0.5,325.14,325.15000000000003,0.0,0.01,3
1683153204.65433288,42829763,0.0,-1.62,0.0,-0.5,325.16,325.17,0.0,0.0,3
1683153204.75452399,42929954,0.0,-1.62,0.0,-0.5,325.17,325.18,0.0,0.01,3
1683153204.85420799,43029638,0.0,-1.62,0.0,-0.5,325.18,325.19,0.0,0.0,3
1683153204.95438886,43129819,0.0,-1.62,0.0,-0.5,325.2,325.21,0.0,0.0,3
1683153205.05443192,43229862,0.0,-1.62,0.0,-0.5,325.21,325.22,0.0,0.0,3
1683153205.15448785,43329918,0.0,-1.61,0.0,-0.5,325.21,325.22,0.0,0.0,3
1683153205.25456500,43429995,0.0,-1.62,0.0,-0.5,325.22,325.23,0.0,0.0,3
1683153205.35448503,43529915,0.0,-1.62,0.0,-0.49,325.23,325.24,0.0,0.0,3
1683153205.45448995,43629920,0.0,-1.62,0.0,-0.5,325.24,325.25,0.0,0.0,3
1683153205.55452704,43729957,0.0,-1.62,0.0,-0.5,325.25,325.26,0.0,0.0,3
1683153205.65448189,43829912,0.0,-1.61,0.0,-0.5,325.25,325.26,0.0,0.0,3
1683153205.75457382,43930004,0.0,-1.61,0.0,-0.49,325.26,325.27,0.0,0.0,3
1683153205.85467005,44030100,0.0,-1.6,0.0,-0.49,325.27,325.28000000000003,0.0,0.0,3
1683153205.95445704,44129887,0.0,-1.6,0.0,-0.49,325.28000000000003,325.29,0.0,0.0,3
1683153206.05427384,44229704,0.0,-1.6,0.0,-0.49,325.29,325.3,0.0,0.0,3
1683153206.15429997,44329730,0.0,-1.6,0.0,-0.49,325.29,325.3,0.0,0.0,3
1683153206.25433493,44429765,0.0,-1.6,0.0,-0.48,325.3,325.31,0.0,0.0,3
1683153206.35432291,44529753,0.0,-1.6,0.0,-0.48,325.3,325.31,0.0,0.0,3
1683153206.45434499,44629775,0.0,-1.6,0.0,-0.48,325.3,325.31,0.0,0.0,3
1683153206.55453706,44729967,0.0,-1.6,0.0,-0.48,325.31,325.32,0.0,0.0,3
1683153206.65457582,44830006,0.0,-1.6,0.0,-0.48,325.32,325.33,0.0,0.0,3
1683153206.75443292,44929863,0.0,-1.6,0.0,-0.47000000000000003,325.33,325.34000000000003,0.0,0.0,3
1683153206.85444498,45029875,0.0,-1.6,0.0,-0.47000000000000003,325.34000000000003,325.35,0.0,0.0,3
1683153206.95428586,45129716,0.0,-1.6,0.0,-0.47000000000000003,325.35,325.36,0.0,0.0,3
1683153207.05429482,45229725,0.0,-1.6,0.0,-0.47000000000000003,325.37,325.38,0.0,0.0,3
1683153207.15431786,45329748,0.0,-1.6,0.0,-0.47000000000000003,325.38,325.39,0.0,0.0,3
1683153207.25438595,45429816,0.0,-1.6,0.0,-0.47000000000000003,325.38,325.39,0.0,0.0,3
1683153207.35434198,45529772,0.0,-1.61,0.0,-0.47000000000000003,325.39,325.40000000000003,0.0,0.01,3
1683153207.45419192,45629622,0.0,-1.61,0.0,-0.47000000000000003,325.39,325.40000000000003,0.0,0.01,3
1683153207.55423188,45729662,0.0,-1.61,0.0,-0.47000000000000003,325.39,325.40000000000003,0.0,0.0,3
1683153207.65441990,45829850,0.0,-1.61,0.0,-0.47000000000000003,325.39,325.40000000000003,0.0,0.01,3
1683153207.75455785,45929988,0.0,-1.61,0.0,-0.47000000000000003,325.39,325.40000000000003,0.0,0.0,3
1683153207.85433483,46029765,0.0,-1.61,0.0,-0.46,325.39,325.40000000000003,0.0,0.01,3
1683153207.95428801,46129718,0.0,-1.61,0.0,-0.47000000000000003,325.40000000000003,325.41,0.0,0.01,3
1683153208.05430484,46229735,0.0,-1.61,0.0,-0.47000000000000003,325.42,325.43,0.0,0.01,3
1683153208.15434194,46329772,0.0,-1.61,0.0,-0.47000000000000003,325.43,325.44,0.0,0.01,3
1683153208.25440884,46429839,0.0,-1.6,0.0,-0.47000000000000003,325.45,325.46,0.0,0.01,3
1683153208.35454988,46529980,0.0,-1.6,0.0,-0.47000000000000003,325.46,325.47,0.0,0.01,3
1683153208.45458102,46630011,0.0,-1.61,0.0,-0.47000000000000003,325.47,325.48,0.0,0.01,3
1683153208.55417299,46729603,0.0,-1.6,0.0,-0.47000000000000003,325.48,325.49,0.0,0.0,3
1683153208.65423393,46829664,0.0,-1.6,0.0,-0.47000000000000003,325.49,325.5,0.0,0.0,3
1683153208.75459194,46930022,0.0,-1.6,0.0,-0.48,325.49,325.5,0.0,0.0,3
1683153208.85428786,47029718,0.0,-1.6,0.0,-0.48,325.49,325.5,0.0,0.0,3
1683153208.95430684,47129737,0.0,-1.6,0.0,-0.48,325.5,325.5,0.0,0.0,3
1683153209.05457783,47230008,0.0,-1.6,0.0,-0.48,325.5,325.51,0.0,0.0,3
1683153209.15460086,47330031,0.0,-1.6,0.0,-0.48,325.5,325.51,0.0,0.0,3
1683153209.25427794,47429708,0.0,-1.59,0.0,-0.48,325.5,325.51,0.0,0.0,3
1683153209.35421395,47529644,0.0,-1.59,0.0,-0.48,325.5,325.51,0.0,0.0,3
1683153209.45417905,47629609,0.0,-1.59,0.0,-0.48,325.51,325.52,0.0,0.0,3
1683153209.55425882,47729689,0.0,-1.59,0.0,-0.48,325.51,325.52,0.0,0.0,3
1683153209.65429401,47829724,0.0,-1.59,0.0,-0.49,325.52,325.53000000000003,0.0,0.01,3
1683153209.75434089,47929771,0.0,-1.59,0.0,-0.48,325.52,325.53000000000003,0.0,0.01,3
1683153209.85452199,48029952,0.0,-1.58,0.0,-0.48,325.52,325.53000000000003,0.0,0.01,3
1683153209.95468402,48130114,0.0,-1.58,0.0,-0.48,325.52,325.53000000000003,0.0,0.0,3
1683153210.05432987,48229760,0.0,-1.58,0.0,-0.49,325.51,325.52,0.0,0.0,3
1683153210.15419483,48329625,0.0,-1.57,0.0,-0.49,325.52,325.53000000000003,0.0,0.0,3
1683153210.25427294,48429703,0.0,-1.57,0.0,-0.49,325.52,325.53000000000003,0.0,0.0,3
1683153210.35417795,48529608,0.0,-1.57,0.0,-0.49,325.53000000000003,325.54,0.0,0.01,3
1683153210.45424390,48629674,0.0,-1.57,0.0,-0.49,325.54,325.55,0.0,0.01,3
1683153210.55429006,48729720,0.0,-1.57,0.0,-0.49,325.56,325.57,0.0,0.01,3
1683153210.65429688,48829727,0.0,-1.57,0.0,-0.5,325.58,325.59000000000003,0.0,0.01,3
1683153210.75431895,48929749,0.0,-1.57,0.0,-0.5,325.59000000000003,325.6,0.0,0.01,3
1683153210.85450792,49029938,0.0,-1.57,0.0,-0.5,325.6,325.61,0.0,0.01,3
1683153210.95458794,49130018,0.0,-1.57,0.0,-0.5,325.62,325.63,0.0,0.0,3
1683153211.05452800,49229958,0.0,-1.56,0.0,-0.51,325.63,325.64,0.0,0.0,3
1683153211.15459585,49330026,0.0,-1.57,0.0,-0.51,325.63,325.64,0.0,0.0,3
1683153211.25445795,49429888,0.0,-1.56,0.0,-0.51,325.64,325.65000000000003,0.0,0.0,3
1683153211.35445786,49529888,0.0,-1.56,0.0,-0.51,325.64,325.65000000000003,0.0,0.0,3
1683153211.45479894,49630229,0.0,-1.56,0.0,-0.51,325.65000000000003,325.66,0.0,0.0,3
1683153211.55451894,49729949,0.0,-1.56,0.0,-0.51,325.65000000000003,325.66,0.0,0.0,3
1683153211.65430284,49829733,0.0,-1.56,0.0,-0.5,325.66,325.67,0.0,0.0,3
1683153211.75442886,49929859,0.0,-1.56,0.0,-0.51,325.67,325.68,0.0,0.0,3
1683153211.85433102,50029761,0.0,-1.56,0.0,-0.51,325.68,325.69,0.0,0.0,3
1683153211.95420194,50129632,0.0,-1.56,0.0,-0.51,325.69,325.7,0.0,0.0,3
1683153212.05415583,50229586,0.0,-1.56,0.0,-0.51,325.7,325.71,0.0,0.0,3
1683153212.15443301,50329863,0.0,-1.56,0.0,-0.51,325.71,325.72,0.0,0.0,3
1683153212.25454497,50429975,0.0,-1.56,0.0,-0.51,325.71,325.72,0.0,0.0,3
1683153212.35429192,50529722,0.0,-1.56,0.0,-0.51,325.72,325.73,0.0,0.0,3
1683153212.45429206,50629722,0.0,-1.55,0.0,-0.51,325.73,325.74,0.0,0.0,3
1683153212.55438995,50729820,0.0,-1.55,0.0,-0.51,325.73,325.74,0.0,0.0,3
1683153212.65430999,50829740,0.0,-1.55,0.0,-0.51,325.73,325.74,0.0,0.0,3
1683153212.75435996,50929790,0.0,-1.55,0.0,-0.51,325.73,325.74,0.0,0.0,3
1683153212.85451698,51029947,0.0,-1.55,0.0,-0.51,325.74,325.75,0.0,0.0,3
1683153212.95459700,51130027,0.0,-1.55,0.0,-0.51,325.74,325.75,0.0,0.0,3
1683153213.05442595,51229856,0.0,-1.55,0.0,-0.51,325.74,325.75,0.0,0.0,3
1683153213.15446186,51329892,0.0,-1.55,0.0,-0.51,325.76,325.77,0.0,0.0,3
1683153213.25432491,51429755,0.0,-1.55,0.0,-0.51,325.76,325.77,0.0,0.01,3
1683153213.35429382,51529724,0.0,-1.54,0.0,-0.51,325.77,325.78000000000003,0.0,0.01,3
1683153213.45429802,51629728,0.0,-1.54,0.0,-0.51,325.78000000000003,325.79,0.0,0.01,3
1683153213.55432987,51729760,0.0,-1.54,0.0,-0.52,325.79,325.8,0.0,0.0,3
1683153213.65432692,51829757,0.0,-1.54,0.0,-0.52,325.79,325.8,0.0,0.0,3
1683153213.75453091,51929961,0.0,-1.55,0.0,-0.52,325.8,325.81,0.0,0.0,3
1683153213.85421801,52029648,0.0,-1.55,0.0,-0.52,325.81,325.82,0.0,0.0,3
1683153213.95417595,52129606,0.0,-1.54,0.0,-0.53,325.82,325.83,0.0,0.0,3
1683153214.05425000,52229680,0.0,-1.54,0.0,-0.53,325.83,325.84000000000003,0.0,0.0,3
1683153214.15439796,52329828,0.0,-1.55,0.0,-0.53,325.83,325.84000000000003,0.0,0.0,3
1683153214.25432992,52429760,0.0,-1.54,0.0,-0.53,325.84000000000003,325.85,0.0,0.0,3
1683153214.35431385,52529744,0.0,-1.55,0.0,-0.53,325.84000000000003,325.85,0.0,0.0,3
1683153214.45458984,52630020,0.0,-1.55,0.0,-0.52,325.85,325.86,0.0,0.0,3
1683153214.55434585,52729776,0.0,-1.55,0.0,-0.52,325.85,325.86,0.0,0.0,3
1683153214.65419292,52829623,0.0,-1.55,0.0,-0.52,325.85,325.86,0.0,0.0,3
1683153214.75428605,52929716,0.0,-1.55,0.0,-0.52,325.85,325.86,0.0,0.01,3
1683153214.85417295,53029603,0.0,-1.55,0.0,-0.52,325.86,325.87,0.0,0.01,3
1683153214.95424700,53129677,0.0,-1.55,0.0,-0.52,325.87,325.88,0.0,0.01,3
1683153215.05428886,53229719,0.0,-1.55,0.0,-0.52,325.88,325.89,0.0,0.01,3
1683153215.15452504,53329955,0.0,-1.55,0.0,-0.52,325.89,325.90000000000003,0.0,0.0,3
1683153215.25458694,53430017,0.0,-1.55,0.0,-0.53,325.90000000000003,325.91,0.0,0.0,3
1683153215.35449004,53529920,0.0,-1.55,0.0,-0.52,325.91,325.92,0.0,0.0,3
1683153215.45450592,53629936,0.0,-1.55,0.0,-0.52,325.92,325.93,0.0,0.0,3
1683153215.55450201,53729932,0.0,-1.55,0.0,-0.52,325.93,325.94,0.0,0.01,3
1683153215.65454602,53829976,0.0,-1.54,0.0,-0.52,325.94,325.95,0.0,0.0,3
1683153215.75440884,53929839,0.0,-1.55,0.0,-0.52,325.95,325.96,0.0,0.0,3
1683153215.85441995,54029850,0.0,-1.54,0.0,-0.52,325.95,325.96,0.0,0.01,3
1683153215.95476103,54130191,0.0,-1.54,0.0,-0.52,325.96,325.97,0.0,0.01,3
1683153216.05456495,54229995,0.0,-1.54,0.0,-0.52,325.96,325.97,0.0,0.01,3
1683153216.15430784,54329738,0.0,-1.54,0.0,-0.52,325.97,325.98,0.0,0.01,3
1683153216.25443983,54429870,0.0,-1.54,0.0,-0.51,325.97,325.98,0.0,0.0,3
1683153216.35434294,54529773,0.0,-1.54,0.0,-0.51,325.98,325.99,0.0,0.0,3
1683153216.45419097,54629621,0.0,-1.54,0.0,-0.52,325.99,326.0,0.0,0.0,3
1683153216.55423188,54729662,0.0,-1.54,0.0,-0.52,326.0,326.01,0.0,0.0,3
1683153216.65440893,54829839,0.0,-1.54,0.0,-0.52,326.01,326.02,0.0,0.0,3
1683153216.75446892,54929899,0.0,-1.54,0.0,-0.51,326.01,326.02,0.0,0.0,3
1683153216.85428190,55029712,0.0,-1.54,0.0,-0.52,326.02,326.03000000000003,0.0,0.0,3
1683153216.95428801,55129718,0.0,-1.54,0.0,-0.51,326.02,326.03000000000003,0.0,0.0,3
1683153217.05430198,55229732,0.0,-1.54,0.0,-0.51,326.03000000000003,326.04,0.0,0.0,3
1683153217.15432000,55329750,0.0,-1.54,0.0,-0.51,326.04,326.05,0.0,0.0,3
1683153217.25440884,55429839,0.0,-1.55,0.0,-0.51,326.04,326.05,0.0,0.0,3
1683153217.35421801,55529648,0.0,-1.54,0.0,-0.52,326.05,326.06,0.0,0.0,3
1683153217.45422983,55629660,0.0,-1.54,0.0,-0.52,326.05,326.06,0.0,0.0,3
1683153217.55443883,55729869,0.0,-1.54,0.0,-0.51,326.06,326.07,0.0,0.0,3
1683153217.65444589,55829876,0.0,-1.54,0.0,-0.52,326.06,326.07,0.0,0.0,3
1683153217.75430202,55929732,0.0,-1.54,0.0,-0.51,326.07,326.08,0.0,0.0,3
1683153217.85427999,56029710,0.0,-1.54,0.0,-0.51,326.07,326.08,0.0,0.0,3
1683153217.95432186,56129752,0.0,-1.54,0.0,-0.52,326.07,326.08,0.0,0.0,3
1683153218.05431795,56229748,0.0,-1.54,0.0,-0.52,326.07,326.08,0.0,0.01,3
1683153218.15434384,56329774,0.0,-1.54,0.0,-0.51,326.07,326.08,0.0,0.0,3
1683153218.25428700,56429717,0.0,-1.54,0.0,-0.51,326.07,326.08,0.0,0.0,3
1683153218.35428190,56529712,0.0,-1.54,0.0,-0.51,326.07,326.08,0.0,0.0,3
1683153218.45442796,56629858,0.0,-1.54,0.0,-0.51,326.07,326.08,0.0,0.0,3
1683153218.55452299,56729953,0.0,-1.54,0.0,-0.51,326.07,326.08,0.0,0.0,3
1683153218.65451193,56829942,0.0,-1.54,0.0,-0.51,326.07,326.08,0.0,0.0,3
1683153218.75451493,56929945,0.0,-1.54,0.0,-0.51,326.08,326.09000000000003,0.0,0.0,3
1683153218.85447693,57029907,0.0,-1.54,0.0,-0.5,326.08,326.09000000000003,0.0,0.0,3
1683153218.95457697,57130007,0.0,-1.54,0.0,-0.5,326.08,326.09000000000003,0.0,0.0,3
1683153219.05451894,57229949,0.0,-1.54,0.0,-0.51,326.09000000000003,326.1,0.0,0.0,3
1683153219.15449786,57329928,0.0,-1.53,0.0,-0.51,326.1,326.11,0.0,0.0,3
1683153219.25458884,57430019,0.0,-1.53,0.0,-0.51,326.1,326.11,0.0,0.0,3
1683153219.35439491,57529825,0.0,-1.53,0.0,-0.51,326.1,326.11,0.0,0.0,3
1683153219.45442200,57629852,0.0,-1.53,0.0,-0.51,326.11,326.12,0.0,0.0,3
1683153219.55447102,57729901,0.0,-1.53,0.0,-0.5,326.12,326.12,0.0,0.0,3
1683153219.65473604,57830166,0.0,-1.53,0.0,-0.5,326.12,326.13,0.0,0.0,3
1683153219.75448895,57929919,0.0,-1.53,0.0,-0.51,326.12,326.13,0.0,0.0,3
1683153219.85448194,58029912,0.0,-1.53,0.0,-0.51,326.12,326.13,0.0,0.0,3
1683153219.95451999,58129950,0.0,-1.53,0.0,-0.51,326.13,326.14,0.0,0.0,3
1683153220.05449104,58229921,0.0,-1.53,0.0,-0.51,326.13,326.14,0.0,0.0,3
1683153220.15457296,58330003,0.0,-1.53,0.0,-0.51,326.13,326.14,0.0,0.01,3
1683153220.25441885,58429849,0.0,-1.53,0.0,-0.51,326.14,326.15000000000003,0.0,0.01,3
1683153220.35442495,58529855,0.0,-1.53,0.0,-0.51,326.14,326.15000000000003,0.0,0.01,3
1683153220.45496297,58630393,0.0,-1.53,0.0,-0.51,326.15000000000003,326.16,0.0,0.01,3
1683153220.55457306,58730003,0.0,-1.53,0.0,-0.51,326.16,326.17,0.0,0.01,3
1683153220.65451884,58829949,0.0,-1.53,0.0,-0.51,326.17,326.18,0.0,0.01,3
1683153220.75458884,58930019,0.0,-1.53,0.0,-0.51,326.18,326.19,0.0,0.01,3
1683153220.85432005,59029750,0.0,-1.52,0.0,-0.51,326.19,326.2,0.0,0.01,3
1683153220.95420098,59129631,0.0,-1.52,0.0,-0.51,326.2,326.21,0.0,0.01,3
1683153221.05422997,59229660,0.0,-1.53,0.0,-0.5,326.21,326.22,0.0,0.01,3
1683153221.15418601,59329616,0.0,-1.53,0.0,-0.5,326.22,326.23,0.0,0.01,3
1683153221.25427604,59429706,0.0,-1.53,0.0,-0.5,326.23,326.24,0.0,0.01,3
1683153221.35449600,59529926,0.0,-1.53,0.0,-0.5,326.24,326.25,0.0,0.01,3
1683153221.45450306,59629933,0.0,-1.53,0.0,-0.5,326.25,326.26,0.0,0.01,3
1683153221.55430889,59729739,0.0,-1.53,0.0,-0.5,326.26,326.27,0.0,0.01,3
1683153221.65431690,59829747,0.0,-1.53,0.0,-0.5,326.27,326.28000000000003,0.0,0.01,3
1683153221.75437284,59929803,0.0,-1.53,0.0,-0.5,326.27,326.28000000000003,0.0,0.01,3
1683153221.85427189,60029702,0.0,-1.53,0.0,-0.5,326.29,326.3,0.0,0.01,3
1683153221.95421195,60129642,0.0,-1.52,0.0,-0.5,326.3,326.31,0.0,0.01,3
1683153222.05417800,60229608,0.0,-1.52,0.0,-0.5,326.3,326.31,0.0,0.01,3
1683153222.15425396,60329684,0.0,-1.51,0.0,-0.5,326.31,326.32,0.0,0.0,3
1683153222.25457788,60430008,0.0,-1.51,0.0,-0.5,326.32,326.33,0.0,0.0,3
1683153222.35429287,60529723,0.0,-1.51,0.0,-0.5,326.32,326.33,0.0,0.0,3
1683153222.45430589,60629736,0.0,-1.51,0.0,-0.5,326.33,326.34000000000003,0.0,0.0,3
1683153222.55441499,60729845,0.0,-1.51,0.0,-0.5,326.33,326.34000000000003,0.0,0.0,3
1683153222.65432882,60829759,0.0,-1.51,0.0,-0.51,326.33,326.34000000000003,0.0,0.0,3
1683153222.75421095,60929641,0.0,-1.51,0.0,-0.51,326.33,326.34000000000003,0.0,0.01,3
1683153222.85418296,61029613,0.0,-1.51,0.0,-0.51,326.33,326.34000000000003,0.0,0.01,3
1683153222.95418000,61129610,0.0,-1.51,0.0,-0.51,326.33,326.34000000000003,0.0,0.0,3
1683153223.05425692,61229687,0.0,-1.5,0.0,-0.51,326.33,326.34000000000003,0.0,0.0,3
1683153223.15452504,61329955,0.0,-1.51,0.0,-0.51,326.34000000000003,326.35,0.0,0.0,3
1683153223.25459003,61430020,0.0,-1.5,0.0,-0.51,326.34000000000003,326.35,0.0,0.0,3
1683153223.35431504,61529745,0.0,-1.5,0.0,-0.51,326.34000000000003,326.35,0.0,0.0,3
1683153223.45432997,61629760,0.0,-1.5,0.0,-0.52,326.34000000000003,326.35,0.0,0.0,3
1683153223.55438685,61729817,0.0,-1.5,0.0,-0.52,326.35,326.36,0.0,0.0,3
1683153223.65419793,61829628,0.0,-1.5,0.0,-0.53,326.35,326.36,0.0,0.0,3
1683153223.75428700,61929717,0.0,-1.5,0.0,-0.53,326.35,326.36,0.0,0.0,3
1683153223.85416985,62029600,0.0,-1.5,0.0,-0.53,326.35,326.36,0.0,0.0,3
1683153223.95425296,62129683,0.0,-1.5,0.0,-0.53,326.36,326.37,0.0,0.0,3
1683153224.05430102,62229731,0.0,-1.5,0.0,-0.52,326.36,326.37,0.0,0.0,3
1683153224.15452290,62329953,0.0,-1.5,0.0,-0.53,326.36,326.37,0.0,0.0,3
1683153224.25459599,62430026,0.0,-1.5,0.0,-0.52,326.37,326.38,0.0,0.0,3
1683153224.35453296,62529963,0.0,-1.5,0.0,-0.52,326.38,326.39,0.0,0.0,3
1683153224.45458484,62630015,0.0,-1.5,0.0,-0.52,326.39,326.40000000000003,0.0,0.0,3
1683153224.55453992,62729970,0.0,-1.5,0.0,-0.53,326.39,326.40000000000003,0.0,0.01,3
1683153224.65459585,62830026,0.0,-1.49,0.0,-0.52,326.41,326.42,0.0,0.01,3
1683153224.75443101,62929861,0.0,-1.49,0.0,-0.52,326.42,326.43,0.0,0.01,3
1683153224.85445189,63029882,0.0,-1.49,0.0,-0.52,326.43,326.44,0.0,0.01,3
1683153224.95478892,63130219,0.0,-1.49,0.0,-0.52,326.45,326.46,0.0,0.0,3
1683153225.05451298,63229943,0.0,-1.48,0.0,-0.52,326.46,326.47,0.0,0.01,3
1683153225.15431905,63329749,0.0,-1.48,0.0,-0.52,326.47,326.48,0.0,0.01,3
1683153225.25439882,63429829,0.0,-1.48,0.0,-0.52,326.48,326.49,0.0,0.01,3
1683153225.35434484,63529775,0.0,-1.48,0.0,-0.52,326.49,326.5,0.0,0.01,3
1683153225.45419693,63629627,0.0,-1.48,0.0,-0.52,326.49,326.5,0.0,0.0,3
1683153225.55421495,63729645,0.0,-1.48,0.0,-0.52,326.5,326.51,0.0,0.0,3
1683153225.65440989,63829840,0.0,-1.48,0.0,-0.52,326.5,326.51,0.0,0.0,3
1683153225.75446796,63929898,0.0,-1.47,0.0,-0.52,326.52,326.53000000000003,0.0,0.0,3
1683153225.85451102,64029941,0.0,-1.48,0.0,-0.52,326.53000000000003,326.54,0.0,0.0,3
1683153225.95451403,64129944,0.0,-1.48,0.0,-0.52,326.53000000000003,326.54,0.0,0.0,3
1683153226.05432606,64229756,0.0,-1.47,0.0,-0.51,326.53000000000003,326.54,0.0,0.0,3
1683153226.15434194,64329772,0.0,-1.47,0.0,-0.51,326.54,326.55,0.0,0.0,3
1683153226.25442290,64429853,0.0,-1.47,0.0,-0.52,326.53000000000003,326.54,0.0,0.0,3
1683153226.35419798,64529628,0.0,-1.47,0.0,-0.52,326.53000000000003,326.54,0.0,0.0,3
1683153226.45422983,64629660,0.0,-1.47,0.0,-0.51,326.54,326.55,0.0,0.0,3
1683153226.55444002,64729870,0.0,-1.46,0.0,-0.52,326.54,326.55,0.0,0.0,3
1683153226.65446496,64829895,0.0,-1.47,0.0,-0.52,326.55,326.56,0.0,0.0,3
1683153226.75439882,64929829,0.0,-1.46,0.0,-0.52,326.55,326.56,0.0,0.0,3
1683153226.85430193,65029732,0.0,-1.46,0.0,-0.52,326.56,326.57,0.0,0.0,3
1683153226.95431900,65129749,0.0,-1.46,0.0,-0.51,326.56,326.57,0.0,0.0,3
1683153227.05432701,65229757,0.0,-1.46,0.0,-0.52,326.57,326.58,0.0,0.0,3
1683153227.15436101,65329791,0.0,-1.46,0.0,-0.52,326.57,326.58,0.0,0.0,3
1683153227.25428796,65429718,0.0,-1.46,0.0,-0.51,326.58,326.59000000000003,0.0,0.0,3
1683153227.35423684,65529667,0.0,-1.46,0.0,-0.52,326.59000000000003,326.6,0.0,0.01,3
1683153227.45441604,65629846,0.0,-1.46,0.0,-0.51,326.59000000000003,326.6,0.0,0.01,3
1683153227.55427384,65729704,0.0,-1.46,0.0,-0.52,326.6,326.61,0.0,0.01,3
1683153227.65429997,65829730,0.0,-1.46,0.0,-0.51,326.61,326.62,0.0,0.01,3
1683153227.75432706,65929757,0.0,-1.46,0.0,-0.51,326.62,326.63,0.0,0.01,3
1683153227.85430002,66029730,0.0,-1.46,0.0,-0.52,326.63,326.64,0.0,0.0,3
1683153227.95432496,66129755,0.0,-1.46,0.0,-0.52,326.64,326.65000000000003,0.0,0.0,3
1683153228.05433083,66229761,0.0,-1.46,0.0,-0.51,326.65000000000003,326.66,0.0,0.01,3
1683153228.15457392,66330004,0.0,-1.46,0.0,-0.51,326.69,326.7,0.0,0.0,3
1683153228.25427198,66429702,0.0,-1.47,0.0,-0.52,326.65000000000003,326.66,0.0,0.0,3
1683153228.35418296,66529613,0.0,-1.46,0.0,-0.51,326.65000000000003,326.66,0.0,0.01,3
1683153228.45424891,66629679,0.0,-1.46,0.0,-0.52,326.69,326.7,0.0,0.01,3
1683153228.55430794,66729738,0.0,-1.46,0.0,-0.51,326.65000000000003,326.66,0.0,0.01,3
1683153228.65428996,66829720,0.0,-1.47,0.0,-0.52,326.65000000000003,326.66,0.0,0.01,3
1683153228.75433493,66929765,0.0,-1.46,0.0,-0.51,326.72,326.73,0.0,0.01,3
1683153228.85441399,67029844,0.0,-1.46,0.0,-0.52,326.7,326.71,0.0,0.01,3
1683153228.95437288,67129803,0.0,-1.46,0.0,-0.52,326.69,326.7,0.0,0.01,3
1683153229.05420804,67229638,0.0,-1.46,0.0,-0.52,326.75,326.76,0.0,0.01,3
1683153229.15425706,67329687,0.0,-1.46,0.0,-0.52,326.72,326.73,0.0,0.01,3
1683153229.25446987,67429900,0.0,-1.46,0.0,-0.52,326.72,326.73,0.0,0.01,3
1683153229.35445189,67529882,0.0,-1.46,0.0,-0.53,326.77,326.78000000000003,0.0,0.01,3
1683153229.45447898,67629909,0.0,-1.46,0.0,-0.53,326.74,326.75,0.0,0.01,3
1683153229.55449796,67729928,0.0,-1.46,0.0,-0.53,326.74,326.75,0.0,0.01,3
1683153229.65450883,67829939,0.0,-1.45,0.0,-0.54,326.79,326.8,0.0,0.0,3
1683153229.75451684,67929947,0.0,-1.45,0.0,-0.54,326.76,326.77,0.0,0.0,3
1683153229.85452104,68029951,0.0,-1.44,0.0,-0.54,326.76,326.77,0.0,0.0,3
1683153229.95451689,68129947,0.0,-1.43,0.0,-0.54,326.8,326.81,0.0,0.0,3
1683153230.05457592,68230006,0.0,-1.43,0.0,-0.55,326.78000000000003,326.79,0.0,0.0,3
1683153230.15442491,68329855,0.0,-1.43,0.0,-0.55,326.77,326.78000000000003,0.0,0.0,3
1683153230.25448203,68429912,0.0,-1.43,0.0,-0.56,326.8,326.81,0.0,0.01,3
1683153230.35449290,68529923,0.0,-1.43,0.0,-0.5700000000000001,326.79,326.8,0.0,0.01,3
1683153230.45449090,68629921,0.0,-1.42,0.0,-0.58,326.81,326.82,0.0,0.01,3
1683153230.55451393,68729944,0.0,-1.43,0.0,-0.58,326.84000000000003,326.85,0.0,0.01,3
1683153230.65475702,68830187,0.0,-1.42,0.0,-0.58,326.84000000000003,326.85,0.0,0.0,3
1683153230.75458384,68930014,0.0,-1.42,0.0,-0.58,326.84000000000003,326.85,0.0,0.0,3
1683153230.85453296,69029963,0.0,-1.41,0.0,-0.58,326.88,326.89,0.0,0.0,3
1683153230.95463991,69130070,0.0,-1.42,0.0,-0.58,326.86,326.87,0.0,0.0,3
1683153231.05443287,69229863,0.0,-1.4000000000000001,0.0,-0.58,326.87,326.88,0.0,0.01,3
1683153231.15445900,69329889,0.0,-1.41,0.0,-0.5700000000000001,326.89,326.90000000000003,0.0,0.01,3
1683153231.25452185,69429952,0.0,-1.4000000000000001,0.0,-0.5700000000000001,326.87,326.88,0.0,0.01,3
1683153231.35483003,69530260,0.0,-1.4000000000000001,0.0,-0.5700000000000001,326.87,326.88,0.0,0.01,3
1683153231.45432997,69629760,0.0,-1.41,0.0,-0.56,326.89,326.90000000000003,0.0,0.01,3
1683153231.55436206,69729792,0.0,-1.4000000000000001,0.0,-0.56,326.87,326.88,0.0,0.01,3
1683153231.65435886,69829789,0.0,-1.41,0.0,-0.55,326.87,326.88,0.0,0.01,3
1683153231.75426197,69929692,0.0,-1.3900000000000001,0.0,-0.55,326.88,326.89,0.0,0.02,3
1683153231.85416102,70029591,0.0,-1.41,0.0,-0.54,326.86,326.87,0.0,0.01,3
1683153231.95417285,70129603,0.0,-1.4000000000000001,0.0,-0.55,326.86,326.87,0.0,0.01,3
1683153232.05423999,70229670,0.0,-1.41,0.0,-0.54,326.87,326.88,0.0,0.01,3
1683153232.15452194,70329952,0.0,-1.41,0.0,-0.53,326.86,326.87,0.0,0.01,3
1683153232.25460196,70430032,0.0,-1.41,0.0,-0.52,326.86,326.87,0.0,0.01,3
1683153232.35430884,70529739,0.0,-1.42,0.0,-0.52,326.87,326.88,0.0,0.01,3
1683153232.45432186,70629752,0.0,-1.41,0.0,-0.51,326.85,326.86,0.0,0.01,3
1683153232.55434895,70729779,0.0,-1.42,0.0,-0.5,326.86,326.87,0.0,0.01,3
1683153232.65419197,70829622,0.0,-1.41,0.0,-0.49,326.87,326.88,0.0,0.01,3
1683153232.75426602,70929696,0.0,-1.41,0.0,-0.48,326.86,326.87,0.0,0.01,3
1683153232.85441804,71029848,0.0,-1.41,0.0,-0.48,326.86,326.87,0.0,0.01,3
1683153232.95445895,71129889,0.0,-1.41,0.0,-0.48,326.87,326.88,0.0,0.01,3
1683153233.05439782,71229828,0.0,-1.41,0.0,-0.48,326.85,326.86,0.0,0.01,3
1683153233.15434384,71329774,0.0,-1.41,0.0,-0.47000000000000003,326.86,326.87,0.0,0.01,3
1683153233.25434685,71429777,0.0,-1.41,0.0,-0.48,326.87,326.88,0.0,0.01,3
1683153233.35432386,71529754,0.0,-1.42,0.0,-0.47000000000000003,326.85,326.86,0.0,0.01,3
1683153233.45433903,71629769,0.0,-1.42,0.0,-0.47000000000000003,326.86,326.87,0.0,0.01,3
1683153233.55454087,71729971,0.0,-1.42,0.0,-0.47000000000000003,326.88,326.89,0.0,0.01,3
1683153233.65457296,71830003,0.0,-1.42,0.0,-0.46,326.87,326.88,0.0,0.0,3
1683153233.75443602,71929866,0.0,-1.43,0.0,-0.47000000000000003,326.88,326.89,0.0,0.0,3
1683153233.85444999,72029880,0.0,-1.43,0.0,-0.46,326.90000000000003,326.91,0.0,0.0,3
1683153233.95428991,72129720,0.0,-1.43,0.0,-0.46,326.89,326.90000000000003,0.0,0.0,3
1683153234.05447984,72229910,0.0,-1.44,0.0,-0.46,326.89,326.90000000000003,0.0,0.0,3
1683153234.15451193,72329942,0.0,-1.43,0.0,-0.45,326.91,326.92,0.0,0.01,3
1683153234.25457692,72430007,0.0,-1.45,0.0,-0.46,326.89,326.90000000000003,0.0,0.01,3
1683153234.35451388,72529944,0.0,-1.43,0.0,-0.46,326.90000000000003,326.91,0.0,0.01,3
1683153234.45476985,72630200,0.0,-1.44,0.0,-0.46,326.91,326.92,0.0,0.0,3
1683153234.55456901,72729999,0.0,-1.43,0.0,-0.47000000000000003,326.89,326.90000000000003,0.0,0.01,3
1683153234.65439487,72829825,0.0,-1.44,0.0,-0.46,326.90000000000003,326.91,0.0,0.01,3
1683153234.75444794,72929878,0.0,-1.44,0.0,-0.46,326.91,326.92,0.0,0.01,3
1683153234.85447001,73029900,0.0,-1.44,0.0,-0.46,326.90000000000003,326.91,0.0,0.01,3
1683153234.95448303,73129913,0.0,-1.44,0.0,-0.46,326.90000000000003,326.91,0.0,0.01,3
1683153235.05448794,73229918,0.0,-1.43,0.0,-0.46,326.90000000000003,326.91,0.0,0.01,3
1683153235.15470600,73330136,0.0,-1.43,0.0,-0.45,326.89,326.90000000000003,0.0,0.01,3
1683153235.25459790,73430028,0.0,-1.42,0.0,-0.46,326.89,326.90000000000003,0.0,0.01,3
1683153235.35479689,73530227,0.0,-1.43,0.0,-0.45,326.90000000000003,326.91,0.0,0.01,3
1683153235.45415401,73629584,0.0,-1.42,0.0,-0.47000000000000003,326.88,326.89,0.0,0.01,3
1683153235.55421495,73729645,0.0,-1.42,0.0,-0.46,326.89,326.90000000000003,0.0,0.01,3
1683153235.65425992,73829690,0.0,-1.41,0.0,-0.46,326.89,326.90000000000003,0.0,0.01,3
1683153235.75431299,73929743,0.0,-1.41,0.0,-0.46,326.88,326.89,0.0,0.01,3
1683153235.85429001,74029720,0.0,-1.41,0.0,-0.45,326.88,326.89,0.0,0.01,3
1683153235.95431805,74129748,0.0,-1.4000000000000001,0.0,-0.46,326.88,326.89,0.0,0.01,3
1683153236.05457997,74230010,0.0,-1.41,0.0,-0.45,326.87,326.88,0.0,0.01,3
1683153236.15440392,74329834,0.0,-1.4000000000000001,0.0,-0.46,326.86,326.87,0.0,0.01,3
1683153236.25429392,74429724,0.0,-1.41,0.0,-0.44,326.87,326.88,0.0,0.01,3
1683153236.35426283,74529693,0.0,-1.4000000000000001,0.0,-0.43,326.87,326.88,0.0,0.01,3
1683153236.45418096,74629611,0.0,-1.42,0.0,-0.43,326.87,326.88,0.0,0.01,3
1683153236.55426383,74729694,0.0,-1.3900000000000001,0.0,-0.43,326.88,326.89,0.0,0.01,3
1683153236.65428591,74829716,0.0,-1.42,0.0,-0.43,326.87,326.88,0.0,0.01,3
1683153236.75431085,74929741,0.0,-1.4000000000000001,0.0,-0.42,326.86,326.87,0.0,0.01,3
1683153236.85431099,75029741,0.0,-1.41,0.0,-0.41000000000000003,326.87,326.88,0.0,0.01,3
1683153236.95458984,75130020,0.0,-1.42,0.0,-0.41000000000000003,326.87,326.88,0.0,0.02,3
1683153237.05434203,75229772,0.0,-1.42,0.0,-0.41000000000000003,326.86,326.87,0.0,0.02,3
1683153237.15421295,75329643,0.0,-1.45,0.0,-0.41000000000000003,326.86,326.87,0.0,0.02,3
1683153237.25430393,75429734,0.0,-1.45,0.0,-0.41000000000000003,326.85,326.86,0.0,0.02,3
1683153237.35418606,75529616,0.0,-1.46,0.0,-0.41000000000000003,326.84000000000003,326.85,0.0,0.02,3
1683153237.45426488,75629695,0.0,-1.46,0.0,-0.42,326.84000000000003,326.85,0.0,0.02,3
1683153237.55450988,75729940,0.0,-1.47,0.0,-0.41000000000000003,326.82,326.83,0.0,0.02,3
1683153237.65451097,75829941,0.0,-1.47,0.0,-0.41000000000000003,326.81,326.82,0.0,0.02,3
1683153237.75430393,75929734,0.0,-1.47,0.0,-0.4,326.81,326.82,0.0,0.02,3
1683153237.85456896,76029999,0.0,-1.48,0.0,-0.41000000000000003,326.8,326.81,0.0,0.02,3
1683153237.95457602,76130006,0.0,-1.48,0.0,-0.41000000000000003,326.79,326.8,0.0,0.02,3
1683153238.05452800,76229958,0.0,-1.49,0.0,-0.4,326.79,326.8,0.0,0.02,3
1683153238.15462995,76330060,0.0,-1.5,0.0,-0.42,326.77,326.78000000000003,0.0,0.03,3
1683153238.25482583,76430256,0.0,-1.49,0.0,-0.4,326.76,326.77,0.0,0.03,3
1683153238.35490894,76530339,0.0,-1.52,0.0,-0.42,326.76,326.77,0.0,0.02,3
1683153238.45457196,76630002,0.0,-1.51,0.0,-0.42,326.74,326.75,0.0,0.03,3
1683153238.55451798,76729948,0.0,-1.53,0.0,-0.41000000000000003,326.73,326.74,0.0,0.03,3
1683153238.65456700,76829997,0.0,-1.53,0.0,-0.42,326.73,326.74,0.0,0.02,3
1683153238.75458097,76930011,0.0,-1.52,0.0,-0.4,326.72,326.73,0.0,0.02,3
1683153238.85458088,77030011,0.0,-1.53,0.0,-0.42,326.71,326.72,0.0,0.02,3
1683153238.95477796,77130208,0.0,-1.51,0.0,-0.41000000000000003,326.71,326.72,0.0,0.02,3
1683153239.05423284,77229663,0.0,-1.52,0.0,-0.42,326.69,326.7,0.0,0.03,3
1683153239.15417600,77329606,0.0,-1.51,0.0,-0.42,326.68,326.69,0.0,0.03,3
1683153239.25429106,77429721,0.0,-1.52,0.0,-0.41000000000000003,326.68,326.69,0.0,0.03,3
1683153239.35442185,77529852,0.0,-1.52,0.0,-0.43,326.66,326.67,0.0,0.03,3
1683153239.45430994,77629740,0.0,-1.52,0.0,-0.42,326.65000000000003,326.66,0.0,0.03,3
1683153239.55433083,77729761,0.0,-1.52,0.0,-0.43,326.64,326.65000000000003,0.0,0.02,3
1683153239.65457702,77830007,0.0,-1.52,0.0,-0.43,326.63,326.64,0.0,0.02,3
1683153239.75440097,77929831,0.0,-1.52,0.0,-0.42,326.62,326.63,0.0,0.02,3
1683153239.85419202,78029622,0.0,-1.52,0.0,-0.43,326.61,326.62,0.0,0.02,3
1683153239.95427394,78129704,0.0,-1.52,0.0,-0.42,326.61,326.62,0.0,0.02,3
1683153240.05418587,78229616,0.0,-1.52,0.0,-0.43,326.6,326.61,0.0,0.02,3
1683153240.15431094,78329741,0.0,-1.53,0.0,-0.44,326.6,326.61,0.0,0.02,3
1683153240.25433898,78429769,0.0,-1.52,0.0,-0.43,326.59000000000003,326.6,0.0,0.02,3
1683153240.35431290,78529743,0.0,-1.54,0.0,-0.45,326.58,326.59000000000003,0.0,0.02,3
1683153240.45432687,78629757,0.0,-1.52,0.0,-0.44,326.59000000000003,326.6,0.0,0.01,3
1683153240.55460787,78730038,0.0,-1.55,0.0,-0.45,326.58,326.59000000000003,0.0,0.02,3
1683153240.65434098,78829771,0.0,-1.53,0.0,-0.45,326.57,326.58,0.0,0.02,3
1683153240.75422001,78929650,0.0,-1.55,0.0,-0.45,326.58,326.59000000000003,0.0,0.02,3
1683153240.85421705,79029647,0.0,-1.54,0.0,-0.45,326.58,326.59000000000003,0.0,0.02,3
1683153240.95420194,79129632,0.0,-1.55,0.0,-0.44,326.59000000000003,326.6,0.0,0.01,3
1683153241.05456901,79229999,0.0,-1.55,0.0,-0.45,326.6,326.61,0.0,0.01,3
1683153241.15431786,79329748,0.0,-1.55,0.0,-0.44,326.6,326.61,0.0,0.01,3
1683153241.25462103,79430051,0.0,-1.55,0.0,-0.44,326.6,326.61,0.0,0.01,3
1683153241.35434294,79529773,0.0,-1.54,0.0,-0.44,326.61,326.62,0.0,0.01,3
1683153241.45464396,79630074,0.0,-1.56,0.0,-0.44,326.61,326.62,0.0,0.01,3
1683153241.55459094,79730021,0.0,-1.54,0.0,-0.44,326.6,326.61,0.0,0.01,3
1683153241.65450788,79829938,0.0,-1.55,0.0,-0.43,326.61,326.62,0.0,0.01,3
1683153241.75454593,79929976,0.0,-1.54,0.0,-0.43,326.61,326.62,0.0,0.01,3
1683153241.85439491,80029825,0.0,-1.56,0.0,-0.42,326.61,326.62,0.0,0.0,3
1683153241.95478487,80130215,0.0,-1.54,0.0,-0.43,326.61,326.62,0.0,0.0,3
1683153242.05478096,80230211,0.0,-1.55,0.0,-0.42,326.62,326.63,0.0,0.01,3
1683153242.15452600,80329956,0.0,-1.55,0.0,-0.42,326.61,326.62,0.0,0.01,3
1683153242.25458884,80430019,0.0,-1.55,0.0,-0.42,326.62,326.63,0.0,0.0,3
1683153242.35459900,80530029,0.0,-1.54,0.0,-0.41000000000000003,326.63,326.64,0.0,0.0,3
1683153242.45459604,80630026,0.0,-1.54,0.0,-0.42,326.62,326.63,0.0,0.0,3
1683153242.55452585,80729956,0.0,-1.54,0.0,-0.42,326.63,326.64,0.0,0.0,3
1683153242.65423298,80829663,0.0,-1.54,0.0,-0.42,326.63,326.64,0.0,0.0,3
1683153242.75420594,80929636,0.0,-1.54,0.0,-0.43,326.62,326.63,0.0,0.0,3
1683153242.85425091,81029681,0.0,-1.53,0.0,-0.42,326.63,326.64,0.0,0.0,3
1683153242.95431185,81129742,0.0,-1.54,0.0,-0.44,326.63,326.64,0.0,0.0,3
1683153243.05433202,81229762,0.0,-1.52,0.0,-0.43,326.63,326.64,0.0,0.0,3
1683153243.15431190,81329742,0.0,-1.54,0.0,-0.43,326.63,326.64,0.0,0.0,3
1683153243.25462389,81430054,0.0,-1.53,0.0,-0.43,326.62,326.63,0.0,0.0,3
1683153243.35442495,81529855,0.0,-1.53,0.0,-0.43,326.62,326.63,0.0,0.0,3
1683153243.45458102,81630011,0.0,-1.54,0.0,-0.45,326.62,326.63,0.0,0.0,3
1683153243.55464292,81730073,0.0,-1.53,0.0,-0.44,326.62,326.63,0.0,0.0,3
1683153243.65441799,81829848,0.0,-1.55,0.0,-0.44,326.62,326.63,0.0,0.0,3
1683153243.75445485,81929885,0.0,-1.52,0.0,-0.45,326.61,326.62,0.0,0.0,3
1683153243.85450888,82029939,0.0,-1.55,0.0,-0.44,326.62,326.63,0.0,0.0,3
1683153243.95480704,82130237,0.0,-1.53,0.0,-0.45,326.61,326.62,0.0,0.01,3
1683153244.05475092,82230181,0.0,-1.54,0.0,-0.45,326.61,326.62,0.0,0.01,3
1683153244.15457988,82330010,0.0,-1.54,0.0,-0.45,326.61,326.62,0.0,0.01,3
1683153244.25468993,82430120,0.0,-1.53,0.0,-0.45,326.61,326.62,0.0,0.01,3
1683153244.35452485,82529955,0.0,-1.54,0.0,-0.45,326.61,326.62,0.0,0.02,3
1683153244.45457602,82630006,0.0,-1.53,0.0,-0.44,326.62,326.63,0.0,0.02,3
1683153244.55446386,82729894,0.0,-1.55,0.0,-0.45,326.63,326.64,0.0,0.02,3
1683153244.65478802,82830218,0.0,-1.54,0.0,-0.45,326.65000000000003,326.66,0.0,0.02,3
1683153244.75464296,82930073,0.0,-1.55,0.0,-0.45,326.66,326.67,0.0,0.01,3
1683153244.85474801,83030178,0.0,-1.55,0.0,-0.44,326.66,326.67,0.0,0.01,3
1683153244.95479298,83130223,0.0,-1.56,0.0,-0.44,326.68,326.69,0.0,0.01,3
1683153245.05465293,83230083,0.0,-1.55,0.0,-0.44,326.68,326.69,0.0,0.01,3
1683153245.15469098,83330121,0.0,-1.56,0.0,-0.43,326.68,326.69,0.0,0.01,3
1683153245.25457287,83430003,0.0,-1.55,0.0,-0.43,326.69,326.7,0.0,0.01,3
1683153245.35456204,83529992,0.0,-1.54,0.0,-0.43,326.7,326.71,0.0,0.02,3
1683153245.45442891,83629859,0.0,-1.53,0.0,-0.42,326.71,326.72,0.0,0.03,3
1683153245.55448699,83729917,0.0,-1.51,0.0,-0.42,326.72,326.73,0.0,0.03,3
1683153245.65466404,83830094,0.0,-1.5,0.0,-0.42,326.74,326.75,0.0,0.04,3
1683153245.75452399,83929954,0.0,-1.48,0.0,-0.42,326.76,326.77,0.0,0.03,3
1683153245.85451388,84029944,0.0,-1.5,0.0,-0.43,326.78000000000003,326.79,0.0,0.03,3
1683153245.95479083,84130221,0.0,-1.51,0.0,-0.41000000000000003,326.79,326.8,0.0,0.03,3
1683153246.05461097,84230041,0.0,-1.53,0.0,-0.42,326.8,326.81,0.0,0.03,3
1683153246.15420485,84329635,0.0,-1.54,0.0,-0.42,326.82,326.83,0.0,0.03,3
1683153246.25427699,84429707,0.0,-1.55,0.0,-0.42,326.81,326.82,0.0,0.02,3
1683153246.35417604,84529606,0.0,-1.54,0.0,-0.42,326.83,326.84000000000003,0.0,0.02,3
1683153246.45425105,84629681,0.0,-1.55,0.0,-0.42,326.84000000000003,326.85,0.0,0.02,3
1683153246.55433702,84729767,0.0,-1.53,0.0,-0.42,326.84000000000003,326.85,0.0,0.02,3
1683153246.65430593,84829736,0.0,-1.54,0.0,-0.42,326.85,326.86,0.0,0.02,3
1683153246.75432086,84929751,0.0,-1.53,0.0,-0.42,326.84000000000003,326.85,0.0,0.02,3
1683153246.85452390,85029954,0.0,-1.53,0.0,-0.42,326.83,326.84000000000003,0.0,0.02,3
1683153246.95470500,85130135,0.0,-1.53,0.0,-0.43,326.83,326.84000000000003,0.0,0.02,3
1683153247.05456090,85229991,0.0,-1.53,0.0,-0.42,326.82,326.83,0.0,0.02,3
1683153247.15461087,85330041,0.0,-1.53,0.0,-0.42,326.81,326.82,0.0,0.01,3
1683153247.25442886,85429859,0.0,-1.53,0.0,-0.42,326.81,326.82,0.0,0.01,3
1683153247.35441589,85529846,0.0,-1.53,0.0,-0.42,326.8,326.81,0.0,0.01,3
1683153247.45476604,85630196,0.0,-1.53,0.0,-0.42,326.8,326.81,0.0,0.01,3
1683153247.55476189,85730192,0.0,-1.53,0.0,-0.42,326.79,326.8,0.0,0.01,3
1683153247.65451694,85829947,0.0,-1.53,0.0,-0.42,326.78000000000003,326.79,0.0,0.01,3
1683153247.75469398,85930124,0.0,-1.52,0.0,-0.42,326.78000000000003,326.79,0.0,0.01,3
1683153247.85451698,86029947,0.0,-1.52,0.0,-0.42,326.78000000000003,326.79,0.0,0.01,3
