timestamp,TimeUS,C,Roll,Pitch,Yaw,VN,VE,VD,dPD,PN,PE,PD,GX,GY,GZ,OH
1683153173.35377192,11529202,2,0.0,0.0,0.0,0.0,0.0,0.0,0.0,0.0,0.0,0.0,0.0,0.0,0.0,0.0
1683153173.45378804,11629218,2,0.0,0.0,0.0,0.0,0.0,0.0,0.0,0.0,0.0,0.0,0.0,0.0,0.0,0.0
1683153173.55377483,11729205,2,0.0,0.0,0.0,0.0,0.0,0.0,0.0,0.0,0.0,0.0,0.0,0.0,0.0,0.0
1683153173.65381289,11829243,2,0.0,0.0,0.0,0.0,0.0,0.0,0.0,0.0,0.0,0.0,0.0,0.0,0.0,0.0
1683153173.75378489,11929215,2,0.0,0.0,0.0,0.0,0.0,0.0,0.0,0.0,0.0,0.0,0.0,0.0,0.0,0.0
1683153173.85380387,12029234,2,0.0,0.0,0.0,0.0,0.0,0.0,0.0,0.0,0.0,0.0,0.0,0.0,0.0,0.0
1683153173.95374489,12129175,2,0.0,0.0,0.0,0.0,0.0,0.0,0.0,0.0,0.0,0.0,0.0,0.0,0.0,0.0
1683153174.05374789,12229178,2,0.0,0.0,0.0,0.0,0.0,0.0,0.0,0.0,0.0,0.0,0.0,0.0,0.0,0.0
1683153174.15375495,12329185,2,0.0,0.0,0.0,0.0,0.0,0.0,0.0,0.0,0.0,0.0,0.0,0.0,0.0,0.0
1683153174.25376201,12429192,2,0.0,0.0,0.0,0.0,0.0,0.0,0.0,0.0,0.0,0.0,0.0,0.0,0.0,0.0
1683153174.35378003,12529210,2,-0.87,0.6900000000000001,359.96,0.019110769033432007,0.011548635549843311,0.007976564578711987,-0.003011588240042329,0.0,0.0,0.00022213337069842964,0.0,0.0,0.0,0.0
1683153174.45377994,12629210,2,-0.87,0.65,0.06,-0.002975081792101264,0.010117040947079659,0.043633464723825455,0.019655248150229454,0.0,0.0,0.003129923017695546,0.0,0.0,0.0,0.0
1683153174.55380893,12729239,2,-0.89,0.68,0.04,-0.010456942021846771,0.024354245513677597,0.0850050300359726,1.820264220237732,0.0,0.0,0.2149677574634552,0.0,0.0,0.0,0.0
1683153174.65379095,12829221,2,-0.85,0.65,359.97,-0.008462967351078987,0.022098686546087265,0.11284748464822769,2.7325422763824463,0.0,0.0,0.4346902370452881,0.0,0.0,0.0,0.0
1683153174.75381398,12929244,2,-0.89,0.64,0.05,-0.029382655397057533,0.03295965865254402,0.131883904337883,2.387662887573242,0.0,0.0,0.6249623894691467,0.0,0.0,0.0,0.0
1683153174.85374498,13029175,2,-0.8300000000000001,0.66,359.96,-0.03177522122859955,0.037592314183712006,0.14332444965839386,1.7780157327651978,0.0,0.0,0.7822704911231995,0.0,0.0,0.0,0.0
1683153174.95374584,13129176,2,-0.86,0.65,0.0,-0.039644889533519745,0.04517145827412605,0.1508675366640091,1.2814022302627563,0.0,0.0,0.9097022414207458,0.0,0.0,0.0,0.0
1683153175.05375004,13229180,2,-0.8,0.67,0.13,-0.056514203548431396,0.053842537105083466,0.15425927937030792,0.9104724526405334,0.0,0.0,1.0088645219802856,0.0,0.0,0.0,0.0
1683153175.15374684,13329177,2,-0.84,0.65,0.13,-0.05168335139751434,0.05150335654616356,0.15571080148220062,0.6303384900093079,0.0,0.0,1.0851056575775146,0.0,0.0,0.0,0.0
1683153175.25378084,13429211,2,-0.87,0.63,0.18,-0.07000099122524261,0.0591256283223629,0.15551072359085083,0.44149479269981384,0.0,0.0,1.143333077430725,0.0,0.0,0.0,0.0
1683153175.35379195,13529222,2,-0.92,0.6,359.98,-0.06069275736808777,0.0551430881023407,0.15345606207847595,0.32229772210121155,0.0,0.0,1.188900113105774,0.0,0.0,0.0,0.0
1683153175.45381689,13629247,2,-0.91,0.58,0.15,-0.07336463779211044,0.05817530304193497,0.1509813666343689,0.28232282400131226,0.0,0.0,1.228691577911377,0.0,0.0,0.0,0.0
1683153175.55378604,13729216,2,-0.99,0.55,0.26,-0.0710059106349945,0.04697738215327263,0.15038639307022095,0.27746713161468506,0.0,0.0,1.2648324966430664,0.0,0.0,0.0,0.0
1683153175.65380502,13829235,2,-1.01,0.48,359.86,-0.06883411109447479,0.049177657812833786,0.14721345901489258,0.25880759954452515,0.0,0.0,1.29544997215271,0.0,0.0,0.0,0.0
1683153175.75373888,13929169,2,-1.06,0.47000000000000003,0.04,-0.0636657178401947,0.0412726067006588,0.14477652311325073,0.240158811211586,0.0,0.0,1.3236924409866333,0.0,0.0,0.0,0.0
1683153175.85373402,14029164,2,-1.1,0.43,335.54,-0.05040254816412926,0.03654765710234642,0.1436425894498825,0.25990408658981323,0.0,0.0,1.3531616926193237,0.0,0.0,0.0,0.0
1683153175.95373797,14129168,2,-1.12,0.38,335.2,-0.05889596417546272,0.036812976002693176,0.14115095138549805,0.2502758204936981,0.0,0.0,1.378482699394226,0.0,0.0,0.0,0.0
1683153176.05379605,14229226,2,-1.1300000000000001,0.37,335.29,-0.03494540601968765,0.029436182230710983,0.13906995952129364,0.22874026000499725,0.0,0.0,1.4033005237579346,0.0,0.0,0.0,0.0
1683153176.15377784,14329208,2,-1.12,0.33,335.46,-0.033534031361341476,0.028120698407292366,0.13485465943813324,0.19206255674362183,0.0,0.0,1.422411561012268,0.0,0.0,0.0,0.0
1683153176.25380087,14429231,2,-1.09,0.33,335.12,-0.049944087862968445,0.029165474697947502,0.12592774629592896,0.07262200862169266,0.0,0.0,1.4298033714294434,0.0,0.0,0.0,0.0
1683153176.35381699,14529247,2,-1.07,0.37,335.08,-0.028881527483463287,0.033348992466926575,0.11853763461112976,0.010177467949688435,0.0,0.0,1.4357153177261353,0.0,0.0,0.0,0.0
1683153176.45379806,14629228,2,-1.1,0.32,335.17,-0.02190244570374489,0.023261822760105133,0.11146912723779678,0.029621822759509087,0.0,0.0,1.4423006772994995,0.0,0.0,0.0,0.0
1683153176.55380106,14729231,2,-1.12,0.31,335.06,-0.03281870484352112,0.03752649575471878,0.1037750169634819,0.0518224872648716,0.0,0.0,1.4498580694198608,0.0,0.0,0.0,0.0
1683153176.65375185,14829182,2,-1.07,0.3,335.11,-0.015162372030317783,0.018458165228366852,0.10127066820859909,0.10446379333734512,0.0,0.0,1.4618395566940308,0.0,0.0,0.0,0.0
1683153176.75373983,14929170,2,-1.12,0.27,335.18,-0.025371775031089783,0.03679751604795456,0.09626839309930801,0.1316402703523636,0.0,0.0,1.4738212823867798,0.0,0.0,0.0,0.0
1683153176.85374093,15029171,2,-1.08,0.28,335.1,-0.016437286511063576,0.025797884911298752,0.09035461395978928,0.09506777673959732,0.0,0.0,1.4817614555358887,0.0,0.01,0.0,0.0
1683153176.95377684,15129207,2,-1.1300000000000001,0.23,335.11,-0.010796869173645973,0.028378775343298912,0.08512420952320099,0.06057451665401459,0.0,0.0,1.4881263971328735,0.0,0.01,0.0,0.0
1683153177.05378294,15229213,2,-1.11,0.22,335.16,-0.01434371154755354,0.029855646193027496,0.08041992783546448,0.06761844456195831,0.0,0.0,1.4964078664779663,0.0,0.02,0.0,0.0
1683153177.15377998,15329210,2,-1.12,0.21,335.13,-0.006607590708881617,0.020058244466781616,0.07608571648597717,0.06914589554071426,0.0,0.0,1.502790093421936,0.01,0.02,0.01,0.0
1683153177.25380898,15429239,2,-1.12,0.16,335.02,0.001712689409032464,0.02277815341949463,0.0677008330821991,0.013511168770492077,0.0,0.0,1.5031965970993042,0.01,0.02,0.01,0.0
1683153177.35380101,15529231,2,-1.1400000000000001,0.13,335.03000000000003,-0.0003086928918492049,0.015987038612365723,0.058202195912599564,-0.04101695865392685,0.0,0.0,1.5005086660385132,0.01,0.03,0.01,0.0
1683153177.45380187,15629232,2,-1.16,0.1,334.97,0.013173306360840797,0.015122546814382076,0.04974418506026268,-0.037311360239982605,0.0,0.0,1.4997001886367798,0.01,0.03,0.01,0.0
1683153177.55373502,15729165,2,-1.17,0.05,334.92,0.007222349289804697,0.006096533965319395,0.0425395630300045,0.0009343200945295393,0.0,0.0,1.501447081565857,0.02,0.03,0.01,0.0
1683153177.65373802,15829168,2,-1.18,0.05,335.0,0.016993291676044464,0.0069006518460810184,0.0394570454955101,0.06518030166625977,0.0,0.0,1.508955955505371,0.02,0.04,0.01,0.0
1683153177.75373387,15929164,2,-1.18,0.01,334.93,0.018349334597587585,0.0009852800285443664,0.03675325959920883,0.10066360235214233,0.0,0.0,1.5170131921768188,0.02,0.04,0.01,0.0
1683153177.85377097,16029201,2,-1.22,0.01,334.88,0.019582252949476242,-0.00430593965575099,0.035102520138025284,0.10628633201122284,0.0,0.0,1.5261292457580566,0.03,0.04,0.02,0.0
1683153177.95377994,16129210,2,-1.21,-0.01,334.88,0.030621983110904694,-0.004675592761486769,0.0326613150537014,0.09037559479475021,0.0,0.0,1.5333408117294312,0.03,0.04,0.02,0.0
1683153178.05377698,16229207,2,-1.23,0.0,334.95,0.022499939426779747,-0.011773043312132359,0.02484036237001419,-0.00027280510403215885,0.0,0.0,1.531079888343811,0.03,0.03,0.02,0.0
1683153178.15381193,16329242,2,-1.24,-0.01,334.90000000000003,0.03327403590083122,-0.013764003291726112,0.01553271058946848,-0.07874745875597,0.0,0.0,1.5251959562301636,0.03,0.03,0.03,0.0
1683153178.25378585,16429216,2,-1.24,-0.01,334.8,0.024269655346870422,-0.016711914911866188,0.006441950798034668,-0.08373020589351654,0.0,0.0,1.5201772451400757,0.03,0.03,0.03,0.0
1683153178.35380006,16529230,2,-1.28,-0.02,334.85,0.03797592595219612,-0.02140839770436287,-0.0009277091594412923,-0.0685347467660904,0.0,0.0,1.514939308166504,0.03,0.03,0.03,0.0
1683153178.45373988,16629170,2,-1.26,-0.03,334.83,0.027639854699373245,-0.020523346960544586,-0.005118088331073523,-0.023561157286167145,0.0,0.0,1.5145272016525269,0.03,0.02,0.03,0.0
1683153178.55373383,16729164,2,-1.28,-0.01,334.79,0.03063698299229145,-0.020113494247198105,-0.005867678672075272,0.04676606506109238,0.0,0.0,1.5192797183990479,0.03,0.02,0.03,0.0
1683153178.65373683,16829167,2,-1.25,0.0,334.86,0.030276145786046982,-0.02313651517033577,-0.0076401568949222565,0.05858154594898224,0.0,0.0,1.5222994089126587,0.03,0.01,0.04,0.0
1683153178.75377083,16929201,2,-1.28,0.0,334.79,0.02488318458199501,-0.021973952651023865,-0.010145810432732105,0.0385683998465538,0.0,0.0,1.5248794555664062,0.03,0.01,0.04,0.0
1683153178.85377598,17029206,2,-1.27,0.02,334.72,0.027000436559319496,-0.02012210711836815,-0.01287933997809887,0.02881387434899807,0.0,0.0,1.5271997451782227,0.03,0.0,0.04,0.0
1683153178.95377588,17129206,2,-1.28,0.03,334.79,0.024027353152632713,-0.022354764863848686,-0.01582016609609127,0.024471240118145943,0.0,0.0,1.5295612812042236,0.03,0.0,0.06,0.0
1683153179.05381083,17229241,2,-1.28,0.04,334.74,0.020678479224443436,-0.01887180283665657,-0.01482681930065155,0.06379130482673645,0.0,0.0,1.5370880365371704,0.03,0.0,0.06,0.0
1683153179.15378189,17329212,2,-1.28,0.05,334.66,0.019302770495414734,-0.02213049679994583,-0.014836732298135757,0.07106562703847885,0.0,0.0,1.541953682899475,0.03,0.0,0.06,0.0
1683153179.25380182,17429232,2,-1.29,0.07,334.72,0.0182509608566761,-0.017437797039747238,-0.018714888021349907,0.023611122742295265,0.0,0.0,1.5431550741195679,0.03,-0.01,0.05,0.0
1683153179.35374093,17529171,2,-1.29,0.07,334.72,0.014106360264122486,-0.018077876418828964,-0.0207781083881855,0.0032600578851997852,0.0,0.0,1.5444183349609375,0.03,-0.01,0.04,0.0
1683153179.45373487,17629165,2,-1.3,0.09,334.68,0.011972077190876007,-0.016402985900640488,-0.02349155955016613,-0.000403975514927879,0.0,0.0,1.5450398921966553,0.03,-0.01,0.04,0.0
1683153179.55373502,17729165,2,-1.29,0.1,334.76,0.01155740488320589,-0.015918638557195663,-0.024534175172448158,0.01264379732310772,0.0,0.0,1.5473787784576416,0.02,-0.01,0.03,0.0
1683153179.65374804,17829178,2,-1.29,0.1,334.76,0.007851340807974339,-0.013465972617268562,-0.025085607543587685,0.03169786557555199,0.0,0.0,1.5505207777023315,0.02,-0.02,0.04,0.0
1683153179.75377893,17929209,2,-1.28,0.1,334.72,0.00670546293258667,-0.011621866375207901,-0.026954876258969307,0.011299804784357548,0.0,0.0,1.5502347946166992,0.02,-0.02,0.04,0.0
1683153179.85377693,18029207,2,-1.29,0.1,334.79,0.005468903109431267,-0.011867440305650234,-0.02796388417482376,0.008318626321852207,0.0,0.0,1.5523782968521118,0.02,-0.02,0.04,0.0
1683153179.95379901,18129229,2,-1.28,0.1,334.76,0.003923522774130106,-0.008961875922977924,-0.027643177658319473,0.044431477785110474,0.0,0.0,1.5574575662612915,0.02,-0.02,0.06,0.0
1683153180.05378389,18229214,2,-1.29,0.11,334.69,0.0013389342930167913,-0.010983421467244625,-0.027896713465452194,0.04703522101044655,0.0,0.0,1.5605850219726562,0.02,-0.02,0.05,0.0
1683153180.15380597,18329236,2,-1.28,0.11,334.74,0.003098377725109458,-0.008683400228619576,-0.029590416699647903,0.009527570568025112,0.0,0.0,1.5603705644607544,0.02,-0.02,0.05,0.0
1683153180.25373483,18429165,2,-1.29,0.11,334.71,-0.001089169061742723,-0.009430726990103722,-0.03141755983233452,-0.0035643265582621098,0.0,0.0,1.5612074136734009,0.02,-0.02,0.05,0.0
1683153180.35373688,18529167,2,-1.31,0.11,334.66,0.0035926622804254293,-0.006254575680941343,-0.03365271911025047,-0.013302648440003395,0.0,0.0,1.5594518184661865,0.02,-0.03,0.05,0.0
1683153180.45374393,18629174,2,-1.28,0.1,334.71,-0.004156926646828651,-0.010350875556468964,-0.037767548114061356,-0.03282329812645912,0.0,0.0,1.556992530822754,0.02,-0.03,0.05,0.0
1683153180.55373883,18729169,2,-1.3,0.1,334.72,0.003155641257762909,-0.003425003495067358,-0.04102384299039841,-0.047872431576251984,0.0,0.0,1.5527048110961914,0.02,-0.03,0.05,0.0
1683153180.65377998,18829210,2,-1.3,0.1,334.66,-0.0052723027765750885,-0.008034588769078255,-0.045710790902376175,-0.08035854250192642,0.0,0.0,1.5451077222824097,0.02,-0.03,0.05,0.0
1683153180.75377989,18929210,2,-1.31,0.11,334.69,0.001544975326396525,-0.004288388416171074,-0.051315829157829285,-0.10951870679855347,0.0,0.0,1.5353482961654663,0.02,-0.03,0.05,0.0
1683153180.85380888,19029239,2,-1.28,0.11,334.73,-0.003506501205265522,-0.00553383631631732,-0.0552215576171875,-0.08947928249835968,0.0,0.0,1.528620719909668,0.02,-0.03,0.04,0.0
1683153180.95379996,19129230,2,-1.32,0.11,334.69,-0.001538201468065381,-0.004782282281666994,-0.05715130642056465,-0.030940677970647812,0.0,0.0,1.5262084007263184,0.02,-0.03,0.04,0.0
1683153181.05379796,19229228,2,-1.29,0.11,334.73,0.00047091892338357866,-0.006612466182559729,-0.0576745942234993,0.0009700052323751152,0.0,0.0,1.5250730514526367,0.01,-0.03,0.04,0.0
1683153181.15373397,19329164,2,-1.32,0.1,334.76,-0.001949919038452208,-0.008164704777300358,-0.06090022996068001,-0.022158917039632797,0.0,0.0,1.520849347114563,0.01,-0.03,0.04,0.0
1683153181.25373483,19429165,2,-1.3,0.11,334.71,-0.0012270191218703985,-0.006750281434506178,-0.06459929794073105,-0.05444334074854851,0.0,0.0,1.5152932405471802,0.01,-0.03,0.04,0.0
1683153181.35374188,19529172,2,-1.32,0.1,334.67,-0.0006419632118195295,-0.012905539013445377,-0.06657910346984863,-0.047949135303497314,0.0,0.0,1.511275291442871,0.01,-0.03,0.12,0.0
1683153181.45376492,19629195,2,-1.31,0.11,334.56,-0.0013105608522891998,-0.008848929777741432,-0.06853853911161423,-0.02964792028069496,0.0,0.0,1.5084049701690674,0.01,-0.03,0.18,0.0
1683153181.55377984,19729210,2,-1.32,0.1,334.3,-0.0027704909443855286,-0.01470900233834982,-0.0678585022687912,-0.0033329729922115803,0.0,0.0,1.5079680681228638,0.01,-0.03,0.23,0.0
1683153181.65377784,19829208,2,-1.32,0.1,334.04,0.00248810276389122,-0.013304473832249641,-0.06990037858486176,-0.010884635150432587,0.0,0.0,1.5052318572998047,0.01,-0.03,0.29,0.0
1683153181.75380898,19929239,2,-1.31,0.09,333.77,-0.001454317243769765,-0.018503105267882347,-0.07175600528717041,-0.040648020803928375,0.0,0.0,1.501052975654602,0.01,-0.03,0.36,0.0
1683153181.85379291,20029223,2,-1.35,0.07,333.41,0.0030186669901013374,-0.01865946128964424,-0.0761387050151825,-0.08090304583311081,0.0,0.0,1.492557406425476,0.01,-0.04,0.41000000000000003,0.0
1683153181.95380187,20129232,2,-1.31,0.08,333.03000000000003,-0.008295471780002117,-0.01345072127878666,-0.08170466125011444,-0.12381475418806076,0.0,0.0,1.4816293716430664,0.01,-0.04,0.45,0.0
1683153182.05373788,20229168,2,-1.3,0.1,332.72,0.0028355258982628584,-0.021573105826973915,-0.08338657021522522,-0.1015729084610939,0.0,0.0,1.4738954305648804,0.01,-0.04,0.5,0.0
1683153182.15373397,20329164,2,-1.3,0.07,332.51,-0.0010514785535633564,-0.015795400366187096,-0.0859670639038086,-0.06988011300563812,0.0,0.0,1.4670462608337402,0.01,-0.04,0.52,0.0
1683153182.25373483,20429165,2,-1.31,0.1,332.23,-0.0037740529514849186,-0.014184131287038326,-0.08804018050432205,-0.07222367078065872,0.0,0.0,1.4591898918151855,0.01,-0.04,0.55,0.0
1683153182.35377884,20529209,2,-1.3,0.1,331.94,0.002262192079797387,-0.019801542162895203,-0.08975731581449509,-0.06142992898821831,0.0,0.0,1.4534847736358643,0.01,-0.04,0.58,0.0
1683153182.45377493,20629205,2,-1.31,0.09,331.78000000000003,-0.0016932421131059527,-0.014659889042377472,-0.09236236661672592,-0.06437733769416809,0.0,0.0,1.4457612037658691,0.01,-0.04,0.61,0.0
1683153182.55377984,20729210,2,-1.3,0.11,331.57,-0.0011011979077011347,-0.015472336672246456,-0.09469207376241684,-0.06859398633241653,0.0,0.0,1.439642310142517,0.01,-0.04,0.63,0.0
1683153182.65381694,20829247,2,-1.3,0.09,331.34000000000003,0.0005212010000832379,-0.014351275749504566,-0.0948873832821846,-0.03341274335980415,0.0,0.0,1.4365283250808716,0.01,-0.04,0.66,0.0
1683153182.75378799,20929218,2,-1.29,0.11,331.21,-0.004114959854632616,-0.013147519901394844,-0.09342959523200989,-0.008020014502108097,0.0,0.0,1.4348431825637817,0.01,-0.04,0.6900000000000001,0.0
1683153182.85380387,21029234,2,-1.3,0.1,330.99,0.005123690236359835,-0.016588330268859863,-0.09156623482704163,0.018414556980133057,0.0,0.0,1.436466097831726,0.01,-0.04,0.71,0.0
1683153182.95373702,21129167,2,-1.33,0.08,330.81,-0.0035287500359117985,-0.016818681731820107,-0.08898261189460754,0.05580495670437813,0.0,0.0,1.4410018920898438,0.0,-0.04,0.72,0.0
1683153183.05374098,21229171,2,-1.32,0.09,330.63,-0.0007927548722364008,-0.013570498675107956,-0.08605524897575378,0.056096479296684265,0.0,0.0,1.4439736604690552,0.0,-0.05,0.75,0.0
1683153183.15373492,21329165,2,-1.33,0.09,330.34000000000003,-0.00034252137993462384,-0.013820935040712357,-0.08482959866523743,0.026227213442325592,0.0,0.0,1.4453006982803345,0.0,-0.05,0.77,0.0
1683153183.25375891,21429189,2,-1.31,0.1,330.23,0.002208244986832142,-0.013084509409964085,-0.08260082453489304,0.030976688489317894,0.0,0.0,1.4495030641555786,0.0,-0.05,0.77,0.0
1683153183.35378289,21529213,2,-1.33,0.09,330.13,0.00262597668915987,-0.014950464479625225,-0.08165086805820465,0.03146416321396828,0.0,0.0,1.4515132904052734,0.0,-0.05,0.79,0.0
1683153183.45379305,21629223,2,-1.3,0.1,329.90000000000003,-0.00443651620298624,-0.010582768358290195,-0.08246685564517975,-0.013203436508774757,0.0,0.0,1.4492107629776,0.0,-0.05,0.81,0.0
1683153183.55381989,21729250,2,-1.32,0.1,329.71,0.00119248335249722,-0.016859862953424454,-0.0808577612042427,-0.02746005356311798,0.0,0.0,1.4481008052825928,0.0,-0.05,0.8200000000000001,0.0
1683153183.65378499,21829215,2,-1.31,0.1,329.63,-0.0014703928027302027,-0.010348953306674957,-0.07962390035390854,-0.009971392340958118,0.0,0.0,1.4479881525039673,0.0,-0.05,0.8300000000000001,0.0
1683153183.75379300,21929223,2,-1.32,0.11,329.44,-0.004990370012819767,-0.011974327266216278,-0.07429758459329605,0.06319905817508698,0.0,0.0,1.4566211700439453,0.0,-0.05,0.84,0.0
1683153183.85373998,22029170,2,-1.33,0.1,329.26,-0.0007645654841326177,-0.01261611096560955,-0.0684676542878151,0.1417257934808731,0.0,0.0,1.4690289497375488,0.0,-0.05,0.85,0.0
1683153183.95374894,22129179,2,-1.31,0.11,329.18,-0.002954071154817939,-0.012058917433023453,-0.06521078199148178,0.13641716539859772,0.0,0.0,1.4773505926132202,0.0,-0.05,0.86,0.0
1683153184.05373788,22229168,2,-1.32,0.1,329.01,-0.0021071021910756826,-0.013818757608532906,-0.061223436146974564,0.12160567939281464,0.0,0.0,1.4881702661514282,0.0,-0.05,0.87,0.0
1683153184.15376592,22329196,2,-1.32,0.1,328.83,-0.003642486175522208,-0.013504408299922943,-0.0582842119038105,0.1173410639166832,0.0,0.0,1.4990545511245728,0.0,-0.05,0.88,0.0
1683153184.25377798,22429208,2,-1.33,0.1,328.74,-0.00037482118932530284,-0.019811203703284264,-0.05499650537967682,0.09140819311141968,0.0,0.0,1.5073789358139038,0.0,-0.05,0.89,0.0
1683153184.35379291,22529223,2,-1.33,0.1,328.58,-0.006403633859008551,-0.01620749942958355,-0.052107442170381546,0.08801756054162979,0.0,0.0,1.5174940824508667,0.0,-0.05,0.89,0.0
1683153184.45381594,22629246,2,-1.32,0.11,328.42,-0.002172027016058564,-0.018646618351340294,-0.048095542937517166,0.09505368769168854,0.0,0.0,1.5264431238174438,0.0,-0.05,0.89,0.0
1683153184.55378294,22729213,2,-1.32,0.1,328.34000000000003,-0.00234756781719625,-0.021546903997659683,-0.04553966596722603,0.07066165655851364,0.0,0.0,1.5332489013671875,0.0,-0.05,0.9,0.0
1683153184.65380001,22829230,2,-1.34,0.1,328.21,-0.0038166374433785677,-0.016941649839282036,-0.04433758556842804,0.042241401970386505,0.0,0.0,1.5375330448150635,0.0,-0.05,0.9,0.0
1683153184.75374198,22929172,2,-1.32,0.11,328.08,-0.0033877037931233644,-0.022156599909067154,-0.04345228895545006,0.014750964008271694,0.0,0.0,1.5397452116012573,0.0,-0.05,0.9,0.0
1683153184.85373402,23029164,2,-1.33,0.1,328.03000000000003,-0.005481349769979715,-0.01938783936202526,-0.04475071653723717,-0.03407169505953789,0.0,0.0,1.5366531610488892,0.0,-0.05,0.9,0.0
1683153184.95373797,23129168,2,-1.32,0.11,327.92,-0.005078052170574665,-0.018597034737467766,-0.047082189470529556,-0.0820012241601944,0.0,0.0,1.5304827690124512,0.0,-0.05,0.9,0.0
1683153185.05378103,23229211,2,-1.32,0.1,327.81,-0.005521776154637337,-0.01974083110690117,-0.04943753033876419,-0.0774303451180458,0.0,0.0,1.5254062414169312,0.0,-0.05,0.89,0.0
1683153185.15378189,23329212,2,-1.32,0.1,327.8,-0.002357183489948511,-0.019221194088459015,-0.05055572837591171,-0.057311855256557465,0.0,0.0,1.5207788944244385,0.0,-0.05,0.89,0.0
1683153185.25378299,23429213,2,-1.31,0.1,327.7,-0.005121433641761541,-0.021979719400405884,-0.05073639750480652,-0.03235575184226036,0.0,0.0,1.5183383226394653,0.0,-0.05,0.9,0.0
1683153185.35381794,23529248,2,-1.33,0.09,327.58,-0.003132712561637163,-0.02074388414621353,-0.052292052656412125,-0.02632446400821209,0.0,0.0,1.514864444732666,0.0,-0.05,0.9,0.0
1683153185.45378399,23629214,2,-1.33,0.09,327.53000000000003,-0.00493225920945406,-0.02309940755367279,-0.05261847376823425,-0.026554953306913376,0.0,0.0,1.5123075246810913,0.0,-0.05,0.91,0.0
1683153185.55380392,23729234,2,-1.34,0.09,327.41,-0.005587422754615545,-0.02012253738939762,-0.04972107708454132,0.0054520610719919205,0.0,0.0,1.5127403736114502,0.0,-0.05,0.9,0.0
1683153185.65373802,23829168,2,-1.32,0.09,327.3,-0.005090573336929083,-0.02085869386792183,-0.0486895814538002,0.01817191019654274,0.0,0.0,1.5135223865509033,0.0,-0.05,0.9,0.0
1683153185.75373387,23929164,2,-1.34,0.08,327.26,-0.004414214286953211,-0.023182133212685585,-0.04819130152463913,0.02462722733616829,0.0,0.0,1.5155370235443115,0.0,-0.05,0.89,0.0
1683153185.85373592,24029166,2,-1.34,0.09,327.15000000000003,-0.0037970333360135555,-0.022550290450453758,-0.04689536988735199,0.047027748078107834,0.0,0.0,1.5197019577026367,0.0,-0.05,0.9,0.0
1683153185.95376992,24129200,2,-1.35,0.08,327.06,-0.002700335346162319,-0.024856342002749443,-0.04545546695590019,0.04540443792939186,0.0,0.0,1.5225728750228882,0.0,-0.05,0.89,0.0
1683153186.05376983,24229200,2,-1.36,0.08,327.03000000000003,-0.0051689138635993,-0.0226712878793478,-0.04434052109718323,0.03681972995400429,0.0,0.0,1.526080846786499,0.0,-0.05,0.89,0.0
1683153186.15378094,24329211,2,-1.33,0.09,326.94,-0.004889747127890587,-0.021917125210165977,-0.043301552534103394,0.00687275268137455,0.0,0.0,1.525231122970581,0.0,-0.05,0.89,0.0
1683153186.25380397,24429234,2,-1.35,0.09,326.87,-0.004789958242326975,-0.024135345593094826,-0.043954961001873016,-0.046408552676439285,0.0,0.0,1.5212126970291138,0.0,-0.05,0.88,0.0
1683153186.35378504,24529215,2,-1.34,0.09,326.85,-0.005305913742631674,-0.021970555186271667,-0.04431411623954773,-0.04786141589283943,0.0,0.0,1.5184537172317505,0.0,-0.05,0.88,0.0
1683153186.45381188,24629242,2,-1.35,0.1,326.77,-0.007257563062012196,-0.02557658590376377,-0.04432030767202377,-0.024253157898783684,0.0,0.0,1.5170204639434814,0.0,-0.05,0.88,0.0
1683153186.55373597,24729166,2,-1.34,0.09,326.71,-0.003619273193180561,-0.024548636749386787,-0.04407923296093941,-0.013294109143316746,0.0,0.0,1.5156171321868896,0.0,-0.05,0.87,0.0
1683153186.65373802,24829168,2,-1.35,0.1,326.68,-0.004461686126887798,-0.026596978306770325,-0.044244907796382904,-0.011003119871020317,0.0,0.0,1.5144164562225342,0.0,-0.05,0.87,0.0
1683153186.75374389,24929174,2,-1.34,0.09,326.61,-0.005069276317954063,-0.028123311698436737,-0.045812949538230896,-0.034115519374608994,0.0,0.0,1.5101462602615356,0.0,-0.05,0.86,0.0
1683153186.85375404,25029184,2,-1.35,0.1,326.57,-0.005620155017822981,-0.02710687555372715,-0.047665443271398544,-0.05464424565434456,0.0,0.0,1.5057178735733032,0.0,-0.05,0.85,0.0
1683153186.95378590,25129216,2,-1.34,0.09,326.55,-0.005128058604896069,-0.028203703463077545,-0.04882965236902237,-0.04433398321270943,0.0,0.0,1.5019572973251343,0.0,-0.05,0.85,0.0
1683153187.05377889,25229209,2,-1.36,0.09,326.48,-0.006788909435272217,-0.02872980199754238,-0.048395123332738876,-0.01889285072684288,0.0,0.0,1.5008553266525269,0.0,-0.05,0.84,0.0
1683153187.15380883,25329239,2,-1.35,0.09,326.45,-0.003370448248460889,-0.03036917746067047,-0.04849911108613014,0.006288045085966587,0.0,0.0,1.5010780096054077,0.0,-0.05,0.84,0.0
1683153187.25378299,25429213,2,-1.36,0.09,326.43,-0.0054581137374043465,-0.030587313696742058,-0.04879755899310112,-0.010349802672863007,0.0,0.0,1.4982377290725708,0.0,-0.05,0.8300000000000001,0.0
1683153187.35379696,25529227,2,-1.36,0.09,326.37,-0.0022621722891926765,-0.03043627366423607,-0.049081362783908844,-0.045572783797979355,0.0,0.0,1.493290662765503,0.0,-0.05,0.8300000000000001,0.0
1683153187.45373487,25629165,2,-1.36,0.08,326.34000000000003,-0.005826862063258886,-0.03176179900765419,-0.05055369436740875,-0.06963980197906494,0.0,0.0,1.4868146181106567,0.0,-0.05,0.8300000000000001,0.0
1683153187.55373597,25729166,2,-1.37,0.08,326.32,-0.005122867878526449,-0.031188955530524254,-0.05113992840051651,-0.0673678070306778,0.0,0.0,1.481480360031128,0.0,-0.05,0.8200000000000001,0.0
1683153187.65373802,25829168,2,-1.36,0.08,326.25,-0.005704289302229881,-0.033906884491443634,-0.05174710229039192,-0.0466323085129261,0.0,0.0,1.4775867462158203,0.0,-0.05,0.8200000000000001,0.0
1683153187.75378394,25929214,2,-1.37,0.08,326.22,-0.0061462330631911755,-0.03296637535095215,-0.05241982266306877,-0.027983728796243668,0.0,0.0,1.4748315811157227,0.0,-0.05,0.81,0.0
1683153187.85377192,26029202,2,-1.36,0.08,326.2,-0.004406011663377285,-0.03786827623844147,-0.051322221755981445,0.005905031692236662,0.0,0.0,1.4756743907928467,0.0,-0.05,0.8,0.0
1683153187.95377898,26129209,2,-1.37,0.07,326.16,-0.005249234847724438,-0.03722182661294937,-0.050672903656959534,0.010979700833559036,0.0,0.0,1.4744328260421753,0.0,-0.05,0.79,0.0
1683153188.05381298,26229243,2,-1.37,0.08,326.15000000000003,-0.004192868713289499,-0.03788073733448982,-0.05022960901260376,-0.019116578623652458,0.0,0.0,1.4715485572814941,0.0,-0.05,0.79,0.0
1683153188.15378499,26329215,2,-1.3800000000000001,0.08,326.15000000000003,-0.005134649109095335,-0.03663438931107521,-0.05084691196680069,-0.02809249237179756,0.0,0.0,1.4692822694778442,0.0,-0.05,0.78,0.0
1683153188.25380087,26429231,2,-1.37,0.08,326.12,-0.00560370646417141,-0.037032391875982285,-0.05117231234908104,-0.027874508872628212,0.0,0.0,1.4665013551712036,0.0,-0.05,0.78,0.0
1683153188.35373783,26529168,2,-1.37,0.08,326.12,-0.00611785938963294,-0.03797667846083641,-0.052081912755966187,-0.04920482635498047,0.0,0.0,1.4614753723144531,0.0,-0.05,0.77,0.0
1683153188.45373797,26629168,2,-1.37,0.08,326.12,-0.005952185019850731,-0.03871053084731102,-0.05227974057197571,-0.04734595865011215,0.0,0.0,1.4577611684799194,0.0,-0.05,0.76,0.0
1683153188.55373597,26729166,2,-1.3800000000000001,0.09,326.08,-0.0071604265831410885,-0.0391375757753849,-0.0521039254963398,-0.03776361048221588,0.0,0.0,1.4539557695388794,0.0,-0.05,0.76,0.0
1683153188.65377903,26829209,2,-1.37,0.09,326.08,-0.0057175299152731895,-0.039198607206344604,-0.05302207171916962,-0.05563405901193619,0.0,0.0,1.4481346607208252,0.0,-0.05,0.75,0.0
1683153188.75378799,26929218,2,-1.37,0.09,326.07,-0.010060806758701801,-0.03989891707897186,-0.0545363686978817,-0.09588022530078888,0.0,0.0,1.4385573863983154,0.0,-0.05,0.75,0.0
1683153188.85377502,27029205,2,-1.37,0.1,326.03000000000003,-0.00852422509342432,-0.039194267243146896,-0.05667249858379364,-0.1244877502322197,0.0,0.0,1.4275251626968384,0.0,-0.05,0.74,0.0
1683153188.95380592,27129236,2,-1.37,0.1,326.01,-0.011923237703740597,-0.040541939437389374,-0.058481231331825256,-0.11796189099550247,0.0,0.0,1.4173866510391235,0.0,-0.05,0.74,0.0
1683153189.05379295,27229223,2,-1.3800000000000001,0.1,325.99,-0.010593169368803501,-0.03950535133481026,-0.05890682712197304,-0.07585931569337845,0.0,0.0,1.411057710647583,0.0,-0.05,0.73,0.0
1683153189.15380597,27329236,2,-1.3800000000000001,0.1,325.96,-0.012034226208925247,-0.04120422527194023,-0.05764322355389595,-0.016606543213129044,0.0,0.0,1.409024715423584,0.0,-0.05,0.72,0.0
1683153189.25373483,27429165,2,-1.3900000000000001,0.12,325.96,-0.011349407956004143,-0.03980635851621628,-0.057257089763879776,0.011615356430411339,0.0,0.0,1.4083142280578613,0.0,-0.05,0.72,0.0
1683153189.35374188,27529172,2,-1.3800000000000001,0.11,325.96,-0.01273280382156372,-0.04058397188782692,-0.05677513778209686,0.013966419734060764,0.0,0.0,1.408038854598999,0.0,-0.05,0.71,0.0
1683153189.45373583,27629166,2,-1.3900000000000001,0.11,325.95,-0.01342087797820568,-0.03906655311584473,-0.05572156980633736,0.007894636131823063,0.0,0.0,1.407545804977417,0.0,-0.05,0.7000000000000001,0.0
1683153189.55378485,27729215,2,-1.3900000000000001,0.11,325.95,-0.014159068465232849,-0.03941049799323082,-0.05387764424085617,-0.015197151340544224,0.0,0.0,1.4050794839859009,0.0,-0.05,0.7000000000000001,0.0
1683153189.65377903,27829209,2,-1.4000000000000001,0.11,325.95,-0.015591512434184551,-0.04014655947685242,-0.053912453353405,-0.03573056310415268,0.0,0.0,1.4017665386199951,0.0,-0.05,0.7000000000000001,0.0
1683153189.75377893,27929209,2,-1.4000000000000001,0.12,325.92,-0.014728140085935593,-0.04091522470116615,-0.053789444267749786,-0.02924146130681038,0.0,0.0,1.3996374607086182,0.0,-0.05,0.6900000000000001,0.0
1683153189.85380793,28029238,2,-1.4000000000000001,0.12,325.91,-0.01620047353208065,-0.042538754642009735,-0.053644388914108276,-0.017444109544157982,0.0,0.0,1.398022174835205,0.0,-0.05,0.68,0.0
1683153189.95378494,28129215,2,-1.41,0.12,325.91,-0.016217993572354317,-0.04243604466319084,-0.053042661398649216,-0.02593112923204899,0.0,0.0,1.3949166536331177,0.0,-0.05,0.68,0.0
1683153190.05380392,28229234,2,-1.4000000000000001,0.12,325.88,-0.018854768946766853,-0.04319680482149124,-0.05205328390002251,-0.021114496514201164,0.0,0.0,1.393398404121399,0.0,-0.05,0.67,0.0
1683153190.15373802,28329168,2,-1.41,0.12,325.88,-0.01970653049647808,-0.042444564402103424,-0.05039183795452118,0.006674244999885559,0.0,0.0,1.393978476524353,-0.01,-0.05,0.67,0.0
1683153190.25373483,28429165,2,-1.4000000000000001,0.12,325.88,-0.01973745971918106,-0.04333130270242691,-0.0494125597178936,0.024492714554071426,0.0,0.0,1.3957566022872925,-0.01,-0.05,0.67,0.0
1683153190.35374284,28529173,2,-1.41,0.12,325.84000000000003,-0.021287085488438606,-0.043046873062849045,-0.04768285155296326,0.03387744724750519,0.0,0.0,1.398240089416504,-0.01,-0.05,0.67,0.0
1683153190.45379996,28629230,2,-1.41,0.13,325.83,-0.020875517278909683,-0.04579734802246094,-0.04660434275865555,0.03168407455086708,0.0,0.0,1.4004868268966675,-0.01,-0.05,0.66,0.0
1683153190.55377793,28729208,2,-1.41,0.12,325.81,-0.02241058461368084,-0.04537693038582802,-0.044853582978248596,0.02202777750790119,0.0,0.0,1.4020737409591675,-0.01,-0.05,0.65,0.0
1683153190.65377784,28829208,2,-1.41,0.12,325.79,-0.022693710401654243,-0.04633750021457672,-0.043193161487579346,0.015683770179748535,0.0,0.0,1.4035309553146362,-0.01,-0.05,0.65,0.0
1683153190.75381494,28929245,2,-1.42,0.12,325.79,-0.023421477526426315,-0.0460490919649601,-0.041477981954813004,0.020151473581790924,0.0,0.0,1.4057354927062988,-0.01,-0.05,0.64,0.0
1683153190.85378885,29029219,2,-1.4000000000000001,0.13,325.79,-0.02575613558292389,-0.04443207383155823,-0.03921923786401749,0.035312674939632416,0.0,0.0,1.4093163013458252,-0.01,-0.05,0.64,0.0
1683153190.95380282,29129233,2,-1.41,0.13,325.76,-0.025088516995310783,-0.0468754768371582,-0.0368170328438282,0.04680098593235016,0.0,0.0,1.413418173789978,-0.01,-0.05,0.64,0.0
1683153191.05374789,29229178,2,-1.41,0.14,325.76,-0.025709202513098717,-0.04476696252822876,-0.036286648362874985,0.0314803384244442,0.0,0.0,1.4156218767166138,-0.01,-0.05,0.63,0.0
1683153191.15374494,29329175,2,-1.41,0.14,325.75,-0.02814185433089733,-0.047149404883384705,-0.03718181699514389,-0.013406935147941113,0.0,0.0,1.4138325452804565,-0.01,-0.05,0.63,0.0
1683153191.25375104,29429181,2,-1.41,0.14,325.72,-0.026828601956367493,-0.04562440514564514,-0.036657098680734634,-0.02664748579263687,0.0,0.0,1.412792444229126,-0.01,-0.05,0.62,0.0
1683153191.35378098,29529211,2,-1.41,0.14,325.72,-0.029516875743865967,-0.045589469373226166,-0.03548365831375122,-0.004126862622797489,0.0,0.0,1.4132331609725952,-0.01,-0.05,0.62,0.0
1683153191.45377994,29629210,2,-1.41,0.14,325.71,-0.028600718826055527,-0.04635336250066757,-0.034780751913785934,0.011849687434732914,0.0,0.0,1.4145044088363647,-0.01,-0.05,0.62,0.0
1683153191.55377698,29729207,2,-1.4000000000000001,0.14,325.67,-0.031705230474472046,-0.04547819495201111,-0.03504110872745514,0.012415120378136635,0.0,0.0,1.4151912927627563,-0.01,-0.05,0.61,0.0
1683153191.65380788,29829238,2,-1.41,0.15,325.66,-0.0310958344489336,-0.04723978415131569,-0.0348692461848259,-0.003462187247350812,0.0,0.0,1.4144688844680786,-0.01,-0.05,0.61,0.0
1683153191.75379395,29929224,2,-1.4000000000000001,0.15,325.64,-0.030859610065817833,-0.04659028723835945,-0.03557245060801506,-0.012831025756895542,0.0,0.0,1.4135692119598389,-0.01,-0.05,0.61,0.0
1683153191.85378289,30029213,2,-1.41,0.15,325.62,-0.03362709656357765,-0.04715944454073906,-0.03525594249367714,-0.005782718304544687,0.0,0.0,1.4133656024932861,-0.01,-0.05,0.6,0.0
1683153191.95373201,30129162,2,-1.4000000000000001,0.15,325.6,-0.0324312224984169,-0.04589434713125229,-0.03404638171195984,0.0013187661534175277,0.0,0.0,1.413368821144104,-0.01,-0.05,0.6,0.0
1683153192.05373597,30229166,2,-1.41,0.15,325.59000000000003,-0.03662385046482086,-0.04637468233704567,-0.03299141302704811,0.0024606611113995314,0.0,0.0,1.4134217500686646,-0.01,-0.05,0.6,0.0
1683153192.15373683,30329167,2,-1.41,0.16,325.57,-0.03417991101741791,-0.04600623622536659,-0.03224160149693489,0.010560132563114166,0.0,0.0,1.414703130722046,-0.01,-0.05,0.59,0.0
1683153192.25375986,30429190,2,-1.41,0.15,325.56,-0.03728596121072769,-0.046803925186395645,-0.030635902658104897,0.015871351584792137,0.0,0.0,1.4156378507614136,-0.01,-0.05,0.59,0.0
1683153192.35377097,30529201,2,-1.41,0.16,325.55,-0.0360088013112545,-0.04660208895802498,-0.02970816381275654,0.005747724324464798,0.0,0.0,1.4158222675323486,-0.01,-0.05,0.58,0.0
1683153192.45377684,30629207,2,-1.4000000000000001,0.15,325.53000000000003,-0.03661647439002991,-0.04722516983747482,-0.02923072688281536,-0.011556487530469894,0.0,0.0,1.4143829345703125,-0.01,-0.05,0.58,0.0
1683153192.55379987,30729230,2,-1.41,0.15,325.53000000000003,-0.037364661693573,-0.046469226479530334,-0.028645113110542297,-0.016184404492378235,0.0,0.0,1.413636326789856,-0.01,-0.05,0.58,0.0
1683153192.65377498,30829205,2,-1.4000000000000001,0.15,325.51,-0.03690780699253082,-0.0474858283996582,-0.028364868834614754,-0.020207131281495094,0.0,0.0,1.4113463163375854,-0.01,-0.05,0.5700000000000001,0.0
1683153192.75379395,30929224,2,-1.41,0.16,325.5,-0.03853560611605644,-0.045645128935575485,-0.027293937280774117,-0.027466023340821266,0.0,0.0,1.409271001815796,-0.01,-0.05,0.5700000000000001,0.0
1683153192.85372806,31029158,2,-1.41,0.16,325.51,-0.03842565044760704,-0.045945581048727036,-0.026504764333367348,-0.01967805251479149,0.0,0.0,1.4075145721435547,-0.01,-0.05,0.56,0.0
1683153192.95372391,31129154,2,-1.42,0.16,325.5,-0.0399487167596817,-0.04639439657330513,-0.026207271963357925,0.010024790652096272,0.0,0.0,1.4095782041549683,-0.01,-0.05,0.56,0.0
1683153193.05373883,31229169,2,-1.41,0.17,325.5,-0.03923989087343216,-0.04565815255045891,-0.025087272748351097,0.050857096910476685,0.0,0.0,1.413751482963562,-0.01,-0.05,0.55,0.0
1683153193.15378284,31329213,2,-1.41,0.17,325.51,-0.04024210199713707,-0.046621643006801605,-0.02391590178012848,0.0561654306948185,0.0,0.0,1.4178416728973389,-0.01,-0.05,0.55,0.0
1683153193.25375891,31429189,2,-1.42,0.16,325.52,-0.040652062743902206,-0.045002441853284836,-0.022620070725679398,0.03463484346866608,0.0,0.0,1.4197802543640137,-0.01,-0.05,0.55,0.0
1683153193.35377693,31529207,2,-1.42,0.17,325.52,-0.041689082980155945,-0.04601049795746803,-0.021700508892536163,-0.008725523948669434,0.0,0.0,1.4182627201080322,-0.01,-0.05,0.54,0.0
1683153193.45379400,31629224,2,-1.42,0.18,325.53000000000003,-0.04155411943793297,-0.04408732429146767,-0.02214857004582882,-0.03611112758517265,0.0,0.0,1.4158505201339722,-0.01,-0.05,0.54,0.0
1683153193.55376983,31729200,2,-1.41,0.18,325.54,-0.04350842908024788,-0.04471844062209129,-0.02273973450064659,-0.04662612825632095,0.0,0.0,1.4120283126831055,-0.01,-0.05,0.53,0.0
1683153193.65379691,31829227,2,-1.42,0.18,325.54,-0.042159050703048706,-0.044366504997015,-0.023191731423139572,-0.05245824158191681,0.0,0.0,1.4078856706619263,-0.01,-0.05,0.53,0.0
1683153193.75372195,31929152,2,-1.41,0.17,325.56,-0.04352022707462311,-0.04340106621384621,-0.024938639253377914,-0.06040637940168381,0.0,0.0,1.4020845890045166,-0.01,-0.05,0.52,0.0
1683153193.85372996,32029160,2,-1.42,0.18,325.56,-0.04309707134962082,-0.044768113642930984,-0.025972193107008934,-0.07530316710472107,0.0,0.0,1.395336627960205,-0.01,-0.05,0.52,0.0
1683153193.95372391,32129154,2,-1.41,0.19,325.55,-0.04399994760751724,-0.04428849741816521,-0.027027657255530357,-0.08090852200984955,0.0,0.0,1.3878979682922363,-0.01,-0.05,0.52,0.0
1683153194.05376792,32229198,2,-1.42,0.18,325.55,-0.04422461986541748,-0.04738294705748558,-0.02815980277955532,-0.07707396894693375,0.0,0.0,1.3810725212097168,-0.01,-0.05,0.51,0.0
1683153194.15377092,32329201,2,-1.41,0.18,325.55,-0.04548022523522377,-0.04336593672633171,-0.02913249470293522,-0.0706508681178093,0.0,0.0,1.3742749691009521,-0.01,-0.05,0.51,0.0
1683153194.25377703,32429207,2,-1.41,0.19,325.55,-0.046665314584970474,-0.04570724442601204,-0.030292600393295288,-0.06164027750492096,0.0,0.0,1.3684669733047485,-0.02,-0.05,0.51,0.0
1683153194.35379696,32529227,2,-1.42,0.19,325.55,-0.04743482917547226,-0.04327785596251488,-0.030263548716902733,-0.02372097410261631,0.0,0.0,1.3668584823608398,-0.02,-0.05,0.51,0.0
1683153194.45378304,32629213,2,-1.41,0.2,325.54,-0.04884757101535797,-0.04475300386548042,-0.02975783310830593,-0.001336143002845347,0.0,0.0,1.365232229232788,-0.02,-0.05,0.5,0.0
1683153194.55378294,32729213,2,-1.42,0.19,325.52,-0.04827944189310074,-0.0429467037320137,-0.029393969103693962,-0.003828444518148899,0.0,0.0,1.3638522624969482,-0.02,-0.05,0.5,0.0
1683153194.65372801,32829158,2,-1.41,0.2,325.51,-0.050118736922740936,-0.043133653700351715,-0.02969246357679367,-0.01101293321698904,0.0,0.0,1.3619743585586548,-0.02,-0.05,0.5,0.0
1683153194.75373006,32929160,2,-1.41,0.2,325.5,-0.05095745623111725,-0.04203068092465401,-0.029503988102078438,-0.02572108991444111,0.0,0.0,1.358883261680603,-0.02,-0.05,0.49,0.0
1683153194.85372305,33029153,2,-1.41,0.2,325.5,-0.052000753581523895,-0.040603529661893845,-0.0293742548674345,-0.027974825352430344,0.0,0.0,1.3565714359283447,-0.02,-0.05,0.49,0.0
1683153194.95377302,33129203,2,-1.41,0.2,325.5,-0.05215497314929962,-0.04104934260249138,-0.02946539595723152,-0.023088084533810616,0.0,0.0,1.354248046875,-0.02,-0.05,0.48,0.0
1683153195.05373001,33229160,2,-1.41,0.2,325.5,-0.05154786258935928,-0.03911471739411354,-0.02799944579601288,-0.017001496627926826,0.0,0.0,1.3526140451431274,-0.02,-0.05,0.48,0.0
1683153195.15377784,33329208,2,-1.41,0.21,325.51,-0.05347063019871712,-0.03998555988073349,-0.027162067592144012,-0.022828320041298866,0.0,0.0,1.3497105836868286,-0.02,-0.05,0.48,0.0
1683153195.25381303,33429243,2,-1.41,0.21,325.51,-0.053417522460222244,-0.03831101208925247,-0.025226136669516563,-0.015408657491207123,0.0,0.0,1.3488881587982178,-0.02,-0.05,0.48,0.0
1683153195.35377288,33529203,2,-1.41,0.22,325.51,-0.05563266575336456,-0.03875846788287163,-0.02392563410103321,0.007127204444259405,0.0,0.0,1.3495556116104126,-0.02,-0.05,0.48,0.0
1683153195.45379305,33629223,2,-1.42,0.22,325.5,-0.05549243092536926,-0.03733460232615471,-0.02196422964334488,0.016158241778612137,0.0,0.0,1.3504018783569336,-0.02,-0.05,0.47000000000000003,0.0
1683153195.55373001,33729160,2,-1.41,0.23,325.49,-0.05755447596311569,-0.03638135641813278,-0.020699001848697662,-0.0018613552674651146,0.0,0.0,1.3489460945129395,-0.02,-0.05,0.47000000000000003,0.0
1683153195.65373397,33829164,2,-1.41,0.23,325.49,-0.05751131474971771,-0.0365842804312706,-0.01886306144297123,-0.02052277699112892,0.0,0.0,1.3470485210418701,-0.02,-0.05,0.46,0.0
1683153195.75377297,33929203,2,-1.41,0.22,325.49,-0.059201207011938095,-0.03492279723286629,-0.01826670579612255,-0.026688680052757263,0.0,0.0,1.3447763919830322,-0.02,-0.05,0.46,0.0
1683153195.85373998,34029170,2,-1.42,0.22,325.5,-0.05960484594106674,-0.0356316864490509,-0.018069714307785034,-0.022008178755640984,0.0,0.0,1.343252182006836,-0.02,-0.05,0.46,0.0
1683153195.95376587,34129196,2,-1.42,0.22,325.51,-0.05885779485106468,-0.03502762317657471,-0.01798517443239689,-0.017591822892427444,0.0,0.0,1.341534972190857,-0.02,-0.05,0.45,0.0
1683153196.05377889,34229209,2,-1.42,0.23,325.52,-0.06178003549575806,-0.03495694696903229,-0.01857384480535984,-0.02579471468925476,0.0,0.0,1.3389415740966797,-0.02,-0.05,0.45,0.0
1683153196.15380502,34329235,2,-1.42,0.23,325.53000000000003,-0.06111179292201996,-0.03395926207304001,-0.018356721848249435,-0.03368357568979263,0.0,0.0,1.3357656002044678,-0.02,-0.05,0.45,0.0
1683153196.25377488,34429205,2,-1.41,0.23,325.54,-0.06333273649215698,-0.03291453793644905,-0.01807890459895134,-0.029463745653629303,0.0,0.0,1.3332728147506714,-0.02,-0.05,0.44,0.0
1683153196.35379291,34529223,2,-1.43,0.23,325.55,-0.0628172978758812,-0.03168545663356781,-0.017460498958826065,-0.014548119157552719,0.0,0.0,1.3319849967956543,-0.02,-0.05,0.44,0.0
1683153196.45372605,34629156,2,-1.42,0.23,325.56,-0.06471643596887589,-0.03184506297111511,-0.01567675918340683,-0.0019245892763137817,0.0,0.0,1.3314083814620972,-0.02,-0.05,0.44,0.0
1683153196.55372906,34729159,2,-1.43,0.23,325.56,-0.06578974425792694,-0.029798608273267746,-0.014185664243996143,-0.003360174596309662,0.0,0.0,1.330463171005249,-0.02,-0.05,0.43,0.0
1683153196.65372801,34829158,2,-1.43,0.23,325.58,-0.06679268926382065,-0.030548319220542908,-0.013007888570427895,-0.01099337637424469,0.0,0.0,1.3291144371032715,-0.02,-0.05,0.43,0.0
1683153196.75377202,34929202,2,-1.43,0.23,325.58,-0.06749313324689865,-0.029248381033539772,-0.012370618060231209,0.00215900968760252,0.0,0.0,1.329744577407837,-0.02,-0.05,0.43,0.0
1683153196.85376596,35029196,2,-1.44,0.24,325.58,-0.06850454956293106,-0.02914922684431076,-0.012356145307421684,0.00349996704608202,0.0,0.0,1.329392910003662,-0.02,-0.05,0.43,0.0
1683153196.95377898,35129209,2,-1.44,0.24,325.58,-0.06912002712488174,-0.02935587428510189,-0.011293676681816578,-0.01131917629390955,0.0,0.0,1.3280787467956543,-0.02,-0.05,0.42,0.0
1683153197.05380583,35229236,2,-1.44,0.25,325.58,-0.070335753262043,-0.027578575536608696,-0.010125688277184963,-0.011753765866160393,0.0,0.0,1.3271887302398682,-0.02,-0.04,0.42,0.0
1683153197.15376997,35329200,2,-1.44,0.24,325.57,-0.07057387381792068,-0.02794562466442585,-0.008926468901336193,-0.008371315896511078,0.0,0.0,1.3264377117156982,-0.02,-0.04,0.42,0.0
1683153197.25378203,35429212,2,-1.45,0.25,325.57,-0.07318557053804398,-0.025517940521240234,-0.008414028212428093,-0.0054954709485173225,0.0,0.0,1.3259871006011963,-0.02,-0.04,0.42,0.0
1683153197.35377002,35529200,2,-1.45,0.25,325.58,-0.07337743043899536,-0.026463234797120094,-0.00836001243442297,-0.0026214108802378178,0.0,0.0,1.3256858587265015,-0.02,-0.04,0.41000000000000003,0.0
1683153197.45372391,35629154,2,-1.45,0.26,325.57,-0.07454802095890045,-0.024603547528386116,-0.008930390700697899,-0.012275167740881443,0.0,0.0,1.3242433071136475,-0.02,-0.04,0.41000000000000003,0.0
1683153197.55372691,35729157,2,-1.44,0.26,325.58,-0.07566708326339722,-0.024910949170589447,-0.008180449716746807,-0.026654066517949104,0.0,0.0,1.3217113018035889,-0.02,-0.04,0.41000000000000003,0.0
1683153197.65375900,35829189,2,-1.45,0.27,325.58,-0.07585176825523376,-0.02610686980187893,-0.00744590675458312,-0.02429402805864811,0.0,0.0,1.319939136505127,-0.02,-0.04,0.41000000000000003,0.0
1683153197.75376987,35929200,2,-1.45,0.26,325.59000000000003,-0.0776747614145279,-0.02445554919540882,-0.005896247457712889,-0.011413614265620708,0.0,0.0,1.3189820051193237,-0.02,-0.04,0.4,0.0
1683153197.85377288,36029203,2,-1.45,0.27,325.6,-0.0794353038072586,-0.024774350225925446,-0.006110766436904669,-0.020722517743706703,0.0,0.0,1.316477656364441,-0.02,-0.04,0.4,0.0
1683153197.95379186,36129222,2,-1.45,0.27,325.61,-0.07945577800273895,-0.0235984418541193,-0.006260483525693417,-0.039463113993406296,0.0,0.0,1.312684178352356,-0.02,-0.04,0.4,0.0
1683153198.05377984,36229210,2,-1.45,0.28,325.63,-0.08224382251501083,-0.024429287761449814,-0.005604997742921114,-0.02739712968468666,0.0,0.0,1.3108673095703125,-0.02,-0.04,0.39,0.0
1683153198.15378690,36329217,2,-1.45,0.29,325.64,-0.08148548752069473,-0.023090070113539696,-0.004494994878768921,-0.0075925118289887905,0.0,0.0,1.309969186782837,-0.02,-0.04,0.39,0.0
1683153198.25372291,36429153,2,-1.45,0.29,325.66,-0.08481296896934509,-0.022760257124900818,-0.0035462919622659683,-0.0031985831446945667,0.0,0.0,1.3092458248138428,-0.02,-0.04,0.39,0.0
1683153198.35372591,36529156,2,-1.45,0.29,325.67,-0.08513639122247696,-0.021418645977973938,-0.0024188514798879623,0.007600713055580854,0.0,0.0,1.3098896741867065,-0.02,-0.04,0.38,0.0
1683153198.45372701,36629157,2,-1.45,0.29,325.7,-0.08876551687717438,-0.021353397518396378,-0.00034017933649010956,0.018670687451958656,0.0,0.0,1.3111342191696167,-0.02,-0.04,0.38,0.0
1683153198.55374694,36729177,2,-1.45,0.3,325.72,-0.08975981920957565,-0.019620295614004135,0.0005785046378150582,0.013137566857039928,0.0,0.0,1.3117622137069702,-0.02,-0.04,0.38,0.0
1683153198.65376997,36829200,2,-1.45,0.3,325.73,-0.09168051183223724,-0.020292680710554123,0.0011893322225660086,0.0028729685582220554,0.0,0.0,1.3118793964385986,-0.02,-0.04,0.38,0.0
1683153198.75377584,36929206,2,-1.46,0.3,325.74,-0.0939362570643425,-0.018320122733712196,0.0015760614769533277,-0.01705782301723957,0.0,0.0,1.3098779916763306,-0.02,-0.04,0.38,0.0
1683153198.85378885,37029219,2,-1.46,0.3,325.74,-0.09442463517189026,-0.01875889115035534,0.0017125705489888787,-0.031905196607112885,0.0,0.0,1.3074774742126465,-0.02,-0.04,0.37,0.0
1683153198.95377183,37129202,2,-1.46,0.3,325.74,-0.09665355086326599,-0.01741790398955345,0.0020918536465615034,-0.0318433903157711,0.0,0.0,1.30487060546875,-0.02,-0.04,0.37,0.0
1683153199.05379391,37229224,2,-1.46,0.3,325.74,-0.0977572500705719,-0.015917271375656128,0.0026406755205243826,-0.028699416667222977,0.0,0.0,1.3025206327438354,-0.02,-0.04,0.37,0.0
1683153199.15372300,37329153,2,-1.45,0.31,325.75,-0.09883219003677368,-0.01733243651688099,0.0037956328596919775,-0.024814801290631294,0.0,0.0,1.300147294998169,-0.03,-0.04,0.37,0.0
1683153199.25372291,37429153,2,-1.46,0.3,325.76,-0.10064251720905304,-0.014934716746211052,0.0045267995446920395,-0.021704718470573425,0.0,0.0,1.2981611490249634,-0.03,-0.04,0.36,0.0
1683153199.35372686,37529157,2,-1.46,0.3,325.78000000000003,-0.10107427835464478,-0.016209695488214493,0.005787938833236694,-0.005671469960361719,0.0,0.0,1.2978206872940063,-0.03,-0.04,0.36,0.0
1683153199.45374084,37629171,2,-1.46,0.3,325.78000000000003,-0.10269846767187119,-0.013671455904841423,0.006763586774468422,0.008509360253810883,0.0,0.0,1.298239827156067,-0.03,-0.04,0.36,0.0
1683153199.55376792,37729198,2,-1.45,0.31,325.8,-0.10352552682161331,-0.01391124539077282,0.008094703778624535,-0.000726118334569037,0.0,0.0,1.2972639799118042,-0.03,-0.04,0.36,0.0
1683153199.65376496,37829195,2,-1.45,0.3,325.8,-0.1042543575167656,-0.012273469008505344,0.008857985027134418,-0.010538044385612011,0.0,0.0,1.2963664531707764,-0.03,-0.04,0.35000000000000003,0.0
1683153199.75379586,37929226,2,-1.45,0.3,325.79,-0.1046866625547409,-0.011790790595114231,0.010025554336607456,-0.015012823976576328,0.0,0.0,1.2947793006896973,-0.03,-0.04,0.35000000000000003,0.0
1683153199.85377288,38029203,2,-1.45,0.29,325.79,-0.10632065683603287,-0.012023179791867733,0.010965503752231598,-0.02008853107690811,0.0,0.0,1.293099284172058,-0.03,-0.04,0.35000000000000003,0.0
1683153199.95378089,38129211,2,-1.45,0.29,325.78000000000003,-0.10712598264217377,-0.010687483474612236,0.010450982488691807,-0.02496078796684742,0.0,0.0,1.2907698154449463,-0.03,-0.04,0.35000000000000003,0.0
1683153200.05373287,38229163,2,-1.44,0.29,325.79,-0.10770298540592194,-0.010551205836236477,0.010406468994915485,-0.032590948045253754,0.0,0.0,1.2878837585449219,-0.03,-0.04,0.35000000000000003,0.0
1683153200.15372705,38329157,2,-1.45,0.28,325.78000000000003,-0.10852109640836716,-0.010395500808954239,0.010625920258462429,-0.02827119268476963,0.0,0.0,1.285611629486084,-0.03,-0.04,0.35000000000000003,0.0
1683153200.25372791,38429158,2,-1.45,0.27,325.78000000000003,-0.10865750908851624,-0.010212542489171028,0.011026006191968918,-0.02215157076716423,0.0,0.0,1.2834932804107666,-0.03,-0.04,0.34,0.0
1683153200.35376096,38529191,2,-1.44,0.28,325.78000000000003,-0.1088230311870575,-0.008126765489578247,0.01157764159142971,-0.01848479174077511,0.0,0.0,1.2817119359970093,-0.03,-0.04,0.34,0.0
1683153200.45376897,38629199,2,-1.44,0.27,325.78000000000003,-0.1091919094324112,-0.007315980736166239,0.013741645030677319,0.0033792490139603615,0.0,0.0,1.2823094129562378,-0.03,-0.04,0.34,0.0
1683153200.55376506,38729195,2,-1.44,0.27,325.78000000000003,-0.10947554558515549,-0.005994624923914671,0.014753922820091248,0.027865644544363022,0.0,0.0,1.284552812576294,-0.03,-0.04,0.34,0.0
1683153200.65380001,38829230,2,-1.44,0.27,325.79,-0.10855273902416229,-0.005049846600741148,0.016690166667103767,0.030728822574019432,0.0,0.0,1.2864747047424316,-0.03,-0.04,0.34,0.0
1683153200.75377798,38929208,2,-1.44,0.28,325.79,-0.10954853147268295,-0.004850324708968401,0.018056564033031464,0.018564527854323387,0.0,0.0,1.2876073122024536,-0.03,-0.04,0.33,0.0
1683153200.85379100,39029221,2,-1.44,0.27,325.79,-0.10848307609558105,-0.004870299249887466,0.018498292192816734,0.010642961598932743,0.0,0.0,1.2887089252471924,-0.03,-0.04,0.33,0.0
1683153200.95372486,39129155,2,-1.43,0.27,325.8,-0.10877911001443863,-0.0046637109480798244,0.018558146432042122,0.004822323098778725,0.0,0.0,1.2891520261764526,-0.03,-0.04,0.33,0.0
1683153201.05372906,39229159,2,-1.44,0.26,325.81,-0.10875088721513748,-0.004890351556241512,0.018307827413082123,-0.016121037304401398,0.0,0.0,1.2874090671539307,-0.03,-0.04,0.33,0.0
1683153201.15372396,39329154,2,-1.44,0.26,325.81,-0.10922656208276749,-0.005356536712497473,0.01923595927655697,-0.028299961239099503,0.0,0.0,1.2854593992233276,-0.03,-0.04,0.33,0.0
1683153201.25378585,39429216,2,-1.44,0.26,325.82,-0.10800283402204514,-0.004667012486606836,0.019910534843802452,-0.026924243196845055,0.0,0.0,1.2833369970321655,-0.03,-0.04,0.32,0.0
1683153201.35376883,39529199,2,-1.44,0.26,325.82,-0.10837244987487793,-0.005043465178459883,0.020290344953536987,-0.023208249360322952,0.0,0.0,1.2816311120986938,-0.03,-0.04,0.32,0.0
1683153201.45377684,39629207,2,-1.44,0.25,325.83,-0.10691653192043304,-0.00427165487781167,0.021372979506850243,-0.00894178170710802,0.0,0.0,1.2810795307159424,-0.03,-0.04,0.32,0.0
1683153201.55379796,39729228,2,-1.43,0.25,325.83,-0.10704808682203293,-0.004590187221765518,0.023638933897018433,0.007994426414370537,0.0,0.0,1.2817782163619995,-0.03,-0.04,0.32,0.0
1683153201.65377402,39829204,2,-1.43,0.24,325.82,-0.10551745444536209,-0.004709266591817141,0.024942666292190552,0.01098317839205265,0.0,0.0,1.2821444272994995,-0.03,-0.04,0.32,0.0
1683153201.75379300,39929223,2,-1.43,0.24,325.82,-0.10539969056844711,-0.003757090074941516,0.02517733909189701,0.001246144762262702,0.0,0.0,1.2819387912750244,-0.03,-0.04,0.32,0.0
1683153201.85372686,40029157,2,-1.42,0.24,325.82,-0.10453381389379501,-0.003776585916057229,0.025737812742590904,0.004818217363208532,0.0,0.0,1.2827621698379517,-0.03,-0.03,0.31,0.0
1683153201.95372295,40129153,2,-1.42,0.24,325.82,-0.10534100234508514,-0.00291382591240108,0.026808250695466995,0.023538736626505852,0.0,0.0,1.2852776050567627,-0.03,-0.03,0.31,0.0
1683153202.05372596,40229156,2,-1.41,0.24,325.83,-0.1033097431063652,-0.003736137179657817,0.028552131727337837,0.040138643234968185,0.0,0.0,1.2887839078903198,-0.03,-0.03,0.31,0.0
1683153202.15375185,40329182,2,-1.42,0.23,325.84000000000003,-0.10204405337572098,-0.0028827462811022997,0.029987236484885216,0.0276498980820179,0.0,0.0,1.2902698516845703,-0.03,-0.03,0.31,0.0
1683153202.25376892,40429199,2,-1.42,0.23,325.86,-0.10043532401323318,-0.003457313170656562,0.03036697581410408,-0.004418135620653629,0.0,0.0,1.2896440029144287,-0.03,-0.03,0.3,0.0
1683153202.35376787,40529198,2,-1.41,0.23,325.88,-0.09987646341323853,-0.0029333578422665596,0.03055451065301895,-0.027600595727562904,0.0,0.0,1.2874677181243896,-0.03,-0.03,0.3,0.0
1683153202.45380187,40629232,2,-1.41,0.22,325.90000000000003,-0.09772058576345444,-0.002941512269899249,0.03185303136706352,-0.020712677389383316,0.0,0.0,1.2869163751602173,-0.03,-0.03,0.3,0.0
1683153202.55377197,40729202,2,-1.41,0.23,325.91,-0.09710215032100677,-0.0028320231940597296,0.03333660960197449,0.003957909066230059,0.0,0.0,1.2877124547958374,-0.03,-0.03,0.3,0.0
1683153202.65379095,40829221,2,-1.41,0.23,325.93,-0.09487210214138031,-0.0026080699171870947,0.03434138745069504,0.014737185090780258,0.0,0.0,1.2890067100524902,-0.03,-0.03,0.3,0.0
1683153202.75372791,40929158,2,-1.41,0.23,325.94,-0.093299001455307,-0.0035818936303257942,0.03421834111213684,0.006640630308538675,0.0,0.0,1.2889988422393799,-0.03,-0.03,0.29,0.0
1683153202.85372305,41029153,2,-1.41,0.22,325.95,-0.09115738421678543,-0.003483072854578495,0.03501874953508377,-0.0026586083695292473,0.0,0.0,1.2889760732650757,-0.03,-0.03,0.29,0.0
1683153202.95372295,41129153,2,-1.41,0.22,325.96,-0.08930891007184982,-0.004240475129336119,0.03495366871356964,-0.00234962091781199,0.0,0.0,1.2888922691345215,-0.03,-0.03,0.29,0.0
1683153203.05376196,41229192,2,-1.42,0.22,325.97,-0.08797389268875122,-0.0031943570356816053,0.03503217548131943,-0.0029675867408514023,0.0,0.0,1.2888243198394775,-0.03,-0.03,0.29,0.0
1683153203.15376687,41329197,2,-1.42,0.22,325.97,-0.0868191123008728,-0.004256335087120533,0.03629041090607643,-0.00860095676034689,0.0,0.0,1.2877761125564575,-0.03,-0.03,0.29,0.0
1683153203.25376582,41429196,2,-1.42,0.22,325.98,-0.08542241901159286,-0.0030256889294832945,0.03588413819670677,-0.03242377191781998,0.0,0.0,1.2845264673233032,-0.03,-0.03,0.29,0.0
1683153203.35379601,41529226,2,-1.42,0.22,325.98,-0.0846254825592041,-0.0035768484231084585,0.03585327789187431,-0.03754599764943123,0.0,0.0,1.281967282295227,-0.03,-0.03,0.28,0.0
1683153203.45377588,41629206,2,-1.42,0.22,325.99,-0.08429300040006638,-0.0037033322732895613,0.036294125020504,-0.026975074782967567,0.0,0.0,1.279640555381775,-0.03,-0.03,0.28,0.0
1683153203.55379200,41729222,2,-1.41,0.22,325.99,-0.08286157250404358,-0.004292943049222231,0.036853522062301636,-0.023255273699760437,0.0,0.0,1.277602195739746,-0.03,-0.03,0.28,0.0
1683153203.65372705,41829157,2,-1.42,0.21,326.01,-0.08193700760602951,-0.00463095074519515,0.03682299703359604,-0.012357884086668491,0.0,0.0,1.2766226530075073,-0.03,-0.03,0.28,0.0
1683153203.75372696,41929157,2,-1.41,0.21,326.02,-0.0804889127612114,-0.004654239397495985,0.037289831787347794,-0.008804472163319588,0.0,0.0,1.2753441333770752,-0.03,-0.03,0.28,0.0
1683153203.85372305,42029153,2,-1.41,0.2,326.02,-0.07851331681013107,-0.005137812811881304,0.0370928980410099,-0.02279031090438366,0.0,0.0,1.2727434635162354,-0.03,-0.03,0.28,0.0
1683153203.95375705,42129187,2,-1.41,0.2,326.02,-0.07621365040540695,-0.005799105390906334,0.03626186400651932,-0.04544541612267494,0.0,0.0,1.2682706117630005,-0.03,-0.03,0.28,0.0
1683153204.05376983,42229200,2,-1.42,0.2,326.02,-0.0759645625948906,-0.00664209621027112,0.03602397441864014,-0.04919847100973129,0.0,0.0,1.2645184993743896,-0.03,-0.03,0.28,0.0
1683153204.15376687,42329197,2,-1.42,0.2,326.03000000000003,-0.07461946457624435,-0.007464530877768993,0.03645686060190201,-0.027240118011832237,0.0,0.0,1.2625610828399658,-0.03,-0.03,0.27,0.0
1683153204.25379300,42429223,2,-1.42,0.19,326.03000000000003,-0.07277920097112656,-0.00831703469157219,0.03717493638396263,0.0014394777826964855,0.0,0.0,1.2628661394119263,-0.03,-0.03,0.27,0.0
1683153204.35377192,42529202,2,-1.42,0.18,326.04,-0.07198913395404816,-0.00988218653947115,0.036390576511621475,0.014663172885775566,0.0,0.0,1.2634440660476685,-0.03,-0.03,0.27,0.0
1683153204.45379806,42629228,2,-1.42,0.18,326.06,-0.07096711546182632,-0.011862528510391712,0.036093879491090775,-0.00903323758393526,0.0,0.0,1.2609843015670776,-0.03,-0.03,0.27,0.0
1683153204.55373001,42729160,2,-1.42,0.18,326.07,-0.06899616867303848,-0.013625050894916058,0.03498233109712601,-0.03767290711402893,0.0,0.0,1.2576496601104736,-0.03,-0.03,0.27,0.0
1683153204.65372705,42829157,2,-1.42,0.18,326.08,-0.06769946217536926,-0.014950895681977272,0.03469282388687134,-0.02285427786409855,0.0,0.0,1.256693959236145,-0.03,-0.03,0.27,0.0
1683153204.75373006,42929160,2,-1.42,0.18,326.09000000000003,-0.06529294699430466,-0.016008686274290085,0.03499747812747955,-0.008682819083333015,0.0,0.0,1.2555989027023315,-0.03,-0.03,0.26,0.0
1683153204.85376287,43029193,2,-1.42,0.17,326.09000000000003,-0.06494133919477463,-0.016118718311190605,0.03556337207555771,0.003623391268774867,0.0,0.0,1.256188988685608,-0.03,-0.03,0.26,0.0
1683153204.95376396,43129194,2,-1.42,0.17,326.1,-0.06263455748558044,-0.01751832291483879,0.03676078841090202,0.0240220557898283,0.0,0.0,1.2582608461380005,-0.03,-0.03,0.26,0.0
1683153205.05376983,43229200,2,-1.42,0.16,326.11,-0.06245718523859978,-0.01799776218831539,0.037451449781656265,0.022585393860936165,0.0,0.0,1.2593920230865479,-0.03,-0.03,0.26,0.0
1683153205.15380502,43329235,2,-1.42,0.16,326.11,-0.06064847856760025,-0.01940733753144741,0.037884421646595,0.023638321086764336,0.0,0.0,1.2618482112884521,-0.04,-0.03,0.26,0.0
1683153205.25377202,43429202,2,-1.42,0.16,326.11,-0.060004111379384995,-0.019131770357489586,0.037543587386608124,0.011593989096581936,0.0,0.0,1.2619479894638062,-0.04,-0.03,0.26,0.0
1683153205.35378289,43529213,2,-1.42,0.15,326.12,-0.05819208174943924,-0.01982354372739792,0.03827972337603569,-0.008362899534404278,0.0,0.0,1.2613013982772827,-0.04,-0.03,0.26,0.0
1683153205.45372605,43629156,2,-1.42,0.15,326.13,-0.05827026814222336,-0.020428065210580826,0.038560252636671066,-0.023092875257134438,0.0,0.0,1.25913405418396,-0.04,-0.03,0.25,0.0
1683153205.55372500,43729155,2,-1.42,0.16,326.13,-0.05698497220873833,-0.020488213747739792,0.037884172052145004,-0.028859557583928108,0.0,0.0,1.2572373151779175,-0.04,-0.03,0.25,0.0
1683153205.65373087,43829161,2,-1.42,0.16,326.15000000000003,-0.05628294125199318,-0.02070770412683487,0.03832703456282616,-0.017395038157701492,0.0,0.0,1.2561910152435303,-0.04,-0.03,0.25,0.0
1683153205.75374985,43929180,2,-1.42,0.16,326.16,-0.05555884167551994,-0.020637884736061096,0.03869609907269478,0.001947472570464015,0.0,0.0,1.256852388381958,-0.04,-0.03,0.25,0.0
1683153205.85377002,44029200,2,-1.42,0.15,326.17,-0.0543571300804615,-0.0218807440251112,0.03997434303164482,0.0024393158964812756,0.0,0.0,1.2561063766479492,-0.04,-0.03,0.25,0.0
1683153205.95376492,44129195,2,-1.41,0.15,326.18,-0.05454728752374649,-0.022901229560375214,0.03887483850121498,-0.013489281758666039,0.0,0.0,1.2551623582839966,-0.04,-0.03,0.25,0.0
1683153206.05380297,44229233,2,-1.41,0.15,326.19,-0.05381210520863533,-0.02386522851884365,0.03783916309475899,-0.024519704282283783,0.0,0.0,1.253004550933838,-0.04,-0.03,0.25,0.0
1683153206.15377784,44329208,2,-1.41,0.15,326.19,-0.05312993377447128,-0.02388261817395687,0.03786618262529373,-0.015065299347043037,0.0,0.0,1.2522305250167847,-0.04,-0.03,0.25,0.0
1683153206.25378084,44429211,2,-1.42,0.15,326.19,-0.05311759561300278,-0.024433601647615433,0.03833445906639099,0.0017142168944701552,0.0,0.0,1.252381443977356,-0.04,-0.03,0.25,0.0
1683153206.35372686,44529157,2,-1.42,0.16,326.2,-0.05197176709771156,-0.024809295311570168,0.03938444331288338,-0.001998261781409383,0.0,0.0,1.2516069412231445,-0.04,-0.03,0.24,0.0
