timestamp,TimeUS,Lat,Lng,Alt,RelHomeAlt,RelOriginAlt
1683153181.25461102,19430041,42.6891536,-84.48895189999999,270.6600036621094,-1.5744240283966064,-1.4738717079162598
1683153181.35449290,19529923,42.6891453,-84.4889571,269.32000732421875,-1.6496524810791016,-1.471907138824463
1683153181.45451999,19629950,42.6891453,-84.4889571,269.32000732421875,-1.4400874376296997,-1.4709595441818237
1683153181.55436206,19729792,42.6891466,-84.4889559,268.8899841308594,-1.5529301166534424,-1.472651720046997
1683153181.65440583,19829836,42.6891466,-84.4889559,268.8899841308594,-1.354112148284912,-1.471014380455017
1683153181.75444794,19929878,42.6891483,-84.48895519999999,268.6000061035156,-1.4777016639709473,-1.4686154127120972
1683153181.85447884,20029909,42.6891483,-84.48895519999999,268.6000061035156,-1.6174116134643555,-1.4610379934310913
1683153181.95448685,20129917,42.6891494,-84.4889555,268.3699951171875,-1.4777016639709473,-1.4517816305160522
1683153182.05449796,20229928,42.6891494,-84.4889555,268.3699951171875,-1.4723281860351562,-1.4463073015213013
1683153182.15451002,20329940,42.68915,-84.4889551,268.3500061035156,-1.59054434299469,-1.4407413005828857
1683153182.25453305,20429963,42.68915,-84.4889551,268.3500061035156,-1.3702324628829956,-1.434144377708435
1683153182.35455394,20529984,42.689150399999995,-84.4889549,268.32000732421875,-1.612038254737854,-1.4301002025604248
1683153182.45465684,20630087,42.689150399999995,-84.4889549,268.32000732421875,-1.5636770725250244,-1.4230164289474487
1683153182.55468488,20730115,42.6891512,-84.48895499999999,268.16998291015625,-1.5583035945892334,-1.418612003326416
1683153182.65458083,20830011,42.6891512,-84.48895499999999,268.16998291015625,-1.660399317741394,-1.4168286323547363
1683153182.75447989,20929910,42.689151599999995,-84.4889539,268.29998779296875,-1.6389055252075195,-1.4162858724594116
1683153182.85449886,21029929,42.689151599999995,-84.4889539,268.29998779296875,-1.4830751419067383,-1.419284462928772
1683153182.95450687,21129937,42.689152,-84.48895399999999,268.1999816894531,-1.5314363241195679,-1.4249045848846436
1683153183.05451202,21229942,42.689152,-84.48895399999999,268.1999816894531,-1.681893229484558,-1.4282130002975464
1683153183.15477085,21330201,42.6891524,-84.4889549,268.0299987792969,-1.4723281860351562,-1.430017113685608
1683153183.25483203,21430262,42.6891524,-84.4889549,268.0299987792969,-1.4185936450958252,-1.434749722480774
1683153183.35463500,21530065,42.6891526,-84.4889553,267.94000244140625,-1.601291298866272,-1.4373672008514404
1683153183.45465088,21630081,42.6891526,-84.4889553,267.94000244140625,-1.5583035945892334,-1.435723066329956
1683153183.55473590,21730166,42.689152899999996,-84.48895569999999,267.8299865722656,-1.9075785875320435,-1.4352340698242188
1683153183.65472198,21830152,42.689152899999996,-84.48895569999999,267.8299865722656,-1.7141339778900146,-1.4356670379638672
1683153183.75469995,21930130,42.689153,-84.4889555,267.8699951171875,-1.5690505504608154,-1.4447590112686157
1683153183.85488486,22030315,42.689153,-84.4889555,267.8699951171875,-1.7248809337615967,-1.4575927257537842
1683153183.95478582,22130216,42.6891532,-84.4889559,267.80999755859375,-1.6496524810791016,-1.4682369232177734
1683153184.05448198,22229912,42.6891532,-84.4889559,267.80999755859375,-1.5690505504608154,-1.4796725511550903
1683153184.15452790,22329958,42.689153499999996,-84.488956,267.7799987792969,-1.8001093864440918,-1.49077570438385
1683153184.25442100,22429851,42.689153499999996,-84.488956,267.7799987792969,-1.5690505504608154,-1.4990918636322021
1683153184.35443497,22529865,42.689153499999996,-84.4889561,267.7599792480469,-1.6281585693359375,-1.5099916458129883
1683153184.45475793,22630188,42.689153499999996,-84.4889561,267.7599792480469,-1.5475566387176514,-1.5188326835632324
1683153184.55475998,22730190,42.6891533,-84.488956,267.8500061035156,-1.5797975063323975,-1.5258501768112183
1683153184.65448093,22829911,42.6891533,-84.488956,267.8500061035156,-1.354112148284912,-1.5300731658935547
1683153184.75458193,22930012,42.6891531,-84.4889559,267.91998291015625,-1.5045690536499023,-1.5324668884277344
1683153184.85450697,23029937,42.6891531,-84.4889559,267.91998291015625,-1.601291298866272,-1.528836965560913
1683153184.95444584,23129876,42.689153,-84.4889556,268.0099792480469,-1.5314363241195679,-1.522923231124878
1683153185.05453300,23229963,42.689153,-84.4889556,268.0099792480469,-1.660399317741394,-1.5185374021530151
1683153185.15465093,23330081,42.689152899999996,-84.48895569999999,268.0299987792969,-1.4508343935012817,-1.5143322944641113
1683153185.25478792,23430218,42.689152899999996,-84.48895569999999,268.0299987792969,-1.655025839805603,-1.5126888751983643
1683153185.35446596,23529896,42.689152799999995,-84.4889558,268.05999755859375,-1.665772795677185,-1.509285807609558
1683153185.45445085,23629881,42.689152799999995,-84.4889558,268.05999755859375,-1.5583035945892334,-1.507616400718689
1683153185.55448890,23729919,42.6891527,-84.4889558,268.0899963378906,-1.676519751548767,-1.5086123943328857
1683153185.65448904,23829919,42.6891527,-84.4889558,268.0899963378906,-1.6980135440826416,-1.509377360343933
1683153185.75448394,23929914,42.6891525,-84.4889558,268.1399841308594,-1.5260628461837769,-1.5118167400360107
1683153185.85473299,24030163,42.6891525,-84.4889558,268.1399841308594,-1.7033870220184326,-1.5164642333984375
1683153185.95456100,24129991,42.689152199999995,-84.4889559,268.1999816894531,-1.332618236541748,-1.5193290710449219
1683153186.05434084,24229771,42.689152199999995,-84.4889559,268.1999816894531,-1.5099424123764038,-1.5234277248382568
1683153186.15442395,24329854,42.689152,-84.4889559,268.2599792480469,-1.6281585693359375,-1.5220091342926025
1683153186.25449800,24429928,42.689152,-84.4889559,268.2599792480469,-1.59054434299469,-1.5182459354400635
1683153186.35447288,24529903,42.6891517,-84.4889559,268.32000732421875,-1.5529301166534424,-1.5161190032958984
1683153186.45473504,24630165,42.6891517,-84.4889559,268.32000732421875,-1.5797975063323975,-1.5151252746582031
1683153186.55474091,24730171,42.6891513,-84.4889561,268.3899841308594,-1.3702324628829956,-1.5139751434326172
1683153186.65450382,24829934,42.6891513,-84.4889561,268.3899841308594,-1.601291298866272,-1.5130524635314941
1683153186.75444984,24929880,42.689150999999995,-84.4889561,268.42999267578125,-1.5260628461837769,-1.5084818601608276
1683153186.85485482,25030285,42.689150999999995,-84.4889561,268.42999267578125,-1.671146273612976,-1.5046515464782715
1683153186.95462894,25130059,42.6891507,-84.4889561,268.4700012207031,-1.601291298866272,-1.5012320280075073
1683153187.05462599,25230056,42.6891507,-84.4889561,268.4700012207031,-1.4078466892242432,-1.50046968460083
1683153187.15468097,25330111,42.6891503,-84.488956,268.54998779296875,-1.4562078714370728,-1.50111985206604
1683153187.25505805,25430488,42.6891503,-84.488956,268.54998779296875,-1.4347139596939087,-1.498770833015442
1683153187.35470986,25530140,42.68915,-84.4889558,268.6199951171875,-1.5583035945892334,-1.4943058490753174
1683153187.45469499,25630125,42.68915,-84.4889558,268.6199951171875,-1.5529301166534424,-1.488302230834961
1683153187.55472398,25730154,42.6891495,-84.4889556,268.7200012207031,-1.5636770725250244,-1.4834356307983398
1683153187.65470791,25830138,42.6891495,-84.4889556,268.7200012207031,-1.7141339778900146,-1.4799917936325073
1683153187.75475192,25930182,42.689149,-84.4889555,268.80999755859375,-1.4293406009674072,-1.477771520614624
1683153187.85487700,26030307,42.689149,-84.4889555,268.80999755859375,-1.4400874376296997,-1.4792721271514893
1683153187.95468998,26130120,42.689148499999995,-84.4889553,268.91998291015625,-1.595917820930481,-1.4790027141571045
1683153188.05446386,26229894,42.689148499999995,-84.4889553,268.91998291015625,-1.4508343935012817,-1.476434588432312
1683153188.15448284,26329913,42.689147999999996,-84.48895519999999,269.0,-1.3917263746261597,-1.4749906063079834
1683153188.25457191,26430002,42.689147999999996,-84.48895519999999,269.0,-1.612038254737854,-1.4726029634475708
1683153188.35448003,26529910,42.6891475,-84.48895499999999,269.0799865722656,-1.4239671230316162,-1.467917799949646
1683153188.45450592,26629936,42.6891475,-84.48895499999999,269.0799865722656,-1.3809794187545776,-1.4652596712112427
1683153188.55475593,26730186,42.689147,-84.4889548,269.1600036621094,-1.2251490354537964,-1.4619134664535522
1683153188.65456891,26829999,42.689147,-84.4889548,269.1600036621094,-1.3809794187545776,-1.4565168619155884
1683153188.75434089,26929771,42.6891464,-84.48895449999999,269.2799987792969,-1.4185936450958252,-1.4470340013504028
1683153188.85442090,27029851,42.6891464,-84.48895449999999,269.2799987792969,-1.6227850914001465,-1.4367077350616455
1683153188.95451188,27129942,42.689146,-84.4889543,269.3599853515625,-1.6227850914001465,-1.4273232221603394
1683153189.05445600,27229886,42.689146,-84.4889543,269.3599853515625,-1.4991955757141113,-1.422203779220581
1683153189.15448093,27329911,42.689146,-84.4889543,269.3599853515625,-1.5260628461837769,-1.4211231470108032
1683153189.25457597,27430006,42.689145499999995,-84.4889541,269.4499816894531,-1.4723281860351562,-1.420850157737732
1683153189.35451198,27529942,42.689145499999995,-84.4889541,269.4499816894531,-1.354112148284912,-1.4211101531982422
1683153189.45447803,27629908,42.689144999999996,-84.4889539,269.5299987792969,-1.4508343935012817,-1.4210294485092163
1683153189.55454803,27729978,42.689144999999996,-84.4889539,269.5299987792969,-1.5314363241195679,-1.418575644493103
1683153189.65435600,27829786,42.6891445,-84.4889537,269.6099853515625,-1.4615813493728638,-1.415563941001892
1683153189.75442195,27929852,42.6891445,-84.4889537,269.6099853515625,-1.3594855070114136,-1.413841962814331
1683153189.85475588,28030186,42.689144,-84.4889535,269.69000244140625,-1.601291298866272,-1.4123351573944092
1683153189.95475984,28130190,42.689144,-84.4889535,269.69000244140625,-1.5475566387176514,-1.4089702367782593
1683153190.05472803,28230158,42.6891436,-84.48895329999999,269.7699890136719,-1.5529301166534424,-1.4077260494232178
1683153190.15474391,28330174,42.6891436,-84.48895329999999,269.7699890136719,-1.54218327999115,-1.4082192182540894
1683153190.25458288,28430013,42.689143099999995,-84.48895309999999,269.8399963378906,-1.4938220977783203,-1.40982186794281
1683153190.35449791,28529928,42.689143099999995,-84.48895309999999,269.8399963378906,-1.4777016639709473,-1.4120100736618042
1683153190.45456696,28629997,42.6891427,-84.488953,269.92999267578125,-1.5099424123764038,-1.4138046503067017
1683153190.55439782,28729828,42.6891427,-84.488953,269.92999267578125,-1.5529301166534424,-1.4149426221847534
1683153190.65440893,28829839,42.6891422,-84.48895279999999,270.0,-1.601291298866272,-1.4160066843032837
1683153190.75447297,28929903,42.6891422,-84.48895279999999,270.0,-1.54218327999115,-1.4178732633590698
1683153190.85475183,29030182,42.6891417,-84.4889527,270.0899963378906,-1.3970997333526611,-1.4211329221725464
1683153190.95474696,29130177,42.6891417,-84.4889527,270.0899963378906,-1.268136739730835,-1.4247010946273804
1683153191.05481696,29230247,42.689141199999995,-84.4889525,270.19000244140625,-1.612038254737854,-1.4259710311889648
1683153191.15475488,29330185,42.689141199999995,-84.4889525,270.19000244140625,-1.5045690536499023,-1.4230760335922241
1683153191.25479484,29430225,42.6891404,-84.4889524,270.32000732421875,-1.5475566387176514,-1.4219574928283691
1683153191.35480785,29530238,42.6891399,-84.4889522,270.41998291015625,-1.4347139596939087,-1.421999454498291
1683153191.45499587,29630426,42.6891399,-84.4889522,270.41998291015625,-1.4078466892242432,-1.4229995012283325
1683153191.55469894,29730129,42.6891399,-84.4889522,270.41998291015625,-1.4938220977783203,-1.4228689670562744
1683153191.65445590,29829886,42.6891392,-84.48895209999999,270.54998779296875,-1.5153158903121948,-1.4219015836715698
1683153191.75448799,29929918,42.6891392,-84.48895209999999,270.54998779296875,-1.4723281860351562,-1.4209191799163818
1683153191.85448003,30029910,42.6891386,-84.488952,270.6499938964844,-1.4830751419067383,-1.420769214630127
1683153191.95447898,30129909,42.6891386,-84.488952,270.6499938964844,-1.5744240283966064,-1.4207757711410522
1683153192.05449486,30229925,42.6891378,-84.4889517,270.7699890136719,-1.4293406009674072,-1.4208171367645264
1683153192.15447688,30329907,42.6891378,-84.4889517,270.7699890136719,-1.4562078714370728,-1.422092080116272
1683153192.25456500,30429995,42.6891373,-84.4889516,270.8500061035156,-1.348738670349121,-1.4230421781539917
1683153192.35435605,30529786,42.6891368,-84.4889515,270.91998291015625,-1.5529301166534424,-1.423213005065918
1683153192.45440102,30629831,42.6891368,-84.4889515,270.91998291015625,-1.278883695602417,-1.421755075454712
1683153192.55475283,30730183,42.6891368,-84.4889515,270.91998291015625,-1.5206893682479858,-1.420992136001587
1683153192.65473604,30830166,42.6891363,-84.48895139999999,270.989990234375,-1.4024732112884521,-1.4186166524887085
1683153192.75447583,30929906,42.6891359,-84.4889513,271.04998779296875,-1.7732419967651367,-1.4164506196975708
1683153192.85449505,31029925,42.6891359,-84.4889513,271.04998779296875,-1.54218327999115,-1.414549469947815
1683153192.95450783,31129938,42.6891359,-84.4889513,271.04998779296875,-1.5260628461837769,-1.4165419340133667
1683153193.05445385,31229884,42.6891354,-84.4889513,271.1099853515625,-1.354112148284912,-1.4208227396011353
1683153193.15455389,31329984,42.6891354,-84.4889513,271.1099853515625,-1.268136739730835,-1.4251182079315186
1683153193.25439286,31429823,42.6891348,-84.4889513,271.1999816894531,-1.4400874376296997,-1.4273258447647095
1683153193.35470295,31530133,42.6891348,-84.4889513,271.1999816894531,-1.2896305322647095,-1.4260846376419067
1683153193.45445704,31629887,42.6891343,-84.4889513,271.2699890136719,-1.4185936450958252,-1.423943281173706
1683153193.55448294,31729913,42.689133899999995,-84.4889513,271.32000732421875,-1.2251490354537964,-1.4205381870269775
1683153193.65447903,31829909,42.689133899999995,-84.4889513,271.32000732421875,-1.34336519241333,-1.416926622390747
1683153193.75449300,31929923,42.689133899999995,-84.4889513,271.32000732421875,-1.273510217666626,-1.4117958545684814
1683153193.85450888,32029939,42.6891335,-84.4889513,271.3800048828125,-1.3702324628829956,-1.4059293270111084
1683153193.95473385,32130164,42.6891331,-84.4889513,271.4599914550781,-1.3057509660720825,-1.3995047807693481
1683153194.05455399,32229984,42.6891331,-84.4889513,271.4599914550781,-1.3917263746261597,-1.3935333490371704
1683153194.15434098,32329771,42.689132699999995,-84.4889513,271.5099792480469,-1.6281585693359375,-1.387811541557312
1683153194.25444698,32429877,42.689132699999995,-84.4889513,271.5099792480469,-1.337991714477539,-1.3829522132873535
1683153194.35446286,32529893,42.6891323,-84.48895139999999,271.57000732421875,-1.4293406009674072,-1.381917119026184
1683153194.45446205,32629892,42.6891323,-84.48895139999999,271.57000732421875,-1.354112148284912,-1.3816169500350952
1683153194.55447888,32729909,42.6891319,-84.4889516,271.6300048828125,-1.3057509660720825,-1.3812729120254517
1683153194.65474486,32830175,42.6891319,-84.4889516,271.6300048828125,-1.4400874376296997,-1.3805972337722778
1683153194.75471783,32930148,42.6891314,-84.4889516,271.7099914550781,-1.3594855070114136,-1.378737449645996
1683153194.85472703,33030157,42.6891314,-84.4889516,271.7099914550781,-1.4239671230316162,-1.377257227897644
1683153194.95474696,33130177,42.689130999999996,-84.4889518,271.7699890136719,-1.262763261795044,-1.3758974075317383
1683153195.05462503,33230055,42.689130999999996,-84.4889518,271.7699890136719,-1.5314363241195679,-1.3749110698699951
1683153195.15466905,33330099,42.689130999999996,-84.4889518,271.7699890136719,-1.4562078714370728,-1.372819423675537
1683153195.25496387,33430394,42.6891305,-84.4889518,271.8399963378906,-1.4078466892242432,-1.3721007108688354
1683153195.35473490,33530165,42.6891305,-84.4889518,271.8399963378906,-1.2251490354537964,-1.372937560081482
1683153195.45465398,33630084,42.6891301,-84.488952,271.8800048828125,-1.3594855070114136,-1.3738807439804077
1683153195.55469799,33730128,42.689129799999996,-84.48895209999999,271.94000244140625,-1.3111244440078735,-1.3727130889892578
1683153195.65470290,33830133,42.689129799999996,-84.48895209999999,271.94000244140625,-1.4132201671600342,-1.3705270290374756
1683153195.75474906,33930179,42.689129799999996,-84.48895209999999,271.94000244140625,-1.3111244440078735,-1.3678334951400757
1683153195.85450387,34029934,42.6891294,-84.4889524,271.9700012207031,-1.2842570543289185,-1.365693211555481
1683153195.95434284,34129773,42.6891294,-84.4889524,271.9700012207031,-1.3003774881362915,-1.3634369373321533
1683153196.05440497,34229835,42.689129099999995,-84.48895259999999,272.0,-1.3863528966903687,-1.360263705253601
1683153196.15446401,34329894,42.689129099999995,-84.48895259999999,272.0,-1.4024732112884521,-1.3565003871917725
1683153196.25449395,34429924,42.6891289,-84.4889529,272.0099792480469,-1.3756059408187866,-1.3534005880355835
1683153196.35449290,34529923,42.6891289,-84.4889529,272.0099792480469,-1.2950040102005005,-1.35142982006073
1683153196.45447993,34629910,42.689128499999995,-84.48895309999999,272.0400085449219,-1.321871280670166,-1.3501272201538086
1683153196.55450988,34729940,42.689128499999995,-84.48895309999999,272.0400085449219,-1.5153158903121948,-1.3481740951538086
1683153196.65474200,34830172,42.6891282,-84.48895329999999,272.0799865722656,-1.2036552429199219,-1.345808744430542
1683153196.75454593,34929976,42.6891282,-84.48895329999999,272.0799865722656,-1.327244758605957,-1.3457168340682983
1683153196.85433483,35029765,42.689127899999995,-84.4889535,272.1499938964844,-1.3594855070114136,-1.3439626693725586
1683153196.95441198,35129842,42.689127899999995,-84.4889535,272.1499938964844,-1.321871280670166,-1.3415156602859497
1683153197.05446100,35229891,42.6891277,-84.4889537,272.16998291015625,-1.3594855070114136,-1.3394514322280884
1683153197.15447092,35329901,42.6891277,-84.4889537,272.16998291015625,-1.337991714477539,-1.33732008934021
1683153197.25451589,35429946,42.6891275,-84.48895399999999,272.19000244140625,-1.2305225133895874,-1.3355379104614258
1683153197.35486102,35530291,42.6891275,-84.48895399999999,272.19000244140625,-1.252016305923462,-1.3338404893875122
1683153197.45449495,35629925,42.6891272,-84.4889543,272.2200012207031,-1.3756059408187866,-1.3308240175247192
1683153197.55447197,35729902,42.6891272,-84.4889543,272.2200012207031,-1.332618236541748,-1.3268405199050903
1683153197.65451288,35829943,42.689127,-84.4889546,272.2599792480469,-1.1552940607070923,-1.3238201141357422
1683153197.75435805,35929788,42.689127,-84.4889546,272.2599792480469,-1.2251490354537964,-1.3214422464370728
1683153197.85441589,36029846,42.689126699999996,-84.4889547,272.29998779296875,-1.4508343935012817,-1.3171769380569458
1683153197.95445704,36129887,42.689126699999996,-84.4889547,272.29998779296875,-1.2842570543289185,-1.3118895292282104
1683153198.05444598,36229876,42.6891264,-84.4889548,272.3800048828125,-1.321871280670166,-1.3089345693588257
1683153198.15446091,36329891,42.689126099999996,-84.4889549,272.4499816894531,-1.4132201671600342,-1.3063995838165283
1683153198.25451899,36429949,42.689126099999996,-84.4889549,272.4499816894531,-1.332618236541748,-1.3040965795516968
1683153198.35451293,36529943,42.689126099999996,-84.4889549,272.4499816894531,-1.268136739730835,-1.3032305240631104
1683153198.45474100,36630171,42.689125999999995,-84.4889551,272.4599914550781,-1.2950040102005005,-1.302666425704956
1683153198.55477595,36730206,42.689125999999995,-84.4889551,272.4599914550781,-1.1176798343658447,-1.3012818098068237
1683153198.65466404,36830094,42.6891257,-84.4889553,272.489990234375,-1.3003774881362915,-1.299426794052124
1683153198.75469089,36930121,42.6891257,-84.4889553,272.489990234375,-1.2144020795822144,-1.2951492071151733
1683153198.85446191,37029892,42.689125399999995,-84.4889554,272.5299987792969,-1.2896305322647095,-1.2908940315246582
1683153198.95446992,37129900,42.689125399999995,-84.4889554,272.5299987792969,-1.2197755575180054,-1.286270022392273
1683153199.05446196,37229892,42.6891252,-84.4889556,272.55999755859375,-1.2896305322647095,-1.2820934057235718
1683153199.15448093,37329911,42.6891252,-84.4889556,272.55999755859375,-1.3756059408187866,-1.277696967124939
1683153199.25457597,37430006,42.689124899999996,-84.48895569999999,272.6199951171875,-1.2950040102005005,-1.2737737894058228
1683153199.35449696,37529927,42.689124899999996,-84.48895569999999,272.6199951171875,-1.1499205827713013,-1.2715667486190796
1683153199.45450997,37629940,42.689124799999995,-84.4889558,272.6499938964844,-1.3111244440078735,-1.2699060440063477
1683153199.55465388,37730084,42.6891246,-84.4889559,272.6999816894531,-1.1606675386428833,-1.266520380973816
1683153199.65440392,37829834,42.6891246,-84.4889559,272.6999816894531,-1.268136739730835,-1.2634950876235962
1683153199.75444984,37929880,42.6891246,-84.4889559,272.6999816894531,-1.1552940607070923,-1.2594597339630127
1683153199.85445285,38029883,42.689124299999996,-84.4889561,272.75,-1.2036552429199219,-1.2555043697357178
1683153199.95446801,38129898,42.689124299999996,-84.4889561,272.75,-1.268136739730835,-1.250684142112732
1683153200.05447984,38229910,42.689124,-84.48895619999999,272.80999755859375,-1.2036552429199219,-1.2454882860183716
1683153200.15451789,38329948,42.689124,-84.48895619999999,272.80999755859375,-1.252016305923462,-1.2410476207733154
1683153200.25480103,38430231,42.6891239,-84.48895639999999,272.8500061035156,-1.4185936450958252,-1.2365734577178955
1683153200.35484099,38530271,42.6891239,-84.48895639999999,272.8500061035156,-1.332618236541748,-1.2325332164764404
1683153200.45428801,38629718,42.6891235,-84.4889566,272.8999938964844,-1.2358959913253784,-1.23112154006958
1683153200.55441403,38729844,42.6891235,-84.4889566,272.8999938964844,-1.2251490354537964,-1.23111891746521
1683153200.65445590,38829886,42.6891233,-84.4889568,272.9499816894531,-1.2842570543289185,-1.2306474447250366
1683153200.75446987,38929900,42.6891233,-84.4889568,272.9499816894531,-1.1982817649841309,-1.2293822765350342
1683153200.85447001,39029900,42.689123099999996,-84.488957,273.0,-1.0800656080245972,-1.2282416820526123
1683153200.95471001,39130140,42.6891229,-84.4889572,273.04998779296875,-1.257389783859253,-1.2263342142105103
1683153201.05474401,39230174,42.6891229,-84.4889572,273.04998779296875,-1.1552940607070923,-1.2221534252166748
1683153201.15474391,39330174,42.6891229,-84.4889572,273.04998779296875,-1.257389783859253,-1.2182142734527588
1683153201.25460505,39430035,42.6891227,-84.48895739999999,273.0899963378906,-1.278883695602417,-1.2138259410858154
1683153201.35438299,39529813,42.6891227,-84.48895739999999,273.0899963378906,-1.3003774881362915,-1.2100423574447632
1683153201.45440698,39629837,42.6891226,-84.48895759999999,273.1499938964844,-1.1714143753051758,-1.2073887586593628
1683153201.55451989,39729950,42.6891226,-84.48895759999999,273.1499938964844,-1.2090286016464233,-1.2059165239334106
1683153201.65445399,39829884,42.689122399999995,-84.4889578,273.1999816894531,-1.321871280670166,-1.2036224603652954
1683153201.75448489,39929915,42.689122399999995,-84.4889578,273.1999816894531,-1.354112148284912,-1.200920820236206
1683153201.85449886,40029929,42.6891223,-84.488958,273.25,-1.321871280670166,-1.1994388103485107
1683153201.95449996,40129930,42.6891223,-84.488958,273.25,-1.0800656080245972,-1.199710488319397
1683153202.05472088,40230151,42.689122,-84.4889582,273.3299865722656,-1.1338002681732178,-1.200943946838379
1683153202.15454984,40329980,42.689122,-84.4889582,273.3299865722656,-1.1015594005584717,-1.199692726135254
1683153202.25441384,40429844,42.689121899999996,-84.4889584,273.3699951171875,-1.3648589849472046,-1.196504831314087
1683153202.35440993,40529840,42.689121799999995,-84.4889585,273.41998291015625,-1.2412694692611694,-1.191798210144043
1683153202.45444083,40629871,42.689121799999995,-84.4889585,273.41998291015625,-1.262763261795044,-1.1893261671066284
1683153202.55446601,40729896,42.689121799999995,-84.4889585,273.41998291015625,-1.1015594005584717,-1.1877694129943848
1683153202.65446997,40829900,42.689121799999995,-84.4889587,273.42999267578125,-1.268136739730835,-1.186755657196045
1683153202.75472784,40930158,42.689121799999995,-84.4889587,273.42999267578125,-1.1767878532409668,-1.1842278242111206
1683153202.85474586,41030176,42.6891216,-84.48895879999999,273.5099792480469,-1.2305225133895874,-1.1821919679641724
1683153202.95445204,41129882,42.6891216,-84.48895879999999,273.5099792480469,-1.1015594005584717,-1.179960012435913
1683153203.05451989,41229950,42.6891215,-84.488959,273.57000732421875,-1.020957589149475,-1.1779097318649292
1683153203.15438199,41329812,42.6891215,-84.488959,273.57000732421875,-1.273510217666626,-1.1746195554733276
1683153203.25444198,41429872,42.6891214,-84.4889592,273.5899963378906,-1.1123063564300537,-1.1690566539764404
1683153203.35475993,41530190,42.6891214,-84.4889592,273.5899963378906,-1.1982817649841309,-1.1649149656295776
1683153203.45473695,41630167,42.689121199999995,-84.48895929999999,273.6300048828125,-1.2358959913253784,-1.1605688333511353
1683153203.55448198,41729912,42.689121199999995,-84.48895929999999,273.6300048828125,-1.1176798343658447,-1.1567376852035522
1683153203.65457201,41830002,42.6891211,-84.4889594,273.67999267578125,-1.0693186521530151,-1.1540952920913696
1683153203.75449300,41929923,42.6891211,-84.4889594,273.67999267578125,-1.004837155342102,-1.150941252708435
1683153203.85452390,42029954,42.689121,-84.48895949999999,273.7200012207031,-1.2197755575180054,-1.146508812904358
1683153203.95456100,42129991,42.689121,-84.48895949999999,273.7200012207031,-1.2251490354537964,-1.1402344703674316
1683153204.05466485,42230095,42.6891209,-84.4889596,273.75,-1.3164979219436646,-1.1352399587631226
1683153204.15467882,42330109,42.6891209,-84.4889596,273.75,-1.1445471048355103,-1.132003664970398
1683153204.25447702,42429907,42.689120599999995,-84.4889597,273.80999755859375,-0.9403555989265442,-1.1312874555587769
1683153204.35446286,42529893,42.689120599999995,-84.4889597,273.80999755859375,-1.1552940607070923,-1.1305004358291626
1683153204.45448089,42629911,42.6891204,-84.4889597,273.8899841308594,-1.3111244440078735,-1.126477599143982
1683153204.55448794,42729918,42.6891204,-84.4889597,273.8899841308594,-1.1069328784942627,-1.1222671270370483
1683153204.65449190,42829922,42.6891204,-84.48895979999999,273.8899841308594,-1.3003774881362915,-1.1207168102264404
1683153204.75473785,42930168,42.6891204,-84.48895979999999,273.8899841308594,-1.273510217666626,-1.1190305948257446
1683153204.85455489,43029985,42.6891201,-84.4889599,273.9700012207031,-1.1230533123016357,-1.1190028190612793
1683153204.95462584,43130056,42.6891201,-84.4889599,273.9700012207031,-1.321871280670166,-1.1204662322998047
1683153205.05463505,43230065,42.689119999999996,-84.48895999999999,274.0099792480469,-1.010210633277893,-1.121030330657959
1683153205.15473390,43330164,42.689119999999996,-84.48895999999999,274.0099792480469,-1.1660410165786743,-1.122990369796753
1683153205.25474691,43430177,42.6891198,-84.4889601,274.07000732421875,-1.0370779037475586,-1.1226788759231567
1683153205.35469103,43530121,42.6891198,-84.4889601,274.07000732421875,-1.1821613311767578,-1.1217114925384521
1683153205.45469403,43630124,42.6891198,-84.4889602,274.1000061035156,-1.1929082870483398,-1.1192446947097778
1683153205.55472183,43730152,42.6891198,-84.4889602,274.1000061035156,-1.273510217666626,-1.1171026229858398
1683153205.65468383,43830114,42.6891196,-84.4889603,274.1600036621094,-1.0424513816833496,-1.1158673763275146
1683153205.75486302,43930293,42.6891196,-84.4889603,274.1600036621094,-1.1176798343658447,-1.1163197755813599
1683153205.85486698,44030297,42.6891195,-84.4889604,274.17999267578125,-1.1015594005584717,-1.1153309345245361
1683153205.95466590,44130096,42.6891195,-84.4889604,274.17999267578125,-1.273510217666626,-1.1134912967681885
1683153206.05444503,44229875,42.6891195,-84.48896049999999,274.1999816894531,-1.1767878532409668,-1.1111499071121216
1683153206.15446806,44329898,42.6891195,-84.48896049999999,274.1999816894531,-1.0746921300888062,-1.1105883121490479
1683153206.25450206,44429932,42.6891195,-84.48896069999999,274.22998046875,-1.252016305923462,-1.1106915473937988
1683153206.35449696,44529927,42.6891195,-84.48896069999999,274.22998046875,-1.1714143753051758,-1.109694242477417
1683153206.45449901,44629929,42.6891195,-84.4889608,274.2599792480469,-1.2144020795822144,-1.109792709350586
1683153206.55475497,44730185,42.6891195,-84.4889608,274.2599792480469,-1.2896305322647095,-1.1103041172027588
1683153206.65475702,44830187,42.6891195,-84.4889608,274.2799987792969,-1.1069328784942627,-1.111389398574829
1683153206.75466895,44930099,42.6891195,-84.4889608,274.2799987792969,-1.1982817649841309,-1.113942265510559
1683153206.85468388,45030114,42.6891196,-84.4889609,274.2799987792969,-1.1875348091125488,-1.1155171394348145
1683153206.95444584,45129876,42.6891196,-84.4889609,274.2799987792969,-1.257389783859253,-1.1169532537460327
1683153207.05446196,45229892,42.6891196,-84.48896099999999,274.2799987792969,-1.2197755575180054,-1.1184228658676147
1683153207.15448284,45329913,42.6891196,-84.48896099999999,274.2799987792969,-1.1714143753051758,-1.1207947731018066
1683153207.25451684,45429947,42.6891196,-84.48896099999999,274.2799987792969,-1.2412694692611694,-1.1235988140106201
1683153207.35450482,45529935,42.6891196,-84.48896099999999,274.2799987792969,-1.1714143753051758,-1.125922679901123
1683153207.45446897,45629899,42.6891198,-84.4889611,274.2599792480469,-1.0478248596191406,-1.1286230087280273
1683153207.55454683,45729977,42.6891198,-84.4889611,274.2599792480469,-1.1767878532409668,-1.1309819221496582
1683153207.65464401,45830074,42.6891199,-84.4889611,274.239990234375,-1.2896305322647095,-1.1312376260757446
1683153207.75476289,45930193,42.6891199,-84.4889611,274.239990234375,-1.2144020795822144,-1.1311947107315063
1683153207.85450983,46029940,42.689119999999996,-84.4889613,274.2099914550781,-1.0585718154907227,-1.1328550577163696
1683153207.95445204,46129882,42.689119999999996,-84.4889613,274.2099914550781,-1.0263309478759766,-1.1351382732391357
1683153208.05446982,46229900,42.6891202,-84.4889613,274.19000244140625,-1.2090286016464233,-1.1356672048568726
1683153208.15450096,46329931,42.6891202,-84.4889613,274.19000244140625,-1.1660410165786743,-1.1339683532714844
1683153208.25457788,46430008,42.6891203,-84.4889614,274.17999267578125,-1.1284267902374268,-1.1329265832901
1683153208.35477686,46530207,42.6891203,-84.4889614,274.17999267578125,-1.2358959913253784,-1.132507085800171
1683153208.45476484,46630195,42.6891204,-84.4889614,274.16998291015625,-1.1714143753051758,-1.1318774223327637
1683153208.55435705,46729787,42.6891204,-84.4889614,274.16998291015625,-1.3057509660720825,-1.1323821544647217
1683153208.65439487,46829825,42.689120599999995,-84.4889615,274.1399841308594,-0.9833433032035828,-1.1332478523254395
1683153208.75479198,46930222,42.689120599999995,-84.4889615,274.1399841308594,-1.1176798343658447,-1.135802984237671
1683153208.85446000,47029890,42.6891207,-84.48896169999999,274.1099853515625,-1.246642827987671,-1.1359813213348389
1683153208.95446801,47129898,42.6891207,-84.48896169999999,274.1099853515625,-1.257389783859253,-1.135076880455017
1683153209.05474496,47230175,42.6891209,-84.48896169999999,274.0899963378906,-1.2358959913253784,-1.1355005502700806
1683153209.15476394,47330194,42.6891209,-84.48896169999999,274.0899963378906,-1.2197755575180054,-1.1374515295028687
1683153209.25450802,47429938,42.6891211,-84.48896169999999,274.04998779296875,-1.0854390859603882,-1.140295386314392
1683153209.35451889,47529949,42.6891211,-84.48896169999999,274.04998779296875,-1.1445471048355103,-1.1434566974639893
1683153209.45434284,47629773,42.6891213,-84.4889618,274.0,-1.273510217666626,-1.1450620889663696
1683153209.55441785,47729848,42.6891213,-84.4889618,274.0,-1.3111244440078735,-1.1457760334014893
1683153209.65444994,47829880,42.6891215,-84.4889618,273.9599914550781,-1.2305225133895874,-1.147741675376892
1683153209.75449705,47929927,42.6891215,-84.4889618,273.9599914550781,-1.273510217666626,-1.151502251625061
1683153209.85473490,48030165,42.6891216,-84.48896189999999,273.9499816894531,-1.2251490354537964,-1.155631184577942
1683153209.95482588,48130256,42.6891216,-84.48896189999999,273.9499816894531,-1.1176798343658447,-1.1601786613464355
1683153210.05449891,48229929,42.689121799999995,-84.4889618,273.9100036621094,-1.252016305923462,-1.1644742488861084
1683153210.15446901,48329899,42.689121799999995,-84.4889618,273.9100036621094,-1.1552940607070923,-1.167085886001587
1683153210.25457096,48430001,42.689122,-84.4889618,273.8699951171875,-1.2305225133895874,-1.169777750968933
1683153210.35438704,48529817,42.689122,-84.4889618,273.8699951171875,-1.2412694692611694,-1.1716686487197876
1683153210.45441794,48629848,42.6891222,-84.48896169999999,273.8399963378906,-1.2842570543289185,-1.1736152172088623
1683153210.55445099,48729881,42.6891222,-84.48896169999999,273.8399963378906,-1.1606675386428833,-1.1759840250015259
1683153210.65445805,48829888,42.6891223,-84.48896169999999,273.80999755859375,-1.0531983375549316,-1.1791613101959229
1683153210.75448704,48929917,42.6891223,-84.48896169999999,273.80999755859375,-1.1929082870483398,-1.181503415107727
1683153210.85472584,49030156,42.689122499999996,-84.48896169999999,273.79998779296875,-1.1875348091125488,-1.1814683675765991
1683153210.95474982,49130180,42.689122499999996,-84.48896169999999,273.79998779296875,-1.2896305322647095,-1.1811312437057495
1683153211.05472493,49230155,42.6891227,-84.4889616,273.79998779296875,-1.1660410165786743,-1.1809676885604858
1683153211.15483189,49330262,42.6891227,-84.4889616,273.79998779296875,-1.0854390859603882,-1.182165265083313
1683153211.25472784,49430158,42.6891228,-84.4889614,273.7900085449219,-1.268136739730835,-1.1831506490707397
1683153211.35469389,49530124,42.6891228,-84.4889614,273.7900085449219,-1.268136739730835,-1.182519793510437
1683153211.45505095,49630481,42.6891228,-84.48896119999999,273.7900085449219,-1.1015594005584717,-1.1827548742294312
1683153211.55475903,49730189,42.6891228,-84.48896119999999,273.7900085449219,-1.2412694692611694,-1.1840176582336426
1683153211.65445995,49829890,42.6891232,-84.4889611,273.7099914550781,-1.1929082870483398,-1.184499740600586
1683153211.75460505,49930035,42.6891232,-84.4889611,273.7099914550781,-1.1982817649841309,-1.184971570968628
1683153211.85450006,50029930,42.6891235,-84.4889611,273.67999267578125,-1.1552940607070923,-1.185640811920166
1683153211.95446992,50129900,42.6891235,-84.4889611,273.67999267578125,-1.34336519241333,-1.1861982345581055
1683153212.05451393,50229944,42.689123699999996,-84.4889611,273.66998291015625,-1.0424513816833496,-1.186236023902893
1683153212.15467191,50330102,42.689123699999996,-84.4889611,273.66998291015625,-1.273510217666626,-1.187718152999878
1683153212.25475383,50430184,42.6891239,-84.48896099999999,273.6499938964844,-1.2251490354537964,-1.1879708766937256
1683153212.35445595,50529886,42.6891239,-84.48896099999999,273.6499938964844,-1.1499205827713013,-1.188191294670105
1683153212.45445704,50629887,42.6891241,-84.4889609,273.6399841308594,-0.9403555989265442,-1.189154863357544
1683153212.55451703,50729947,42.6891241,-84.4889609,273.6399841308594,-1.1230533123016357,-1.1895484924316406
1683153212.65446997,50829900,42.689124299999996,-84.4889609,273.6199951171875,-1.0746921300888062,-1.1868934631347656
1683153212.75450492,50929935,42.689124299999996,-84.4889609,273.6199951171875,-1.1660410165786743,-1.1829044818878174
1683153212.85474491,51030175,42.6891245,-84.48896099999999,273.6099853515625,-1.1552940607070923,-1.1784738302230835
1683153212.95477605,51130206,42.6891245,-84.48896099999999,273.6099853515625,-1.0370779037475586,-1.1745344400405884
1683153213.05466604,51230096,42.6891247,-84.48896099999999,273.6000061035156,-1.2144020795822144,-1.1713359355926514
1683153213.15469193,51330122,42.6891247,-84.48896099999999,273.6000061035156,-1.1069328784942627,-1.1672914028167725
1683153213.25448799,51429918,42.689125,-84.48896099999999,273.5799865722656,-1.1123063564300537,-1.1639976501464844
1683153213.35446000,51529890,42.689125,-84.48896099999999,273.5799865722656,-1.2144020795822144,-1.1610840559005737
1683153213.45446396,51629894,42.6891252,-84.4889611,273.5400085449219,-1.2144020795822144,-1.1579629182815552
1683153213.55449200,51729922,42.6891252,-84.4889611,273.5400085449219,-0.9833433032035828,-1.1558316946029663
1683153213.65448189,51829912,42.689125399999995,-84.48896099999999,273.5299987792969,-1.1875348091125488,-1.1549683809280396
1683153213.75473595,51930166,42.689125399999995,-84.48896099999999,273.5299987792969,-1.0746921300888062,-1.1525511741638184
1683153213.85454702,52029977,42.6891257,-84.4889609,273.5199890136719,-1.278883695602417,-1.1499972343444824
1683153213.95434189,52129772,42.6891257,-84.4889609,273.5199890136719,-1.1176798343658447,-1.1472580432891846
1683153214.05440998,52229840,42.6891259,-84.4889609,273.489990234375,-1.0263309478759766,-1.1459710597991943
1683153214.15458202,52330012,42.6891259,-84.4889609,273.489990234375,-1.0693186521530151,-1.1451637744903564
1683153214.25448799,52429918,42.6891262,-84.4889608,273.47998046875,-1.0478248596191406,-1.142804503440857
1683153214.35448289,52529913,42.6891262,-84.4889608,273.47998046875,-0.9779698252677917,-1.1393976211547852
1683153214.45474982,52630180,42.6891265,-84.4889608,273.4499816894531,-1.004837155342102,-1.1352654695510864
1683153214.55450702,52729937,42.6891265,-84.4889608,273.4499816894531,-0.9564760327339172,-1.1298226118087769
1683153214.65446591,52829896,42.6891268,-84.4889608,273.4100036621094,-1.257389783859253,-1.1234047412872314
1683153214.75457191,52930002,42.6891268,-84.4889608,273.4100036621094,-1.1230533123016357,-1.1160424947738647
1683153214.85433698,53029767,42.689127,-84.4889608,273.4100036621094,-1.257389783859253,-1.111064076423645
1683153214.95440102,53129831,42.689127,-84.4889608,273.4100036621094,-1.1123063564300537,-1.1079723834991455
1683153215.05445385,53229884,42.6891271,-84.48896069999999,273.41998291015625,-1.0263309478759766,-1.1070247888565063
1683153215.15476084,53330191,42.6891271,-84.48896069999999,273.41998291015625,-1.0908125638961792,-1.1067724227905273
1683153215.25473785,53430168,42.6891274,-84.48896069999999,273.3899841308594,-1.2036552429199219,-1.1053756475448608
1683153215.35469484,53530125,42.6891274,-84.48896069999999,273.3899841308594,-0.934982180595398,-1.1034579277038574
1683153215.45470691,53630137,42.6891277,-84.48896069999999,273.3599853515625,-1.0854390859603882,-1.1027075052261353
1683153215.55472302,53730153,42.6891277,-84.48896069999999,273.3599853515625,-0.9457290768623352,-1.1005502939224243
1683153215.65473294,53830163,42.689127899999995,-84.48896069999999,273.3500061035156,-1.0370779037475586,-1.097601294517517
1683153215.75463986,53930070,42.689127899999995,-84.48896069999999,273.3500061035156,-1.0961860418319702,-1.0934721231460571
1683153215.85462594,54030056,42.6891281,-84.48896049999999,273.3500061035156,-1.0854390859603882,-1.0887833833694458
1683153215.95499682,54130427,42.6891281,-84.48896049999999,273.3500061035156,-1.1338002681732178,-1.08488929271698
1683153216.05475187,54230182,42.689128499999995,-84.4889603,273.3299865722656,-1.246642827987671,-1.081795334815979
1683153216.15447402,54329904,42.689128499999995,-84.4889603,273.3299865722656,-1.0746921300888062,-1.0797775983810425
1683153216.25464201,54430072,42.6891288,-84.4889602,273.30999755859375,-1.2412694692611694,-1.080021858215332
1683153216.35450792,54529938,42.6891288,-84.4889602,273.30999755859375,-1.1552940607070923,-1.080660343170166
1683153216.45444393,54629874,42.689129,-84.4889602,273.2799987792969,-1.0478248596191406,-1.082374095916748
1683153216.55452991,54729960,42.689129,-84.4889602,273.2799987792969,-1.1982817649841309,-1.084875464439392
1683153216.65464306,54830073,42.6891293,-84.4889601,273.25,-1.0585718154907227,-1.0862761735916138
1683153216.75468802,54930118,42.6891293,-84.4889601,273.25,-1.0585718154907227,-1.0878965854644775
1683153216.85444903,55029879,42.6891295,-84.4889602,273.22998046875,-1.0317044258117676,-1.0889463424682617
1683153216.95446086,55129891,42.6891295,-84.4889602,273.22998046875,-1.1552940607070923,-1.0888603925704956
1683153217.05446696,55229897,42.689129699999995,-84.4889602,273.1999816894531,-0.934982180595398,-1.0876083374023438
1683153217.15448189,55329912,42.689129699999995,-84.4889602,273.1999816894531,-1.262763261795044,-1.0868327617645264
1683153217.25457883,55430009,42.68913,-84.4889601,273.17999267578125,-1.0746921300888062,-1.0843950510025024
1683153217.35449505,55529925,42.68913,-84.4889601,273.17999267578125,-1.0800656080245972,-1.0839568376541138
1683153217.45453405,55629964,42.689130299999995,-84.4889599,273.1600036621094,-1.2144020795822144,-1.0837064981460571
1683153217.55471802,55730148,42.689130299999995,-84.4889599,273.1600036621094,-1.0908125638961792,-1.0830495357513428
1683153217.65467286,55830103,42.6891306,-84.48895979999999,273.16998291015625,-0.9940902590751648,-1.0838195085525513
1683153217.75447083,55929901,42.6891306,-84.48895979999999,273.16998291015625,-1.0478248596191406,-1.0845690965652466
1683153217.85445189,56029882,42.689130899999995,-84.4889597,273.1399841308594,-1.257389783859253,-1.083620309829712
1683153217.95448089,56129911,42.689130899999995,-84.4889597,273.1399841308594,-1.1391736268997192,-1.0818430185317993
1683153218.05447602,56229906,42.6891311,-84.48895949999999,273.1099853515625,-1.1929082870483398,-1.0823004245758057
1683153218.15450287,56329933,42.6891311,-84.48895949999999,273.1099853515625,-1.0639451742172241,-1.083561658859253
1683153218.25450802,56429938,42.6891313,-84.48895949999999,273.1099853515625,-1.0746921300888062,-1.0856679677963257
1683153218.35460591,56530036,42.6891313,-84.48895949999999,273.1099853515625,-1.1391736268997192,-1.0870040655136108
1683153218.45466805,56630098,42.689131599999996,-84.48895949999999,273.07000732421875,-1.1391736268997192,-1.0874654054641724
1683153218.55468082,56730111,42.689131599999996,-84.48895949999999,273.07000732421875,-1.1284267902374268,-1.088104009628296
1683153218.65474200,56830172,42.6891319,-84.48895929999999,273.0299987792969,-1.246642827987671,-1.0891368389129639
1683153218.75474191,56930172,42.6891319,-84.48895929999999,273.0299987792969,-0.9296087026596069,-1.0903276205062866
1683153218.85469294,57030123,42.6891323,-84.4889592,272.989990234375,-1.0370779037475586,-1.0930365324020386
1683153218.95473385,57130164,42.6891323,-84.4889592,272.989990234375,-1.1982817649841309,-1.0932453870773315
1683153219.05471683,57230147,42.6891326,-84.488959,272.989990234375,-0.934982180595398,-1.0919095277786255
1683153219.15462804,57330058,42.6891326,-84.488959,272.989990234375,-1.0693186521530151,-1.0919361114501953
1683153219.25478196,57430212,42.689133,-84.4889589,272.9700012207031,-1.1606675386428833,-1.0901917219161987
1683153219.35462689,57530057,42.689133,-84.4889589,272.9700012207031,-1.1391736268997192,-1.0879586935043335
1683153219.45463896,57630069,42.6891332,-84.4889587,272.9700012207031,-1.1875348091125488,-1.0870181322097778
1683153219.55467296,57730103,42.6891332,-84.4889587,272.9700012207031,-0.9457290768623352,-1.087100863456726
1683153219.65493488,57830365,42.6891335,-84.4889585,272.97998046875,-1.1606675386428833,-1.0884168148040771
1683153219.75469685,57930127,42.6891335,-84.4889585,272.97998046875,-1.1552940607070923,-1.0877156257629395
1683153219.85469484,58030125,42.6891338,-84.4889582,273.0,-0.9457290768623352,-1.0874453783035278
1683153219.95471692,58130147,42.6891338,-84.4889582,273.0,-1.1391736268997192,-1.0881768465042114
1683153220.05469084,58230121,42.6891341,-84.488958,272.9700012207031,-0.9618494510650635,-1.0869426727294922
1683153220.15476084,58330191,42.6891341,-84.488958,272.9700012207031,-1.1015594005584717,-1.0860861539840698
1683153220.25464797,58430078,42.6891344,-84.488958,272.9499816894531,-1.0424513816833496,-1.083987832069397
1683153220.35463500,58530065,42.6891344,-84.488958,272.9499816894531,-1.2197755575180054,-1.0821377038955688
1683153220.45511389,58630544,42.6891347,-84.4889578,272.9100036621094,-1.1552940607070923,-1.080286979675293
1683153220.55476284,58730193,42.6891347,-84.4889578,272.9100036621094,-1.0263309478759766,-1.0804212093353271
1683153220.65471292,58830143,42.689135,-84.4889577,272.8800048828125,-0.7361640930175781,-1.0817924737930298
1683153220.75474787,58930178,42.689135,-84.4889577,272.8800048828125,-1.1821613311767578,-1.0821948051452637
1683153220.85448599,59029916,42.689135199999996,-84.4889577,272.8500061035156,-1.0800656080245972,-1.0778372287750244
1683153220.95444894,59129879,42.689135199999996,-84.4889577,272.8500061035156,-0.9457290768623352,-1.0747588872909546
1683153221.05453086,59229961,42.6891354,-84.4889575,272.8599853515625,-1.1982817649841309,-1.0728849172592163
1683153221.15438890,59329819,42.6891354,-84.4889575,272.8599853515625,-1.1982817649841309,-1.0698586702346802
1683153221.25444102,59429871,42.6891356,-84.48895739999999,272.8899841308594,-1.0478248596191406,-1.068685531616211
1683153221.35474396,59530174,42.6891356,-84.48895739999999,272.8899841308594,-1.1606675386428833,-1.0697922706604004
1683153221.45473695,59630167,42.689135799999995,-84.4889572,272.8899841308594,-1.0424513816833496,-1.0705969333648682
1683153221.55447388,59729904,42.689135799999995,-84.4889572,272.8899841308594,-1.0639451742172241,-1.072083830833435
1683153221.65447402,59829904,42.689136,-84.488957,272.9100036621094,-1.1069328784942627,-1.0729645490646362
1683153221.75450683,59929937,42.689136,-84.488957,272.9100036621094,-1.1445471048355103,-1.0732823610305786
1683153221.85452199,60029952,42.6891363,-84.4889568,272.8899841308594,-0.999463677406311,-1.073828935623169
1683153221.95452094,60129951,42.6891363,-84.4889568,272.8899841308594,-1.004837155342102,-1.0751361846923828
1683153222.05433893,60229769,42.6891365,-84.4889567,272.9100036621094,-0.8490067720413208,-1.0752612352371216
1683153222.15441704,60329847,42.6891365,-84.4889567,272.9100036621094,-0.9887167811393738,-1.0741559267044067
1683153222.25477290,60430203,42.6891366,-84.4889565,272.9499816894531,-1.1123063564300537,-1.0702238082885742
1683153222.35446286,60529893,42.6891366,-84.4889565,272.9499816894531,-0.9564760327339172,-1.0656046867370605
1683153222.45446706,60629897,42.689136999999995,-84.48895619999999,272.9599914550781,-0.9725964069366455,-1.0625324249267578
1683153222.55461287,60730043,42.689136999999995,-84.48895619999999,272.9599914550781,-1.2036552429199219,-1.05908203125
1683153222.65448499,60829915,42.6891373,-84.488956,272.97998046875,-0.9940902590751648,-1.055095911026001
1683153222.75448799,60929918,42.6891373,-84.488956,272.97998046875,-1.0370779037475586,-1.053735613822937
1683153222.85451984,61029950,42.6891374,-84.4889559,273.0299987792969,-1.1015594005584717,-1.0524394512176514
1683153222.95433903,61129769,42.6891374,-84.4889559,273.0299987792969,-1.1606675386428833,-1.0510252714157104
1683153223.05441499,61229845,42.689137599999995,-84.4889558,273.05999755859375,-1.1015594005584717,-1.0505188703536987
1683153223.15476394,61330194,42.689137599999995,-84.4889558,273.05999755859375,-0.9242352247238159,-1.0516140460968018
1683153223.25477600,61430206,42.6891378,-84.48895569999999,273.0799865722656,-1.1176798343658447,-1.053278923034668
1683153223.35449100,61529921,42.6891378,-84.48895569999999,273.0799865722656,-1.1499205827713013,-1.052875280380249
1683153223.45448685,61629917,42.6891381,-84.4889556,273.05999755859375,-1.0800656080245972,-1.0528781414031982
1683153223.55451488,61729945,42.6891381,-84.4889556,273.05999755859375,-0.8812475800514221,-1.054219365119934
1683153223.65446496,61829895,42.689138299999996,-84.48895569999999,273.0400085449219,-1.273510217666626,-1.055694580078125
1683153223.75458097,61930011,42.689138299999996,-84.48895569999999,273.0400085449219,-1.0478248596191406,-1.0545313358306885
1683153223.85433602,62029766,42.6891386,-84.4889558,273.0299987792969,-0.9511025547981262,-1.055742859840393
1683153223.95440698,62129837,42.6891386,-84.4889558,273.0299987792969,-0.9940902590751648,-1.0570590496063232
1683153224.05445790,62229888,42.689138899999996,-84.488956,272.989990234375,-1.1445471048355103,-1.0564974546432495
1683153224.15474892,62330179,42.689138899999996,-84.488956,272.989990234375,-1.0908125638961792,-1.0548436641693115
1683153224.25475693,62430187,42.689139,-84.4889561,272.989990234375,-1.1069328784942627,-1.0545426607131958
1683153224.35474896,62530179,42.689139,-84.4889561,272.989990234375,-1.0800656080245972,-1.0550522804260254
1683153224.45475602,62630186,42.6891392,-84.4889563,272.9599914550781,-0.9511025547981262,-1.0561316013336182
1683153224.55475688,62730187,42.6891392,-84.4889563,272.9599914550781,-1.2036552429199219,-1.0573316812515259
1683153224.65488100,62830311,42.689139499999996,-84.48895639999999,272.92999267578125,-1.2305225133895874,-1.056883692741394
1683153224.75468493,62930115,42.689139499999996,-84.48895639999999,272.92999267578125,-0.8490067720413208,-1.0580382347106934
1683153224.85468984,63030120,42.6891397,-84.4889566,272.9100036621094,-0.9887167811393738,-1.0614967346191406
1683153224.95502806,63130458,42.6891397,-84.4889566,272.9100036621094,-1.1982817649841309,-1.0618185997009277
1683153225.05474401,63230174,42.6891399,-84.4889567,272.91998291015625,-1.2090286016464233,-1.0606019496917725
1683153225.15448093,63329911,42.6891399,-84.4889567,272.91998291015625,-1.0746921300888062,-1.0607266426086426
1683153225.25452495,63429955,42.6891402,-84.48895689999999,272.8800048828125,-1.0585718154907227,-1.0630899667739868
1683153225.35451102,63529941,42.6891402,-84.48895689999999,272.8800048828125,-0.9887167811393738,-1.0655739307403564
1683153225.45444083,63629871,42.6891405,-84.488957,272.8699951171875,-1.2251490354537964,-1.0672693252563477
1683153225.55452490,63729955,42.6891405,-84.488957,272.8699951171875,-0.9887167811393738,-1.0675455331802368
1683153225.65463591,63830066,42.689140699999996,-84.4889571,272.8699951171875,-0.9134883284568787,-1.0689674615859985
1683153225.75469089,63930121,42.689140699999996,-84.4889571,272.8699951171875,-1.0854390859603882,-1.0699025392532349
1683153225.85475802,64030188,42.6891409,-84.4889572,272.8599853515625,-0.999463677406311,-1.0683256387710571
1683153225.95473790,64130168,42.6891409,-84.4889572,272.8599853515625,-1.1821613311767578,-1.0665264129638672
1683153226.05448389,64229914,42.6891411,-84.4889573,272.8399963378906,-1.1606675386428833,-1.0645995140075684
1683153226.15450191,64329932,42.6891411,-84.4889573,272.8399963378906,-1.0263309478759766,-1.0639885663986206
1683153226.25459290,64430023,42.689141299999996,-84.48895739999999,272.8399963378906,-1.0531983375549316,-1.065106987953186
1683153226.35445285,64529883,42.689141299999996,-84.48895739999999,272.8399963378906,-1.1338002681732178,-1.0659455060958862
1683153226.45455599,64629986,42.6891415,-84.4889575,272.8299865722656,-1.0317044258117676,-1.0661768913269043
1683153226.55471802,64730148,42.6891415,-84.4889575,272.8299865722656,-1.0370779037475586,-1.066981315612793
1683153226.65469003,64830120,42.6891418,-84.4889575,272.8299865722656,-1.0531983375549316,-1.0675253868103027
1683153226.75452399,64929954,42.6891418,-84.4889575,272.8299865722656,-1.1015594005584717,-1.0674058198928833
1683153226.85447001,65029900,42.6891421,-84.48895759999999,272.7900085449219,-1.010210633277893,-1.0670264959335327
1683153226.95448899,65129919,42.6891421,-84.48895759999999,272.7900085449219,-1.2036552429199219,-1.0670734643936157
1683153227.05448484,65229915,42.6891424,-84.4889575,272.79998779296875,-1.1015594005584717,-1.0667781829833984
1683153227.15450501,65329935,42.6891424,-84.4889575,272.79998779296875,-1.1391736268997192,-1.067821979522705
1683153227.25451589,65429946,42.6891426,-84.48895739999999,272.8500061035156,-1.1821613311767578,-1.0697102546691895
1683153227.35453987,65529970,42.6891426,-84.48895739999999,272.8500061035156,-0.999463677406311,-1.0720139741897583
1683153227.45465589,65630086,42.6891429,-84.48895739999999,272.8399963378906,-1.0585718154907227,-1.0753083229064941
1683153227.55443788,65729868,42.6891429,-84.48895739999999,272.8399963378906,-0.795272171497345,-1.0775591135025024
1683153227.65446091,65829891,42.689143099999995,-84.48895739999999,272.8299865722656,-0.9672229290008545,-1.0786347389221191
1683153227.75448489,65929915,42.689143099999995,-84.48895739999999,272.8299865722656,-1.1875348091125488,-1.0764094591140747
1683153227.85448003,66029910,42.6891433,-84.48895739999999,272.8299865722656,-1.0961860418319702,-1.0722860097885132
1683153227.95448494,66129915,42.6891433,-84.48895739999999,272.8299865722656,-1.2305225133895874,-1.0701253414154053
1683153228.05448604,66229916,42.6891436,-84.48895739999999,272.8299865722656,-0.9725964069366455,-1.0696120262145996
1683153228.15477490,66330205,42.6891436,-84.48895739999999,272.8299865722656,-1.0585718154907227,-1.0711779594421387
1683153228.25455999,66429990,42.6891439,-84.48895739999999,272.80999755859375,-0.9188618063926697,-1.0721973180770874
1683153228.35436988,66529800,42.6891439,-84.48895739999999,272.80999755859375,-1.0854390859603882,-1.072342872619629
1683153228.45441103,66629841,42.6891442,-84.48895759999999,272.7699890136719,-1.2305225133895874,-1.070852518081665
1683153228.55446982,66729900,42.6891442,-84.48895759999999,272.7699890136719,-1.1230533123016357,-1.0692633390426636
1683153228.65446091,66829891,42.689144399999996,-84.488958,272.72998046875,-0.9887167811393738,-1.070027232170105
1683153228.75449896,66929929,42.689144399999996,-84.488958,272.72998046875,-1.0263309478759766,-1.0720648765563965
1683153228.85463405,67030064,42.6891448,-84.4889582,272.6399841308594,-1.0746921300888062,-1.0730016231536865
1683153228.95451188,67129942,42.6891448,-84.4889582,272.6399841308594,-1.1391736268997192,-1.072862148284912
1683153229.05449605,67229926,42.689144899999995,-84.4889584,272.6199951171875,-1.0693186521530151,-1.072700023651123
1683153229.15455604,67329986,42.689144899999995,-84.4889584,272.6199951171875,-0.9672229290008545,-1.07343590259552
1683153229.25475502,67430185,42.6891459,-84.4889594,272.6199951171875,-0.004394726827740669,-0.004394726827740669
1683153229.35469890,67530129,42.689146,-84.48895949999999,272.6199951171875,-0.004086809232831001,-0.004086809232831001
1683153229.45474005,67630170,42.689146,-84.48895949999999,272.6099853515625,-0.012592392042279243,-0.012592392042279243
1683153229.55472684,67730157,42.689146099999995,-84.4889596,272.6099853515625,-0.01996775157749653,-0.01996775157749653
1683153229.65471005,67830140,42.689146199999996,-84.4889596,272.5899963378906,-0.03639967739582062,-0.03639967739582062
1683153229.75472403,67930154,42.6891463,-84.4889596,272.5799865722656,-0.04721064865589142,-0.04721064865589142
1683153229.85473299,68030163,42.6891464,-84.4889596,272.55999755859375,-0.06262095272541046,-0.06262095272541046
1683153229.95471096,68130141,42.6891465,-84.4889597,272.54998779296875,-0.07304532825946808,-0.07304532825946808
1683153230.05476499,68230195,42.6891466,-84.48895979999999,272.5400085449219,-0.08619590103626251,-0.08619590103626251
1683153230.15466285,68330093,42.689146699999995,-84.48895979999999,272.5299987792969,-0.09439928829669952,-0.09439928829669952
1683153230.25468493,68430115,42.689146799999996,-84.48895999999999,272.5299987792969,-0.09998257458209991,-0.09998257458209991
1683153230.35474205,68530172,42.6891469,-84.4889601,272.5199890136719,-0.10205323994159698,-0.10205323994159698
1683153230.45472193,68630152,42.689147,-84.4889602,272.5099792480469,-0.11007554829120636,-0.11007554829120636
1683153230.55471992,68730150,42.6891471,-84.4889603,272.5099792480469,-0.11559374630451202,-0.11559374630451202
1683153230.65488791,68830318,42.6891472,-84.4889604,272.5,-0.12237997353076935,-0.12237997353076935
1683153230.75474787,68930178,42.689147299999995,-84.48896049999999,272.5,-0.1264546662569046,-0.1264546662569046
1683153230.85474801,69030178,42.689147399999996,-84.48896049999999,272.5,-0.1291150599718094,-0.1291150599718094
1683153230.95490789,69130338,42.6891475,-84.4889606,272.489990234375,-0.13030298054218292,-0.13030298054218292
1683153231.05471802,69230148,42.6891476,-84.4889606,272.5,-0.12945373356342316,-0.12945373356342316
1683153231.15469503,69330125,42.6891477,-84.4889606,272.5,-0.1270321160554886,-0.1270321160554886
1683153231.25476193,69430192,42.6891478,-84.4889606,272.5,-0.12458927929401398,-0.12458927929401398
1683153231.35506201,69530492,42.689147899999995,-84.4889606,272.5,-0.12327201664447784,-0.12327201664447784
1683153231.45449090,69629921,42.689147999999996,-84.4889606,272.5099792480469,-0.11988218128681183,-0.11988218128681183
1683153231.55451298,69729943,42.689147999999996,-84.4889606,272.5099792480469,-0.1139182597398758,-0.1139182597398758
1683153231.65451193,69829942,42.6891481,-84.4889606,272.5199890136719,-0.1063285619020462,-0.1063285619020462
1683153231.75451303,69929943,42.6891482,-84.48896049999999,272.5199890136719,-0.10064764320850372,-0.10064764320850372
1683153231.85453486,70029965,42.6891483,-84.48896049999999,272.5299987792969,-0.09623177349567413,-0.09623177349567413
1683153231.95432591,70129756,42.6891484,-84.48896049999999,272.5299987792969,-0.09190018475055695,-0.09190018475055695
1683153232.05440092,70229831,42.6891484,-84.48896049999999,272.5400085449219,-0.08946485817432404,-0.08946485817432404
1683153232.15476084,70330191,42.689148499999995,-84.48896049999999,272.5400085449219,-0.08689375221729279,-0.08689375221729279
1683153232.25479484,70430225,42.689148499999995,-84.48896049999999,272.5400085449219,-0.08437938988208771,-0.08437938988208771
1683153232.35448194,70529912,42.689148599999996,-84.48896049999999,272.5400085449219,-0.08317263424396515,-0.08317263424396515
1683153232.45448303,70629913,42.689148599999996,-84.48896049999999,272.5400085449219,-0.08150644600391388,-0.08150644600391388
1683153232.55451202,70729942,42.6891487,-84.48896049999999,272.54998779296875,-0.07924528419971466,-0.07924528419971466
1683153232.65447783,70829908,42.6891487,-84.4889604,272.5400085449219,-0.08121390640735626,-0.08121390640735626
1683153232.75455189,70929982,42.6891488,-84.4889603,272.5400085449219,-0.08194763958454132,-0.08194763958454132
1683153232.85468197,71030112,42.6891489,-84.4889603,272.5400085449219,-0.08659215271472931,-0.08659215271472931
1683153232.95467305,71130103,42.6891489,-84.4889603,272.5400085449219,-0.08962471783161163,-0.08962471783161163
1683153233.05452394,71229954,42.689149,-84.4889602,272.5299987792969,-0.09165425598621368,-0.09165425598621368
1683153233.15451097,71329941,42.689149099999995,-84.4889602,272.5299987792969,-0.09005720913410187,-0.09005720913410187
1683153233.25451994,71429950,42.689149099999995,-84.4889602,272.5400085449219,-0.08828683197498322,-0.08828683197498322
1683153233.35449195,71529922,42.689149199999996,-84.4889601,272.5400085449219,-0.08767278492450714,-0.08767278492450714
1683153233.45449901,71629929,42.6891493,-84.4889601,272.5400085449219,-0.08678705990314484,-0.08678705990314484
1683153233.55476093,71730191,42.6891494,-84.48895999999999,272.5400085449219,-0.08323247730731964,-0.08323247730731964
1683153233.65476203,71830192,42.6891494,-84.48895999999999,272.54998779296875,-0.07786257565021515,-0.07786257565021515
1683153233.75467896,71930109,42.6891495,-84.4889599,272.54998779296875,-0.07179374992847443,-0.07179374992847443
1683153233.85468698,72030117,42.6891495,-84.4889599,272.55999755859375,-0.06794781982898712,-0.06794781982898712
1683153233.95446897,72129899,42.6891496,-84.4889599,272.55999755859375,-0.06463976204395294,-0.06463976204395294
