timestamp,TimeUS,C,Q1,Q2,Q3,Q4
1683153173.35377192,11529202,2,1.0,0.0,0.0,0.0
1683153173.45378804,11629218,2,1.0,0.0,0.0,0.0
1683153173.55377483,11729205,2,1.0,0.0,0.0,0.0
1683153173.65381289,11829243,2,1.0,0.0,0.0,0.0
1683153173.75378489,11929215,2,1.0,0.0,0.0,0.0
1683153173.85380387,12029234,2,1.0,0.0,0.0,0.0
1683153173.95374489,12129175,2,1.0,0.0,0.0,0.0
1683153174.05374789,12229178,2,1.0,0.0,0.0,0.0
1683153174.15375495,12329185,2,1.0,0.0,0.0,0.0
1683153174.25376201,12429192,2,1.0,0.0,0.0,0.0
1683153174.35378003,12529210,2,0.9999526739120483,-0.007593805901706219,0.006078026723116636,-0.00025638146325945854
1683153174.45377994,12629210,2,0.9999545812606812,-0.0075978790409862995,0.0057183546014130116,0.0006111442344263196
1683153174.55380893,12729239,2,0.9999518990516663,-0.00777702871710062,0.0059616598300635815,0.00041075143963098526
1683153174.65379095,12829221,2,0.9999558925628662,-0.007426077965646982,0.005750596988946199,-0.00020095461513847113
1683153174.75381398,12929244,2,0.999953031539917,-0.00785326212644577,0.005657403729856014,0.0005444777198135853
1683153174.85374498,13029175,2,0.9999570250511169,-0.007247390225529671,0.0057802083902060986,-0.00025548521080054343
1683153174.95374584,13129176,2,0.999954879283905,-0.007589004468172789,0.005709649994969368,6.119884346844628e-05
1683153175.05375004,13229180,2,0.9999571442604065,-0.007052741013467312,0.005871827248483896,0.0012412040960043669
1683153175.15374684,13329177,2,0.9999557733535767,-0.007351808715611696,0.0057382541708648205,0.0012252103770151734
1683153175.25378084,13429211,2,0.9999542236328125,-0.007648030295968056,0.00551623897626996,0.0016146234702318907
1683153175.35379195,13529222,2,0.9999536871910095,-0.008031211793422699,0.005302971228957176,-9.268467692891136e-05
1683153175.45381689,13629247,2,0.9999539852142334,-0.008006304502487183,0.005107344128191471,0.001375882769934833
1683153175.55378604,13729216,2,0.9999477863311768,-0.008704209700226784,0.004814682062715292,0.0023344450164586306
1683153175.65380502,13829235,2,0.9999513626098633,-0.008834168314933777,0.0042239222675561905,-0.0011709177633747458
1683153175.75373888,13929169,2,0.9999486207962036,-0.009260601364076138,0.004097740165889263,0.00047378192539326847
1683153175.85373402,14029164,2,0.9772748947143555,-0.008650125935673714,0.0057976264506578445,-0.21171994507312775
1683153175.95373797,14129168,2,0.9766387343406677,-0.008865969255566597,0.0054159266874194145,-0.2146364152431488
1683153176.05379605,14229226,2,0.9768049716949463,-0.00894048810005188,0.005274679511785507,-0.21387915313243866
1683153176.15377784,14329208,2,0.9771155118942261,-0.008954191580414772,0.004894366953521967,-0.21246455609798431
1683153176.25380087,14429231,2,0.9764957427978516,-0.008705825544893742,0.004873211961239576,-0.21530570089817047
1683153176.35381699,14529247,2,0.9764217138290405,-0.00846634991466999,0.005189941264688969,-0.21564339101314545
1683153176.45379806,14629228,2,0.9765786528587341,-0.008840258233249187,0.0048148357309401035,-0.21492499113082886
1683153176.55380106,14729231,2,0.9763773083686829,-0.009028739295899868,0.004839556757360697,-0.21582958102226257
1683153176.65375185,14829182,2,0.9764724373817444,-0.008563489653170109,0.004586904775351286,-0.2154233753681183
1683153176.75373983,14929170,2,0.9765980839729309,-0.00904757995158434,0.004483538214117289,-0.21483539044857025
1683153176.85374093,15029171,2,0.9764581918716431,-0.00873084831982851,0.004511838313192129,-0.21548262238502502
1683153176.95377684,15129207,2,0.9764693975448608,-0.009221834130585194,0.004101075232028961,-0.21541984379291534
1683153177.05378294,15229213,2,0.9765641689300537,-0.009098176844418049,0.003974144347012043,-0.21499723196029663
1683153177.15377998,15329210,2,0.9764998555183411,-0.00918933842331171,0.0039056004025042057,-0.21528661251068115
1683153177.25380898,15429239,2,0.9763053059577942,-0.009317576885223389,0.003516723867505789,-0.21616831421852112
1683153177.35380101,15529231,2,0.9763200283050537,-0.00950795691460371,0.0033543771132826805,-0.21609607338905334
1683153177.45380187,15629232,2,0.9762033820152283,-0.009682439267635345,0.003107647877186537,-0.21661853790283203
1683153177.55373502,15729165,2,0.976111888885498,-0.00991068035364151,0.0026865077670663595,-0.21702556312084198
1683153177.65373802,15829168,2,0.9762547016143799,-0.010003522038459778,0.002686432795599103,-0.21637795865535736
1683153177.75373387,15929164,2,0.9761267900466919,-0.010054214857518673,0.0023912363685667515,-0.21695555746555328
1683153177.85377097,16029201,2,0.9760257005691528,-0.01038488931953907,0.002413908950984478,-0.21739402413368225
1683153177.95377994,16129210,2,0.9760169386863708,-0.010418908670544624,0.0021674414165318012,-0.2174343466758728
1683153178.05377698,16229207,2,0.9761468172073364,-0.0105357114225626,0.0022736312821507454,-0.21684370934963226
1683153178.15381193,16329242,2,0.9760646820068359,-0.010662617161870003,0.0022502774372696877,-0.21720725297927856
1683153178.25378585,16429216,2,0.9758754968643188,-0.010612200945615768,0.0022083239164203405,-0.21805846691131592
1683153178.35380006,16529230,2,0.9759538769721985,-0.010961249470710754,0.0022202839609235525,-0.217690110206604
1683153178.45373988,16629170,2,0.9759214520454407,-0.010861254297196865,0.002107304288074374,-0.2178414911031723
1683153178.55373383,16729164,2,0.9758456945419312,-0.01094217598438263,0.002315379912033677,-0.218174546957016
1683153178.65373683,16829167,2,0.9759877324104309,-0.010713749565184116,0.002364780055359006,-0.21754899621009827
1683153178.75377083,16929201,2,0.9758497476577759,-0.010913949459791183,0.002527055097743869,-0.21815529465675354
1683153178.85377598,17029206,2,0.9757105708122253,-0.01081051118671894,0.0026365271769464016,-0.21878084540367126
1683153178.95377588,17129206,2,0.9758515357971191,-0.01089014858007431,0.002737150527536869,-0.21814608573913574
1683153179.05381083,17229241,2,0.9757448434829712,-0.010863804258406162,0.0028497991152107716,-0.218622624874115
1683153179.15378189,17329212,2,0.9755913615226746,-0.010832786560058594,0.0029192862566560507,-0.21930715441703796
1683153179.25380182,17429232,2,0.9757223129272461,-0.010857156477868557,0.0030745151452720165,-0.21872037649154663
1683153179.35374093,17529171,2,0.975703775882721,-0.01088641956448555,0.0031549944542348385,-0.2188005894422531
1683153179.45373487,17629165,2,0.9756275415420532,-0.010895106010138988,0.003268871456384659,-0.21913810074329376
1683153179.55373502,17729165,2,0.9757971167564392,-0.010800465010106564,0.0033317122142761946,-0.2183854728937149
1683153179.65374804,17829178,2,0.9757898449897766,-0.010863864794373512,0.003345136996358633,-0.2184145748615265
1683153179.75377893,17929209,2,0.9757106900215149,-0.010774464346468449,0.0033472476061433554,-0.21877235174179077
1683153179.85377693,18029207,2,0.9758443236351013,-0.010812872089445591,0.00338406627997756,-0.2181730717420578
1683153179.95379901,18129229,2,0.9757925868034363,-0.010755877941846848,0.0033738978672772646,-0.21840721368789673
1683153180.05378389,18229214,2,0.9756627678871155,-0.010806930251419544,0.003418952925130725,-0.21898317337036133
1683153180.15380597,18329236,2,0.9757477641105652,-0.010726481676101685,0.003418746404349804,-0.21860823035240173
1683153180.25373483,18429165,2,0.9756938815116882,-0.01081155613064766,0.003428701078519225,-0.2188442051410675
1683153180.35373688,18529167,2,0.9755983352661133,-0.010962157510221004,0.003484477987512946,-0.2192615270614624
1683153180.45374393,18629174,2,0.9757034778594971,-0.010708986781537533,0.003380411770194769,-0.21880728006362915
1683153180.55373883,18729169,2,0.9757040143013,-0.010905394330620766,0.0034193468745797873,-0.21879447996616364
1683153180.65377998,18829210,2,0.9755914211273193,-0.010907351970672607,0.0034248074516654015,-0.2192959040403366
1683153180.75377989,18929210,2,0.975663423538208,-0.010993637144565582,0.0035292073152959347,-0.2189694494009018
1683153180.85380888,19029239,2,0.9757357835769653,-0.010731556452810764,0.003457077546045184,-0.21866080164909363
1683153180.95379996,19129230,2,0.9756609797477722,-0.011025029234588146,0.003536124248057604,-0.218978613615036
1683153181.05379796,19229228,2,0.9757262468338013,-0.010828237980604172,0.0034447635989636183,-0.21869884431362152
1683153181.15373397,19329164,2,0.9757877588272095,-0.011047693900763988,0.0034016279969364405,-0.21841393411159515
1683153181.25373483,19429165,2,0.9756958484649658,-0.010934474878013134,0.003450030228123069,-0.21882915496826172
1683153181.35374188,19529172,2,0.9756156206130981,-0.011079471558332443,0.0034292805939912796,-0.21917937695980072
1683153181.45376492,19629195,2,0.9754010438919067,-0.010974920354783535,0.0034699328243732452,-0.2201370745897293
1683153181.55377984,19729210,2,0.9748978614807129,-0.01105703879147768,0.003488569986075163,-0.22235043346881866
1683153181.65377784,19829208,2,0.9743995666503906,-0.011017446406185627,0.003502459032461047,-0.22452571988105774
1683153181.75380898,19929239,2,0.9738560318946838,-0.01100708544254303,0.003440809203311801,-0.22687309980392456
1683153181.85379291,20029223,2,0.973140299320221,-0.011358550749719143,0.0033207868691533804,-0.22990839183330536
1683153181.95380187,20129232,2,0.9723889827728271,-0.010952959768474102,0.003380696987733245,-0.23308420181274414
1683153182.05373788,20229168,2,0.9717538952827454,-0.010824911296367645,0.0035698951687663794,-0.2357211410999298
1683153182.15373397,20329164,2,0.9713018536567688,-0.010928133502602577,0.0033702319487929344,-0.23757512867450714
1683153182.25373483,20429165,2,0.9707224369049072,-0.010908088646829128,0.0036811362951993942,-0.23992785811424255
1683153182.35377884,20529209,2,0.9701169729232788,-0.010775323025882244,0.0036793581675738096,-0.24237044155597687
1683153182.45377493,20629205,2,0.9697854518890381,-0.010935775935649872,0.0036274779122322798,-0.2436872273683548
1683153182.55377984,20729210,2,0.96933513879776,-0.010809405706822872,0.0037285550497472286,-0.24547630548477173
1683153182.65381694,20829247,2,0.9688451290130615,-0.010839715600013733,0.0036475439555943012,-0.2474030703306198
1683153182.75378799,20929218,2,0.9685668349266052,-0.010679536499083042,0.003775527933612466,-0.24849547445774078
1683153182.85380387,21029234,2,0.9680780172348022,-0.010810031555593014,0.00372136733494699,-0.2503882646560669
1683153182.95373702,21129167,2,0.9676817059516907,-0.01106817927211523,0.0036504254676401615,-0.25190529227256775
1683153183.05374098,21229171,2,0.9672807455062866,-0.010926530696451664,0.0037642307579517365,-0.25344499945640564
1683153183.15373492,21329165,2,0.9666286706924438,-0.011033302173018456,0.0037592612206935883,-0.2559162378311157
1683153183.25375891,21429189,2,0.9663876295089722,-0.010826417244970798,0.0037926756776869297,-0.25683343410491943
1683153183.35378289,21529213,2,0.966160237789154,-0.011051138862967491,0.0038407514803111553,-0.25767719745635986
1683153183.45379305,21629223,2,0.9656578898429871,-0.010759005323052406,0.0038645262829959393,-0.2595652639865875
1683153183.55381989,21729250,2,0.9652218222618103,-0.010904569178819656,0.003938506357371807,-0.26117509603500366
1683153183.65378499,21829215,2,0.9650299549102783,-0.010841473937034607,0.003907104022800922,-0.2618861198425293
1683153183.75379300,21929223,2,0.9646028280258179,-0.010846625082194805,0.004044776316732168,-0.2634528875350952
1683153183.85373998,22029170,2,0.9641826748847961,-0.010980279184877872,0.003995329607278109,-0.2649816572666168
1683153183.95374894,22129179,2,0.9640026688575745,-0.010795064270496368,0.003995587583631277,-0.2656433880329132
1683153184.05373788,22229168,2,0.9636093974113464,-0.01089825015515089,0.003956928383558989,-0.26706281304359436
1683153184.15376592,22329196,2,0.9631835222244263,-0.010924910195171833,0.003998568281531334,-0.2685929536819458
1683153184.25377798,22429208,2,0.9629635810852051,-0.010939220897853374,0.0040186932310462,-0.26937955617904663
1683153184.35379291,22529223,2,0.9625914096832275,-0.010974369943141937,0.004020943306386471,-0.27070486545562744
1683153184.45381594,22629246,2,0.9622218608856201,-0.010855249129235744,0.004117052536457777,-0.2720189392566681
1683153184.55378294,22729213,2,0.9620325565338135,-0.010914698243141174,0.004051558207720518,-0.27268630266189575
1683153184.65380001,22829230,2,0.9617182016372681,-0.011011400260031223,0.004108470864593983,-0.27378812432289124
1683153184.75374198,22929172,2,0.9613949656486511,-0.010845917277038097,0.004109373781830072,-0.2749275267124176
1683153184.85373402,23029164,2,0.9612899422645569,-0.010940073058009148,0.004107888322323561,-0.275290846824646
1683153184.95373797,23129168,2,0.9610274434089661,-0.010872147046029568,0.0041387565433979034,-0.2762080729007721
1683153185.05378103,23229211,2,0.9607540369033813,-0.010838471353054047,0.004102151375263929,-0.27715951204299927
1683153185.15378189,23329212,2,0.9607229828834534,-0.010813471861183643,0.004111038520932198,-0.2772679328918457
1683153185.25378299,23429213,2,0.9604800939559937,-0.010751446709036827,0.004086691420525312,-0.27811092138290405
1683153185.35381794,23529248,2,0.960197389125824,-0.010923940688371658,0.0040799276903271675,-0.2790789306163788
1683153185.45378399,23629214,2,0.9600699543952942,-0.010949019342660904,0.004089817404747009,-0.27951580286026
1683153185.55380392,23729234,2,0.959766149520874,-0.011029122397303581,0.004063520114868879,-0.28055432438850403
1683153185.65373802,23829168,2,0.9595182538032532,-0.010841886512935162,0.004063225816935301,-0.28140828013420105
1683153185.75373387,23929164,2,0.9594096541404724,-0.011020551435649395,0.004038346465677023,-0.2817718982696533
1683153185.85373592,24029166,2,0.9591447114944458,-0.010986567474901676,0.004102985840290785,-0.2826726734638214
1683153185.95376992,24129200,2,0.9589260816574097,-0.011092652566730976,0.004068468697369099,-0.2834099233150482
1683153186.05376983,24229200,2,0.9588409066200256,-0.011241942644119263,0.004103760700672865,-0.28369152545928955
1683153186.15378094,24329211,2,0.9586218595504761,-0.010960377752780914,0.004095806740224361,-0.2844420373439789
1683153186.25380397,24429234,2,0.9584519863128662,-0.011122455820441246,0.004190678242594004,-0.28500625491142273
1683153186.35378504,24529215,2,0.9583895206451416,-0.010964642278850079,0.004163593053817749,-0.2852226793766022
1683153186.45381188,24629242,2,0.958204984664917,-0.011051224544644356,0.00422669155523181,-0.28583765029907227
1683153186.55373597,24729166,2,0.9580557346343994,-0.010981087572872639,0.004178356379270554,-0.28634095191955566
1683153186.65373802,24829168,2,0.9579675197601318,-0.011052081361413002,0.004271078854799271,-0.28663188219070435
1683153186.75374389,24929174,2,0.957798957824707,-0.011013991199433804,0.004168740473687649,-0.28719767928123474
1683153186.85375404,25029184,2,0.9577028155326843,-0.011057139374315739,0.004271155223250389,-0.28751489520072937
1683153186.95378590,25129216,2,0.9576460719108582,-0.01098298653960228,0.0041932654567062855,-0.2877078950405121
1683153187.05377889,25229209,2,0.9574705958366394,-0.011151018552482128,0.0042675272561609745,-0.28828373551368713
1683153187.15380883,25329239,2,0.9573848247528076,-0.011060654185712337,0.004207952879369259,-0.2885726988315582
1683153187.25378299,25429213,2,0.9573418498039246,-0.01116417907178402,0.004277430009096861,-0.2887103855609894
1683153187.35379696,25529227,2,0.9571919441223145,-0.011141220107674599,0.00424147117882967,-0.2892083525657654
1683153187.45373487,25629165,2,0.9571061134338379,-0.011176261119544506,0.004151358734816313,-0.28949230909347534
1683153187.55373597,25729166,2,0.9570609927177429,-0.011267648078501225,0.004141195211559534,-0.28963786363601685
1683153187.65373802,25829168,2,0.9568910598754883,-0.011211534962058067,0.004135315306484699,-0.2902010679244995
1683153187.75378394,25929214,2,0.9568071961402893,-0.01124682929366827,0.004147589206695557,-0.290475994348526
1683153187.85377192,26029202,2,0.9567646384239197,-0.011199315078556538,0.004139833617955446,-0.29061809182167053
1683153187.95377898,26129209,2,0.9566551446914673,-0.011333895847201347,0.004117008298635483,-0.290973424911499
1683153188.05381298,26229243,2,0.9566366076469421,-0.011258796788752079,0.004161355551332235,-0.2910366952419281
1683153188.15378499,26329215,2,0.9566283822059631,-0.011342850513756275,0.0041931564919650555,-0.2910600006580353
1683153188.25380087,26429231,2,0.9565528035163879,-0.011235008016228676,0.004229482728987932,-0.2913118004798889
1683153188.35373783,26529168,2,0.956549882888794,-0.011295377276837826,0.004229007288813591,-0.2913191318511963
1683153188.45373797,26629168,2,0.9565479755401611,-0.011245014145970345,0.00420285714790225,-0.29132774472236633
1683153188.55373597,26729166,2,0.956462025642395,-0.011333554983139038,0.004290306940674782,-0.2916050851345062
1683153188.65377903,26829209,2,0.9564637541770935,-0.011251349933445454,0.004253305960446596,-0.2916032373905182
1683153188.75378799,26929218,2,0.956437885761261,-0.011263146996498108,0.004311562981456518,-0.2916867136955261
1683153188.85377502,27029205,2,0.9563248753547668,-0.01125095970928669,0.004369758069515228,-0.2920566499233246
1683153188.95380592,27129236,2,0.9562821388244629,-0.011252247728407383,0.004383979830890894,-0.29219627380371094
1683153189.05379295,27229223,2,0.9562290906906128,-0.011259278282523155,0.0044371699914336205,-0.29236865043640137
1683153189.15380597,27329236,2,0.9561479687690735,-0.011261964216828346,0.004431967157870531,-0.292633980512619
1683153189.25373483,27429165,2,0.9561518430709839,-0.011312302201986313,0.00456275325268507,-0.29261717200279236
1683153189.35374188,27529172,2,0.9561452865600586,-0.011286303400993347,0.004500393755733967,-0.292640745639801
1683153189.45373583,27629166,2,0.9561111330986023,-0.011344037018716335,0.004553825594484806,-0.2927491068840027
1683153189.55378485,27729215,2,0.9561306238174438,-0.011362968944013119,0.00453344127163291,-0.29268503189086914
1683153189.65377903,27829209,2,0.9561208486557007,-0.011389688588678837,0.0045309849083423615,-0.2927160859107971
1683153189.75377893,27929209,2,0.9560359120368958,-0.011410992592573166,0.0045967441983520985,-0.29299136996269226
1683153189.85380793,28029238,2,0.9560301303863525,-0.011441334150731564,0.004643082153052092,-0.29300835728645325
1683153189.95378494,28129215,2,0.9560105800628662,-0.011493241414427757,0.004707119427621365,-0.29306918382644653
1683153190.05380392,28229234,2,0.9559476375579834,-0.011391603387892246,0.004663783125579357,-0.2932789623737335
1683153190.15373802,28329168,2,0.955945611000061,-0.011457460932433605,0.004678213503211737,-0.2932829260826111
1683153190.25373483,28429165,2,0.9559363126754761,-0.011397399008274078,0.0046333614736795425,-0.2933162450790405
1683153190.35374284,28529173,2,0.9558457732200623,-0.011472581885755062,0.004705472383648157,-0.29360708594322205
1683153190.45379996,28629230,2,0.955817461013794,-0.011484379880130291,0.0047330111265182495,-0.2936983108520508
1683153190.55377793,28729208,2,0.9557502269744873,-0.01148986630141735,0.004680313169956207,-0.2939176559448242
1683153190.65377784,28829208,2,0.9557003974914551,-0.011499390006065369,0.0046992916613817215,-0.2940789461135864
1683153190.75381494,28929245,2,0.9557070732116699,-0.011536958627402782,0.004694824572652578,-0.29405590891838074
1683153190.85378885,29029219,2,0.9557039737701416,-0.011404040269553661,0.0047560567036271095,-0.2940700352191925
1683153190.95380282,29129233,2,0.9556296467781067,-0.01144199725240469,0.004746266175061464,-0.29431018233299255
1683153191.05374789,29229178,2,0.9556245803833008,-0.01145686861127615,0.0048202634789049625,-0.29432499408721924
1683153191.15374494,29329175,2,0.955599844455719,-0.011398524977266788,0.004811082035303116,-0.29440754652023315
1683153191.25375104,29429181,2,0.9555338025093079,-0.011450801976025105,0.004817265085875988,-0.2946197986602783
1683153191.35378098,29529211,2,0.9555363059043884,-0.011400960385799408,0.004836720414459705,-0.29461339116096497
1683153191.45377994,29629210,2,0.9554982781410217,-0.011452176608145237,0.004856703337281942,-0.29473429918289185
1683153191.55377698,29729207,2,0.9554104804992676,-0.011320429854094982,0.0048552826046943665,-0.2950238883495331
1683153191.65380788,29829238,2,0.9553824663162231,-0.011403492651879787,0.0049363840371370316,-0.29510995745658875
1683153191.75379395,29929224,2,0.9553261995315552,-0.011348331347107887,0.00490348506718874,-0.29529479146003723
1683153191.85378289,30029213,2,0.9552628993988037,-0.011399617418646812,0.004939701408147812,-0.29549697041511536
1683153191.95373201,30129162,2,0.955223798751831,-0.011340784840285778,0.004928187467157841,-0.2956256866455078
1683153192.05373597,30229166,2,0.9551916122436523,-0.011358645744621754,0.004969495348632336,-0.2957283854484558
1683153192.15373683,30329167,2,0.9551466107368469,-0.011362023651599884,0.0049890195950865746,-0.2958732843399048
1683153192.25375986,30429190,2,0.9551231861114502,-0.01135779358446598,0.004970235284417868,-0.29594939947128296
1683153192.35377097,30529201,2,0.955103874206543,-0.011355536058545113,0.005032513756304979,-0.2960106134414673
1683153192.45377684,30629207,2,0.9550517201423645,-0.011333625763654709,0.00494374567642808,-0.2961811423301697
1683153192.55379987,30729230,2,0.955029308795929,-0.011384904384613037,0.004952723626047373,-0.2962513566017151
1683153192.65377498,30829205,2,0.9549996852874756,-0.011298750527203083,0.004967369604855776,-0.2963498830795288
1683153192.75379395,30929224,2,0.9549712538719177,-0.011392349377274513,0.0050074877217411995,-0.29643714427948
1683153192.85372806,31029158,2,0.9549898505210876,-0.01136851403862238,0.005065266042947769,-0.2963772118091583
1683153192.95372391,31129154,2,0.9549590945243835,-0.011421211063861847,0.005087422672659159,-0.2964739203453064
1683153193.05373883,31229169,2,0.9549524188041687,-0.011373840272426605,0.005125559866428375,-0.29649654030799866
1683153193.15378284,31329213,2,0.9549920558929443,-0.011367731727659702,0.005141830537468195,-0.2963687777519226
1683153193.25375891,31429189,2,0.9550173282623291,-0.011434586718678474,0.0050661624409258366,-0.2962861657142639
1683153193.35377693,31529207,2,0.9550265073776245,-0.011411888524889946,0.005137899424880743,-0.2962561249732971
1683153193.45379400,31629224,2,0.955047070980072,-0.011438703164458275,0.005201091058552265,-0.29618772864341736
1683153193.55376983,31729200,2,0.9550679922103882,-0.011364931240677834,0.0051698824390769005,-0.2961236834526062
1683153193.65379691,31829227,2,0.9550778865814209,-0.011412491090595722,0.0052077919244766235,-0.29608938097953796
1683153193.75372195,31929152,2,0.9551073312759399,-0.011309485882520676,0.005147441755980253,-0.2959992289543152
1683153193.85372996,32029160,2,0.9551095366477966,-0.011431165970861912,0.005227210465818644,-0.2959861755371094
1683153193.95372391,32129154,2,0.9550918936729431,-0.011333649046719074,0.005261228419840336,-0.2960461378097534
1683153194.05376792,32229198,2,0.95509934425354,-0.011372260749340057,0.005254858173429966,-0.29602086544036865
1683153194.15377092,32329201,2,0.955091655254364,-0.011338689364492893,0.0052133831195533276,-0.29604753851890564
1683153194.25377703,32429207,2,0.9550871253013611,-0.011322284117341042,0.005284782964736223,-0.2960614860057831
1683153194.35379696,32529227,2,0.9550858736038208,-0.011333434842526913,0.005304017104208469,-0.2960647940635681
1683153194.45378304,32629213,2,0.955059826374054,-0.011254255659878254,0.005340798292309046,-0.2961512506008148
1683153194.55378294,32729213,2,0.9550167918205261,-0.01133350282907486,0.005343282129615545,-0.29628682136535645
1683153194.65372801,32829158,2,0.9549989700317383,-0.011247877962887287,0.005351221188902855,-0.29634740948677063
1683153194.75373006,32929160,2,0.9549768567085266,-0.011286535300314426,0.005352398846298456,-0.2964171767234802
1683153194.85372305,33029153,2,0.9549647569656372,-0.011235862039029598,0.005317218601703644,-0.2964586913585663
1683153194.95377302,33129203,2,0.9549605250358582,-0.01127349492162466,0.005345858633518219,-0.29647037386894226
1683153195.05373001,33229160,2,0.9549617171287537,-0.011224913410842419,0.005398119334131479,-0.2964674234390259
1683153195.15377784,33329208,2,0.9549782276153564,-0.011253726668655872,0.005444299429655075,-0.2964123487472534
1683153195.25381303,33429243,2,0.9549914598464966,-0.011254985816776752,0.005447758827358484,-0.29636961221694946
1683153195.35377288,33529203,2,0.9549864530563354,-0.011251226998865604,0.005512211937457323,-0.29638463258743286
1683153195.45379305,33629223,2,0.9549562335014343,-0.011275616474449635,0.00554644875228405,-0.2964804768562317
1683153195.55373001,33729160,2,0.9549465775489807,-0.011187884956598282,0.005585436709225178,-0.2965141534805298
1683153195.65373397,33829164,2,0.9549376368522644,-0.0112357959151268,0.005595420952886343,-0.2965410053730011
1683153195.75377297,33929203,2,0.9549302458763123,-0.011192845180630684,0.00557582126930356,-0.29656678438186646
1683153195.85373998,34029170,2,0.9549620747566223,-0.011259184218943119,0.005573789589107037,-0.2964617609977722
1683153195.95376587,34129196,2,0.9549863338470459,-0.011258452199399471,0.005594118498265743,-0.2963833808898926
1683153196.05377889,34229209,2,0.9550161361694336,-0.011239863932132721,0.005604303441941738,-0.29628777503967285
1683153196.15380502,34329235,2,0.955041766166687,-0.011248153634369373,0.005596695002168417,-0.2962050139904022
1683153196.25377488,34429205,2,0.9550650715827942,-0.011224532499909401,0.0056144376285374165,-0.29613032937049866
1683153196.35379291,34529223,2,0.9550891518592834,-0.0113312266767025,0.005661982577294111,-0.29604777693748474
1683153196.45372605,34629156,2,0.9551215767860413,-0.011293035000562668,0.005628264509141445,-0.2959451973438263
1683153196.55372906,34729159,2,0.9551272988319397,-0.011335985735058784,0.005652611143887043,-0.2959245443344116
1683153196.65372801,34829158,2,0.9551599025726318,-0.011368166655302048,0.005679856985807419,-0.29581764340400696
1683153196.75377202,34929202,2,0.9551757574081421,-0.011386293917894363,0.005699786823242903,-0.29576537013053894
1683153196.85376596,35029196,2,0.9551661610603333,-0.011388290673494339,0.005784947890788317,-0.29579466581344604
1683153196.95377898,35129209,2,0.9551593065261841,-0.011426092125475407,0.00579505180940032,-0.29581505060195923
1683153197.05380583,35229236,2,0.9551606774330139,-0.01139275636523962,0.005826500244438648,-0.29581141471862793
1683153197.15376997,35329200,2,0.9551374912261963,-0.011433481238782406,0.005814675707370043,-0.29588478803634644
1683153197.25378203,35429212,2,0.9551476836204529,-0.011469964869320393,0.005860867444425821,-0.29584962129592896
1683153197.35377002,35529200,2,0.9551584124565125,-0.011471401900053024,0.005862838588654995,-0.2958148419857025
1683153197.45372391,35629154,2,0.9551485180854797,-0.01142815500497818,0.0059279464185237885,-0.2958472669124603
1683153197.55372691,35729157,2,0.9551682472229004,-0.01139429397881031,0.0059700580313801765,-0.29578402638435364
1683153197.65375900,35829189,2,0.9551727771759033,-0.011427132412791252,0.006014530546963215,-0.2957670986652374
1683153197.75376987,35929200,2,0.9551869034767151,-0.011430907994508743,0.005998344626277685,-0.29572173953056335
1683153197.85377288,36029203,2,0.9552278518676758,-0.011444050818681717,0.006050535477697849,-0.2955879271030426
1683153197.95379186,36129222,2,0.9552550315856934,-0.01142835058271885,0.0060523878782987595,-0.2955005466938019
1683153198.05377984,36229210,2,0.9552850723266602,-0.011426669545471668,0.00615222891792655,-0.2954014539718628
1683153198.15378690,36329217,2,0.9553197026252747,-0.011358469724655151,0.006188881583511829,-0.2952912151813507
1683153198.25372291,36429153,2,0.955369770526886,-0.01139802671968937,0.006210742052644491,-0.2951272130012512
1683153198.35372591,36529156,2,0.9554067254066467,-0.011375004425644875,0.006223203614354134,-0.29500821232795715
1683153198.45372701,36629157,2,0.9554677605628967,-0.011359483003616333,0.006208077538758516,-0.2948114573955536
1683153198.55374694,36729177,2,0.9555245637893677,-0.011393493041396141,0.0062537770718336105,-0.294624924659729
1683153198.65376997,36829200,2,0.9555559754371643,-0.011368543840944767,0.006291473750025034,-0.2945231795310974
1683153198.75377584,36929206,2,0.9555813074111938,-0.011416364461183548,0.006315663922578096,-0.29443860054016113
1683153198.85378885,37029219,2,0.9555901885032654,-0.01138806901872158,0.006312081124633551,-0.2944110333919525
1683153198.95377183,37129202,2,0.9555854201316833,-0.01139810774475336,0.006285313982516527,-0.2944266200065613
1683153199.05379391,37229224,2,0.9555887579917908,-0.011395100504159927,0.006324136629700661,-0.2944152355194092
1683153199.15372300,37329153,2,0.9556169509887695,-0.011366740800440311,0.006356524303555489,-0.2943241000175476
1683153199.25372291,37429153,2,0.9556377530097961,-0.011423971503973007,0.006326199974864721,-0.29425498843193054
1683153199.35372686,37529157,2,0.9556719660758972,-0.01142129860818386,0.0063249096274375916,-0.294143944978714
1683153199.45374084,37629171,2,0.955696165561676,-0.011400211602449417,0.0063162376172840595,-0.29406625032424927
1683153199.55376792,37729198,2,0.9557247757911682,-0.011337277479469776,0.006333882454782724,-0.2939753532409668
1683153199.65376496,37829195,2,0.9557299017906189,-0.011349215172231197,0.006301969289779663,-0.2939589321613312
1683153199.75379586,37929226,2,0.9557114243507385,-0.011362661607563496,0.0062854355201125145,-0.29401883482933044
1683153199.85377288,38029203,2,0.9557049870491028,-0.011356829665601254,0.006175220012664795,-0.29404231905937195
1683153199.95378089,38129211,2,0.9556936025619507,-0.01135861873626709,0.006161265540868044,-0.2940795421600342
1683153200.05373287,38229163,2,0.9557072520256042,-0.011337483301758766,0.006172546185553074,-0.2940356433391571
1683153200.15372705,38329157,2,0.9556937217712402,-0.011370573192834854,0.006085243541747332,-0.2940801978111267
1683153200.25372791,38429158,2,0.9556869268417358,-0.01138790138065815,0.006053220946341753,-0.2941022217273712
1683153200.35376096,38529191,2,0.9556734561920166,-0.011368408799171448,0.006062658503651619,-0.29414668679237366
1683153200.45376897,38629199,2,0.955687403678894,-0.011352402158081532,0.006008080672472715,-0.2941029965877533
1683153200.55376506,38729195,2,0.9556950926780701,-0.011325807310640812,0.006027825642377138,-0.29407867789268494
1683153200.65380001,38829230,2,0.955702006816864,-0.011318634264171124,0.006010479759424925,-0.29405680298805237
1683153200.75377798,38929208,2,0.9557122588157654,-0.011316921561956406,0.006038394290953875,-0.2940230071544647
1683153200.85379100,39029221,2,0.955720841884613,-0.011326360516250134,0.005963403265923262,-0.29399633407592773
1683153200.95372486,39129155,2,0.9557389616966248,-0.011312357150018215,0.005949423182755709,-0.29393821954727173
1683153201.05372906,39229159,2,0.9557510018348694,-0.011349549517035484,0.005880038719624281,-0.29389894008636475
1683153201.15372396,39329154,2,0.9557620286941528,-0.011374691501259804,0.005947476718574762,-0.29386088252067566
1683153201.25378585,39429216,2,0.955781877040863,-0.011386721394956112,0.005947037134319544,-0.29379573464393616
1683153201.35376883,39529199,2,0.9557918906211853,-0.011377599090337753,0.005898899864405394,-0.29376447200775146
1683153201.45377684,39629207,2,0.9558101296424866,-0.011369951069355011,0.00584105821326375,-0.2937065660953522
1683153201.55379796,39729228,2,0.9558042883872986,-0.011358177289366722,0.005808871239423752,-0.29372677206993103
1683153201.65377402,39829204,2,0.9557964205741882,-0.01134749036282301,0.005750501994043589,-0.2937539219856262
1683153201.75379300,39929223,2,0.9557777047157288,-0.011344091966748238,0.005734050180763006,-0.2938152551651001
1683153201.85372686,40029157,2,0.9557775855064392,-0.011279656551778316,0.005666835233569145,-0.29381945729255676
1683153201.95372295,40129153,2,0.9557762742042542,-0.01124329399317503,0.0056776185519993305,-0.2938248813152313
1683153202.05372596,40229156,2,0.9558045268058777,-0.011210625059902668,0.0056744650937616825,-0.29373422265052795
1683153202.15375185,40329182,2,0.9558315277099609,-0.011245988309383392,0.005630468018352985,-0.2936459481716156
1683153202.25376892,40429199,2,0.9558872580528259,-0.011259914375841618,0.005579329561442137,-0.2934648096561432
1683153202.35376787,40529198,2,0.9559367299079895,-0.011221243068575859,0.005553027149289846,-0.29330575466156006
1683153202.45380187,40629232,2,0.9559860229492188,-0.011214404366910458,0.0055315690115094185,-0.29314571619033813
1683153202.55377197,40729202,2,0.9560298323631287,-0.011212628334760666,0.0055744843557477,-0.2930019497871399
1683153202.65379095,40829221,2,0.9560681581497192,-0.011171609163284302,0.005548177752643824,-0.29287901520729065
1683153202.75372791,40929158,2,0.9560986757278442,-0.01120218075811863,0.005537898279726505,-0.2927784025669098
1683153202.85372305,41029153,2,0.9561200141906738,-0.011199002154171467,0.005499552004039288,-0.2927095293998718
1683153202.95372295,41129153,2,0.9561524987220764,-0.011241791769862175,0.005472604651004076,-0.2926022708415985
1683153203.05376196,41229192,2,0.9561662673950195,-0.011284801177680492,0.005499024409800768,-0.29255518317222595
1683153203.15376687,41329197,2,0.9561712741851807,-0.011294255964457989,0.005473358556628227,-0.2925388813018799
1683153203.25376582,41429196,2,0.956192135810852,-0.01129012368619442,0.005490214563906193,-0.2924705743789673
1683153203.35379601,41529226,2,0.9562104344367981,-0.011304076761007309,0.005500679835677147,-0.2924100160598755
1683153203.45377588,41629206,2,0.9562270641326904,-0.011285407468676567,0.005485571455210447,-0.29235661029815674
1683153203.55379200,41729222,2,0.9562340378761292,-0.011273840442299843,0.005465236026793718,-0.29233449697494507
1683153203.65372705,41829157,2,0.9562695622444153,-0.011304540559649467,0.005455929320305586,-0.29221731424331665
1683153203.75372696,41929157,2,0.9562897086143494,-0.011279427446424961,0.005439934320747852,-0.2921527028083801
1683153203.85372305,42029153,2,0.9562931656837463,-0.011280165053904057,0.00532950134947896,-0.2921433448791504
1683153203.95375705,42129187,2,0.9562976956367493,-0.011307110078632832,0.005306849721819162,-0.29212796688079834
1683153204.05376983,42229200,2,0.9563118815422058,-0.011346083134412766,0.0053043547086417675,-0.29208001494407654
1683153204.15376687,42329197,2,0.956316351890564,-0.011393981985747814,0.005322402808815241,-0.29206305742263794
1683153204.25379300,42429223,2,0.956335723400116,-0.011414116248488426,0.0052338093519210815,-0.2920004725456238
1683153204.35377192,42529202,2,0.9563614726066589,-0.011399895884096622,0.00520744314417243,-0.2919172942638397
1683153204.45379806,42629228,2,0.956392765045166,-0.011383422650396824,0.005179676692932844,-0.29181572794914246
1683153204.55373001,42729160,2,0.9564205408096313,-0.011436650529503822,0.005189070012420416,-0.2917225956916809
1683153204.65372705,42829157,2,0.9564580917358398,-0.01143029984086752,0.005173053126782179,-0.2915998697280884
1683153204.75373006,42929160,2,0.9564661979675293,-0.01144325826317072,0.005148010328412056,-0.29157328605651855
1683153204.85376287,43029193,2,0.9564893245697021,-0.01142546720802784,0.005082526709884405,-0.2914992570877075
1683153204.95376396,43129194,2,0.9565079808235168,-0.011446302756667137,0.005065985023975372,-0.2914375066757202
1683153205.05376983,43229200,2,0.9565266966819763,-0.011477257125079632,0.004967269487679005,-0.291376531124115
1683153205.15380502,43329235,2,0.9565191864967346,-0.01145030464977026,0.004971952643245459,-0.291402131319046
1683153205.25377202,43429202,2,0.9565385580062866,-0.011480827815830708,0.0049636890180408955,-0.2913375198841095
1683153205.35378289,43529213,2,0.9565548896789551,-0.011498584412038326,0.004952283576130867,-0.29128339886665344
1683153205.45372605,43629156,2,0.9565717577934265,-0.0114812096580863,0.004947410896420479,-0.2912288308143616
1683153205.55372500,43729155,2,0.9565914273262024,-0.011468460783362389,0.004991960246115923,-0.2911638617515564
1683153205.65373087,43829161,2,0.9566224813461304,-0.011491568759083748,0.004992176778614521,-0.2910609245300293
1683153205.75374985,43929180,2,0.9566543698310852,-0.011471224017441273,0.004971749149262905,-0.29095715284347534
1683153205.85377002,44029200,2,0.9566695690155029,-0.011481660418212414,0.004939024802297354,-0.2909074127674103
1683153205.95376492,44129195,2,0.9567039608955383,-0.01141978707164526,0.004883203189820051,-0.2907976508140564
1683153206.05380297,44229233,2,0.95672208070755,-0.011421430855989456,0.004871041513979435,-0.29073816537857056
1683153206.15377784,44329208,2,0.9567413330078125,-0.011458073742687702,0.004888678900897503,-0.2906731367111206
1683153206.25378084,44429211,2,0.9567345380783081,-0.01149224117398262,0.00494372146204114,-0.2906931936740875
1683153206.35372686,44529157,2,0.9567586779594421,-0.011474009603261948,0.004962333478033543,-0.2906140387058258
1683153206.45373583,44629166,2,0.9567735195159912,-0.011475167237222195,0.005009039305150509,-0.29056429862976074
1683153206.55372691,44729157,2,0.9567749500274658,-0.011499941349029541,0.005053263623267412,-0.2905578315258026
1683153206.65374088,44829171,2,0.956802487373352,-0.01148064061999321,0.0050418199971318245,-0.2904682755470276
1683153206.75377202,44929202,2,0.9568120241165161,-0.011494380421936512,0.005025828722864389,-0.2904365360736847
1683153206.85376501,45029195,2,0.9568353891372681,-0.01149878092110157,0.005031823646277189,-0.29035916924476624
1683153206.95379305,45129223,2,0.9568756222724915,-0.011529512703418732,0.005099477246403694,-0.2902243137359619
1683153207.05378604,45229216,2,0.9569023251533508,-0.011600436642765999,0.0050587523728609085,-0.29013416171073914
1683153207.15379286,45329223,2,0.9569293856620789,-0.011616790667176247,0.005061710253357887,-0.29004400968551636
1683153207.25372601,45429156,2,0.9569476246833801,-0.011609407141804695,0.0050892094150185585,-0.2899837791919708
1683153207.35372901,45529159,2,0.9569540619850159,-0.011595340445637703,0.005107724107801914,-0.28996264934539795
1683153207.45372486,45629155,2,0.9569591879844666,-0.011659343726933002,0.005137816537171602,-0.28994280099868774
1683153207.55375791,45729188,2,0.9569432139396667,-0.01167808473110199,0.0051814233884215355,-0.2899938225746155
1683153207.65376782,45829198,2,0.9569292664527893,-0.011645868420600891,0.005155438557267189,-0.2900417447090149
1683153207.75376701,45929197,2,0.9569425582885742,-0.011684971861541271,0.005187783855944872,-0.2899957597255707
1683153207.85379696,46029227,2,0.9569533467292786,-0.011708900332450867,0.005154328886419535,-0.28995972871780396
1683153207.95377493,46129205,2,0.9569679498672485,-0.01170849148184061,0.005141329485923052,-0.28991177678108215
1683153208.05378294,46229213,2,0.9570104479789734,-0.01173159945756197,0.005125526338815689,-0.28977087140083313
1683153208.15373302,46329163,2,0.9570363759994507,-0.011766617186367512,0.005096906796097755,-0.2896842956542969
1683153208.25372386,46429154,2,0.9570757746696472,-0.0117476312443614,0.00512623880058527,-0.2895541787147522
1683153208.35372686,46529157,2,0.9570932984352112,-0.011751930229365826,0.005127647425979376,-0.28949615359306335
1683153208.45374990,46629180,2,0.9571003317832947,-0.011731238104403019,0.005125191994011402,-0.28947383165359497
1683153208.55376697,46729197,2,0.9571130871772766,-0.011731408536434174,0.005126005969941616,-0.2894315719604492
1683153208.65377092,46829201,2,0.9571122527122498,-0.011727853678166866,0.005095438566058874,-0.2894349992275238
1683153208.75380588,46929236,2,0.9570964574813843,-0.011680610477924347,0.0050978590734303,-0.28948915004730225
1683153208.85377097,47029201,2,0.9570958018302917,-0.011683826334774494,0.0050610946491360664,-0.28949183225631714
1683153208.95378399,47129214,2,0.9570939540863037,-0.011708852834999561,0.005011166911572218,-0.2894977629184723
1683153209.05373096,47229161,2,0.957083523273468,-0.011740519665181637,0.005007658153772354,-0.28953105211257935
1683153209.15372491,47329155,2,0.9570803046226501,-0.011738244444131851,0.00502930860966444,-0.2895413041114807
1683153209.25372291,47429153,2,0.9570755362510681,-0.011746452189981937,0.004954066593199968,-0.289558082818985
1683153209.35375595,47529186,2,0.9570711255073547,-0.011778644286096096,0.004924335051327944,-0.2895719110965729
1683153209.45376897,47629199,2,0.9570890665054321,-0.011774853803217411,0.004914090968668461,-0.28951284289360046
1683153209.55376506,47729195,2,0.9571078419685364,-0.011742453090846539,0.004946544300764799,-0.28945162892341614
1683153209.65379596,47829226,2,0.9571253061294556,-0.011715776287019253,0.00492194015532732,-0.2893953323364258
1683153209.75377393,47929204,2,0.9571288228034973,-0.011764931492507458,0.0049130721017718315,-0.2893819212913513
1683153209.85379291,48029223,2,0.9571164846420288,-0.011774498969316483,0.004886631853878498,-0.28942278027534485
1683153209.95372987,48129160,2,0.9571006894111633,-0.011756078340113163,0.004864137154072523,-0.28947606682777405
1683153210.05372906,48229159,2,0.957100510597229,-0.011726480908691883,0.004905581474304199,-0.2894771993160248
1683153210.15372801,48329158,2,0.9571074843406677,-0.011705967597663403,0.0049394709058105946,-0.2894544303417206
1683153210.25375390,48429184,2,0.9571179151535034,-0.011723879724740982,0.004941064864397049,-0.2894190847873688
1683153210.35376287,48529193,2,0.9571332931518555,-0.011713080108165741,0.004904321860522032,-0.2893693149089813
1683153210.45377994,48629210,2,0.9571498036384583,-0.011747588403522968,0.004887259565293789,-0.28931355476379395
1683153210.55378795,48729218,2,0.957179605960846,-0.011766641400754452,0.0048293122090399265,-0.28921517729759216
1683153210.65377283,48829203,2,0.9572229981422424,-0.011761972680687904,0.004844506736844778,-0.28907138109207153
1683153210.75379491,48929225,2,0.9572352170944214,-0.011778375133872032,0.004875288810580969,-0.2890298664569855
1683153210.85372305,49029153,2,0.9572668671607971,-0.01179561484605074,0.004881924018263817,-0.28892427682876587
1683153210.95372391,49129154,2,0.9572931528091431,-0.011785336770117283,0.004829869605600834,-0.28883835673332214
1683153211.05373096,49229161,2,0.9573138356208801,-0.011812110431492329,0.004836610518395901,-0.28876861929893494
1683153211.15375304,49329183,2,0.9573220014572144,-0.011836234480142593,0.0047398703172802925,-0.28874221444129944
1683153211.25376201,49429192,2,0.957322895526886,-0.011872624978423119,0.004729870241135359,-0.28873777389526367
1683153211.35376692,49529197,2,0.9573294520378113,-0.01185219269245863,0.004656523000448942,-0.2887181341648102
1683153211.45379806,49629228,2,0.957332193851471,-0.011836684308946133,0.004598569590598345,-0.28871065378189087
1683153211.55377603,49729206,2,0.9573402404785156,-0.01182838249951601,0.004621119238436222,-0.28868401050567627
1683153211.65379095,49829221,2,0.9573357701301575,-0.0118313143029809,0.0046420469880104065,-0.2886982560157776
1683153211.75372791,49929158,2,0.9573585391044617,-0.011836400255560875,0.004687852691859007,-0.2886218726634979
1683153211.85372400,50029154,2,0.95737624168396,-0.011831487528979778,0.004664777312427759,-0.2885637581348419
1683153211.95372295,50129153,2,0.957389235496521,-0.011866371147334576,0.004669835325330496,-0.2885190546512604
1683153212.05374289,50229173,2,0.957399845123291,-0.011885261163115501,0.004693172872066498,-0.28848275542259216
1683153212.15377283,50329203,2,0.9574066996574402,-0.011880295351147652,0.00471208430826664,-0.28845980763435364
1683153212.25377202,50429202,2,0.9574089050292969,-0.011907943524420261,0.0047094253823161125,-0.2884514331817627
1683153212.35379601,50529226,2,0.9574163556098938,-0.011942367069423199,0.004714961629360914,-0.28842511773109436
1683153212.45377898,50629209,2,0.9574249386787415,-0.01192606333643198,0.004658858757466078,-0.28839826583862305
1683153212.55379486,50729225,2,0.9574382305145264,-0.011951101943850517,0.004680195823311806,-0.28835275769233704
1683153212.65372705,50829157,2,0.9574439525604248,-0.011954967863857746,0.00469675287604332,-0.28833338618278503
1683153212.75373602,50929166,2,0.9574562311172485,-0.011926899664103985,0.004681358113884926,-0.28829389810562134
1683153212.85372305,51029153,2,0.9574525356292725,-0.011898089200258255,0.004700769204646349,-0.2883070707321167
1683153212.95374489,51129175,2,0.9574610590934753,-0.011888178065419197,0.004663869272917509,-0.28827980160713196
1683153213.05377388,51229204,2,0.9574733972549438,-0.011904611252248287,0.004648566246032715,-0.2882383465766907
1683153213.15376997,51329200,2,0.9575004577636719,-0.011935928836464882,0.0046552931889891624,-0.2881470322608948
1683153213.25379395,51429224,2,0.9575182795524597,-0.01189557183533907,0.004694678820669651,-0.28808894753456116
1683153213.35377288,51529203,2,0.9575497508049011,-0.011876196600496769,0.004719644319266081,-0.287984699010849
1683153213.45379305,51629223,2,0.9575677514076233,-0.011861885897815228,0.004760634619742632,-0.28792479634284973
1683153213.55372787,51729158,2,0.9575837254524231,-0.011841701343655586,0.004728754051029682,-0.28787288069725037
1683153213.65372705,51829157,2,0.9575990438461304,-0.011867091991007328,0.004759826231747866,-0.28782033920288086
1683153213.75372887,51929159,2,0.9576133489608765,-0.011867385357618332,0.004813227336853743,-0.28777191042900085
1683153213.85376883,52029199,2,0.9576330780982971,-0.01189087051898241,0.004821901675313711,-0.2877052128314972
1683153213.95376492,52129195,2,0.9576466679573059,-0.011868623085319996,0.004857970867305994,-0.287660151720047
1683153214.05377388,52229204,2,0.9576593637466431,-0.011892572045326233,0.004888130817562342,-0.2876163721084595
1683153214.15380788,52329238,2,0.9576615691184998,-0.011879612691700459,0.004875958897173405,-0.2876098155975342
1683153214.25377488,52429205,2,0.9576534628868103,-0.01185267511755228,0.004899884108453989,-0.28763753175735474
1683153214.35378385,52529214,2,0.957653820514679,-0.011866811662912369,0.004926868248730898,-0.2876352369785309
1683153214.45372796,52629158,2,0.9576520919799805,-0.01192792784422636,0.004907702095806599,-0.28763890266418457
1683153214.55373001,52729160,2,0.9576628804206848,-0.011903918348252773,0.004872539080679417,-0.28760451078414917
1683153214.65372705,52829157,2,0.9576689004898071,-0.011851992458105087,0.004858540836721659,-0.2875867784023285
1683153214.75379205,52929222,2,0.9576631188392639,-0.011859364807605743,0.004848805721849203,-0.28760597109794617
1683153214.85376406,53029194,2,0.9576758742332458,-0.011861352249979973,0.004777062218636274,-0.2875646650791168
1683153214.95376205,53129192,2,0.9576869010925293,-0.011879870668053627,0.004762166179716587,-0.2875274121761322
1683153215.05380297,53229233,2,0.95771324634552,-0.01191113144159317,0.004715844988822937,-0.28743916749954224
1683153215.15379405,53329224,2,0.9577542543411255,-0.01191955991089344,0.00472167506814003,-0.2873019576072693
1683153215.25379801,53429228,2,0.9577804207801819,-0.011910698376595974,0.004760465584695339,-0.2872145175933838
1683153215.35372686,53529157,2,0.9577924013137817,-0.011902090162038803,0.004785980563610792,-0.2871744632720947
1683153215.45373297,53629163,2,0.9577992558479309,-0.011889082379639149,0.004864078480750322,-0.28715071082115173
1683153215.55372906,53729159,2,0.9578237533569336,-0.011891373433172703,0.004880326334387064,-0.28706860542297363
1683153215.65376496,53829195,2,0.9578348994255066,-0.011931139975786209,0.004895939026027918,-0.2870296835899353
1683153215.75376987,53929200,2,0.9578586220741272,-0.011930800043046474,0.004828213714063168,-0.2869516611099243
1683153215.85376596,54029196,2,0.9578635096549988,-0.011932332068681717,0.004812936764210463,-0.2869354784488678
1683153215.95380187,54129232,2,0.9578705430030823,-0.01195859257131815,0.004826616495847702,-0.28691068291664124
1683153216.05377603,54229206,2,0.9578642845153809,-0.011941812001168728,0.0048033627681434155,-0.2869325876235962
1683153216.15378594,54329216,2,0.957859992980957,-0.011945798993110657,0.004787578713148832,-0.2869470715522766
1683153216.25372291,54429153,2,0.9578707814216614,-0.01195640116930008,0.004785714205354452,-0.2869105637073517
1683153216.35372591,54529156,2,0.9578699469566345,-0.011955934576690197,0.004836082458496094,-0.28691262006759644
1683153216.45373893,54629169,2,0.957878589630127,-0.0119796646758914,0.00485193682834506,-0.2868824303150177
1683153216.55375791,54729188,2,0.9578877687454224,-0.011946309357881546,0.004859202541410923,-0.2868531048297882
1683153216.65376687,54829197,2,0.957891047000885,-0.01195062231272459,0.004929885733872652,-0.2868407368659973
1683153216.75377083,54929201,2,0.9578942656517029,-0.011952546425163746,0.004891244228929281,-0.2868305742740631
1683153216.85379696,55029227,2,0.957918643951416,-0.01191407535225153,0.004857265390455723,-0.286751389503479
1683153216.95377088,55129201,2,0.9579405188560486,-0.011951982975006104,0.004882762208580971,-0.28667622804641724
1683153217.05378795,55229218,2,0.9579431414604187,-0.011969110928475857,0.00487890699878335,-0.28666675090789795
1683153217.15372300,55329153,2,0.957953929901123,-0.011960215866565704,0.004937996156513691,-0.28663018345832825
1683153217.25372386,55429154,2,0.9579637050628662,-0.011965748853981495,0.004883789457380772,-0.2865980863571167
1683153217.35372591,55529156,2,0.9579847455024719,-0.01193151157349348,0.004902554675936699,-0.28652891516685486
1683153217.45376205,55629192,2,0.9579980969429016,-0.01195665542036295,0.004945214372128248,-0.286482572555542
1683153217.55377483,55729205,2,0.9580080509185791,-0.01198091171681881,0.004934422671794891,-0.2864483594894409
1683153217.65376592,55829196,2,0.9580073952674866,-0.011946611106395721,0.004889598116278648,-0.2864527106285095
1683153217.75379896,55929229,2,0.9580195546150208,-0.011972608976066113,0.004903030581772327,-0.28641077876091003
1683153217.85377693,56029207,2,0.9580225944519043,-0.011993507854640484,0.004894728772342205,-0.2863999903202057
1683153217.95379686,56129227,2,0.958029568195343,-0.011956032365560532,0.004877752158790827,-0.28637850284576416
1683153218.05372691,56229157,2,0.9580252766609192,-0.012003793381154537,0.0048883589915931225,-0.28639060258865356
1683153218.15372801,56329158,2,0.9580294489860535,-0.01199484895914793,0.004885885864496231,-0.2863771617412567
1683153218.25372291,56429153,2,0.9580159783363342,-0.012029041536152363,0.004879284184426069,-0.28642088174819946
1683153218.35378385,56529214,2,0.9580123424530029,-0.012070699594914913,0.004912712145596743,-0.2864307165145874
1683153218.45377183,56629202,2,0.9580169320106506,-0.012130226008594036,0.004908412229269743,-0.2864128351211548
1683153218.55376387,56729194,2,0.9580019116401672,-0.012155220843851566,0.004949800204485655,-0.2864612638950348
1683153218.65379500,56829225,2,0.9580053687095642,-0.012168684974312782,0.004972939379513264,-0.2864488661289215
1683153218.75377893,56929209,2,0.9580205678939819,-0.012204599566757679,0.0050150081515312195,-0.2863956689834595
1683153218.85378385,57029214,2,0.9580142498016357,-0.012231866829097271,0.005000260192900896,-0.28641584515571594
1683153218.95375204,57129182,2,0.9580271244049072,-0.012210313230752945,0.005003932863473892,-0.28637367486953735
1683153219.05373192,57229162,2,0.9580262303352356,-0.012183734215795994,0.004988457076251507,-0.2863781452178955
1683153219.15372896,57329159,2,0.958027720451355,-0.012202420271933079,0.005032512359321117,-0.2863715887069702
1683153219.25374198,57429172,2,0.9580290913581848,-0.012193757109344006,0.005032244138419628,-0.28636738657951355
1683153219.35377288,57529203,2,0.9580501914024353,-0.012190720997750759,0.0050187609158456326,-0.2862970232963562
1683153219.45377994,57629210,2,0.9580694437026978,-0.012159306555986404,0.005078536923974752,-0.2862328886985779
1683153219.55379987,57729230,2,0.9580729007720947,-0.012184389866888523,0.0050608571618795395,-0.2862206697463989
1683153219.65377283,57829203,2,0.958077073097229,-0.012213712558150291,0.005050348117947578,-0.28620558977127075
1683153219.75378489,57929215,2,0.9580722451210022,-0.01220103818923235,0.005043922457844019,-0.2862224876880646
1683153219.85372305,58029153,2,0.9580850601196289,-0.012186204083263874,0.005061710719019175,-0.28617987036705017
1683153219.95372486,58129155,2,0.9580843448638916,-0.012192309834063053,0.005053051747381687,-0.286182165145874
1683153220.05372787,58229158,2,0.9580861926078796,-0.01220744475722313,0.005040422081947327,-0.28617551922798157
1683153220.15377688,58329207,2,0.9580849409103394,-0.01226512249559164,0.005089756101369858,-0.28617632389068604
1683153220.25375605,58429186,2,0.9581020474433899,-0.012271261774003506,0.0051270416006445885,-0.28611820936203003
1683153220.35376501,58529195,2,0.9581021666526794,-0.01228291168808937,0.00514801312237978,-0.28611695766448975
1683153220.45381188,58629242,2,0.958137035369873,-0.01232711412012577,0.005161078181117773,-0.28599798679351807
1683153220.55377197,58729202,2,0.9581770300865173,-0.012341970577836037,0.005113637074828148,-0.2858642041683197
1683153220.65379286,58829223,2,0.9582116603851318,-0.0123358853161335,0.005119018722325563,-0.285748153924942
1683153220.75372887,58929159,2,0.9582337141036987,-0.012323238886892796,0.005134242586791515,-0.2856745421886444
1683153220.85372186,59029152,2,0.9582580327987671,-0.01233412604779005,0.005139871500432491,-0.2855924367904663
1683153220.95372391,59129154,2,0.9582793712615967,-0.012302177958190441,0.005168607458472252,-0.28552165627479553
1683153221.05376387,59229194,2,0.9583054780960083,-0.012269606813788414,0.005156547296792269,-0.28543558716773987
1683153221.15377092,59329201,2,0.9583266377449036,-0.012279350310564041,0.005176869686692953,-0.28536367416381836
1683153221.25376201,59429192,2,0.9583351016044617,-0.01226739026606083,0.00522093428298831,-0.28533512353897095
1683153221.35379791,59529228,2,0.9583681225776672,-0.012275212444365025,0.005215832963585854,-0.28522396087646484
1683153221.45377803,59629208,2,0.9583925008773804,-0.012298905290663242,0.005286931525915861,-0.28513965010643005
1683153221.55378485,59729215,2,0.9584188461303711,-0.0123209273442626,0.005324335303157568,-0.2850493788719177
1683153221.65372705,59829157,2,0.9584578275680542,-0.01232815533876419,0.005384014919400215,-0.2849169373512268
1683153221.75372601,59929156,2,0.9584755897521973,-0.012316776439547539,0.005386412143707275,-0.2848575711250305
1683153221.85372400,60029154,2,0.9585068821907043,-0.012313944287598133,0.005342795979231596,-0.2847531735897064
1683153221.95374990,60129180,2,0.958541989326477,-0.01235427800565958,0.005363171454519033,-0.28463277220726013
1683153222.05377102,60229201,2,0.9585681557655334,-0.012378686107695103,0.00537863140925765,-0.28454333543777466
1683153222.15377283,60329203,2,0.9585980772972107,-0.012444122694432735,0.005427307449281216,-0.2844388484954834
1683153222.25379300,60429223,2,0.9586085677146912,-0.012427627108991146,0.005486257839947939,-0.28440308570861816
1683153222.35377383,60529204,2,0.9586144685745239,-0.012484188191592693,0.005548056215047836,-0.28437942266464233
1683153222.45379591,60629226,2,0.9586483836174011,-0.01248975470662117,0.005563345272094011,-0.28426456451416016
1683153222.55372500,60729155,2,0.9586547017097473,-0.012493091635406017,0.005561670288443565,-0.2842431664466858
1683153222.65372491,60829155,2,0.9586820006370544,-0.012522358447313309,0.0055850232020020485,-0.2841493785381317
1683153222.75373292,60929163,2,0.958700954914093,-0.012506476603448391,0.005596178118139505,-0.28408578038215637
1683153222.85375094,61029181,2,0.9587221145629883,-0.012525646016001701,0.005604826379567385,-0.2840133309364319
1683153222.95376587,61129196,2,0.9587200880050659,-0.01251049991697073,0.005669852718710899,-0.2840196192264557
1683153223.05377698,61229207,2,0.9587234258651733,-0.012552961707115173,0.005680636037141085,-0.28400614857673645
1683153223.15379691,61329227,2,0.9587212204933167,-0.012524615041911602,0.005665131378918886,-0.2840152978897095
1683153223.25377083,61429201,2,0.958721935749054,-0.012533619999885559,0.005673169158399105,-0.2840123176574707
1683153223.35379195,61529222,2,0.9587267637252808,-0.01254765223711729,0.005684248637408018,-0.2839950621128082
1683153223.45372391,61629154,2,0.9587323069572449,-0.012562386691570282,0.0056875403970479965,-0.2839756906032562
1683153223.55372405,61729154,2,0.9587270021438599,-0.01253998652100563,0.005670546088367701,-0.28399500250816345
1683153223.65372300,61829153,2,0.9587370157241821,-0.012474661692976952,0.005691422615200281,-0.2839635908603668
1683153223.75378895,61929219,2,0.9587372541427612,-0.012429379858076572,0.005674583837389946,-0.2839650511741638
1683153223.85376883,62029199,2,0.9587484002113342,-0.012415595352649689,0.005739742424339056,-0.28392669558525085
1683153223.95377588,62129206,2,0.9587631225585938,-0.01240482460707426,0.0057082283310592175,-0.28387823700904846
1683153224.05380893,62229239,2,0.958773672580719,-0.012351851910352707,0.005740622989833355,-0.28384414315223694
1683153224.15378189,62329212,2,0.9587854146957397,-0.01237079780548811,0.0058199018239974976,-0.2838020920753479
1683153224.25377989,62429210,2,0.958793580532074,-0.012400433421134949,0.005799525883048773,-0.2837736904621124
1683153224.35373092,62529161,2,0.9588193893432617,-0.012429407797753811,0.0057282717898488045,-0.28368666768074036
1683153224.45374203,62629172,2,0.9588478803634644,-0.01242025662213564,0.005715472623705864,-0.28359097242355347
1683153224.55372500,62729155,2,0.9588684439659119,-0.012411785311996937,0.005753927398473024,-0.2835209369659424
1683153224.65376401,62829194,2,0.9588897824287415,-0.012387159280478954,0.005785003304481506,-0.28344935178756714
1683153224.75377202,62929202,2,0.9589087963104248,-0.012399502098560333,0.005818945821374655,-0.28338363766670227
1683153224.85377002,63029200,2,0.958928108215332,-0.01238973718136549,0.005810071248561144,-0.28331902623176575
1683153224.95379686,63129227,2,0.9589602947235107,-0.012418536469340324,0.005789017770439386,-0.2832092046737671
1683153225.05377483,63229205,2,0.9589826464653015,-0.012411709874868393,0.005797934718430042,-0.28313353657722473
1683153225.15378499,63329215,2,0.9590243697166443,-0.012384637258946896,0.005756605416536331,-0.28299418091773987
1683153225.25373387,63429164,2,0.9590533375740051,-0.012332737445831299,0.005742958281189203,-0.2828986346721649
1683153225.35373092,63529161,2,0.9590689539909363,-0.01237405464053154,0.005707521457225084,-0.2828444838523865
1683153225.45373893,63629169,2,0.9590787887573242,-0.012345091439783573,0.005716141778975725,-0.2828122079372406
1683153225.55376196,63729192,2,0.9590923190116882,-0.012354737147688866,0.00574481301009655,-0.2827654480934143
1683153225.65376496,63829195,2,0.9591032862663269,-0.012349175289273262,0.005726644303649664,-0.28272879123687744
1683153225.75378704,63929217,2,0.9591186046600342,-0.01231336034834385,0.0056955828331410885,-0.2826790511608124
1683153225.85381198,64029242,2,0.9591432213783264,-0.012303575873374939,0.00568675110116601,-0.2825962007045746
1683153225.95377088,64129201,2,0.9591646194458008,-0.012302805669605732,0.005661682225763798,-0.2825239300727844
1683153226.05379391,64229224,2,0.959173321723938,-0.012330660596489906,0.005668058525770903,-0.28249311447143555
1683153226.15372705,64329157,2,0.9591646194458008,-0.012357807718217373,0.005634721368551254,-0.28252214193344116
1683153226.25373006,64429160,2,0.9591666460037231,-0.012368486262857914,0.005665588192641735,-0.2825142443180084
1683153226.35373592,64529166,2,0.9591690301895142,-0.012389712035655975,0.005662884097546339,-0.28250521421432495
1683153226.45378685,64629217,2,0.9591619968414307,-0.012398232705891132,0.00568511663004756,-0.28252825140953064
1683153226.55376697,64729197,2,0.9591721296310425,-0.0124185960739851,0.005670725367963314,-0.2824932038784027
1683153226.65377593,64829206,2,0.9591829776763916,-0.012468998320400715,0.005658910609781742,-0.28245437145233154
1683153226.75379992,64929230,2,0.9591804146766663,-0.01241332944482565,0.00556448707357049,-0.28246739506721497
