timestamp,TimeUS,DesRoll,Roll,DesPitch,Pitch,DesYaw,Yaw,ErrRP,ErrYaw,AEKF
10.49848900,10498489,0.0,0.12,0.0,-0.52,0.0,0.0,1.0,1.0,0
10.59809000,10598090,0.0,0.11,0.0,-0.52,337.15000000000003,337.16,1.0,0.8,0
10.69821200,10698212,0.0,0.12,0.0,-0.52,337.15000000000003,337.16,0.8,0.64,0
10.79816400,10798164,0.0,0.13,0.0,-0.52,337.09000000000003,337.1,0.8,0.51,0
10.89820800,10898208,0.0,0.13,0.0,-0.52,336.99,337.0,0.64,0.41000000000000003,0
10.99820600,10998206,0.0,0.14,0.0,-0.52,336.89,336.90000000000003,0.64,0.33,0
11.09824300,11098243,0.0,0.14,0.0,-0.52,336.82,336.83,0.51,0.27,0
11.19828600,11198286,0.0,0.13,0.0,-0.52,336.78000000000003,336.79,0.51,0.21,0
11.29824000,11298240,0.0,0.13,0.0,-0.52,336.84000000000003,336.85,0.4,0.17,0
11.39816200,11398162,0.0,0.14,0.0,-0.53,336.85,336.86,0.4,0.14,0
11.49823300,11498233,0.0,0.14,0.0,-0.53,336.81,336.82,0.32,0.11,0
11.59819100,11598191,0.0,0.14,0.0,-0.53,336.79,336.8,0.32,0.09,0
11.69824900,11698249,0.0,0.14,0.0,-0.53,336.90000000000003,336.91,0.26,0.08,0
11.79828700,11798287,0.0,0.14,0.0,-0.53,336.86,336.87,0.26,0.06,0
11.89831200,11898312,0.0,0.14,0.0,-0.54,336.76,336.77,0.21,0.05,0
11.99836700,11998367,0.0,0.14,0.0,-0.54,336.77,336.78000000000003,0.21,0.04,0
12.09839600,12098396,0.0,0.14,0.0,-0.53,336.71,336.72,0.16,0.03,0
12.19837900,12198379,0.0,0.13,0.0,-0.53,336.7,336.71,0.16,0.03,0
12.29828300,12298283,0.0,0.13,0.0,-0.53,336.62,336.63,0.13,0.02,0
12.39824700,12398247,0.0,0.14,0.0,-0.54,336.59000000000003,336.6,0.13,0.02,0
12.49885500,12498855,-0.29,-0.39,-0.12,-0.76,359.99,0.0,0.1,0.02,3
12.59873400,12598734,-0.14,-0.38,-0.06,-0.76,359.99,0.0,0.1,0.01,3
12.69861700,12698617,-0.07,-0.38,-0.03,-0.75,359.99,0.0,0.08,0.01,3
12.79861000,12798610,-0.03,-0.38,-0.01,-0.75,359.98,359.99,0.08,0.01,3
12.89865600,12898656,-0.01,-0.38,0.0,-0.75,359.98,359.99,0.06,0.01,3
12.99866500,12998665,-0.01,-0.38,0.0,-0.75,359.98,359.99,0.06,0.01,3
13.09869700,13098697,0.0,-0.37,0.0,-0.75,359.98,359.99,0.05,0.01,3
13.19888700,13198887,0.0,-0.37,0.0,-0.74,359.98,359.99,0.05,0.01,3
13.29835200,13298352,0.0,-0.37,0.0,-0.74,359.98,359.99,0.04,0.0,3
13.39830700,13398307,0.0,-0.37,0.0,-0.74,359.97,359.98,0.04,0.0,3
13.49827800,13498278,0.0,-0.36,0.0,-0.73,359.97,359.98,0.03,0.0,3
13.59837100,13598371,0.0,-0.36,0.0,-0.73,359.97,359.98,0.03,0.0,3
13.69836400,13698364,0.0,-0.36,0.0,-0.72,359.96,359.97,0.02,0.01,3
13.79840300,13798403,0.0,-0.36,0.0,-0.71,359.96,359.97,0.02,0.01,3
13.89866700,13898667,0.0,-0.36,0.0,-0.7000000000000001,359.96,359.97,0.02,0.0,3
13.99845800,13998458,0.0,-0.35000000000000003,0.0,-0.6900000000000001,335.62,335.63,0.02,0.0,3
14.09835400,14098354,0.0,-0.35000000000000003,0.0,-0.6900000000000001,335.62,335.63,0.01,0.0,3
14.19827300,14198273,0.0,-0.35000000000000003,0.0,-0.68,335.67,335.68,0.01,0.0,3
14.29829500,14298295,0.0,-0.35000000000000003,0.0,-0.68,335.76,335.77,0.01,0.0,3
14.39835000,14398350,0.0,-0.35000000000000003,0.0,-0.67,335.86,335.87,0.01,0.0,3
14.49839000,14498390,0.0,-0.35000000000000003,0.0,-0.67,335.94,335.95,0.01,0.0,3
14.59837100,14598371,0.0,-0.35000000000000003,0.0,-0.67,336.01,336.02,0.01,0.0,3
14.69839700,14698397,0.0,-0.35000000000000003,0.0,-0.67,336.08,336.09000000000003,0.0,0.0,3
14.79845900,14798459,0.0,-0.35000000000000003,0.0,-0.67,336.13,336.14,0.0,0.0,3
14.89846300,14898463,0.0,-0.34,0.0,-0.67,336.17,336.18,0.0,0.0,3
14.99868000,14998680,0.0,-0.33,0.0,-0.67,336.18,336.19,0.0,0.0,3
15.09825800,15098258,0.0,-0.33,0.0,-0.67,336.18,336.19,0.0,0.0,3
15.19829400,15198294,0.0,-0.32,0.0,-0.67,336.18,336.19,0.0,0.0,3
15.29833700,15298337,0.0,-0.32,0.0,-0.67,336.18,336.19,0.0,0.0,3
15.39839500,15398395,0.0,-0.31,0.0,-0.67,336.19,336.2,0.0,0.0,3
15.49836300,15498363,0.0,-0.3,0.0,-0.66,336.19,336.2,0.0,0.0,3
15.59841200,15598412,0.0,-0.3,0.0,-0.67,336.19,336.2,0.0,0.0,3
15.69866000,15698660,0.0,-0.29,0.0,-0.66,336.19,336.2,0.0,0.0,3
15.79845500,15798455,0.0,-0.28,0.0,-0.66,336.18,336.19,0.0,0.0,3
15.89835500,15898355,0.0,-0.28,0.0,-0.66,336.17,336.18,0.0,0.0,3
15.99828800,15998288,0.0,-0.28,0.0,-0.65,336.17,336.18,0.0,0.0,3
16.09827600,16098276,0.0,-0.28,0.0,-0.65,336.18,336.19,0.0,0.0,3
16.19829000,16198290,0.0,-0.28,0.0,-0.65,336.18,336.19,0.0,0.0,3
16.29859800,16298598,0.0,-0.27,0.0,-0.65,336.18,336.19,0.0,0.0,3
16.39861200,16398612,0.0,-0.27,0.0,-0.65,336.17,336.18,0.0,0.0,3
16.49841100,16498411,0.0,-0.27,0.0,-0.65,336.16,336.17,0.0,0.0,3
16.59855000,16598550,0.0,-0.27,0.0,-0.65,336.15000000000003,336.16,0.0,0.0,3
16.69847000,16698470,0.0,-0.27,0.0,-0.65,336.13,336.14,0.0,0.0,3
16.79835400,16798354,0.0,-0.28,0.0,-0.65,336.12,336.13,0.0,0.0,3
16.89826600,16898266,0.0,-0.28,0.0,-0.65,336.1,336.11,0.0,0.0,3
16.99828300,16998283,0.0,-0.28,0.0,-0.65,336.08,336.09000000000003,0.0,0.0,3
17.09831200,17098312,0.0,-0.28,0.0,-0.65,336.06,336.07,0.0,0.0,3
17.19859900,17198599,0.0,-0.28,0.0,-0.66,336.05,336.06,0.0,0.0,3
17.29836400,17298364,0.0,-0.28,0.0,-0.66,336.04,336.05,0.0,0.0,3
17.39844100,17398441,0.0,-0.29,0.0,-0.66,336.04,336.05,0.0,0.0,3
17.49842700,17498427,0.0,-0.29,0.0,-0.66,336.04,336.05,0.0,0.01,3
17.59845400,17598454,0.0,-0.29,0.0,-0.66,336.03000000000003,336.04,0.0,0.0,3
17.69835200,17698352,0.0,-0.3,0.0,-0.66,336.0,336.01,0.0,0.01,3
17.79835400,17798354,0.0,-0.3,0.0,-0.66,335.98,335.99,0.0,0.01,3
17.89855700,17898557,0.0,-0.3,0.0,-0.66,335.98,335.99,0.0,0.01,3
17.99852400,17998524,0.0,-0.3,0.0,-0.66,335.99,336.0,0.0,0.01,3
18.09836700,18098367,0.0,-0.3,0.0,-0.66,336.0,336.01,0.0,0.01,3
18.19836100,18198361,0.0,-0.3,0.0,-0.66,336.02,336.03000000000003,0.0,0.0,3
18.29841500,18298415,0.0,-0.3,0.0,-0.66,336.03000000000003,336.04,0.0,0.0,3
18.39852500,18398525,0.0,-0.3,0.0,-0.66,336.03000000000003,336.04,0.0,0.0,3
18.49846800,18498468,0.0,-0.3,0.0,-0.66,336.03000000000003,336.04,0.0,0.0,3
18.59866600,18598666,0.0,-0.29,0.0,-0.66,336.02,336.03000000000003,0.0,0.0,3
18.69826500,18698265,0.0,-0.29,0.0,-0.66,336.01,336.02,0.0,0.0,3
18.79827900,18798279,0.0,-0.29,0.0,-0.66,336.01,336.02,0.0,0.0,3
18.89833800,18898338,0.0,-0.29,0.0,-0.66,336.0,336.01,0.0,0.0,3
18.99837800,18998378,0.0,-0.29,0.0,-0.66,335.99,336.0,0.0,0.0,3
19.09837100,19098371,0.0,-0.29,0.0,-0.66,335.98,335.99,0.0,0.0,3
19.19839800,19198398,0.0,-0.29,0.0,-0.66,335.97,335.98,0.0,0.0,3
19.29865800,19298658,0.0,-0.29,0.0,-0.66,335.96,335.97,0.0,0.0,3
19.39848700,19398487,0.0,-0.29,0.0,-0.66,335.95,335.96,0.0,0.0,3
19.49857500,19498575,0.0,-0.29,0.0,-0.67,335.92,335.93,0.0,0.01,3
19.59864400,19598644,0.0,-0.28,0.0,-0.67,335.90000000000003,335.91,0.0,0.0,3
19.69851900,19698519,0.0,-0.28,0.0,-0.66,335.90000000000003,335.91,0.0,0.01,3
19.79851500,19798515,0.0,-0.29,0.0,-0.66,335.91,335.92,0.0,0.01,3
19.89880400,19898804,0.0,-0.28,0.0,-0.67,335.93,335.94,0.0,0.0,3
19.99859700,19998597,0.0,-0.28,0.0,-0.66,335.95,335.96,0.0,0.0,3
20.09839200,20098392,0.0,-0.28,0.0,-0.67,335.97,335.98,0.0,0.0,3
20.19843900,20198439,0.0,-0.28,0.0,-0.67,335.99,336.0,0.0,0.0,3
20.29847500,20298475,0.0,-0.28,0.0,-0.67,336.0,336.01,0.0,0.0,3
20.39845800,20398458,0.0,-0.28,0.0,-0.67,336.01,336.02,0.0,0.01,3
20.49827100,20498271,0.0,-0.28,0.0,-0.67,336.0,336.01,0.0,0.01,3
20.59854700,20598547,0.0,-0.27,0.0,-0.67,335.99,336.0,0.0,0.01,3
20.69857500,20698575,0.0,-0.27,0.0,-0.67,335.99,336.0,0.0,0.0,3
20.79837800,20798378,0.0,-0.27,0.0,-0.67,336.0,336.01,0.0,0.0,3
20.89836500,20898365,0.0,-0.27,0.0,-0.67,336.01,336.02,0.0,0.0,3
20.99841400,20998414,0.0,-0.27,0.0,-0.67,336.02,336.03000000000003,0.0,0.0,3
21.09844000,21098440,0.0,-0.27,0.0,-0.66,336.04,336.05,0.0,0.01,3
21.19844700,21198447,0.0,-0.27,0.0,-0.66,336.07,336.08,0.0,0.0,3
21.29834500,21298345,0.0,-0.27,0.0,-0.66,336.1,336.11,0.0,0.0,3
21.39837800,21398378,0.0,-0.27,0.0,-0.66,336.13,336.14,0.0,0.0,3
21.49829100,21498291,0.0,-0.27,0.0,-0.67,336.15000000000003,336.16,0.0,0.0,3
21.59834500,21598345,0.0,-0.27,0.0,-0.66,336.17,336.18,0.0,0.0,3
21.69838000,21698380,0.0,-0.27,0.0,-0.67,336.19,336.2,0.0,0.0,3
21.79837100,21798371,0.0,-0.27,0.0,-0.66,336.19,336.2,0.0,0.0,3
21.89839900,21898399,0.0,-0.27,0.0,-0.66,336.19,336.2,0.0,0.0,3
21.99844500,21998445,0.0,-0.27,0.0,-0.66,336.18,336.19,0.0,0.01,3
22.09847300,22098473,0.0,-0.27,0.0,-0.66,336.18,336.19,0.0,0.01,3
22.19869400,22198694,0.0,-0.27,0.0,-0.66,336.17,336.18,0.0,0.0,3
22.29869600,22298696,0.0,-0.27,0.0,-0.66,336.16,336.17,0.0,0.0,3
22.39828900,22398289,0.0,-0.27,0.0,-0.66,336.16,336.17,0.0,0.0,3
22.49831300,22498313,0.0,-0.27,0.0,-0.66,336.16,336.17,0.0,0.0,3
22.59837100,22598371,0.0,-0.27,0.0,-0.66,336.16,336.17,0.0,0.0,3
22.69837100,22698371,0.0,-0.26,0.0,-0.66,336.15000000000003,336.16,0.0,0.01,3
22.79840200,22798402,0.0,-0.26,0.0,-0.66,336.13,336.14,0.0,0.01,3
22.89878500,22898785,0.0,-0.26,0.0,-0.66,336.12,336.13,0.0,0.01,3
22.99846200,22998462,0.0,-0.27,0.0,-0.65,336.11,336.12,0.0,0.0,3
23.09834900,23098349,0.0,-0.27,0.0,-0.65,336.11,336.12,0.0,0.01,3
23.19826900,23198269,0.0,-0.27,0.0,-0.65,336.13,336.14,0.0,0.01,3
23.29828600,23298286,0.0,-0.27,0.0,-0.65,336.15000000000003,336.16,0.0,0.01,3
23.39835500,23398355,0.0,-0.27,0.0,-0.65,336.18,336.19,0.0,0.01,3
23.49860300,23498603,0.0,-0.27,0.0,-0.65,336.2,336.21,0.0,0.01,3
23.59858200,23598582,0.0,-0.26,0.0,-0.65,336.21,336.22,0.0,0.0,3
23.69862100,23698621,0.0,-0.25,0.0,-0.65,336.21,336.22,0.0,0.0,3
23.79865500,23798655,0.0,-0.25,0.0,-0.65,336.22,336.23,0.0,0.0,3
23.89867200,23898672,0.0,-0.25,0.0,-0.65,336.21,336.22,0.0,0.0,3
23.99865200,23998652,0.0,-0.25,0.0,-0.65,336.2,336.21,0.0,0.0,3
24.09864600,24098646,0.0,-0.25,0.0,-0.65,336.19,336.2,0.0,0.0,3
24.19879300,24198793,0.0,-0.24,0.0,-0.65,336.19,336.2,0.0,0.0,3
24.29864700,24298647,0.0,-0.24,0.0,-0.65,336.19,336.2,0.0,0.0,3
24.39838500,24398385,0.0,-0.23,0.0,-0.65,336.2,336.21,0.0,0.0,3
24.49835900,24498359,0.0,-0.23,0.0,-0.65,336.2,336.21,0.0,0.0,3
24.59839800,24598398,0.0,-0.23,0.0,-0.65,336.2,336.21,0.0,0.0,3
24.69844300,24698443,0.0,-0.23,0.0,-0.65,336.21,336.22,0.0,0.0,3
24.79868100,24798681,0.0,-0.23,0.0,-0.65,336.22,336.23,0.0,0.0,3
24.89874500,24898745,0.0,-0.23,0.0,-0.65,336.23,336.24,0.0,0.0,3
24.99825600,24998256,0.0,-0.22,0.0,-0.64,336.24,336.25,0.0,0.0,3
25.09831600,25098316,0.0,-0.22,0.0,-0.64,336.25,336.26,0.0,0.0,3
25.19834100,25198341,0.0,-0.22,0.0,-0.64,336.25,336.26,0.0,0.0,3
25.29839500,25298395,0.0,-0.22,0.0,-0.64,336.26,336.27,0.0,0.0,3
25.39840700,25398407,0.0,-0.22,0.0,-0.64,336.28000000000003,336.29,0.0,0.0,3
25.49841200,25498412,0.0,-0.22,0.0,-0.64,336.29,336.3,0.0,0.0,3
25.59869700,25598697,0.0,-0.22,0.0,-0.64,336.3,336.31,0.0,0.0,3
25.69846700,25698467,0.0,-0.21,0.0,-0.64,336.31,336.32,0.0,0.0,3
25.79869900,25798699,0.0,-0.21,0.0,-0.64,336.33,336.34000000000003,0.0,0.0,3
25.89868500,25898685,0.0,-0.21,0.0,-0.64,336.34000000000003,336.35,0.0,0.0,3
25.99855500,25998555,0.0,-0.21,0.0,-0.64,336.36,336.37,0.0,0.0,3
26.09861500,26098615,0.0,-0.21,0.0,-0.64,336.39,336.40000000000003,0.0,0.0,3
26.19860000,26198600,0.0,-0.21,0.0,-0.64,336.42,336.43,0.0,0.0,3
26.29891000,26298910,0.0,-0.2,0.0,-0.64,336.44,336.45,0.0,0.0,3
26.39866700,26398667,0.0,-0.2,0.0,-0.64,336.46,336.47,0.0,0.0,3
26.49867000,26498670,0.0,-0.2,0.0,-0.63,336.48,336.49,0.0,0.0,3
26.59868000,26598680,0.0,-0.2,0.0,-0.64,336.49,336.5,0.0,0.0,3
26.69866500,26698665,0.0,-0.19,0.0,-0.64,336.5,336.51,0.0,0.0,3
26.79869400,26798694,0.0,-0.19,0.0,-0.64,336.51,336.52,0.0,0.0,3
26.89869900,26898699,0.0,-0.19,0.0,-0.64,336.51,336.52,0.0,0.0,3
26.99861800,26998618,0.0,-0.19,0.0,-0.64,336.52,336.53000000000003,0.0,0.0,3
27.09839500,27098395,0.0,-0.19,0.0,-0.63,336.52,336.53000000000003,0.0,0.0,3
27.19837300,27198373,0.0,-0.19,0.0,-0.63,336.52,336.53000000000003,0.0,0.0,3
27.29841700,27298417,0.0,-0.18,0.0,-0.63,336.52,336.53000000000003,0.0,0.0,3
27.39852800,27398528,0.0,-0.18,0.0,-0.63,336.52,336.53000000000003,0.0,0.0,3
27.49846900,27498469,0.0,-0.18,0.0,-0.63,336.52,336.53000000000003,0.0,0.0,3
27.59869000,27598690,0.0,-0.18,0.0,-0.63,336.52,336.53000000000003,0.0,0.0,3
27.69826300,27698263,0.0,-0.18,0.0,-0.63,336.52,336.53000000000003,0.0,0.0,3
27.79823400,27798234,0.0,-0.18,0.0,-0.63,336.52,336.53000000000003,0.0,0.0,3
27.89833900,27898339,0.0,-0.17,0.0,-0.63,336.51,336.52,0.0,0.0,3
27.99837600,27998376,0.0,-0.17,0.0,-0.63,336.51,336.52,0.0,0.0,3
28.09837100,28098371,0.0,-0.17,0.0,-0.63,336.5,336.51,0.0,0.0,3
28.19840500,28198405,0.0,-0.17,0.0,-0.63,336.5,336.51,0.0,0.0,3
28.29845100,28298451,0.0,-0.17,0.0,-0.63,336.49,336.5,0.0,0.0,3
28.39849300,28398493,0.0,-0.16,0.0,-0.63,336.49,336.5,0.0,0.0,3
28.49868300,28498683,0.0,-0.16,0.0,-0.62,336.5,336.51,0.0,0.0,3
28.59826500,28598265,0.0,-0.17,0.0,-0.62,336.5,336.51,0.0,0.0,3
28.69828900,28698289,0.0,-0.17,0.0,-0.62,336.5,336.51,0.0,0.01,3
28.79832500,28798325,0.0,-0.16,0.0,-0.63,336.5,336.51,0.0,0.01,3
28.89838600,28898386,0.0,-0.17,0.0,-0.63,336.51,336.52,0.0,0.01,3
28.99839000,28998390,0.0,-0.17,0.0,-0.63,336.51,336.52,0.0,0.01,3
29.09841600,29098416,0.0,-0.16,0.0,-0.63,336.51,336.52,0.0,0.01,3
29.19854800,29198548,0.0,-0.17,0.0,-0.63,336.51,336.52,0.0,0.01,3
29.29845600,29298456,0.0,-0.17,0.0,-0.63,336.51,336.52,0.0,0.01,3
29.39870400,29398704,0.0,-0.16,0.0,-0.63,336.49,336.5,0.0,0.01,3
29.49827500,29498275,0.0,-0.16,0.0,-0.63,336.48,336.49,0.0,0.01,3
29.59829700,29598297,0.0,-0.17,0.0,-0.63,336.47,336.48,0.0,0.01,3
29.69828500,29698285,0.0,-0.17,0.0,-0.63,336.46,336.47,0.0,0.01,3
29.79838600,29798386,0.0,-0.16,0.0,-0.63,336.46,336.47,0.0,0.01,3
29.89838200,29898382,0.0,-0.16,0.0,-0.63,336.47,336.48,0.0,0.01,3
29.99841200,29998412,0.0,-0.16,0.0,-0.63,336.47,336.48,0.0,0.0,3
30.09865100,30098651,0.0,-0.16,0.0,-0.64,336.47,336.48,0.0,0.0,3
30.19847400,30198474,0.0,-0.16,0.0,-0.64,336.46,336.47,0.0,0.0,3
30.29833600,30298336,0.0,-0.16,0.0,-0.64,336.46,336.47,0.0,0.0,3
30.39835500,30398355,0.0,-0.16,0.0,-0.64,336.45,336.46,0.0,0.0,3
30.49823100,30498231,0.0,-0.16,0.0,-0.65,336.43,336.44,0.0,0.0,3
30.59828600,30598286,0.0,-0.15,0.0,-0.65,336.42,336.43,0.0,0.0,3
30.69838100,30698381,0.0,-0.15,0.0,-0.65,336.41,336.42,0.0,0.0,3
30.79837500,30798375,0.0,-0.15,0.0,-0.65,336.41,336.42,0.0,0.0,3
30.89839700,30898397,0.0,-0.15,0.0,-0.65,336.41,336.42,0.0,0.0,3
30.99866300,30998663,0.0,-0.15,0.0,-0.65,336.41,336.42,0.0,0.0,3
31.09845800,31098458,0.0,-0.15,0.0,-0.65,336.42,336.43,0.0,0.01,3
31.19862500,31198625,0.0,-0.14,0.0,-0.66,336.42,336.43,0.0,0.01,3
31.29863200,31298632,0.0,-0.14,0.0,-0.65,336.43,336.44,0.0,0.0,3
31.39852400,31398524,0.0,-0.14,0.0,-0.66,336.44,336.45,0.0,0.01,3
31.49848000,31498480,0.0,-0.14,0.0,-0.66,336.43,336.44,0.0,0.01,3
31.59857200,31598572,0.0,-0.14,0.0,-0.65,336.43,336.44,0.0,0.01,3
31.69855800,31698558,0.0,-0.14,0.0,-0.66,336.43,336.44,0.0,0.01,3
31.79860600,31798606,0.0,-0.13,0.0,-0.66,336.43,336.44,0.0,0.01,3
31.89890500,31898905,0.0,-0.13,0.0,-0.66,336.45,336.46,0.0,0.01,3
31.99847100,31998471,0.0,-0.13,0.0,-0.66,336.46,336.47,0.0,0.0,3
32.09834400,32098344,0.0,-0.14,0.0,-0.66,336.46,336.47,0.0,0.01,3
32.19825200,32198252,0.0,-0.13,0.0,-0.66,336.47,336.48,0.0,0.01,3
32.29821800,32298218,0.0,-0.13,0.0,-0.66,336.48,336.49,0.0,0.0,3
32.39834600,32398346,0.0,-0.13,0.0,-0.66,336.47,336.48,0.0,0.0,3
32.49837400,32498374,0.0,-0.13,0.0,-0.66,336.47,336.48,0.0,0.0,3
32.59836600,32598366,0.0,-0.12,0.0,-0.66,336.47,336.48,0.0,0.01,3
32.69839900,32698399,0.0,-0.13,0.0,-0.66,336.47,336.48,0.0,0.01,3
32.79843800,32798438,0.0,-0.12,0.0,-0.66,336.48,336.49,0.0,0.01,3
32.89845100,32898451,0.0,-0.12,0.0,-0.66,336.49,336.5,0.0,0.0,3
32.99832300,32998323,0.0,-0.12,0.0,-0.66,336.49,336.5,0.0,0.01,3
33.09825900,33098259,0.0,-0.12,0.0,-0.66,336.5,336.51,0.0,0.0,3
33.19851800,33198518,0.0,-0.11,0.0,-0.66,336.5,336.51,0.0,0.0,3
33.29827000,33298270,0.0,-0.11,0.0,-0.66,336.5,336.51,0.0,0.0,3
33.39846600,33398466,0.0,-0.11,0.0,-0.66,336.49,336.5,0.0,0.0,3
33.49836400,33498364,0.0,-0.11,0.0,-0.67,336.49,336.5,0.0,0.01,3
33.59840700,33598407,0.0,-0.11,0.0,-0.67,336.49,336.5,0.0,0.01,3
33.69845600,33698456,0.0,-0.1,0.0,-0.67,336.5,336.51,0.0,0.0,3
33.79855500,33798555,0.0,-0.1,0.0,-0.67,336.51,336.52,0.0,0.0,3
33.89866800,33898668,0.0,-0.09,0.0,-0.67,336.52,336.53000000000003,0.0,0.0,3
33.99867000,33998670,0.0,-0.09,0.0,-0.67,336.53000000000003,336.54,0.0,0.0,3
34.09823100,34098231,0.0,-0.09,0.0,-0.67,336.54,336.55,0.0,0.0,3
34.19833200,34198332,0.0,-0.1,0.0,-0.67,336.55,336.56,0.0,0.0,3
34.29836800,34298368,0.0,-0.1,0.0,-0.67,336.56,336.57,0.0,0.0,3
34.39839300,34398393,0.0,-0.1,0.0,-0.68,336.57,336.58,0.0,0.0,3
34.49840000,34498400,0.0,-0.1,0.0,-0.68,336.59000000000003,336.6,0.0,0.01,3
34.59867000,34598670,0.0,-0.1,0.0,-0.68,336.6,336.61,0.0,0.01,3
34.69867700,34698677,0.0,-0.09,0.0,-0.68,336.62,336.63,0.0,0.01,3
34.79834000,34798340,0.0,-0.09,0.0,-0.68,336.64,336.65000000000003,0.0,0.01,3
34.89873300,34898733,0.0,-0.09,0.0,-0.68,336.66,336.67,0.0,0.01,3
34.99854400,34998544,0.0,-0.09,0.0,-0.68,336.68,336.69,0.0,0.0,3
35.09860800,35098608,0.0,-0.09,0.0,-0.68,336.68,336.69,0.0,0.0,3
35.19857500,35198575,0.0,-0.09,0.0,-0.68,336.69,336.7,0.0,0.0,3
35.29857200,35298572,0.0,-0.08,0.0,-0.68,336.69,336.7,0.0,0.0,3
35.39887700,35398877,0.0,-0.08,0.0,-0.68,336.69,336.7,0.0,0.0,3
35.49896200,35498962,0.0,-0.08,0.0,-0.68,336.69,336.7,0.0,0.0,3
35.59867000,35598670,0.0,-0.08,0.0,-0.68,336.68,336.69,0.0,0.0,3
35.69858000,35698580,0.0,-0.08,0.0,-0.68,336.68,336.69,0.0,0.0,3
35.79862200,35798622,0.0,-0.07,0.0,-0.68,336.68,336.69,0.0,0.0,3
35.89871900,35898719,0.0,-0.07,0.0,-0.68,336.68,336.69,0.0,0.0,3
35.99850400,35998504,0.0,-0.07,0.0,-0.68,336.67,336.68,0.0,0.0,3
36.09856200,36098562,0.0,-0.07,0.0,-0.68,336.67,336.68,0.0,0.0,3
36.19855800,36198558,0.0,-0.07,0.0,-0.68,336.67,336.68,0.0,0.0,3
36.29858700,36298587,0.0,-0.07,0.0,-0.68,336.67,336.68,0.0,0.0,3
36.39866300,36398663,0.0,-0.07,0.0,-0.68,336.68,336.69,0.0,0.0,3
36.49865400,36498654,0.0,-0.06,0.0,-0.6900000000000001,336.68,336.69,0.0,0.0,3
36.59884500,36598845,0.0,-0.06,0.0,-0.6900000000000001,336.69,336.7,0.0,0.0,3
36.69825300,36698253,0.0,-0.06,0.0,-0.6900000000000001,336.69,336.7,0.0,0.0,3
36.79827300,36798273,0.0,-0.06,0.0,-0.6900000000000001,336.71,336.72,0.0,0.0,3
36.89859700,36898597,0.0,-0.06,0.0,-0.6900000000000001,336.72,336.73,0.0,0.0,3
36.99839600,36998396,0.0,-0.06,0.0,-0.6900000000000001,336.73,336.74,0.0,0.0,3
37.09836800,37098368,0.0,-0.06,0.0,-0.6900000000000001,336.74,336.75,0.0,0.0,3
37.19841100,37198411,0.0,-0.06,0.0,-0.6900000000000001,336.74,336.75,0.0,0.0,3
37.29866700,37298667,0.0,-0.07,0.0,-0.6900000000000001,336.75,336.76,0.0,0.0,3
37.39849800,37398498,0.0,-0.07,0.0,-0.68,336.75,336.76,0.0,0.0,3
37.49832700,37498327,0.0,-0.07,0.0,-0.68,336.76,336.77,0.0,0.0,3
37.59825600,37598256,0.0,-0.07,0.0,-0.68,336.76,336.77,0.0,0.0,3
37.69827900,37698279,0.0,-0.07,0.0,-0.6900000000000001,336.76,336.77,0.0,0.0,3
37.79828600,37798286,0.0,-0.07,0.0,-0.68,336.76,336.77,0.0,0.0,3
37.89835200,37898352,0.0,-0.07,0.0,-0.68,336.76,336.77,0.0,0.0,3
37.99837100,37998371,0.0,-0.07,0.0,-0.68,336.76,336.77,0.0,0.0,3
38.09838700,38098387,0.0,-0.07,0.0,-0.68,336.77,336.78000000000003,0.0,0.0,3
38.19844400,38198444,0.0,-0.07,0.0,-0.68,336.77,336.78000000000003,0.0,0.0,3
38.29847000,38298470,0.0,-0.07,0.0,-0.68,336.78000000000003,336.79,0.0,0.0,3
38.39838100,38398381,0.0,-0.07,0.0,-0.68,336.78000000000003,336.79,0.0,0.0,3
38.49826400,38498264,0.0,-0.07,0.0,-0.68,336.78000000000003,336.79,0.0,0.0,3
38.59850500,38598505,0.0,-0.07,0.0,-0.68,336.78000000000003,336.79,0.0,0.0,3
38.69857600,38698576,0.0,-0.07,0.0,-0.68,336.78000000000003,336.79,0.0,0.0,3
38.79836000,38798360,0.0,-0.07,0.0,-0.6900000000000001,336.78000000000003,336.79,0.0,0.0,3
38.89835500,38898355,0.0,-0.08,0.0,-0.6900000000000001,336.77,336.78000000000003,0.0,0.0,3
38.99840000,38998400,0.0,-0.08,0.0,-0.6900000000000001,336.77,336.78000000000003,0.0,0.01,3
39.09844500,39098445,0.0,-0.07,0.0,-0.6900000000000001,336.76,336.77,0.0,0.0,3
39.19845200,39198452,0.0,-0.08,0.0,-0.6900000000000001,336.76,336.77,0.0,0.0,3
39.29834100,39298341,0.0,-0.08,0.0,-0.6900000000000001,336.76,336.77,0.0,0.0,3
39.39837900,39398379,0.0,-0.08,0.0,-0.6900000000000001,336.76,336.77,0.0,0.0,3
39.49853700,39498537,0.0,-0.08,0.0,-0.6900000000000001,336.77,336.78000000000003,0.0,0.01,3
39.59828300,39598283,0.0,-0.08,0.0,-0.6900000000000001,336.77,336.78000000000003,0.0,0.01,3
39.69837900,39698379,0.0,-0.08,0.0,-0.6900000000000001,336.77,336.78000000000003,0.0,0.01,3
39.79835900,39798359,0.0,-0.08,0.0,-0.6900000000000001,336.76,336.77,0.0,0.01,3
39.89841900,39898419,0.0,-0.08,0.0,-0.6900000000000001,336.76,336.77,0.0,0.01,3
39.99845800,39998458,0.0,-0.08,0.0,-0.6900000000000001,336.76,336.77,0.0,0.01,3
40.09847700,40098477,0.0,-0.08,0.0,-0.6900000000000001,336.76,336.77,0.0,0.0,3
40.19868400,40198684,0.0,-0.08,0.0,-0.6900000000000001,336.76,336.77,0.0,0.01,3
40.29869300,40298693,0.0,-0.08,0.0,-0.6900000000000001,336.76,336.77,0.0,0.01,3
40.39857900,40398579,0.0,-0.08,0.0,-0.6900000000000001,336.76,336.77,0.0,0.01,3
40.49860800,40498608,0.0,-0.08,0.0,-0.6900000000000001,336.76,336.77,0.0,0.01,3
40.59835600,40598356,0.0,-0.08,0.0,-0.6900000000000001,336.75,336.76,0.0,0.01,3
40.69834800,40698348,0.0,-0.08,0.0,-0.6900000000000001,336.75,336.76,0.0,0.0,3
40.79838000,40798380,0.0,-0.08,0.0,-0.6900000000000001,336.75,336.76,0.0,0.0,3
40.89844900,40898449,0.0,-0.08,0.0,-0.68,336.75,336.76,0.0,0.0,3
40.99846200,40998462,0.0,-0.08,0.0,-0.68,336.76,336.77,0.0,0.0,3
41.09833300,41098333,0.0,-0.08,0.0,-0.68,336.77,336.78000000000003,0.0,0.0,3
41.19827100,41198271,0.0,-0.08,0.0,-0.68,336.78000000000003,336.79,0.0,0.0,3
41.29859000,41298590,0.0,-0.08,0.0,-0.68,336.79,336.8,0.0,0.01,3
41.39862700,41398627,0.0,-0.08,0.0,-0.68,336.8,336.81,0.0,0.01,3
41.49837100,41498371,0.0,-0.08,0.0,-0.68,336.8,336.81,0.0,0.01,3
41.59837900,41598379,0.0,-0.08,0.0,-0.68,336.8,336.81,0.0,0.01,3
41.69840100,41698401,0.0,-0.08,0.0,-0.68,336.79,336.8,0.0,0.01,3
41.79850600,41798506,0.0,-0.08,0.0,-0.68,336.77,336.78000000000003,0.0,0.01,3
41.89869100,41898691,0.0,-0.08,0.0,-0.6900000000000001,336.76,336.77,0.0,0.01,3
41.99867600,41998676,0.0,-0.08,0.0,-0.68,336.75,336.76,0.0,0.01,3
42.09866600,42098666,0.0,-0.08,0.0,-0.68,336.74,336.74,0.0,0.01,3
42.19853800,42198538,0.0,-0.08,0.0,-0.68,336.73,336.74,0.0,0.01,3
42.29857500,42298575,0.0,-0.08,0.0,-0.68,336.74,336.75,0.0,0.01,3
42.39894400,42398944,0.0,-0.07,0.0,-0.68,336.75,336.76,0.0,0.0,3
42.49858600,42498586,0.0,-0.07,0.0,-0.68,336.76,336.77,0.0,0.0,3
42.59840400,42598404,0.0,-0.07,0.0,-0.68,336.77,336.78000000000003,0.0,0.0,3
42.69843400,42698434,0.0,-0.07,0.0,-0.68,336.77,336.78000000000003,0.0,0.0,3
42.79847100,42798471,0.0,-0.07,0.0,-0.68,336.78000000000003,336.79,0.0,0.01,3
42.89834900,42898349,0.0,-0.07,0.0,-0.68,336.78000000000003,336.79,0.0,0.0,3
42.99826100,42998261,0.0,-0.07,0.0,-0.68,336.78000000000003,336.79,0.0,0.0,3
43.09822700,43098227,0.0,-0.07,0.0,-0.68,336.78000000000003,336.79,0.0,0.0,3
43.19828200,43198282,0.0,-0.07,0.0,-0.6900000000000001,336.78000000000003,336.79,0.0,0.0,3
43.29859600,43298596,0.0,-0.07,0.0,-0.6900000000000001,336.79,336.8,0.0,0.0,3
43.39861200,43398612,0.0,-0.07,0.0,-0.6900000000000001,336.79,336.8,0.0,0.0,3
43.49863200,43498632,0.0,-0.07,0.0,-0.6900000000000001,336.79,336.8,0.0,0.0,3
43.59865900,43598659,0.0,-0.06,0.0,-0.6900000000000001,336.79,336.8,0.0,0.0,3
43.69845900,43698459,0.0,-0.06,0.0,-0.6900000000000001,336.8,336.81,0.0,0.0,3
43.79862100,43798621,0.0,-0.06,0.0,-0.6900000000000001,336.8,336.81,0.0,0.0,3
43.89865200,43898652,0.0,-0.06,0.0,-0.6900000000000001,336.8,336.81,0.0,0.0,3
43.99849200,43998492,0.0,-0.06,0.0,-0.6900000000000001,336.8,336.81,0.0,0.0,3
44.09849300,44098493,0.0,-0.06,0.0,-0.6900000000000001,336.8,336.81,0.0,0.0,3
44.19854900,44198549,0.0,-0.06,0.0,-0.6900000000000001,336.81,336.82,0.0,0.0,3
44.29855100,44298551,0.0,-0.06,0.0,-0.7000000000000001,336.81,336.82,0.0,0.0,3
44.39860500,44398605,0.0,-0.06,0.0,-0.6900000000000001,336.82,336.83,0.0,0.0,3
44.49882000,44498820,0.0,-0.05,0.0,-0.7000000000000001,336.82,336.83,0.0,0.0,3
44.59847600,44598476,0.0,-0.05,0.0,-0.7000000000000001,336.82,336.83,0.0,0.0,3
44.69834300,44698343,0.0,-0.05,0.0,-0.7000000000000001,336.82,336.83,0.0,0.0,3
44.79826400,44798264,0.0,-0.05,0.0,-0.7000000000000001,336.82,336.83,0.0,0.0,3
44.89831000,44898310,0.0,-0.05,0.0,-0.7000000000000001,336.82,336.83,0.0,0.0,3
44.99827300,44998273,0.0,-0.05,0.0,-0.7000000000000001,336.83,336.84000000000003,0.0,0.0,3
45.09857500,45098575,0.0,-0.05,0.0,-0.71,336.83,336.84000000000003,0.0,0.0,3
45.19857600,45198576,0.0,-0.05,0.0,-0.71,336.83,336.84000000000003,0.0,0.0,3
45.29839300,45298393,0.0,-0.04,0.0,-0.71,336.83,336.84000000000003,0.0,0.0,3
45.39845700,45398457,0.0,-0.04,0.0,-0.71,336.83,336.84000000000003,0.0,0.01,3
45.49844600,45498446,0.0,-0.04,0.0,-0.71,336.83,336.84000000000003,0.0,0.01,3
45.59834000,45598340,0.0,-0.04,0.0,-0.71,336.83,336.84000000000003,0.0,0.01,3
45.69825900,45698259,0.0,-0.04,0.0,-0.71,336.82,336.83,0.0,0.0,3
45.79855600,45798556,0.0,-0.03,0.0,-0.72,336.82,336.83,0.0,0.0,3
45.89860500,45898605,0.0,-0.03,0.0,-0.71,336.82,336.83,0.0,0.0,3
45.99837800,45998378,0.0,-0.03,0.0,-0.72,336.82,336.83,0.0,0.0,3
46.09836000,46098360,0.0,-0.03,0.0,-0.71,336.82,336.83,0.0,0.0,3
46.19838900,46198389,0.0,-0.03,0.0,-0.71,336.82,336.83,0.0,0.0,3
46.29844100,46298441,0.0,-0.03,0.0,-0.71,336.82,336.83,0.0,0.0,3
46.39849800,46398498,0.0,-0.03,0.0,-0.71,336.82,336.83,0.0,0.0,3
46.49860100,46498601,0.0,-0.03,0.0,-0.71,336.82,336.83,0.0,0.0,3
46.59826600,46598266,0.0,-0.03,0.0,-0.71,336.82,336.83,0.0,0.0,3
46.69823500,46698235,0.0,-0.02,0.0,-0.71,336.82,336.83,0.0,0.0,3
46.79828500,46798285,0.0,-0.02,0.0,-0.71,336.83,336.84000000000003,0.0,0.0,3
46.89835400,46898354,0.0,-0.02,0.0,-0.71,336.83,336.84000000000003,0.0,0.0,3
46.99834600,46998346,0.0,-0.02,0.0,-0.7000000000000001,336.84000000000003,336.85,0.0,0.0,3
47.09838000,47098380,0.0,-0.02,0.0,-0.7000000000000001,336.84000000000003,336.85,0.0,0.0,3
47.19864700,47198647,0.0,-0.02,0.0,-0.7000000000000001,336.85,336.86,0.0,0.0,3
47.29868500,47298685,0.0,-0.02,0.0,-0.7000000000000001,336.85,336.86,0.0,0.0,3
47.39869500,47398695,0.0,-0.02,0.0,-0.7000000000000001,336.86,336.87,0.0,0.0,3
47.49866500,47498665,0.0,-0.02,0.0,-0.71,336.86,336.87,0.0,0.0,3
47.59855400,47598554,0.0,-0.02,0.0,-0.7000000000000001,336.86,336.87,0.0,0.0,3
47.69858800,47698588,0.0,-0.02,0.0,-0.7000000000000001,336.87,336.88,0.0,0.0,3
47.79858600,47798586,0.0,-0.02,0.0,-0.7000000000000001,336.87,336.88,0.0,0.0,3
47.89858600,47898586,0.0,-0.02,0.0,-0.7000000000000001,336.87,336.88,0.0,0.0,3
47.99861500,47998615,0.0,-0.02,0.0,-0.7000000000000001,336.87,336.88,0.0,0.01,3
48.09898400,48098984,0.0,-0.02,0.0,-0.71,336.86,336.87,0.0,0.01,3
48.19845000,48198450,0.0,-0.02,0.0,-0.71,336.85,336.86,0.0,0.01,3
48.29834600,48298346,0.0,-0.02,0.0,-0.7000000000000001,336.84000000000003,336.85,0.0,0.01,3
48.39836600,48398366,0.0,-0.02,0.0,-0.71,336.83,336.84000000000003,0.0,0.01,3
48.49827800,48498278,0.0,-0.02,0.0,-0.71,336.82,336.83,0.0,0.01,3
48.59828900,48598289,0.0,-0.02,0.0,-0.71,336.82,336.83,0.0,0.0,3
48.69835700,48698357,0.0,-0.02,0.0,-0.71,336.82,336.83,0.0,0.0,3
48.79835100,48798351,0.0,-0.02,0.0,-0.7000000000000001,336.81,336.82,0.0,0.0,3
48.89838800,48898388,0.0,-0.02,0.0,-0.71,336.81,336.82,0.0,0.01,3
48.99866500,48998665,0.0,-0.01,0.0,-0.71,336.81,336.82,0.0,0.01,3
49.09845100,49098451,0.0,-0.01,0.0,-0.71,336.81,336.82,0.0,0.01,3
49.19857300,49198573,0.0,-0.01,0.0,-0.71,336.81,336.82,0.0,0.0,3
49.29863200,49298632,0.0,-0.01,0.0,-0.71,336.81,336.82,0.0,0.0,3
49.39853000,49398530,0.0,-0.01,0.0,-0.71,336.81,336.82,0.0,0.0,3
49.49848600,49498486,0.0,-0.01,0.0,-0.71,336.8,336.81,0.0,0.0,3
49.59855300,49598553,0.0,0.0,0.0,-0.71,336.8,336.81,0.0,0.0,3
49.69855100,49698551,0.0,0.0,0.0,-0.71,336.8,336.81,0.0,0.0,3
49.79858400,49798584,0.0,0.0,0.0,-0.71,336.8,336.81,0.0,0.0,3
49.89880500,49898805,0.0,0.0,0.0,-0.71,336.8,336.81,0.0,0.0,3
49.99865800,49998658,0.0,0.0,0.0,-0.71,336.8,336.81,0.0,0.0,3
50.09832900,50098329,0.0,0.0,0.0,-0.71,336.8,336.81,0.0,0.0,3
50.19825200,50198252,0.0,0.0,0.0,-0.71,336.8,336.81,0.0,0.0,3
50.29828300,50298283,0.0,0.0,0.0,-0.71,336.8,336.81,0.0,0.0,3
50.39829400,50398294,0.0,0.0,0.0,-0.71,336.8,336.81,0.0,0.0,3
50.49859900,50498599,0.0,0.0,0.0,-0.71,336.8,336.81,0.0,0.0,3
50.59858700,50598587,0.0,0.0,0.0,-0.71,336.8,336.81,0.0,0.0,3
50.69862200,50698622,0.0,0.0,0.0,-0.71,336.8,336.81,0.0,0.0,3
50.79865400,50798654,0.0,0.0,0.0,-0.71,336.8,336.81,0.0,0.0,3
50.89844000,50898440,0.0,0.0,0.0,-0.71,336.8,336.81,0.0,0.0,3
50.99832700,50998327,0.0,0.0,0.0,-0.71,336.8,336.81,0.0,0.0,3
51.09826100,51098261,0.0,0.0,0.0,-0.72,336.8,336.81,0.0,0.0,3
51.19824700,51198247,0.0,0.0,0.0,-0.72,336.8,336.81,0.0,0.01,3
51.29826900,51298269,0.0,0.0,0.0,-0.72,336.8,336.81,0.0,0.0,3
51.39861000,51398610,0.0,0.0,0.0,-0.72,336.8,336.81,0.0,0.0,3
51.49857700,51498577,0.0,0.0,0.0,-0.72,336.8,336.81,0.0,0.01,3
51.59838300,51598383,0.0,0.0,0.0,-0.72,336.8,336.81,0.0,0.01,3
51.69844300,51698443,0.0,0.01,0.0,-0.71,336.8,336.81,0.0,0.01,3
51.79848000,51798480,0.0,0.0,0.0,-0.71,336.79,336.8,0.0,0.01,3
51.89835400,51898354,0.0,0.01,0.0,-0.72,336.79,336.8,0.0,0.01,3
51.99826200,51998262,0.0,0.01,0.0,-0.72,336.79,336.8,0.0,0.0,3
52.09823200,52098232,0.0,0.01,0.0,-0.72,336.78000000000003,336.79,0.0,0.0,3
52.19828900,52198289,0.0,0.01,0.0,-0.72,336.78000000000003,336.79,0.0,0.01,3
52.29837800,52298378,0.0,0.01,0.0,-0.72,336.78000000000003,336.79,0.0,0.01,3
52.39837800,52398378,0.0,0.01,0.0,-0.73,336.78000000000003,336.79,0.0,0.01,3
52.49838300,52498383,0.0,0.01,0.0,-0.72,336.77,336.78000000000003,0.0,0.0,3
52.59865400,52598654,0.0,0.02,0.0,-0.72,336.77,336.78000000000003,0.0,0.01,3
52.69843600,52698436,0.0,0.01,0.0,-0.72,336.76,336.77,0.0,0.01,3
52.79833000,52798330,0.0,0.01,0.0,-0.72,336.76,336.77,0.0,0.0,3
52.89862200,52898622,0.0,0.02,0.0,-0.72,336.75,336.76,0.0,0.01,3
52.99849500,52998495,0.0,0.02,0.0,-0.72,336.75,336.76,0.0,0.01,3
53.09850900,53098509,0.0,0.01,0.0,-0.71,336.75,336.76,0.0,0.01,3
53.19885900,53198859,0.0,0.01,0.0,-0.71,336.76,336.77,0.0,0.01,3
53.29860100,53298601,0.0,0.01,0.0,-0.71,336.76,336.77,0.0,0.01,3
53.39843900,53398439,0.0,0.02,0.0,-0.71,336.76,336.77,0.0,0.0,3
53.49843100,53498431,0.0,0.02,0.0,-0.71,336.76,336.77,0.0,0.01,3
53.59867600,53598676,0.0,0.02,0.0,-0.72,336.76,336.77,0.0,0.01,3
53.69862800,53698628,0.0,0.02,0.0,-0.72,336.76,336.77,0.0,0.01,3
53.79867100,53798671,0.0,0.02,0.0,-0.72,336.77,336.78000000000003,0.0,0.01,3
53.89853400,53898534,0.0,0.03,0.0,-0.73,336.77,336.78000000000003,0.0,0.0,3
53.99860900,53998609,0.0,0.03,0.0,-0.73,336.77,336.78000000000003,0.0,0.0,3
54.09859300,54098593,0.0,0.03,0.0,-0.73,336.77,336.78000000000003,0.0,0.0,3
54.19890300,54198903,0.0,0.04,0.0,-0.74,336.77,336.78000000000003,0.0,0.0,3
54.29862900,54298629,0.0,0.03,0.0,-0.73,336.77,336.78000000000003,0.0,0.0,3
54.39880700,54398807,0.0,0.04,0.0,-0.73,336.78000000000003,336.79,0.0,0.0,3
54.49869400,54498694,0.0,0.04,0.0,-0.74,336.78000000000003,336.79,0.0,0.0,3
54.59862000,54598620,0.0,0.04,0.0,-0.74,336.79,336.8,0.0,0.0,3
54.69867600,54698676,0.0,0.05,0.0,-0.74,336.79,336.8,0.0,0.0,3
54.79856200,54798562,0.0,0.05,0.0,-0.74,336.79,336.8,0.0,0.0,3
54.89861600,54898616,0.0,0.06,0.0,-0.74,336.79,336.8,0.0,0.0,3
54.99838100,54998381,0.0,0.05,0.0,-0.74,336.79,336.8,0.0,0.0,3
55.09837000,55098370,0.0,0.05,0.0,-0.75,336.8,336.81,0.0,0.0,3
55.19839800,55198398,0.0,0.05,0.0,-0.75,336.81,336.82,0.0,0.0,3
55.29843800,55298438,0.0,0.06,0.0,-0.75,336.81,336.82,0.0,0.0,3
55.39847900,55398479,0.0,0.06,0.0,-0.75,336.81,336.82,0.0,0.0,3
55.49832400,55498324,0.0,0.06,0.0,-0.75,336.81,336.82,0.0,0.0,3
55.59826100,55598261,0.0,0.06,0.0,-0.75,336.81,336.82,0.0,0.0,3
55.69857000,55698570,0.0,0.06,0.0,-0.75,336.81,336.82,0.0,0.0,3
55.79854600,55798546,0.0,0.06,0.0,-0.75,336.81,336.82,0.0,0.0,3
55.89839000,55898390,0.0,0.06,0.0,-0.75,336.81,336.82,0.0,0.0,3
55.99837600,55998376,0.0,0.07,0.0,-0.75,336.81,336.82,0.0,0.0,3
56.09841200,56098412,0.0,0.07,0.0,-0.75,336.81,336.82,0.0,0.0,3
56.19844400,56198444,0.0,0.07,0.0,-0.75,336.8,336.81,0.0,0.0,3
56.29847400,56298474,0.0,0.07,0.0,-0.74,336.8,336.81,0.0,0.0,3
56.39870200,56398702,0.0,0.07,0.0,-0.75,336.79,336.8,0.0,0.0,3
56.49869300,56498693,0.0,0.07,0.0,-0.75,336.79,336.8,0.0,0.0,3
56.59854000,56598540,0.0,0.07,0.0,-0.75,336.8,336.81,0.0,0.01,3
56.69860800,56698608,0.0,0.07,0.0,-0.75,336.8,336.81,0.0,0.0,3
56.79836600,56798366,0.0,0.08,0.0,-0.75,336.79,336.8,0.0,0.0,3
56.89841100,56898411,0.0,0.08,0.0,-0.75,336.79,336.8,0.0,0.0,3
56.99840500,56998405,0.0,0.08,0.0,-0.75,336.8,336.81,0.0,0.01,3
57.09844700,57098447,0.0,0.08,0.0,-0.75,336.8,336.81,0.0,0.0,3
57.19846600,57198466,0.0,0.08,0.0,-0.75,336.79,336.8,0.0,0.0,3
57.29868700,57298687,0.0,0.08,0.0,-0.75,336.8,336.81,0.0,0.0,3
57.39826900,57398269,0.0,0.08,0.0,-0.75,336.8,336.81,0.0,0.0,3
57.49825100,57498251,0.0,0.08,0.0,-0.75,336.8,336.81,0.0,0.0,3
57.59831300,57598313,0.0,0.08,0.0,-0.75,336.81,336.82,0.0,0.0,3
57.69838000,57698380,0.0,0.08,0.0,-0.75,336.81,336.82,0.0,0.0,3
57.79836600,57798366,0.0,0.08,0.0,-0.75,336.81,336.82,0.0,0.0,3
57.89862700,57898627,0.0,0.08,0.0,-0.75,336.81,336.82,0.0,0.0,3
57.99865100,57998651,0.0,0.08,0.0,-0.74,336.81,336.82,0.0,0.0,3
58.09843700,58098437,0.0,0.08,0.0,-0.74,336.81,336.82,0.0,0.0,3
58.19860800,58198608,0.0,0.08,0.0,-0.74,336.82,336.83,0.0,0.0,3
58.29862300,58298623,0.0,0.08,0.0,-0.74,336.82,336.83,0.0,0.0,3
58.39852700,58398527,0.0,0.08,0.0,-0.74,336.83,336.84000000000003,0.0,0.0,3
58.49849500,58498495,0.0,0.09,0.0,-0.73,336.83,336.84000000000003,0.0,0.01,3
58.59863800,58598638,0.0,0.08,0.0,-0.73,336.83,336.84000000000003,0.0,0.01,3
58.69854700,58698547,0.0,0.08,0.0,-0.73,336.84000000000003,336.85,0.0,0.01,3
58.79860800,58798608,0.0,0.09,0.0,-0.73,336.84000000000003,336.85,0.0,0.0,3
58.89863600,58898636,0.0,0.08,0.0,-0.73,336.84000000000003,336.85,0.0,0.0,3
58.99866000,58998660,0.0,0.08,0.0,-0.73,336.85,336.86,0.0,0.0,3
59.09857900,59098579,0.0,0.09,0.0,-0.73,336.85,336.86,0.0,0.0,3
59.19864000,59198640,0.0,0.08,0.0,-0.73,336.86,336.87,0.0,0.0,3
59.29850100,59298501,0.0,0.09,0.0,-0.73,336.86,336.87,0.0,0.0,3
59.39857800,59398578,0.0,0.09,0.0,-0.73,336.85,336.86,0.0,0.0,3
59.49878500,59498785,0.0,0.09,0.0,-0.73,336.86,336.87,0.0,0.0,3
59.59835200,59598352,0.0,0.09,0.0,-0.72,336.86,336.87,0.0,0.0,3
59.69839300,59698393,0.0,0.09,0.0,-0.72,336.86,336.87,0.0,0.0,3
59.79843000,59798430,0.0,0.09,0.0,-0.72,336.86,336.87,0.0,0.0,3
59.89844100,59898441,0.0,0.09,0.0,-0.71,336.85,336.86,0.0,0.0,3
59.99834500,59998345,0.0,0.09,0.0,-0.71,336.85,336.86,0.0,0.0,3
60.09825900,60098259,0.0,0.1,0.0,-0.71,336.85,336.86,0.0,0.0,3
60.19830800,60198308,0.0,0.09,0.0,-0.71,336.85,336.86,0.0,0.01,3
60.29827300,60298273,0.0,0.1,0.0,-0.71,336.85,336.86,0.0,0.0,3
60.39863800,60398638,0.0,0.1,0.0,-0.71,336.86,336.87,0.0,0.0,3
60.49858400,60498584,0.0,0.1,0.0,-0.71,336.87,336.88,0.0,0.0,3
60.59838600,60598386,0.0,0.1,0.0,-0.71,336.88,336.89,0.0,0.0,3
60.69847900,60698479,0.0,0.1,0.0,-0.71,336.88,336.89,0.0,0.0,3
60.79845100,60798451,0.0,0.1,0.0,-0.71,336.88,336.89,0.0,0.0,3
60.89834300,60898343,0.0,0.1,0.0,-0.71,336.88,336.89,0.0,0.0,3
60.99826200,60998262,0.0,0.1,0.0,-0.71,336.88,336.89,0.0,0.0,3
61.09854900,61098549,0.0,0.1,0.0,-0.71,336.88,336.89,0.0,0.0,3
61.19853700,61198537,0.0,0.1,0.0,-0.7000000000000001,336.89,336.90000000000003,0.0,0.0,3
61.29836900,61298369,0.0,0.1,0.0,-0.7000000000000001,336.89,336.90000000000003,0.0,0.0,3
61.39837300,61398373,0.0,0.1,0.0,-0.71,336.89,336.90000000000003,0.0,0.0,3
61.49838800,61498388,0.0,0.09,0.0,-0.71,336.89,336.90000000000003,0.0,0.0,3
61.59844500,61598445,0.0,0.1,0.0,-0.71,336.89,336.90000000000003,0.0,0.0,3
61.69845300,61698453,0.0,0.1,0.0,-0.71,336.89,336.90000000000003,0.0,0.0,3
61.79834500,61798345,0.0,0.1,0.0,-0.71,336.89,336.90000000000003,0.0,0.0,3
61.89827300,61898273,0.0,0.1,0.0,-0.71,336.88,336.89,0.0,0.0,3
61.99823600,61998236,0.0,0.1,0.0,-0.7000000000000001,336.88,336.89,0.0,0.0,3
62.09858000,62098580,0.0,0.1,0.0,-0.7000000000000001,336.88,336.89,0.0,0.0,3
62.19834000,62198340,0.0,0.09,0.0,-0.7000000000000001,336.88,336.89,0.0,0.0,3
62.29835800,62298358,0.0,0.09,0.0,-0.7000000000000001,336.88,336.89,0.0,0.0,3
62.39840000,62398400,0.0,0.09,0.0,-0.7000000000000001,336.89,336.90000000000003,0.0,0.0,3
62.49843200,62498432,0.0,0.09,0.0,-0.7000000000000001,336.89,336.90000000000003,0.0,0.0,3
62.59844800,62598448,0.0,0.09,0.0,-0.7000000000000001,336.89,336.90000000000003,0.0,0.0,3
62.69834200,62698342,0.0,0.09,0.0,-0.7000000000000001,336.88,336.89,0.0,0.0,3
62.79825400,62798254,0.0,0.09,0.0,-0.7000000000000001,336.88,336.89,0.0,0.0,3
62.89860300,62898603,0.0,0.08,0.0,-0.7000000000000001,336.88,336.89,0.0,0.0,3
62.99853900,62998539,0.0,0.08,0.0,-0.7000000000000001,336.88,336.89,0.0,0.0,3
63.09858600,63098586,0.0,0.08,0.0,-0.6900000000000001,336.89,336.90000000000003,0.0,0.0,3
63.19858400,63198584,0.0,0.07,0.0,-0.6900000000000001,336.89,336.90000000000003,0.0,0.0,3
63.29862200,63298622,0.0,0.07,0.0,-0.6900000000000001,336.89,336.90000000000003,0.0,0.0,3
63.39890800,63398908,0.0,0.07,0.0,-0.6900000000000001,336.90000000000003,336.91,0.0,0.0,3
63.49844300,63498443,0.0,0.07,0.0,-0.6900000000000001,336.90000000000003,336.91,0.0,0.0,3
63.59834300,63598343,0.0,0.07,0.0,-0.6900000000000001,336.90000000000003,336.91,0.0,0.01,3
63.69836800,63698368,0.0,0.06,0.0,-0.6900000000000001,336.91,336.92,0.0,0.0,3
63.79822500,63798225,0.0,0.06,0.0,-0.6900000000000001,336.91,336.92,0.0,0.0,3
63.89829500,63898295,0.0,0.06,0.0,-0.6900000000000001,336.91,336.92,0.0,0.0,3
63.99837900,63998379,0.0,0.06,0.0,-0.6900000000000001,336.91,336.92,0.0,0.0,3
64.09835800,64098358,0.0,0.06,0.0,-0.6900000000000001,336.91,336.92,0.0,0.0,3
64.19840900,64198409,0.0,0.06,0.0,-0.68,336.92,336.93,0.0,0.0,3
64.29867800,64298678,0.0,0.06,0.0,-0.68,336.92,336.93,0.0,0.0,3
64.39869500,64398695,0.0,0.06,0.0,-0.68,336.93,336.94,0.0,0.0,3
64.49833900,64498339,0.0,0.06,0.0,-0.68,336.93,336.94,0.0,0.01,3
64.59825800,64598258,0.0,0.06,0.0,-0.67,336.93,336.94,0.0,0.0,3
64.69823500,64698235,0.0,0.05,0.0,-0.68,336.92,336.93,0.0,0.0,3
64.79833500,64798335,0.0,0.05,0.0,-0.67,336.93,336.94,0.0,0.0,3
64.89871800,64898718,0.0,0.06,0.0,-0.67,336.93,336.94,0.0,0.0,3
64.99859300,64998593,0.0,0.05,0.0,-0.67,336.94,336.95,0.0,0.01,3
65.09840100,65098401,0.0,0.06,0.0,-0.67,336.94,336.95,0.0,0.0,3
65.19843300,65198433,0.0,0.05,0.0,-0.67,336.94,336.95,0.0,0.01,3
65.29845500,65298455,0.0,0.05,0.0,-0.67,336.93,336.94,0.0,0.0,3
65.39836100,65398361,0.0,0.05,0.0,-0.67,336.93,336.94,0.0,0.0,3
65.49825900,65498259,0.0,0.05,0.0,-0.67,336.94,336.95,0.0,0.0,3
65.59852800,65598528,0.0,0.05,0.0,-0.67,336.94,336.95,0.0,0.0,3
65.69853900,65698539,0.0,0.05,0.0,-0.67,336.93,336.94,0.0,0.0,3
65.79838200,65798382,0.0,0.05,0.0,-0.67,336.93,336.94,0.0,0.01,3
65.89837700,65898377,0.0,0.05,0.0,-0.66,336.93,336.94,0.0,0.0,3
65.99838700,65998387,0.0,0.05,0.0,-0.66,336.93,336.94,0.0,0.01,3
66.09843100,66098431,0.0,0.04,0.0,-0.67,336.92,336.93,0.0,0.01,3
66.19845500,66198455,0.0,0.05,0.0,-0.67,336.91,336.92,0.0,0.01,3
66.29867800,66298678,0.0,0.05,0.0,-0.67,336.91,336.92,0.0,0.0,3
66.39870000,66398700,0.0,0.05,0.0,-0.67,336.90000000000003,336.91,0.0,0.0,3
66.49822500,66498225,0.0,0.05,0.0,-0.67,336.90000000000003,336.91,0.0,0.0,3
66.59834400,66598344,0.0,0.04,0.0,-0.68,336.90000000000003,336.91,0.0,0.01,3
66.69836900,66698369,0.0,0.04,0.0,-0.68,336.90000000000003,336.91,0.0,0.01,3
66.79836400,66798364,0.0,0.04,0.0,-0.67,336.90000000000003,336.91,0.0,0.01,3
66.89842700,66898427,0.0,0.05,0.0,-0.68,336.89,336.90000000000003,0.0,0.0,3
66.99878000,66998780,0.0,0.05,0.0,-0.68,336.89,336.90000000000003,0.0,0.0,3
67.09867400,67098674,0.0,0.05,0.0,-0.68,336.88,336.89,0.0,0.0,3
67.19861600,67198616,0.0,0.04,0.0,-0.67,336.88,336.89,0.0,0.0,3
67.29863000,67298630,0.0,0.05,0.0,-0.67,336.88,336.89,0.0,0.0,3
67.39852400,67398524,0.0,0.04,0.0,-0.67,336.87,336.88,0.0,0.0,3
67.49850700,67498507,0.0,0.04,0.0,-0.67,336.87,336.88,0.0,0.0,3
67.59879000,67598790,0.0,0.04,0.0,-0.68,336.87,336.88,0.0,0.0,3
67.69856800,67698568,0.0,0.04,0.0,-0.68,336.86,336.87,0.0,0.0,3
67.79839500,67798395,0.0,0.04,0.0,-0.68,336.86,336.87,0.0,0.0,3
67.89843300,67898433,0.0,0.04,0.0,-0.68,336.87,336.88,0.0,0.0,3
67.99844900,67998449,0.0,0.04,0.0,-0.68,336.86,336.87,0.0,0.0,3
68.09833400,68098334,0.0,0.04,0.0,-0.68,336.86,336.87,0.0,0.0,3
68.19825500,68198255,0.0,0.04,0.0,-0.68,336.86,336.87,0.0,0.01,3
68.29854500,68298545,0.0,0.04,0.0,-0.68,336.87,336.88,0.0,0.0,3
68.39862300,68398623,0.0,0.04,0.0,-0.68,336.86,336.87,0.0,0.01,3
68.49835500,68498355,0.0,0.04,0.0,-0.68,336.85,336.86,0.0,0.0,3
68.59835700,68598357,0.0,0.04,0.0,-0.6900000000000001,336.85,336.86,0.0,0.0,3
68.69839400,68698394,0.0,0.04,0.0,-0.6900000000000001,336.85,336.86,0.0,0.0,3
68.79843700,68798437,0.0,0.03,0.0,-0.6900000000000001,336.85,336.86,0.0,0.0,3
68.89844200,68898442,0.0,0.03,0.0,-0.6900000000000001,336.85,336.86,0.0,0.0,3
68.99863700,68998637,0.0,0.03,0.0,-0.6900000000000001,336.85,336.86,0.0,0.0,3
69.09896700,69098967,0.0,0.04,0.0,-0.6900000000000001,336.85,336.86,0.0,0.0,3
69.19855600,69198556,0.0,0.04,0.0,-0.6900000000000001,336.85,336.85,0.0,0.0,3
69.29828500,69298285,0.0,0.04,0.0,-0.6900000000000001,336.84000000000003,336.85,0.0,0.0,3
69.39840600,69398406,0.0,0.04,0.0,-0.6900000000000001,336.84000000000003,336.85,0.0,0.0,3
69.49836400,69498364,0.0,0.04,0.0,-0.6900000000000001,336.84000000000003,336.85,0.0,0.0,3
69.59840400,69598404,0.0,0.04,0.0,-0.6900000000000001,336.84000000000003,336.85,0.0,0.0,3
69.69865500,69698655,0.0,0.04,0.0,-0.7000000000000001,336.84000000000003,336.85,0.0,0.01,3
69.79866600,69798666,0.0,0.04,0.0,-0.7000000000000001,336.84000000000003,336.85,0.0,0.01,3
69.89864700,69898647,0.0,0.04,0.0,-0.7000000000000001,336.85,336.86,0.0,0.01,3
69.99866600,69998666,0.0,0.04,0.0,-0.7000000000000001,336.85,336.86,0.0,0.01,3
70.09853100,70098531,0.0,0.04,0.0,-0.7000000000000001,336.85,336.86,0.0,0.01,3
70.19885100,70198851,0.0,0.04,0.0,-0.7000000000000001,336.84000000000003,336.85,0.0,0.0,3
70.29886400,70298864,0.0,0.05,0.0,-0.71,336.84000000000003,336.85,0.0,0.0,3
70.39860200,70398602,0.0,0.04,0.0,-0.7000000000000001,336.84000000000003,336.85,0.0,0.01,3
70.49861600,70498616,0.0,0.04,0.0,-0.71,336.84000000000003,336.85,0.0,0.01,3
70.59865400,70598654,0.0,0.04,0.0,-0.71,336.85,336.86,0.0,0.01,3
70.69849700,70698497,0.0,0.05,0.0,-0.71,336.85,336.86,0.0,0.01,3
70.79834800,70798348,0.0,0.05,0.0,-0.71,336.85,336.86,0.0,0.01,3
70.89825800,70898258,0.0,0.05,0.0,-0.71,336.86,336.87,0.0,0.01,3
70.99824800,70998248,0.0,0.05,0.0,-0.71,336.86,336.87,0.0,0.01,3
71.09829400,71098294,0.0,0.05,0.0,-0.71,336.86,336.87,0.0,0.01,3
71.19894600,71198946,0.0,0.05,0.0,-0.71,336.86,336.87,0.0,0.01,3
71.29857600,71298576,0.0,0.05,0.0,-0.71,336.86,336.87,0.0,0.01,3
71.39842600,71398426,0.0,0.05,0.0,-0.71,336.86,336.87,0.0,0.01,3
71.49843400,71498434,0.0,0.05,0.0,-0.71,336.87,336.88,0.0,0.01,3
71.59844200,71598442,0.0,0.05,0.0,-0.71,336.87,336.88,0.0,0.01,3
71.69833200,71698332,0.0,0.05,0.0,-0.72,336.87,336.88,0.0,0.0,3
71.79826100,71798261,0.0,0.05,0.0,-0.72,336.87,336.88,0.0,0.0,3
71.89855000,71898550,0.0,0.05,0.0,-0.72,336.86,336.87,0.0,0.0,3
71.99860300,71998603,0.0,0.06,0.0,-0.72,336.86,336.87,0.0,0.0,3
72.09837500,72098375,0.0,0.05,0.0,-0.73,336.86,336.87,0.0,0.0,3
72.19837800,72198378,0.0,0.05,0.0,-0.73,336.86,336.87,0.0,0.0,3
72.29842000,72298420,0.0,0.05,0.0,-0.73,336.86,336.87,0.0,0.0,3
72.39846200,72398462,0.0,0.06,0.0,-0.73,336.86,336.87,0.0,0.0,3
72.49844600,72498446,0.0,0.06,0.0,-0.73,336.86,336.87,0.0,0.0,3
72.59864300,72598643,0.0,0.06,0.0,-0.73,336.86,336.87,0.0,0.0,3
72.69825600,72698256,0.0,0.06,0.0,-0.73,336.85,336.86,0.0,0.0,3
72.79826300,72798263,0.0,0.06,0.0,-0.73,336.85,336.86,0.0,0.0,3
72.89831200,72898312,0.0,0.07,0.0,-0.74,336.84000000000003,336.85,0.0,0.0,3
72.99838200,72998382,0.0,0.07,0.0,-0.74,336.84000000000003,336.85,0.0,0.0,3
73.09837100,73098371,0.0,0.07,0.0,-0.74,336.84000000000003,336.85,0.0,0.0,3
73.19843700,73198437,0.0,0.07,0.0,-0.74,336.84000000000003,336.85,0.0,0.0,3
73.29879100,73298791,0.0,0.07,0.0,-0.74,336.84000000000003,336.85,0.0,0.0,3
73.39850000,73398500,0.0,0.07,0.0,-0.74,336.84000000000003,336.85,0.0,0.0,3
73.49834600,73498346,0.0,0.07,0.0,-0.74,336.84000000000003,336.85,0.0,0.0,3
73.59826200,73598262,0.0,0.06,0.0,-0.74,336.84000000000003,336.85,0.0,0.01,3
73.69822900,73698229,0.0,0.06,0.0,-0.74,336.84000000000003,336.85,0.0,0.0,3
73.79829600,73798296,0.0,0.06,0.0,-0.75,336.84000000000003,336.85,0.0,0.0,3
73.89859300,73898593,0.0,0.06,0.0,-0.74,336.84000000000003,336.85,0.0,0.0,3
73.99859200,73998592,0.0,0.06,0.0,-0.74,336.83,336.84000000000003,0.0,0.01,3
74.09841300,74098413,0.0,0.06,0.0,-0.75,336.83,336.84000000000003,0.0,0.0,3
74.19846600,74198466,0.0,0.06,0.0,-0.75,336.83,336.84000000000003,0.0,0.0,3
74.29867400,74298674,0.0,0.06,0.0,-0.75,336.83,336.84000000000003,0.0,0.0,3
74.39864200,74398642,0.0,0.07,0.0,-0.75,336.83,336.84000000000003,0.0,0.0,3
74.49862300,74498623,0.0,0.06,0.0,-0.75,336.83,336.84000000000003,0.0,0.0,3
74.59878600,74598786,0.0,0.07,0.0,-0.75,336.83,336.84000000000003,0.0,0.01,3
74.69857200,74698572,0.0,0.06,0.0,-0.75,336.83,336.84000000000003,0.0,0.01,3
74.79836800,74798368,0.0,0.07,0.0,-0.75,336.83,336.84000000000003,0.0,0.0,3
74.89836900,74898369,0.0,0.07,0.0,-0.75,336.83,336.84000000000003,0.0,0.0,3
74.99840700,74998407,0.0,0.07,0.0,-0.74,336.83,336.84000000000003,0.0,0.0,3
75.09844500,75098445,0.0,0.07,0.0,-0.75,336.83,336.84000000000003,0.0,0.0,3
75.19845600,75198456,0.0,0.07,0.0,-0.75,336.83,336.84000000000003,0.0,0.01,3
75.29865900,75298659,0.0,0.08,0.0,-0.74,336.83,336.84000000000003,0.0,0.01,3
75.39828000,75398280,0.0,0.08,0.0,-0.74,336.83,336.84000000000003,0.0,0.01,3
75.49828300,75498283,0.0,0.08,0.0,-0.74,336.84000000000003,336.85,0.0,0.01,3
75.59829100,75598291,0.0,0.07,0.0,-0.74,336.84000000000003,336.85,0.0,0.01,3
75.69837200,75698372,0.0,0.08,0.0,-0.74,336.84000000000003,336.85,0.0,0.01,3
75.79836600,75798366,0.0,0.07,0.0,-0.74,336.85,336.86,0.0,0.01,3
75.89840600,75898406,0.0,0.08,0.0,-0.73,336.84000000000003,336.85,0.0,0.0,3
75.99844600,75998446,0.0,0.08,0.0,-0.73,336.84000000000003,336.85,0.0,0.0,3
76.09845400,76098454,0.0,0.08,0.0,-0.74,336.84000000000003,336.85,0.0,0.01,3
76.19836300,76198363,0.0,0.07,0.0,-0.73,336.84000000000003,336.85,0.0,0.01,3
76.29826200,76298262,0.0,0.07,0.0,-0.73,336.84000000000003,336.85,0.0,0.01,3
76.39856700,76398567,0.0,0.07,0.0,-0.74,336.84000000000003,336.85,0.0,0.01,3
76.49850800,76498508,0.0,0.07,0.0,-0.73,336.85,336.86,0.0,0.01,3
76.59835900,76598359,0.0,0.07,0.0,-0.73,336.85,336.86,0.0,0.01,3
76.69836100,76698361,0.0,0.07,0.0,-0.72,336.85,336.86,0.0,0.01,3
76.79839500,76798395,0.0,0.07,0.0,-0.72,336.85,336.86,0.0,0.01,3
76.89844200,76898442,0.0,0.07,0.0,-0.72,336.86,336.87,0.0,0.01,3
76.99859600,76998596,0.0,0.08,0.0,-0.72,336.86,336.87,0.0,0.01,3
77.09861900,77098619,0.0,0.08,0.0,-0.72,336.86,336.87,0.0,0.01,3
77.19868700,77198687,0.0,0.08,0.0,-0.72,336.87,336.88,0.0,0.01,3
77.29831000,77298310,0.0,0.08,0.0,-0.72,336.86,336.87,0.0,0.01,3
77.39835300,77398353,0.0,0.08,0.0,-0.72,336.86,336.87,0.0,0.01,3
77.49872100,77498721,0.0,0.08,0.0,-0.72,336.86,336.87,0.0,0.0,3
77.59858900,77598589,0.0,0.08,0.0,-0.72,336.85,336.86,0.0,0.01,3
77.69863500,77698635,0.0,0.08,0.0,-0.71,336.85,336.86,0.0,0.01,3
77.79889700,77798897,0.0,0.08,0.0,-0.71,336.85,336.86,0.0,0.01,3
77.89868400,77898684,0.0,0.07,0.0,-0.71,336.84000000000003,336.85,0.0,0.01,3
77.99834700,77998347,0.0,0.07,0.0,-0.71,336.84000000000003,336.85,0.0,0.01,3
78.09835100,78098351,0.0,0.07,0.0,-0.71,336.83,336.84000000000003,0.0,0.0,3
78.19830000,78198300,0.0,0.07,0.0,-0.71,336.82,336.83,0.0,0.0,3
78.29834400,78298344,0.0,0.08,0.0,-0.71,336.82,336.83,0.0,0.0,3
78.39870200,78398702,0.0,0.08,0.0,-0.71,336.82,336.83,0.0,0.0,3
78.49860400,78498604,0.0,0.08,0.0,-0.71,336.82,336.83,0.0,0.0,3
78.59838900,78598389,0.0,0.08,0.0,-0.7000000000000001,336.82,336.83,0.0,0.0,3
78.69843600,78698436,0.0,0.08,0.0,-0.7000000000000001,336.82,336.83,0.0,0.0,3
78.79846100,78798461,0.0,0.08,0.0,-0.7000000000000001,336.82,336.83,0.0,0.0,3
78.89835300,78898353,0.0,0.08,0.0,-0.6900000000000001,336.82,336.83,0.0,0.0,3
78.99837300,78998373,0.0,0.08,0.0,-0.6900000000000001,336.82,336.83,0.0,0.0,3
79.09852600,79098526,0.0,0.08,0.0,-0.6900000000000001,336.82,336.83,0.0,0.0,3
79.19856700,79198567,0.0,0.08,0.0,-0.6900000000000001,336.81,336.82,0.0,0.0,3
79.29861600,79298616,0.0,0.08,0.0,-0.6900000000000001,336.81,336.82,0.0,0.0,3
79.39864700,79398647,0.0,0.08,0.0,-0.6900000000000001,336.81,336.82,0.0,0.0,3
79.49840500,79498405,0.0,0.08,0.0,-0.6900000000000001,336.81,336.82,0.0,0.0,3
79.59851200,79598512,0.0,0.08,0.0,-0.6900000000000001,336.81,336.82,0.0,0.0,3
79.69848200,79698482,0.0,0.09,0.0,-0.6900000000000001,336.81,336.82,0.0,0.0,3
79.79835200,79798352,0.0,0.09,0.0,-0.6900000000000001,336.8,336.81,0.0,0.0,3
79.89835800,79898358,0.0,0.08,0.0,-0.6900000000000001,336.8,336.81,0.0,0.0,3
79.99828600,79998286,0.0,0.08,0.0,-0.6900000000000001,336.8,336.81,0.0,0.0,3
80.09829100,80098291,0.0,0.09,0.0,-0.6900000000000001,336.8,336.81,0.0,0.0,3
80.19838100,80198381,0.0,0.09,0.0,-0.6900000000000001,336.8,336.81,0.0,0.0,3
80.29860800,80298608,0.0,0.08,0.0,-0.6900000000000001,336.8,336.81,0.0,0.0,3
80.39864400,80398644,0.0,0.08,0.0,-0.6900000000000001,336.81,336.82,0.0,0.0,3
80.49862700,80498627,0.0,0.09,0.0,-0.6900000000000001,336.81,336.82,0.0,0.0,3
80.59864700,80598647,0.0,0.09,0.0,-0.6900000000000001,336.8,336.81,0.0,0.0,3
80.69864500,80698645,0.0,0.08,0.0,-0.6900000000000001,336.8,336.81,0.0,0.0,3
80.79867300,80798673,0.0,0.08,0.0,-0.6900000000000001,336.8,336.81,0.0,0.0,3
80.89850500,80898505,0.0,0.08,0.0,-0.6900000000000001,336.79,336.8,0.0,0.0,3
80.99858000,80998580,0.0,0.08,0.0,-0.6900000000000001,336.79,336.8,0.0,0.0,3
81.09836900,81098369,0.0,0.09,0.0,-0.6900000000000001,336.78000000000003,336.79,0.0,0.0,3
81.19837200,81198372,0.0,0.09,0.0,-0.6900000000000001,336.78000000000003,336.79,0.0,0.0,3
81.29841100,81298411,0.0,0.09,0.0,-0.6900000000000001,336.78000000000003,336.79,0.0,0.0,3
81.39847000,81398470,0.0,0.09,0.0,-0.6900000000000001,336.78000000000003,336.79,0.0,0.0,3
81.49846000,81498460,0.0,0.09,0.0,-0.6900000000000001,336.78000000000003,336.79,0.0,0.0,3
81.59835600,81598356,0.0,0.09,0.0,-0.6900000000000001,336.78000000000003,336.79,0.0,0.0,3
81.69826500,81698265,0.0,0.09,0.0,-0.6900000000000001,336.78000000000003,336.79,0.0,0.0,3
81.79832200,81798322,0.0,0.09,0.0,-0.6900000000000001,336.78000000000003,336.79,0.0,0.0,3
81.89833300,81898333,0.0,0.09,0.0,-0.6900000000000001,336.78000000000003,336.79,0.0,0.01,3
81.99837900,81998379,0.0,0.09,0.0,-0.6900000000000001,336.77,336.78000000000003,0.0,0.01,3
82.09836900,82098369,0.0,0.09,0.0,-0.6900000000000001,336.77,336.78000000000003,0.0,0.01,3
82.19841000,82198410,0.0,0.09,0.0,-0.6900000000000001,336.77,336.78000000000003,0.0,0.01,3
82.29866400,82298664,0.0,0.1,0.0,-0.6900000000000001,336.78000000000003,336.79,0.0,0.01,3
82.39848500,82398485,0.0,0.09,0.0,-0.68,336.78000000000003,336.79,0.0,0.01,3
82.49835300,82498353,0.0,0.09,0.0,-0.68,336.77,336.78000000000003,0.0,0.01,3
82.59828800,82598288,0.0,0.09,0.0,-0.68,336.78000000000003,336.79,0.0,0.01,3
82.69827200,82698272,0.0,0.09,0.0,-0.68,336.78000000000003,336.79,0.0,0.01,3
82.79829400,82798294,0.0,0.09,0.0,-0.68,336.78000000000003,336.79,0.0,0.01,3
82.89836900,82898369,0.0,0.09,0.0,-0.68,336.78000000000003,336.79,0.0,0.01,3
82.99835900,82998359,0.0,0.09,0.0,-0.68,336.79,336.8,0.0,0.01,3
83.09840200,83098402,0.0,0.09,0.0,-0.68,336.79,336.8,0.0,0.01,3
83.19865700,83198657,0.0,0.09,0.0,-0.68,336.79,336.8,0.0,0.0,3
83.29846400,83298464,0.0,0.09,0.0,-0.68,336.79,336.8,0.0,0.0,3
83.39837900,83398379,0.0,0.09,0.0,-0.68,336.79,336.8,0.0,0.0,3
83.49835700,83498357,0.0,0.09,0.0,-0.68,336.8,336.81,0.0,0.0,3
83.59828100,83598281,0.0,0.09,0.0,-0.68,336.8,336.81,0.0,0.0,3
83.69827600,83698276,0.0,0.09,0.0,-0.68,336.8,336.81,0.0,0.0,3
83.79871200,83798712,0.0,0.09,0.0,-0.68,336.8,336.81,0.0,0.0,3
83.89834600,83898346,0.0,0.09,0.0,-0.68,336.8,336.81,0.0,0.0,3
83.99837200,83998372,0.0,0.08,0.0,-0.67,336.8,336.81,0.0,0.0,3
84.09843100,84098431,0.0,0.08,0.0,-0.67,336.8,336.81,0.0,0.0,3
84.19845400,84198454,0.0,0.08,0.0,-0.67,336.8,336.81,0.0,0.0,3
84.29834800,84298348,0.0,0.08,0.0,-0.67,336.8,336.81,0.0,0.0,3
84.39837600,84398376,0.0,0.08,0.0,-0.67,336.8,336.81,0.0,0.0,3
84.49856000,84498560,0.0,0.07,0.0,-0.67,336.8,336.81,0.0,0.0,3
84.59860000,84598600,0.0,0.07,0.0,-0.66,336.8,336.81,0.0,0.0,3
84.69861700,84698617,0.0,0.07,0.0,-0.66,336.8,336.81,0.0,0.0,3
84.79860600,84798606,0.0,0.07,0.0,-0.66,336.79,336.8,0.0,0.0,3
84.89886200,84898862,0.0,0.07,0.0,-0.66,336.79,336.8,0.0,0.0,3
84.99884600,84998846,0.0,0.07,0.0,-0.66,336.78000000000003,336.79,0.0,0.0,3
85.09866600,85098666,0.0,0.07,0.0,-0.66,336.78000000000003,336.79,0.0,0.0,3
85.19864700,85198647,0.0,0.07,0.0,-0.67,336.78000000000003,336.79,0.0,0.0,3
85.29866800,85298668,0.0,0.07,0.0,-0.67,336.78000000000003,336.79,0.0,0.0,3
85.39857700,85398577,0.0,0.07,0.0,-0.67,336.77,336.78000000000003,0.0,0.01,3
85.49857600,85498576,0.0,0.07,0.0,-0.66,336.77,336.78000000000003,0.0,0.01,3
85.59860800,85598608,0.0,0.07,0.0,-0.66,336.78000000000003,336.79,0.0,0.01,3
85.69859100,85698591,0.0,0.07,0.0,-0.65,336.78000000000003,336.79,0.0,0.01,3
85.79842100,85798421,0.0,0.07,0.0,-0.65,336.79,336.8,0.0,0.01,3
85.89856900,85898569,0.0,0.07,0.0,-0.65,336.79,336.8,0.0,0.01,3
85.99845200,85998452,0.0,0.06,0.0,-0.65,336.8,336.81,0.0,0.01,3
86.09833600,86098336,0.0,0.06,0.0,-0.65,336.79,336.8,0.0,0.01,3
86.19826000,86198260,0.0,0.06,0.0,-0.65,336.79,336.8,0.0,0.01,3
86.29854100,86298541,0.0,0.06,0.0,-0.64,336.79,336.8,0.0,0.01,3
86.39858100,86398581,0.0,0.06,0.0,-0.64,336.79,336.8,0.0,0.01,3
86.49836200,86498362,0.0,0.06,0.0,-0.64,336.79,336.8,0.0,0.01,3
86.59835900,86598359,0.0,0.06,0.0,-0.63,336.79,336.8,0.0,0.01,3
86.69839100,86698391,0.0,0.06,0.0,-0.63,336.8,336.81,0.0,0.01,3
86.79845700,86798457,0.0,0.05,0.0,-0.63,336.8,336.81,0.0,0.0,3
86.89847300,86898473,0.0,0.05,0.0,-0.63,336.8,336.81,0.0,0.0,3
86.99867000,86998670,0.0,0.05,0.0,-0.63,336.8,336.81,0.0,0.01,3
87.09826800,87098268,0.0,0.04,0.0,-0.63,336.8,336.81,0.0,0.0,3
87.19828900,87198289,0.0,0.04,0.0,-0.63,336.8,336.81,0.0,0.0,3
87.29828400,87298284,0.0,0.04,0.0,-0.62,336.81,336.82,0.0,0.0,3
87.39838400,87398384,0.0,0.04,0.0,-0.62,336.8,336.81,0.0,0.0,3
87.49835200,87498352,0.0,0.04,0.0,-0.62,336.8,336.81,0.0,0.0,3
87.59837600,87598376,0.0,0.04,0.0,-0.62,336.8,336.81,0.0,0.0,3
87.69864400,87698644,0.0,0.04,0.0,-0.61,336.8,336.81,0.0,0.0,3
87.79846000,87798460,0.0,0.03,0.0,-0.61,336.8,336.81,0.0,0.0,3
87.89834500,87898345,0.0,0.03,0.0,-0.61,336.8,336.81,0.0,0.01,3
87.99826100,87998261,0.0,0.03,0.0,-0.61,336.8,336.81,0.0,0.01,3
88.09831200,88098312,0.0,0.03,0.0,-0.61,336.8,336.81,0.0,0.01,3
88.19829300,88198293,0.0,0.03,0.0,-0.6,336.79,336.8,0.0,0.01,3
88.29836700,88298367,0.0,0.03,0.0,-0.6,336.79,336.8,0.0,0.01,3
88.39839400,88398394,0.0,0.03,0.0,-0.6,336.79,336.8,0.0,0.01,3
88.49839500,88498395,0.0,0.03,0.0,-0.61,336.78000000000003,336.79,0.0,0.01,3
88.59865100,88598651,0.0,0.03,0.0,-0.61,336.78000000000003,336.79,0.0,0.01,3
88.69844100,88698441,0.0,0.03,0.0,-0.6,336.78000000000003,336.79,0.0,0.01,3
88.79858000,88798580,0.0,0.03,0.0,-0.6,336.78000000000003,336.79,0.0,0.01,3
88.89864200,88898642,0.0,0.03,0.0,-0.6,336.78000000000003,336.79,0.0,0.01,3
88.99851300,88998513,0.0,0.03,0.0,-0.6,336.77,336.78000000000003,0.0,0.01,3
89.09851400,89098514,0.0,0.03,0.0,-0.6,336.78000000000003,336.79,0.0,0.01,3
89.19856400,89198564,0.0,0.03,0.0,-0.6,336.78000000000003,336.79,0.0,0.0,3
89.29855400,89298554,0.0,0.03,0.0,-0.6,336.78000000000003,336.79,0.0,0.0,3
89.39861100,89398611,0.0,0.03,0.0,-0.6,336.78000000000003,336.79,0.0,0.0,3
89.49865300,89498653,0.0,0.03,0.0,-0.6,336.78000000000003,336.79,0.0,0.0,3
89.59866500,89598665,0.0,0.03,0.0,-0.6,336.77,336.78000000000003,0.0,0.0,3
89.69864700,89698647,0.0,0.04,0.0,-0.6,336.77,336.78000000000003,0.0,0.0,3
89.79866200,89798662,0.0,0.03,0.0,-0.6,336.77,336.78000000000003,0.0,0.01,3
89.89856300,89898563,0.0,0.03,0.0,-0.59,336.77,336.78000000000003,0.0,0.0,3
89.99860900,89998609,0.0,0.03,0.0,-0.6,336.76,336.77,0.0,0.0,3
90.09871000,90098710,0.0,0.03,0.0,-0.6,336.76,336.77,0.0,0.0,3
90.19860700,90198607,0.0,0.04,0.0,-0.6,336.75,336.76,0.0,0.01,3
90.29862300,90298623,0.0,0.04,0.0,-0.6,336.75,336.76,0.0,0.01,3
90.39893200,90398932,0.0,0.04,0.0,-0.6,336.75,336.76,0.0,0.01,3
90.49868100,90498681,0.0,0.04,0.0,-0.59,336.75,336.76,0.0,0.01,3
90.59861400,90598614,0.0,0.04,0.0,-0.59,336.75,336.76,0.0,0.01,3
90.69867300,90698673,0.0,0.04,0.0,-0.6,336.74,336.75,0.0,0.01,3
90.79857700,90798577,0.0,0.04,0.0,-0.6,336.74,336.75,0.0,0.01,3
90.89862300,90898623,0.0,0.04,0.0,-0.6,336.73,336.74,0.0,0.01,3
90.99858600,90998586,0.0,0.04,0.0,-0.59,336.73,336.74,0.0,0.01,3
91.09860200,91098602,0.0,0.05,0.0,-0.59,336.72,336.73,0.0,0.0,3
91.19888900,91198889,0.0,0.05,0.0,-0.6,336.72,336.73,0.0,0.0,3
91.29885800,91298858,0.0,0.05,0.0,-0.6,336.73,336.74,0.0,0.0,3
91.39874400,91398744,0.0,0.06,0.0,-0.6,336.72,336.73,0.0,0.01,3
91.49835100,91498351,0.0,0.05,0.0,-0.59,336.72,336.73,0.0,0.0,3
91.59825700,91598257,0.0,0.06,0.0,-0.59,336.72,336.73,0.0,0.0,3
91.69824700,91698247,0.0,0.06,0.0,-0.59,336.72,336.73,0.0,0.0,3
91.79829100,91798291,0.0,0.06,0.0,-0.58,336.73,336.74,0.0,0.0,3
91.89859900,91898599,0.0,0.06,0.0,-0.58,336.73,336.74,0.0,0.0,3
91.99857700,91998577,0.0,0.06,0.0,-0.58,336.73,336.74,0.0,0.0,3
92.09840000,92098400,0.0,0.06,0.0,-0.58,336.72,336.73,0.0,0.0,3
92.19849600,92198496,0.0,0.06,0.0,-0.58,336.72,336.73,0.0,0.0,3
92.29845800,92298458,0.0,0.06,0.0,-0.58,336.72,336.73,0.0,0.0,3
92.39836500,92398365,0.0,0.07,0.0,-0.58,336.72,336.73,0.0,0.0,3
92.49826300,92498263,0.0,0.07,0.0,-0.58,336.71,336.72,0.0,0.0,3
92.59853200,92598532,0.0,0.07,0.0,-0.59,336.71,336.72,0.0,0.0,3
92.69851700,92698517,0.0,0.07,0.0,-0.59,336.71,336.72,0.0,0.0,3
92.79837500,92798375,0.0,0.07,0.0,-0.59,336.7,336.71,0.0,0.0,3
92.89835800,92898358,0.0,0.08,0.0,-0.59,336.7,336.71,0.0,0.0,3
92.99838900,92998389,0.0,0.08,0.0,-0.59,336.7,336.71,0.0,0.0,3
93.09843900,93098439,0.0,0.08,0.0,-0.58,336.7,336.71,0.0,0.0,3
93.19844900,93198449,0.0,0.08,0.0,-0.59,336.7,336.71,0.0,0.0,3
93.29834300,93298343,0.0,0.08,0.0,-0.59,336.69,336.7,0.0,0.0,3
93.39837900,93398379,0.0,0.08,0.0,-0.58,336.69,336.7,0.0,0.0,3
93.49826300,93498263,0.0,0.09,0.0,-0.58,336.69,336.7,0.0,0.0,3
93.59860500,93598605,0.0,0.09,0.0,-0.59,336.69,336.7,0.0,0.0,3
93.69836200,93698362,0.0,0.09,0.0,-0.58,336.69,336.7,0.0,0.0,3
93.79836300,93798363,0.0,0.09,0.0,-0.59,336.69,336.7,0.0,0.0,3
93.89841000,93898410,0.0,0.09,0.0,-0.59,336.69,336.7,0.0,0.0,3
93.99844200,93998442,0.0,0.09,0.0,-0.59,336.69,336.7,0.0,0.0,3
94.09845200,94098452,0.0,0.09,0.0,-0.59,336.7,336.71,0.0,0.0,3
94.19834600,94198346,0.0,0.09,0.0,-0.59,336.7,336.71,0.0,0.0,3
94.29826900,94298269,0.0,0.09,0.0,-0.59,336.7,336.71,0.0,0.0,3
94.39830300,94398303,0.0,0.1,0.0,-0.59,336.7,336.71,0.0,0.0,3
94.49828600,94498286,0.0,0.1,0.0,-0.59,336.71,336.72,0.0,0.0,3
94.59835000,94598350,0.0,0.1,0.0,-0.58,336.71,336.72,0.0,0.0,3
94.69835500,94698355,0.0,0.11,0.0,-0.59,336.71,336.72,0.0,0.01,3
94.79838900,94798389,0.0,0.11,0.0,-0.58,336.71,336.72,0.0,0.01,3
94.89843200,94898432,0.0,0.11,0.0,-0.58,336.71,336.72,0.0,0.01,3
94.99845400,94998454,0.0,0.12,0.0,-0.58,336.71,336.72,0.0,0.0,3
95.09865300,95098653,0.0,0.12,0.0,-0.58,336.71,336.72,0.0,0.0,3
95.19868000,95198680,0.0,0.12,0.0,-0.58,336.71,336.72,0.0,0.0,3
95.29853600,95298536,0.0,0.12,0.0,-0.58,336.71,336.72,0.0,0.0,3
95.39862300,95398623,0.0,0.12,0.0,-0.58,336.71,336.72,0.0,0.0,3
95.49835700,95498357,0.0,0.13,0.0,-0.58,336.71,336.72,0.0,0.0,3
95.59835900,95598359,0.0,0.13,0.0,-0.5700000000000001,336.71,336.72,0.0,0.0,3
95.69840600,95698406,0.0,0.13,0.0,-0.5700000000000001,336.71,336.72,0.0,0.0,3
95.79844600,95798446,0.0,0.13,0.0,-0.5700000000000001,336.71,336.72,0.0,0.0,3
95.89844700,95898447,0.0,0.14,0.0,-0.5700000000000001,336.7,336.71,0.0,0.0,3
