timestamp,TimeUS,C,Roll,Pitch,Yaw,VN,VE,VD,dPD,PN,PE,PD,GX,GY,GZ,OH
11.49783500,11497835,2,0.0,0.0,0.0,0.0,0.0,0.0,0.0,0.0,0.0,0.0,0.0,0.0,0.0,0.0
11.59785700,11597857,2,0.0,0.0,0.0,0.0,0.0,0.0,0.0,0.0,0.0,0.0,0.0,0.0,0.0,0.0
11.69791500,11697915,2,0.0,0.0,0.0,0.0,0.0,0.0,0.0,0.0,0.0,0.0,0.0,0.0,0.0,0.0
11.79791300,11797913,2,0.0,0.0,0.0,0.0,0.0,0.0,0.0,0.0,0.0,0.0,0.0,0.0,0.0,0.0
11.89794000,11897940,2,0.0,0.0,0.0,0.0,0.0,0.0,0.0,0.0,0.0,0.0,0.0,0.0,0.0,0.0
11.99792700,11997927,2,0.0,0.0,0.0,0.0,0.0,0.0,0.0,0.0,0.0,0.0,0.0,0.0,0.0,0.0
12.09786400,12097864,2,0.0,0.0,0.0,0.0,0.0,0.0,0.0,0.0,0.0,0.0,0.0,0.0,0.0,0.0
12.19783900,12197839,2,0.0,0.0,0.0,0.0,0.0,0.0,0.0,0.0,0.0,0.0,0.0,0.0,0.0,0.0
12.29783700,12297837,2,0.0,0.0,0.0,0.0,0.0,0.0,0.0,0.0,0.0,0.0,0.0,0.0,0.0,0.0
12.39783400,12397834,2,0.0,0.0,0.0,0.0,0.0,0.0,0.0,0.0,0.0,0.0,0.0,0.0,0.0,0.0
12.49788100,12497881,2,0.25,-0.08,0.0,-0.000541692425031215,-7.07364160916768e-05,0.011340834200382233,0.0003136929008178413,0.0,0.0,0.0004131805617362261,0.0,0.0,0.0,0.0
12.59793300,12597933,2,0.25,-0.07,0.01,-0.00044862995855510235,-0.0001698470878181979,0.047704000025987625,0.023674441501498222,0.0,0.0,0.003732568584382534,0.0,0.0,0.0,0.0
12.69791100,12697911,2,0.25,-0.07,0.01,-0.0009540918981656432,-0.00042055995436385274,0.09154897928237915,1.8968418836593628,0.0,0.0,0.22573500871658325,0.0,0.0,0.0,0.0
12.79792900,12797929,2,0.25,-0.07,0.02,-0.0001448596885893494,-0.000963279337156564,0.1219765916466713,2.925703287124634,0.0,0.0,0.4619576632976532,0.0,0.0,0.0,0.0
12.89791800,12897918,2,0.25,-0.06,0.02,-0.000496228109113872,-0.0013907011598348618,0.14243252575397491,2.4847121238708496,0.0,0.0,0.6560624837875366,0.0,0.0,0.0,0.0
12.99786000,12997860,2,0.25,-0.06,0.03,-0.0004052896110806614,-0.0018986413488164544,0.15537795424461365,1.8007826805114746,0.0,0.0,0.8149024248123169,0.0,0.0,0.0,0.0
13.09783800,13097838,2,0.25,-0.05,0.03,-0.0014714710414409637,-0.0019280742853879929,0.1650482565164566,1.2754985094070435,0.0,0.0,0.9428851008415222,0.0,0.0,0.0,0.0
13.19783900,13197839,2,0.25,-0.05,0.03,-0.0019179708324372768,-0.0023761556949466467,0.17027555406093597,0.9015746712684631,0.0,0.0,1.044603943824768,0.0,0.0,0.0,0.0
13.29783900,13297839,2,0.25,-0.05,0.03,-0.0015553534030914307,-0.003700944362208247,0.17461229860782623,0.6826150417327881,0.0,0.0,1.1287453174591064,0.0,0.0,0.0,0.0
13.39785200,13397852,2,0.24,-0.05,0.03,-0.0011312613496556878,-0.004077966324985027,0.1778368055820465,0.5651061534881592,0.0,0.0,1.199697494506836,0.0,0.0,0.0,0.0
13.49789800,13497898,2,0.24,-0.05,0.04,-0.0008454396156594157,-0.004298185929656029,0.1798916757106781,0.49793845415115356,0.0,0.0,1.2611192464828491,0.0,0.0,0.0,0.0
13.59791600,13597916,2,0.24,-0.04,0.05,-0.000901922001503408,-0.004704308696091175,0.1805850714445114,0.43156927824020386,0.0,0.0,1.3136287927627563,0.0,0.0,0.0,0.0
13.69792900,13697929,2,0.24,-0.05,0.05,-0.0011505718575790524,-0.00514798192307353,0.18048949539661407,0.36618489027023315,0.0,0.0,1.3576980829238892,0.0,0.0,0.0,0.0
13.79791300,13797913,2,0.24,-0.05,0.05,-0.0005288730608299375,-0.005483658984303474,0.18051645159721375,0.30777785181999207,0.0,0.0,1.3939695358276367,0.0,0.0,0.0,0.0
13.89785700,13897857,2,0.24,-0.05,0.05,-0.00047446758253499866,-0.006710735149681568,0.1779433637857437,0.24066314101219177,0.0,0.0,1.4226044416427612,0.0,0.0,0.0,0.0
13.99783200,13997832,2,0.24,-0.05,336.86,-0.000903440872207284,-0.006765917409211397,0.17253175377845764,0.1545240432024002,0.0,0.0,1.4420653581619263,0.0,0.0,0.0,0.0
14.09782700,14097827,2,0.24,-0.04,336.87,-0.001335476292297244,-0.006270318292081356,0.16711071133613586,0.12921185791492462,0.0,0.0,1.4614897966384888,0.0,0.0,0.0,0.0
14.19782600,14197826,2,0.24,-0.04,336.91,-0.0026232923846691847,-0.006042656023055315,0.16362057626247406,0.15073145925998688,0.0,0.0,1.4796234369277954,0.0,0.0,0.0,0.0
14.29786900,14297869,2,0.24,-0.04,337.0,-0.002857420826330781,-0.006248168181627989,0.1572723686695099,0.10549725592136383,0.0,0.0,1.4909404516220093,0.0,0.0,0.0,0.0
14.39789600,14397896,2,0.24,-0.04,337.1,-0.003998623229563236,-0.005837013013660908,0.15250124037265778,0.0845804363489151,0.0,0.0,1.5026836395263672,0.0,0.0,0.0,0.0
14.49791100,14497911,2,0.25,-0.04,337.19,-0.0042428490705788136,-0.006068163085728884,0.1472906917333603,0.10219766199588776,0.0,0.0,1.5146853923797607,0.0,0.0,0.0,0.0
14.59792100,14597921,2,0.24,-0.04,337.27,-0.005052043125033379,-0.006066308356821537,0.14116190373897552,0.08499577641487122,0.0,0.0,1.5233410596847534,0.0,0.0,0.0,0.0
14.69791500,14697915,2,0.24,-0.04,337.34000000000003,-0.005384849384427071,-0.006127283442765474,0.13525700569152832,0.07468380779027939,0.0,0.0,1.532458782196045,0.0,0.0,0.0,0.0
14.79785900,14797859,2,0.24,-0.04,337.40000000000003,-0.004808709025382996,-0.006076335441321135,0.12791459262371063,0.05909598991274834,0.0,0.0,1.5385503768920898,0.0,0.0,0.0,0.0
14.89783000,14897830,2,0.24,-0.04,337.45,-0.004906714893877506,-0.0058652982115745544,0.12256526201963425,0.05966190993785858,0.0,0.0,1.5461807250976562,0.0,0.0,0.0,0.0
14.99782800,14997828,2,0.24,-0.04,337.47,-0.004702779930084944,-0.005612778477370739,0.11699379980564117,0.06311491131782532,0.0,0.0,1.552543044090271,0.0,0.0,0.0,0.0
15.09782800,15097828,2,0.24,-0.05,337.47,-0.005059093702584505,-0.00563893374055624,0.11229637265205383,0.06605382263660431,0.0,0.0,1.5598666667938232,0.0,0.0,0.0,0.0
15.19786800,15197868,2,0.24,-0.06,337.46,-0.004001888446509838,-0.006248449441045523,0.10293331742286682,0.010758372023701668,0.0,0.0,1.5593451261520386,0.0,0.0,0.0,0.0
15.29790700,15297907,2,0.25,-0.06,337.47,-0.0036976358387619257,-0.005867264699190855,0.09502905607223511,-0.021930672228336334,0.0,0.0,1.5596238374710083,0.0,0.0,0.0,0.0
15.39791400,15397914,2,0.25,-0.07,337.48,-0.003864613128826022,-0.005997898522764444,0.08710303157567978,-0.02043028175830841,0.0,0.0,1.5585941076278687,0.0,0.0,0.0,0.0
15.49791700,15497917,2,0.25,-0.07,337.49,-0.003950702026486397,-0.00561353238299489,0.07969386875629425,-0.00867896992713213,0.0,0.0,1.5594180822372437,0.0,0.0,0.0,0.0
15.59792000,15597920,2,0.26,-0.07,337.49,-0.004370854701846838,-0.004819306079298258,0.07369936257600784,0.0103439437225461,0.0,0.0,1.5606471300125122,0.0,0.0,0.0,0.0
15.69786200,15697862,2,0.26,-0.08,337.49,-0.003171115880832076,-0.004383057821542025,0.06664235144853592,-0.00395995145663619,0.0,0.0,1.559498906135559,0.0,0.0,0.0,0.0
15.79782400,15797824,2,0.26,-0.07,337.48,-0.0028884666971862316,-0.0037333897780627012,0.05923491343855858,-0.027518749237060547,0.0,0.0,1.5569679737091064,-0.01,0.0,0.0,0.0
15.89782900,15897829,2,0.26,-0.07,337.46,-0.0023676345590502024,-0.00265504140406847,0.053026534616947174,-0.014215477742254734,0.0,0.0,1.5569970607757568,-0.01,0.0,0.0,0.0
15.99783200,15997832,2,0.26,-0.07,337.46,-0.001564676291309297,-0.0019870453979820013,0.049912549555301666,0.04114346578717232,0.0,0.0,1.562068223953247,-0.01,0.0,0.0,0.0
16.09785000,16097850,2,0.26,-0.07,337.46,-0.0017178717534989119,-0.0007019531331025064,0.047258250415325165,0.07438209652900696,0.0,0.0,1.5679646730422974,-0.01,0.0,0.0,0.0
16.19788900,16197889,2,0.26,-0.07,337.46,-0.0012190990382805467,0.000176753310370259,0.044191017746925354,0.06813225150108337,0.0,0.0,1.5731309652328491,-0.01,0.0,0.0,0.0
16.29791300,16297913,2,0.26,-0.07,337.46,-0.00048047013115137815,0.0003816793905571103,0.040886346250772476,0.05384849011898041,0.0,0.0,1.5776419639587402,-0.01,0.0,0.0,0.0
16.39792200,16397922,2,0.26,-0.07,337.45,-7.278218254214153e-05,0.0009347784798592329,0.035704195499420166,0.03040958382189274,0.0,0.0,1.5801422595977783,-0.01,0.0,0.0,0.0
16.49791500,16497915,2,0.26,-0.06,337.43,8.146160689648241e-05,0.0009640796924941242,0.03114028088748455,0.008327239193022251,0.0,0.0,1.5812513828277588,-0.01,0.0,0.01,0.0
16.59786100,16597861,2,0.26,-0.06,337.42,-0.00032783238566480577,0.0012758064549416304,0.02585482783615589,-0.02018074318766594,0.0,0.0,1.5793288946151733,-0.01,0.0,0.01,0.0
16.69782900,16697829,2,0.26,-0.06,337.41,-0.0010193883208557963,0.0029028349090367556,0.019600190222263336,-0.03616553172469139,0.0,0.0,1.577111005783081,-0.01,0.0,0.01,0.0
16.79782600,16797826,2,0.26,-0.05,337.39,-0.0013921099016442895,0.00271617341786623,0.012403599917888641,-0.06178879737854004,0.0,0.0,1.5711050033569336,-0.01,0.0,0.01,0.0
16.89782800,16897828,2,0.26,-0.05,337.37,-0.0008480378310196102,0.0025854515843093395,0.0019732483197003603,-0.10089859366416931,0.0,0.0,1.5622259378433228,-0.01,0.0,0.02,0.0
16.99785000,16997850,2,0.26,-0.05,337.35,-0.0016134690959006548,0.0017462755786255002,-0.005563076119869947,-0.09594704955816269,0.0,0.0,1.555025577545166,-0.01,0.0,0.02,0.0
17.09790100,17097901,2,0.26,-0.05,337.33,-0.0023661230225116014,0.0016544137615710497,-0.014517840929329395,-0.10860773175954819,0.0,0.0,1.5440605878829956,-0.01,0.0,0.02,0.0
17.19790800,17197908,2,0.26,-0.05,337.31,-0.0038479426875710487,0.0020198472775518894,-0.02174510434269905,-0.11018896847963333,0.0,0.0,1.5348479747772217,-0.01,0.0,0.03,0.0
17.29792600,17297926,2,0.26,-0.06,337.29,-0.004578537307679653,0.0017342014471068978,-0.025807686150074005,-0.051696471869945526,0.0,0.0,1.5313724279403687,-0.01,0.0,0.02,0.0
17.39791200,17397912,2,0.25,-0.05,337.29,-0.005047726910561323,0.0020326869562268257,-0.029126856476068497,-0.019018054008483887,0.0,0.0,1.527828574180603,-0.01,0.0,0.03,0.0
17.49785500,17497855,2,0.25,-0.05,337.28000000000003,-0.0047000800259411335,0.0014436680357903242,-0.03317020833492279,-0.021205510944128036,0.0,0.0,1.5245623588562012,-0.01,0.0,0.02,0.0
17.59783300,17597833,2,0.25,-0.06,337.28000000000003,-0.004836674779653549,0.0014579443959519267,-0.03860769048333168,-0.04384366050362587,0.0,0.0,1.518802285194397,-0.01,0.0,0.04,0.0
17.69783500,17697835,2,0.25,-0.06,337.26,-0.0055953399278223515,0.0004461859061848372,-0.04208200424909592,-0.040700770914554596,0.0,0.0,1.5156446695327759,-0.01,0.0,0.04,0.0
17.79782700,17797827,2,0.24,-0.06,337.23,-0.005721550900489092,0.0010807429207488894,-0.04542561247944832,-0.017166713252663612,0.0,0.0,1.5137869119644165,-0.01,0.0,0.04,0.0
17.89786000,17897860,2,0.25,-0.07,337.23,-0.00475676916539669,0.0018887342885136604,-0.04597007855772972,0.0044848197139799595,0.0,0.0,1.5138676166534424,-0.01,0.0,0.03,0.0
17.99788300,17997883,2,0.24,-0.07,337.24,-0.004362877923995256,0.001797494012862444,-0.05071309953927994,-0.021633649244904518,0.0,0.0,1.509691834449768,-0.01,0.0,0.02,0.0
18.09791200,18097912,2,0.24,-0.06,337.26,-0.004322860389947891,0.0014913351042196155,-0.05490729957818985,-0.04806426167488098,0.0,0.0,1.5055145025253296,-0.01,0.01,0.02,0.0
18.19786800,18197868,2,0.24,-0.07,337.27,-0.004459192976355553,0.0018332003382965922,-0.06032924726605415,-0.07702179998159409,0.0,0.0,1.497380256652832,-0.01,0.01,0.03,0.0
18.29792400,18297924,2,0.23,-0.07,337.28000000000003,-0.0034489117097109556,0.002193210879340768,-0.06728444993495941,-0.11972569674253464,0.0,0.0,1.486207365989685,-0.01,0.01,0.03,0.0
18.39785700,18397857,2,0.23,-0.06,337.28000000000003,-0.0038269294891506433,0.002337438054382801,-0.07372553646564484,-0.1270975023508072,0.0,0.0,1.475484848022461,-0.01,0.01,0.03,0.0
18.49782600,18497826,2,0.23,-0.06,337.28000000000003,-0.0034134758170694113,0.002612223383039236,-0.07894954085350037,-0.10895086079835892,0.0,0.0,1.465918779373169,-0.01,0.01,0.03,0.0
18.59783400,18597834,2,0.23,-0.06,337.26,-0.003525479231029749,0.0027166330255568027,-0.0809142142534256,-0.05259651690721512,0.0,0.0,1.4621564149856567,-0.01,0.01,0.03,0.0
18.69782900,18697829,2,0.23,-0.06,337.25,-0.004643664695322514,0.003098424756899476,-0.08198437094688416,-0.018740423023700714,0.0,0.0,1.458436369895935,-0.01,0.01,0.04,0.0
18.79786200,18797862,2,0.23,-0.06,337.24,-0.004628972616046667,0.00235789199359715,-0.08251095563173294,-0.0009113933774642646,0.0,0.0,1.4576356410980225,-0.01,0.01,0.03,0.0
18.89790100,18897901,2,0.23,-0.06,337.23,-0.004868499934673309,0.0013549885479733348,-0.08206310868263245,0.013239877298474312,0.0,0.0,1.4572827816009521,-0.01,0.01,0.04,0.0
18.99791700,18997917,2,0.22,-0.05,337.21,-0.005016264505684376,0.0010761552257463336,-0.08068261295557022,0.016102321445941925,0.0,0.0,1.4578768014907837,-0.01,0.01,0.04,0.0
19.09793500,19097935,2,0.22,-0.06,337.2,-0.005843648221343756,0.0008309473050758243,-0.07864594459533691,0.03580751642584801,0.0,0.0,1.4610564708709717,-0.01,0.01,0.04,0.0
19.19790500,19197905,2,0.21,-0.05,337.19,-0.006466208957135677,-0.000156201291247271,-0.07735174149274826,0.04355238005518913,0.0,0.0,1.4639867544174194,-0.01,0.01,0.04,0.0
19.29785800,19297858,2,0.21,-0.05,337.18,-0.006628517527133226,-0.0008869021548889577,-0.07743072509765625,0.015361850149929523,0.0,0.0,1.4640226364135742,-0.01,0.01,0.05,0.0
19.39783000,19397830,2,0.2,-0.06,337.17,-0.007417062763124704,-0.001241808058694005,-0.0798177570104599,-0.04235871136188507,0.0,0.0,1.4589635133743286,-0.01,0.01,0.05,0.0
19.49782500,19497825,2,0.2,-0.06,337.14,-0.008680912666022778,-0.002205771394073963,-0.08191003650426865,-0.07372303307056427,0.0,0.0,1.4533785581588745,-0.01,0.01,0.06,0.0
19.59782900,19597829,2,0.2,-0.06,337.12,-0.008340385742485523,-0.003482297994196415,-0.08350193500518799,-0.06484035402536392,0.0,0.0,1.4485704898834229,-0.01,0.01,0.05,0.0
19.69785200,19697852,2,0.19,-0.06,337.11,-0.008559324778616428,-0.004609634168446064,-0.08436980098485947,-0.045335981994867325,0.0,0.0,1.4450024366378784,-0.01,0.01,0.05,0.0
19.79791300,19797913,2,0.19,-0.06,337.11,-0.008673896081745625,-0.004970173351466656,-0.08254066109657288,0.004297594074159861,0.0,0.0,1.446636438369751,-0.01,0.01,0.04,0.0
19.89791400,19897914,2,0.18,-0.06,337.12,-0.009153426624834538,-0.005460191052407026,-0.08091285079717636,0.03442786633968353,0.0,0.0,1.4483622312545776,-0.01,0.01,0.04,0.0
19.99792500,19997925,2,0.18,-0.06,337.14,-0.00934666022658348,-0.005992826074361801,-0.08116871118545532,0.01048632524907589,0.0,0.0,1.4467395544052124,-0.01,0.01,0.04,0.0
20.09790700,20097907,2,0.19,-0.05,337.16,-0.009381843730807304,-0.007252813782542944,-0.08141542971134186,-0.02084975875914097,0.0,0.0,1.4442086219787598,-0.01,0.01,0.04,0.0
20.19785500,20197855,2,0.18,-0.06,337.17,-0.009678810834884644,-0.007333398796617985,-0.08163757622241974,-0.03203491494059563,0.0,0.0,1.4415744543075562,-0.01,0.02,0.04,0.0
20.29783300,20297833,2,0.19,-0.05,337.18,-0.010534971952438354,-0.008209386840462685,-0.0821966826915741,-0.039061740040779114,0.0,0.0,1.43789803981781,-0.01,0.02,0.03,0.0
20.39783900,20397839,2,0.19,-0.05,337.18,-0.010320855304598808,-0.008395425044000149,-0.08230021595954895,-0.025604913011193275,0.0,0.0,1.4363194704055786,-0.01,0.02,0.04,0.0
20.49783400,20497834,2,0.18,-0.05,337.17,-0.01137991901487112,-0.008676445111632347,-0.08135701715946198,0.00016445759683847427,0.0,0.0,1.4362822771072388,-0.01,0.02,0.05,0.0
20.59784900,20597849,2,0.19,-0.05,337.16,-0.012098428793251514,-0.008635735139250755,-0.08027774095535278,-0.0010198417585343122,0.0,0.0,1.4351884126663208,-0.02,0.02,0.04,0.0
20.69790100,20697901,2,0.19,-0.04,337.15000000000003,-0.012192114256322384,-0.0081144068390131,-0.07941001653671265,-0.006227621342986822,0.0,0.0,1.43439781665802,-0.02,0.02,0.04,0.0
20.79791500,20797915,2,0.19,-0.05,337.15000000000003,-0.012251795269548893,-0.008323727175593376,-0.0776609256863594,0.009566188789904118,0.0,0.0,1.43550705909729,-0.02,0.02,0.03,0.0
20.89792600,20897926,2,0.19,-0.05,337.16,-0.012062780559062958,-0.0072730653919279575,-0.07654468715190887,0.02003214880824089,0.0,0.0,1.4368462562561035,-0.02,0.02,0.03,0.0
20.99791600,20997916,2,0.19,-0.04,337.17,-0.012303896248340607,-0.007554724346846342,-0.07578635215759277,0.009672140702605247,0.0,0.0,1.4370086193084717,-0.02,0.02,0.03,0.0
21.09785800,21097858,2,0.2,-0.05,337.18,-0.012559335678815842,-0.007833677344024181,-0.07594599574804306,-0.015052825212478638,0.0,0.0,1.4350528717041016,-0.02,0.02,0.02,0.0
21.19783000,21197830,2,0.2,-0.05,337.21,-0.012497114948928356,-0.007230665069073439,-0.07522360980510712,-0.012900518253445625,0.0,0.0,1.43477201461792,-0.02,0.02,0.01,0.0
21.29782700,21297827,2,0.2,-0.04,337.23,-0.013287549838423729,-0.006764856167137623,-0.07522432506084442,0.0006496248533949256,0.0,0.0,1.4347138404846191,-0.02,0.02,0.02,0.0
21.39782800,21397828,2,0.21,-0.04,337.26,-0.014200326055288315,-0.006204009056091309,-0.07451417297124863,-0.007014193572103977,0.0,0.0,1.4336514472961426,-0.02,0.02,0.01,0.0
21.49786000,21497860,2,0.21,-0.04,337.28000000000003,-0.014637790620326996,-0.0055823964066803455,-0.0734369307756424,0.0024311819579452276,0.0,0.0,1.4343153238296509,-0.02,0.02,0.01,0.0
21.59791300,21597913,2,0.21,-0.05,337.29,-0.01432113628834486,-0.004746042191982269,-0.0688650980591774,0.07184940576553345,0.0,0.0,1.442327618598938,-0.02,0.02,0.01,0.0
21.69791300,21697913,2,0.22,-0.04,337.31,-0.014144061133265495,-0.004242285620421171,-0.06223694235086441,0.14104002714157104,0.0,0.0,1.454993724822998,-0.02,0.02,0.01,0.0
21.79792200,21797922,2,0.21,-0.05,337.31,-0.013687245547771454,-0.0031514784786850214,-0.05695526674389839,0.13799583911895752,0.0,0.0,1.464978814125061,-0.02,0.02,0.01,0.0
21.89791500,21897915,2,0.21,-0.06,337.31,-0.012730752117931843,-0.003720741719007492,-0.05397748202085495,0.078718401491642,0.0,0.0,1.4706453084945679,-0.02,0.02,0.01,0.0
21.99786000,21997860,2,0.21,-0.05,337.31,-0.01355124544352293,-0.0035395610611885786,-0.05414629727602005,0.010739089921116829,0.0,0.0,1.471301555633545,-0.02,0.02,0.01,0.0
22.09782500,22097825,2,0.21,-0.05,337.3,-0.014107491821050644,-0.0035086609423160553,-0.0564054399728775,-0.05002861097455025,0.0,0.0,1.4676860570907593,-0.02,0.02,0.02,0.0
22.19783000,22197830,2,0.21,-0.05,337.29,-0.013631753623485565,-0.004224022384732962,-0.05823305994272232,-0.06975008547306061,0.0,0.0,1.463424801826477,-0.02,0.02,0.02,0.0
22.29784400,22297844,2,0.21,-0.06,337.28000000000003,-0.013069423846900463,-0.0036425068974494934,-0.059076983481645584,-0.05772031471133232,0.0,0.0,1.4595401287078857,-0.02,0.02,0.02,0.0
22.39784800,22397848,2,0.21,-0.06,337.28000000000003,-0.012750675901770592,-0.0035399284679442644,-0.05836666747927666,-0.021265629678964615,0.0,0.0,1.459067940711975,-0.02,0.02,0.02,0.0
22.49790100,22497901,2,0.22,-0.06,337.27,-0.012227433733642101,-0.003942742943763733,-0.05714777484536171,0.016079135239124298,0.0,0.0,1.460160255432129,-0.02,0.02,0.02,0.0
22.59791000,22597910,2,0.22,-0.07,337.26,-0.012281911447644234,-0.004016830585896969,-0.056337594985961914,0.01855854131281376,0.0,0.0,1.4608958959579468,-0.02,0.02,0.02,0.0
22.69792300,22697923,2,0.22,-0.08,337.25,-0.011362015269696712,-0.0042044068686664104,-0.054231658577919006,0.019429152831435204,0.0,0.0,1.46232271194458,-0.02,0.02,0.03,0.0
22.79791200,22797912,2,0.22,-0.08,337.23,-0.010965859517455101,-0.0046762870624661446,-0.052653562277555466,0.03321400657296181,0.0,0.0,1.4654282331466675,-0.02,0.02,0.03,0.0
22.89785600,22897856,2,0.22,-0.08,337.22,-0.010565925389528275,-0.004630447831004858,-0.05160130560398102,0.039062246680259705,0.0,0.0,1.4683735370635986,-0.02,0.02,0.02,0.0
22.99783300,22997833,2,0.23,-0.08,337.21,-0.010150360874831676,-0.004318427760154009,-0.051039859652519226,-0.0009809929179027677,0.0,0.0,1.466559648513794,-0.02,0.02,0.02,0.0
23.09782900,23097829,2,0.22,-0.09,337.21,-0.009367968887090683,-0.004060826264321804,-0.05319623276591301,-0.0576532781124115,0.0,0.0,1.4613453149795532,-0.02,0.02,0.02,0.0
23.19782600,23197826,2,0.23,-0.09,337.22,-0.009004270657896996,-0.004332027398049831,-0.05403142794966698,-0.0685277059674263,0.0,0.0,1.4565130472183228,-0.02,0.02,0.02,0.0
23.29786700,23297867,2,0.23,-0.09,337.24,-0.00916990265250206,-0.004039288032799959,-0.05497071519494057,-0.05906597524881363,0.0,0.0,1.4516521692276,-0.02,0.02,0.01,0.0
23.39790900,23397909,2,0.23,-0.1,337.27,-0.008685863576829433,-0.0051198662258684635,-0.05516780912876129,-0.032746024429798126,0.0,0.0,1.4495824575424194,-0.02,0.02,0.01,0.0
23.49791300,23497913,2,0.23,-0.1,337.3,-0.007251048926264048,-0.005273804068565369,-0.05488068237900734,0.0009434596868231893,0.0,0.0,1.4496146440505981,-0.03,0.02,0.01,0.0
23.59791800,23597918,2,0.22,-0.1,337.32,-0.0066728475503623486,-0.005506378598511219,-0.05472651124000549,-0.013218839652836323,0.0,0.0,1.4463355541229248,-0.03,0.03,0.01,0.0
23.69793100,23697931,2,0.22,-0.1,337.33,-0.005561398807913065,-0.0056250737980008125,-0.056713175028562546,-0.07023448497056961,0.0,0.0,1.4382483959197998,-0.03,0.03,0.01,0.0
23.79785600,23797856,2,0.22,-0.1,337.33,-0.004817042499780655,-0.0056664166040718555,-0.05798613280057907,-0.08376087248325348,0.0,0.0,1.4321030378341675,-0.03,0.03,0.02,0.0
23.89782400,23897824,2,0.22,-0.1,337.32,-0.003971701953560114,-0.007159456145018339,-0.058310750871896744,-0.05462472140789032,0.0,0.0,1.427761435508728,-0.03,0.03,0.02,0.0
23.99783200,23997832,2,0.21,-0.1,337.31,-0.003423114772886038,-0.0077575333416461945,-0.05860280245542526,-0.03946052864193916,0.0,0.0,1.4235965013504028,-0.03,0.03,0.02,0.0
24.09783200,24097832,2,0.21,-0.1,337.3,-0.0029993997886776924,-0.008057544007897377,-0.05898698419332504,-0.03715691342949867,0.0,0.0,1.41952383518219,-0.03,0.03,0.02,0.0
24.19785000,24197850,2,0.2,-0.1,337.3,-0.0019048460526391864,-0.008264932781457901,-0.058032870292663574,-0.014169766567647457,0.0,0.0,1.4186536073684692,-0.03,0.03,0.02,0.0
24.29784900,24297849,2,0.21,-0.1,337.3,-0.0016825118800625205,-0.008085179142653942,-0.05695151165127754,0.007466682232916355,0.0,0.0,1.4179226160049438,-0.03,0.03,0.02,0.0
24.39791200,24397912,2,0.21,-0.1,337.3,-0.0009439109708182514,-0.007996140979230404,-0.05645667389035225,0.006479715928435326,0.0,0.0,1.417535662651062,-0.03,0.03,0.02,0.0
24.49792500,24497925,2,0.21,-0.1,337.3,-0.0005337319453246891,-0.0086241839453578,-0.05567331984639168,-0.0102339256554842,0.0,0.0,1.4156264066696167,-0.03,0.03,0.02,0.0
24.59790600,24597906,2,0.21,-0.1,337.3,2.2984264433034696e-05,-0.008878041058778763,-0.05433392524719238,0.0002649769594427198,0.0,0.0,1.4161697626113892,-0.03,0.03,0.02,0.0
24.69785700,24697857,2,0.21,-0.1,337.3,0.0002437474759062752,-0.00851672887802124,-0.05291386693716049,0.01789732277393341,0.0,0.0,1.417327642440796,-0.03,0.03,0.01,0.0
24.79782900,24797829,2,0.21,-0.11,337.31,0.0006038260762579739,-0.00844528991729021,-0.052213434129953384,0.0030331152956932783,0.0,0.0,1.4168016910552979,-0.03,0.03,0.01,0.0
24.89782600,24897826,2,0.21,-0.1,337.32,0.0009009854402393103,-0.008696122094988823,-0.051982469856739044,-0.025970127433538437,0.0,0.0,1.4138870239257812,-0.03,0.03,0.02,0.0
24.99782900,24997829,2,0.21,-0.1,337.32,0.0014545854646712542,-0.00850916188210249,-0.0522339753806591,-0.05031983554363251,0.0,0.0,1.4094747304916382,-0.03,0.03,0.01,0.0
25.09787800,25097878,2,0.21,-0.1,337.33,0.0008151874062605202,-0.008835087530314922,-0.05290410667657852,-0.053085871040821075,0.0,0.0,1.405288577079773,-0.03,0.03,0.01,0.0
25.19790600,25197906,2,0.21,-0.1,337.34000000000003,0.0012604015646502376,-0.00814600195735693,-0.05370550602674484,-0.05622447654604912,0.0,0.0,1.4000825881958008,-0.03,0.03,0.01,0.0
25.29791300,25297913,2,0.21,-0.09,337.34000000000003,0.0006980791222304106,-0.0072994595393538475,-0.05443599447607994,-0.05154622346162796,0.0,0.0,1.3957895040512085,-0.03,0.03,0.01,0.0
25.39793000,25397930,2,0.21,-0.1,337.34000000000003,-0.00020234877592884004,-0.006208015140146017,-0.05420035123825073,-0.02442169561982155,0.0,0.0,1.3936794996261597,-0.03,0.03,0.01,0.0
25.49791100,25497911,2,0.21,-0.1,337.34000000000003,-0.0003594178124330938,-0.0067730797454714775,-0.052830249071121216,-0.0029109492897987366,0.0,0.0,1.3929200172424316,-0.03,0.03,0.01,0.0
25.59785900,25597859,2,0.21,-0.1,337.35,-0.0007498014019802213,-0.006486645899713039,-0.05417652428150177,-0.022681597620248795,0.0,0.0,1.3891503810882568,-0.03,0.03,0.01,0.0
25.69783100,25697831,2,0.21,-0.09,337.36,-0.0010456452146172523,-0.006292588077485561,-0.05568588897585869,-0.05624396353960037,0.0,0.0,1.3836593627929688,-0.03,0.03,0.01,0.0
25.79784600,25797846,2,0.21,-0.1,337.36,-0.00020020516240037978,-0.006131438072770834,-0.05678645148873329,-0.0508507564663887,0.0,0.0,1.379667043685913,-0.03,0.03,0.01,0.0
25.89784200,25897842,2,0.22,-0.1,337.37,-0.0003821300924755633,-0.007221965119242668,-0.056791603565216064,-0.041642311960458755,0.0,0.0,1.3754409551620483,-0.03,0.03,0.01,0.0
25.99785700,25997857,2,0.22,-0.1,337.39,-0.00030618024175055325,-0.007001197896897793,-0.05684841424226761,-0.052663542330265045,0.0,0.0,1.3699580430984497,-0.03,0.03,0.0,0.0
26.09791600,26097916,2,0.21,-0.11,337.42,0.00022092637664172798,-0.007978876121342182,-0.056600768119096756,-0.04121797904372215,0.0,0.0,1.3666054010391235,-0.03,0.03,0.0,0.0
26.19791200,26197912,2,0.21,-0.11,337.45,0.00010091272270074114,-0.008953251875936985,-0.055206116288900375,-0.002173735061660409,0.0,0.0,1.3665637969970703,-0.03,0.03,0.0,0.0
26.29792400,26297924,2,0.21,-0.12,337.46,0.0006472879904322326,-0.009109382517635822,-0.05402028188109398,0.028269922360777855,0.0,0.0,1.3684272766113281,-0.03,0.03,0.0,0.0
26.39791500,26397915,2,0.22,-0.12,337.48,0.0007784741465002298,-0.009295710362493992,-0.05166728049516678,0.05500170215964317,0.0,0.0,1.3728604316711426,-0.03,0.03,0.0,0.0
26.49785500,26497855,2,0.22,-0.11,337.49,-0.000599146937020123,-0.008626662194728851,-0.04816484451293945,0.06966304033994675,0.0,0.0,1.3779546022415161,-0.03,0.03,0.0,0.0
26.59783400,26597834,2,0.22,-0.11,337.51,-0.0007446246454492211,-0.008225861936807632,-0.044564493000507355,0.08339077979326248,0.0,0.0,1.3853832483291626,-0.03,0.03,0.0,0.0
26.69783800,26697838,2,0.22,-0.11,337.52,-0.000844906026031822,-0.00705595500767231,-0.041241198778152466,0.1011771485209465,0.0,0.0,1.3941230773925781,-0.03,0.03,0.0,0.0
26.79783900,26797839,2,0.21,-0.11,337.52,-0.00015410514606628567,-0.006964801345020533,-0.03885455057024956,0.0965612456202507,0.0,0.0,1.402401328086853,-0.03,0.03,0.0,0.0
26.89787900,26897879,2,0.22,-0.11,337.52,-0.0006818632828071713,-0.007432859390974045,-0.03628772124648094,0.07935676723718643,0.0,0.0,1.4093718528747559,-0.03,0.03,0.0,0.0
26.99783400,26997834,2,0.22,-0.12,337.52,-0.00025618248037062585,-0.0065172468312084675,-0.03489774093031883,0.03848331421613693,0.0,0.0,1.4124791622161865,-0.03,0.03,0.0,0.0
27.09791700,27097917,2,0.22,-0.12,337.51,3.837683834717609e-05,-0.005982894916087389,-0.03352200984954834,0.004935745615512133,0.0,0.0,1.414009690284729,-0.03,0.03,0.0,0.0
27.19792600,27197926,2,0.22,-0.12,337.52,0.00013796599523629993,-0.006486945785582066,-0.03179221972823143,-0.002654673997312784,0.0,0.0,1.414844274520874,-0.03,0.03,0.0,0.0
27.29791400,27297914,2,0.22,-0.12,337.52,0.00027445683372206986,-0.0066664014011621475,-0.030915994197130203,0.014721374027431011,0.0,0.0,1.417825698852539,-0.03,0.03,0.0,0.0
27.39786300,27397863,2,0.22,-0.12,337.51,0.00045685816439799964,-0.005129185039550066,-0.028934968635439873,0.032874006778001785,0.0,0.0,1.4208073616027832,-0.03,0.03,0.0,0.0
27.49783200,27497832,2,0.22,-0.12,337.51,0.0002507706522010267,-0.004871444310992956,-0.027337390929460526,0.024221288040280342,0.0,0.0,1.4228349924087524,-0.03,0.03,0.0,0.0
27.59783800,27597838,2,0.22,-0.11,337.51,0.0010381217580288649,-0.0040828813798725605,-0.02642488293349743,0.00503369839861989,0.0,0.0,1.423042893409729,-0.03,0.03,0.0,0.0
27.69783200,27697832,2,0.22,-0.11,337.5,0.000692907371558249,-0.003346029669046402,-0.02479565143585205,0.016676906496286392,0.0,0.0,1.4259246587753296,-0.03,0.03,0.0,0.0
27.79783200,27797832,2,0.22,-0.12,337.49,0.0001706067705526948,-0.0035518696531653404,-0.022019177675247192,0.037183910608291626,0.0,0.0,1.4290330410003662,-0.03,0.03,0.01,0.0
27.89790800,27897908,2,0.22,-0.12,337.48,0.0003627431869972497,-0.0030284731183201075,-0.0207626074552536,0.0336325578391552,0.0,0.0,1.4320454597473145,-0.03,0.03,0.01,0.0
27.99791800,27997918,2,0.22,-0.11,337.47,0.0005189113435335457,-0.0030398196540772915,-0.020750729367136955,0.004668243229389191,0.0,0.0,1.4314923286437988,-0.03,0.03,0.01,0.0
28.09792200,28097922,2,0.22,-0.12,337.45,0.0007798014557920396,-0.0027522461023181677,-0.0215967558324337,-0.04171425849199295,0.0,0.0,1.4278676509857178,-0.03,0.03,0.01,0.0
28.19790800,28197908,2,0.22,-0.11,337.45,0.000448146864073351,-0.0030699281487613916,-0.021635251119732857,-0.03529781103134155,0.0,0.0,1.426444172859192,-0.03,0.03,0.01,0.0
28.29785800,28297858,2,0.22,-0.12,337.44,0.0007028187392279506,-0.003205098444595933,-0.02055330015718937,-0.01051837857812643,0.0,0.0,1.4257943630218506,-0.03,0.03,0.01,0.0
28.39783500,28397835,2,0.22,-0.12,337.44,0.0015623365761712193,-0.002144996542483568,-0.021161368116736412,-0.029167689383029938,0.0,0.0,1.4220702648162842,-0.03,0.03,0.01,0.0
28.49783400,28497834,2,0.22,-0.13,337.44,0.0023730930406600237,-0.0017965816659852862,-0.021674856543540955,-0.04499918967485428,0.0,0.0,1.418522596359253,-0.03,0.03,0.01,0.0
28.59782800,28597828,2,0.22,-0.13,337.44,0.0013404531637206674,-0.0020697119180113077,-0.022643927484750748,-0.046585310250520706,0.0,0.0,1.4140956401824951,-0.03,0.03,0.01,0.0
28.69785900,28697859,2,0.22,-0.13,337.43,0.0010376536520197988,-0.00243219337426126,-0.02282390557229519,-0.03607979044318199,0.0,0.0,1.4116523265838623,-0.03,0.03,0.01,0.0
28.79791400,28797914,2,0.22,-0.13,337.42,0.0009313185000792146,-0.0020664893090724945,-0.02190004102885723,-0.02724682167172432,0.0,0.0,1.4081342220306396,-0.03,0.03,0.01,0.0
28.89790800,28897908,2,0.22,-0.13,337.42,0.0009063318721018732,-0.002058384008705616,-0.022181779146194458,-0.034459929913282394,0.0,0.0,1.4050594568252563,-0.03,0.03,0.01,0.0
28.99793800,28997938,2,0.21,-0.13,337.43,0.0007599991513416171,-0.001811175374314189,-0.02178848348557949,-0.03201470524072647,0.0,0.0,1.4015172719955444,-0.03,0.03,0.01,0.0
29.09792200,29097922,2,0.21,-0.13,337.42,0.0010129391448572278,-0.0021911305375397205,-0.0217761043459177,-0.018789002671837807,0.0,0.0,1.4004883766174316,-0.03,0.03,0.01,0.0
29.19785900,29197859,2,0.21,-0.13,337.41,0.001017994713038206,-0.003692139871418476,-0.020879549905657768,0.005201241467148066,0.0,0.0,1.4003407955169678,-0.03,0.03,0.01,0.0
29.29783400,29297834,2,0.2,-0.13,337.40000000000003,0.0015238799387589097,-0.004025404341518879,-0.021382788196206093,-0.008253095671534538,0.0,0.0,1.3984328508377075,-0.03,0.03,0.02,0.0
29.39783200,29397832,2,0.21,-0.13,337.38,0.0012489822693169117,-0.005280128680169582,-0.02220902591943741,-0.03118292987346649,0.0,0.0,1.395123839378357,-0.03,0.03,0.02,0.0
29.49782500,29497825,2,0.21,-0.14,337.36,0.0017494813073426485,-0.005720468237996101,-0.022840848192572594,-0.03141548112034798,0.0,0.0,1.392813801765442,-0.03,0.03,0.02,0.0
29.59786000,29597860,2,0.2,-0.14,337.34000000000003,0.0014016504865139723,-0.00801505520939827,-0.022545529529452324,-0.00838343147188425,0.0,0.0,1.3924423456192017,-0.03,0.03,0.02,0.0
29.69789700,29697897,2,0.2,-0.13,337.32,0.0019568121060729027,-0.009077025577425957,-0.02130366489291191,0.015381066128611565,0.0,0.0,1.3936694860458374,-0.03,0.03,0.02,0.0
29.79792200,29797922,2,0.21,-0.13,337.32,0.0021629713010042906,-0.009067033417522907,-0.019570859149098396,0.01915588229894638,0.0,0.0,1.3944225311279297,-0.03,0.03,0.02,0.0
29.89793600,29897936,2,0.21,-0.13,337.32,0.0018684013048186898,-0.008757385425269604,-0.018172921612858772,0.01517721638083458,0.0,0.0,1.395593285560608,-0.03,0.03,0.02,0.0
29.99791900,29997919,2,0.21,-0.13,337.32,0.002067186636850238,-0.008665036410093307,-0.018261635676026344,0.015050855465233326,0.0,0.0,1.3966819047927856,-0.03,0.03,0.02,0.0
30.09784500,30097845,2,0.21,-0.13,337.31,0.0017179993446916342,-0.008780200965702534,-0.01826062798500061,-0.0031268002931028605,0.0,0.0,1.3957715034484863,-0.03,0.03,0.02,0.0
30.19782400,30197824,2,0.21,-0.13,337.31,0.002060103463009,-0.008451101370155811,-0.018436189740896225,-0.037117451429367065,0.0,0.0,1.391914963722229,-0.03,0.03,0.02,0.0
30.29781700,30297817,2,0.21,-0.13,337.3,0.002383858198300004,-0.009222539141774178,-0.01776682771742344,-0.04884159937500954,0.0,0.0,1.3884201049804688,-0.03,0.03,0.02,0.0
30.39781400,30397814,2,0.21,-0.14,337.29,0.002647520275786519,-0.009384379722177982,-0.01637520082294941,-0.024488136172294617,0.0,0.0,1.3871209621429443,-0.03,0.03,0.02,0.0
30.49783400,30497834,2,0.21,-0.14,337.28000000000003,0.002890894189476967,-0.009678886272013187,-0.014656118117272854,-0.001176862744614482,0.0,0.0,1.3869051933288574,-0.03,0.03,0.02,0.0
30.59789600,30597896,2,0.22,-0.14,337.26,0.0031686981674283743,-0.009923053905367851,-0.014263179153203964,-0.002683093072846532,0.0,0.0,1.3858604431152344,-0.03,0.03,0.02,0.0
30.69790500,30697905,2,0.23,-0.14,337.25,0.0032520154491066933,-0.009328382089734077,-0.013864735141396523,-0.013921520672738552,0.0,0.0,1.3841699361801147,-0.03,0.03,0.02,0.0
30.79786000,30797860,2,0.23,-0.14,337.24,0.003551710629835725,-0.010124036110937595,-0.013917319476604462,-0.02545103058218956,0.0,0.0,1.3815430402755737,-0.03,0.03,0.02,0.0
30.89789300,30897893,2,0.23,-0.14,337.23,0.0036948095075786114,-0.010683249682188034,-0.014514068141579628,-0.032540496438741684,0.0,0.0,1.3786605596542358,-0.03,0.03,0.02,0.0
30.99784900,30997849,2,0.23,-0.14,337.24,0.003508511697873473,-0.011260036379098892,-0.015452437102794647,-0.03251182287931442,0.0,0.0,1.3758296966552734,-0.03,0.03,0.02,0.0
31.09781700,31097817,2,0.24,-0.14,337.23,0.004250447265803814,-0.011544649489223957,-0.016070768237113953,-0.03497439995408058,0.0,0.0,1.3724137544631958,-0.03,0.03,0.02,0.0
31.19781300,31197813,2,0.23,-0.14,337.24,0.005261996760964394,-0.012278781272470951,-0.016602279618382454,-0.041806165128946304,0.0,0.0,1.3682485818862915,-0.03,0.02,0.02,0.0
31.29781600,31297816,2,0.23,-0.14,337.25,0.005657016299664974,-0.012400299310684204,-0.01653263531625271,-0.047911614179611206,0.0,0.0,1.3636888265609741,-0.03,0.02,0.02,0.0
31.39784000,31397840,2,0.23,-0.14,337.25,0.005562116391956806,-0.012524754740297794,-0.01765573024749756,-0.04618104547262192,0.0,0.0,1.3596508502960205,-0.03,0.02,0.02,0.0
31.49788600,31497886,2,0.23,-0.14,337.24,0.005454843398183584,-0.011767003685235977,-0.018396789208054543,-0.051451586186885834,0.0,0.0,1.354272723197937,-0.03,0.02,0.02,0.0
31.59790800,31597908,2,0.23,-0.14,337.24,0.0058639319613575935,-0.011616237461566925,-0.019702166318893433,-0.06558698415756226,0.0,0.0,1.3478975296020508,-0.03,0.02,0.02,0.0
31.69791600,31697916,2,0.23,-0.14,337.25,0.006314882542937994,-0.010930505581200123,-0.02016979083418846,-0.07198020070791245,0.0,0.0,1.3411632776260376,-0.03,0.02,0.02,0.0
31.79790600,31797906,2,0.24,-0.14,337.25,0.005973474588245153,-0.011391820386052132,-0.020027203485369682,-0.052895598113536835,0.0,0.0,1.337018609046936,-0.03,0.02,0.02,0.0
31.89784300,31897843,2,0.24,-0.13,337.26,0.0062971170991659164,-0.010268849320709705,-0.01933664083480835,-0.03075243905186653,0.0,0.0,1.3336076736450195,-0.03,0.02,0.02,0.0
31.99782300,31997823,2,0.24,-0.13,337.27,0.00727557297796011,-0.010103365406394005,-0.01890961453318596,-0.009241043590009212,0.0,0.0,1.3325759172439575,-0.03,0.02,0.02,0.0
32.09781400,32097814,2,0.23,-0.13,337.29,0.007604402489960194,-0.009917077608406544,-0.019280606880784035,-0.013438516296446323,0.0,0.0,1.3298327922821045,-0.03,0.02,0.02,0.0
32.19781900,32197819,2,0.22,-0.12,337.29,0.007683321367949247,-0.009763007052242756,-0.02081173285841942,-0.044147443026304245,0.0,0.0,1.3250371217727661,-0.03,0.02,0.02,0.0
32.29783200,32297832,2,0.23,-0.12,337.28000000000003,0.007315049879252911,-0.010010935366153717,-0.02058074250817299,-0.04180309921503067,0.0,0.0,1.321623682975769,-0.03,0.02,0.02,0.0
32.39788600,32397886,2,0.22,-0.11,337.28000000000003,0.006736818701028824,-0.010480772703886032,-0.01948731392621994,-0.008115677163004875,0.0,0.0,1.3212534189224243,-0.03,0.02,0.02,0.0
32.49790100,32497901,2,0.22,-0.11,337.28000000000003,0.006692911963909864,-0.010180378332734108,-0.018585195764899254,0.025504056364297867,0.0,0.0,1.323216199874878,-0.03,0.02,0.02,0.0
32.59786000,32597860,2,0.22,-0.11,337.28000000000003,0.006979764439165592,-0.010277570225298405,-0.01685924082994461,0.03692250698804855,0.0,0.0,1.325468897819519,-0.03,0.02,0.02,0.0
32.69789900,32697899,2,0.22,-0.11,337.28000000000003,0.006813462823629379,-0.010298727080225945,-0.01646443083882332,0.015278090722858906,0.0,0.0,1.325682520866394,-0.03,0.02,0.02,0.0
32.79784700,32797847,2,0.23,-0.11,337.28000000000003,0.0064453729428350925,-0.010964399203658104,-0.016300706192851067,-0.0024267169646918774,0.0,0.0,1.325546383857727,-0.03,0.02,0.02,0.0
32.89781700,32897817,2,0.23,-0.11,337.3,0.005937847308814526,-0.01087839063256979,-0.014855819754302502,0.009846772998571396,0.0,0.0,1.3269884586334229,-0.03,0.02,0.02,0.0
32.99782500,32997825,2,0.23,-0.11,337.29,0.0057741133496165276,-0.010380563326179981,-0.01307726465165615,0.03629116714000702,0.0,0.0,1.3307673931121826,-0.03,0.02,0.02,0.0
33.09783200,33097832,2,0.23,-0.11,337.3,0.005196019541472197,-0.009857344441115856,-0.012171880342066288,0.045672640204429626,0.0,0.0,1.334293007850647,-0.03,0.02,0.02,0.0
33.19783800,33197838,2,0.23,-0.11,337.3,0.005003632511943579,-0.009068483486771584,-0.012475913390517235,0.01950438879430294,0.0,0.0,1.335234522819519,-0.03,0.02,0.02,0.0
33.29787300,33297873,2,0.23,-0.11,337.29,0.00459668505936861,-0.008227214217185974,-0.012142300605773926,0.0051233102567493916,0.0,0.0,1.3362571001052856,-0.03,0.02,0.02,0.0
33.39790900,33397909,2,0.23,-0.1,337.29,0.004473850596696138,-0.008149662055075169,-0.010775746777653694,0.007133929058909416,0.0,0.0,1.3371407985687256,-0.03,0.02,0.02,0.0
33.49785700,33497857,2,0.23,-0.1,337.28000000000003,0.004044286906719208,-0.007319642696529627,-0.011110277846455574,-0.0016358037246391177,0.0,0.0,1.3371306657791138,-0.03,0.02,0.02,0.0
33.59791000,33597910,2,0.23,-0.1,337.28000000000003,0.0032801374327391386,-0.006464896723628044,-0.0103492122143507,-0.014941415749490261,0.0,0.0,1.3357372283935547,-0.03,0.02,0.02,0.0
33.69785200,33697852,2,0.23,-0.1,337.29,0.00397455645725131,-0.006473904941231012,-0.010958962142467499,-0.019977137446403503,0.0,0.0,1.3345255851745605,-0.03,0.02,0.02,0.0
33.79781800,33797818,2,0.23,-0.1,337.3,0.003694623475894332,-0.006628137547522783,-0.010194014757871628,-0.011359681375324726,0.0,0.0,1.3337794542312622,-0.03,0.02,0.02,0.0
33.89782200,33897822,2,0.23,-0.09,337.31,0.0027732730377465487,-0.0061079515144228935,-0.009171826764941216,-0.008810346946120262,0.0,0.0,1.3328529596328735,-0.03,0.02,0.02,0.0
33.99782900,33997829,2,0.23,-0.09,337.32,0.0015288903377950191,-0.005352714564651251,-0.009086249396204948,-0.014780314639210701,0.0,0.0,1.3313109874725342,-0.03,0.02,0.01,0.0
34.09783300,34097833,2,0.23,-0.1,337.34000000000003,0.0012879687128588557,-0.004629551898688078,-0.00915579590946436,-0.014697504229843616,0.0,0.0,1.330224633216858,-0.03,0.02,0.01,0.0
34.19784200,34197842,2,0.23,-0.1,337.35,0.0008839988149702549,-0.0026574088260531425,-0.008766800165176392,-0.01109876949340105,0.0,0.0,1.329093098640442,-0.03,0.02,0.01,0.0
34.29790300,34297903,2,0.23,-0.1,337.36,0.0007015340379439294,-0.0026737158186733723,-0.009258820675313473,-0.009596570394933224,0.0,0.0,1.3282643556594849,-0.03,0.02,0.01,0.0
34.39786100,34397861,2,0.24,-0.1,337.36,0.0009293926996178925,-0.0026483621913939714,-0.007351594977080822,-0.002306113950908184,0.0,0.0,1.3279494047164917,-0.03,0.02,0.01,0.0
34.49790300,34497903,2,0.24,-0.1,337.38,0.0005118825356476009,-0.0014844242250546813,-0.00626781303435564,0.0031239937525242567,0.0,0.0,1.3280998468399048,-0.03,0.02,0.01,0.0
34.59784800,34597848,2,0.23,-0.1,337.39,0.0002488633035682142,-0.000542613968718797,-0.005276696290820837,0.001544950995594263,0.0,0.0,1.3277995586395264,-0.03,0.02,0.01,0.0
34.69782000,34697820,2,0.24,-0.1,337.41,-0.00014442209794651717,0.0012955799465999007,-0.005128559190779924,-0.02542908303439617,0.0,0.0,1.3245538473129272,-0.03,0.02,0.01,0.0
34.79781500,34797815,2,0.23,-0.1,337.43,-0.00019183367840014398,0.0018963984912261367,-0.0052614291198551655,-0.04363187029957771,0.0,0.0,1.3210362195968628,-0.03,0.02,0.01,0.0
34.89781400,34897814,2,0.23,-0.1,337.45,-0.000437825481640175,0.0021338460501283407,-0.005954419728368521,-0.040077924728393555,0.0,0.0,1.3178117275238037,-0.03,0.02,0.01,0.0
34.99788200,34997882,2,0.23,-0.11,337.46,-0.0007905507809482515,0.002726616570726037,-0.006011928431689739,-0.04131796211004257,0.0,0.0,1.3137924671173096,-0.03,0.02,0.01,0.0
35.09787400,35097874,2,0.23,-0.11,337.47,-0.0008332178113050759,0.002382980426773429,-0.005834235344082117,-0.041703514754772186,0.0,0.0,1.3100550174713135,-0.03,0.02,0.01,0.0
35.19790000,35197900,2,0.23,-0.11,337.47,-0.0013592499308288097,0.002529856748878956,-0.005623247940093279,-0.03470988944172859,0.0,0.0,1.306913137435913,-0.03,0.02,0.01,0.0
35.29786000,35297860,2,0.23,-0.11,337.47,-0.001711936783976853,0.0023698899894952774,-0.0051908246241509914,-0.026465849950909615,0.0,0.0,1.3043051958084106,-0.03,0.02,0.01,0.0
35.39792500,35397925,2,0.23,-0.11,337.47,-0.0008782304357737303,0.0019398592412471771,-0.004853428341448307,-0.010924595408141613,0.0,0.0,1.3034355640411377,-0.03,0.02,0.01,0.0
35.49784500,35497845,2,0.23,-0.1,337.46,-0.0004965405678376555,0.0017391067231073976,-0.004564319737255573,0.0026474304031580687,0.0,0.0,1.303223729133606,-0.03,0.02,0.01,0.0
35.59781700,35597817,2,0.24,-0.1,337.46,-0.0009607654646970332,0.001301993615925312,-0.0035223658196628094,0.021996179595589638,0.0,0.0,1.3054050207138062,-0.03,0.02,0.01,0.0
35.69782500,35697825,2,0.23,-0.1,337.45,-0.0007633535424247384,0.0005495394580066204,-0.0018608223181217909,0.04244622960686684,0.0,0.0,1.3088314533233643,-0.03,0.02,0.01,0.0
35.79781400,35797814,2,0.23,-0.1,337.45,-6.114787538535893e-05,-0.0001273248199140653,-0.0010899626649916172,0.03145882114768028,0.0,0.0,1.3103516101837158,-0.03,0.02,0.01,0.0
35.89781900,35897819,2,0.22,-0.1,337.44,-0.0005127995973452926,-0.00018319246009923518,-0.00040567529504187405,0.007009551394730806,0.0,0.0,1.3105970621109009,-0.03,0.02,0.01,0.0
35.99789700,35997897,2,0.22,-0.1,337.44,-0.0009350664913654327,0.00038991618202999234,-0.0005697546293959022,-0.020689362660050392,0.0,0.0,1.3083412647247314,-0.03,0.02,0.01,0.0
36.09790000,36097900,2,0.21,-0.09,337.43,-0.0014034794876351953,0.0003097938315477222,-0.0012263415846973658,-0.0516703762114048,0.0,0.0,1.3036459684371948,-0.03,0.02,0.01,0.0
36.19785700,36197857,2,0.21,-0.1,337.42,-0.0016712674405425787,-0.0003937743604183197,-0.0010137856006622314,-0.04012931138277054,0.0,0.0,1.3019300699234009,-0.03,0.02,0.01,0.0
36.29789700,36297897,2,0.21,-0.09,337.42,-0.001409641350619495,-0.0005778043414466083,0.0003778662357944995,-0.005134755279868841,0.0,0.0,1.301894187927246,-0.03,0.02,0.01,0.0
36.39785400,36397854,2,0.21,-0.09,337.43,-0.0019400145392864943,-0.0014261086471378803,0.001164630870334804,-3.1931340345181525e-05,0.0,0.0,1.3009976148605347,-0.03,0.02,0.01,0.0
36.49781400,36497814,2,0.21,-0.09,337.43,-0.002875722013413906,-0.002367389388382435,0.0010050854180008173,-0.013246459886431694,0.0,0.0,1.2992188930511475,-0.03,0.02,0.01,0.0
36.59781700,36597817,2,0.21,-0.08,337.43,-0.003926672972738743,-0.0024569618981331587,0.0029726976063102484,-0.02211991511285305,0.0,0.0,1.2969491481781006,-0.03,0.02,0.01,0.0
36.69781600,36697816,2,0.21,-0.08,337.44,-0.0036959066055715084,-0.002716668648645282,0.004151866305619478,-0.01950160413980484,0.0,0.0,1.2956422567367554,-0.03,0.02,0.01,0.0
36.79784500,36797845,2,0.21,-0.09,337.45,-0.0045772334560751915,-0.0032531218603253365,0.004785128869116306,-0.008366023190319538,0.0,0.0,1.2950162887573242,-0.03,0.02,0.01,0.0
36.89788800,36897888,2,0.2,-0.09,337.46,-0.004886248614639044,-0.0038634242955595255,0.0054019540548324585,0.0019422844052314758,0.0,0.0,1.295059323310852,-0.03,0.02,0.01,0.0
36.99793100,36997931,2,0.21,-0.08,337.47,-0.0057842787355184555,-0.00464077340438962,0.006442115642130375,0.008672991767525673,0.0,0.0,1.2955971956253052,-0.03,0.02,0.01,0.0
37.09791500,37097915,2,0.21,-0.07,337.48,-0.005627978593111038,-0.0043320427648723125,0.00747663015499711,0.010324596427381039,0.0,0.0,1.2962284088134766,-0.03,0.02,0.0,0.0
37.19790900,37197909,2,0.2,-0.07,337.48,-0.005880797281861305,-0.004721958655864,0.008233044296503067,-0.0011100796982645988,0.0,0.0,1.2955999374389648,-0.03,0.02,0.01,0.0
37.29785100,37297851,2,0.2,-0.08,337.48,-0.006734683644026518,-0.00458363676443696,0.008709090761840343,-0.006731189787387848,0.0,0.0,1.2953119277954102,-0.03,0.02,0.01,0.0
37.39782300,37397823,2,0.2,-0.07,337.48,-0.007311410270631313,-0.004643496125936508,0.010119142010807991,0.007737323641777039,0.0,0.0,1.296406865119934,-0.03,0.02,0.01,0.0
37.49781400,37497814,2,0.2,-0.07,337.47,-0.007243801839649677,-0.004689545836299658,0.011944714933633804,0.008871718309819698,0.0,0.0,1.2967231273651123,-0.03,0.02,0.01,0.0
37.59782000,37597820,2,0.2,-0.07,337.47,-0.007331135217100382,-0.0048711784183979034,0.012697943486273289,0.0016095517203211784,0.0,0.0,1.296931266784668,-0.03,0.02,0.0,0.0
37.69785900,37697859,2,0.2,-0.07,337.47,-0.007433755323290825,-0.004833373241126537,0.014323437586426735,0.005887647159397602,0.0,0.0,1.297634243965149,-0.03,0.02,0.01,0.0
37.79789100,37797891,2,0.2,-0.07,337.47,-0.008602739311754704,-0.004651670344173908,0.01509888842701912,0.01597500778734684,0.0,0.0,1.29937744140625,-0.03,0.02,0.01,0.0
37.89790300,37897903,2,0.19,-0.07,337.47,-0.009560277685523033,-0.004456148017197847,0.01698256842792034,0.023281387984752655,0.0,0.0,1.301255226135254,-0.03,0.02,0.01,0.0
37.99786000,37997860,2,0.19,-0.08,337.47,-0.010108288377523422,-0.004628903232514858,0.017757566645741463,0.021941425278782845,0.0,0.0,1.303206205368042,-0.03,0.02,0.0,0.0
38.09789400,38097894,2,0.19,-0.08,337.47,-0.01043015904724598,-0.005057848524302244,0.01897028647363186,0.020741095766425133,0.0,0.0,1.3050719499588013,-0.03,0.02,0.0,0.0
38.19784400,38197844,2,0.19,-0.09,337.48,-0.01112330611795187,-0.006756982300430536,0.01905110478401184,0.017751362174749374,0.0,0.0,1.3068337440490723,-0.03,0.02,0.0,0.0
38.29781900,38297819,2,0.19,-0.09,337.47,-0.011906879022717476,-0.007358118891716003,0.02054472081363201,0.003539951518177986,0.0,0.0,1.3066788911819458,-0.03,0.02,0.0,0.0
38.39781600,38397816,2,0.18,-0.1,337.47,-0.012476648204028606,-0.007697104010730982,0.019969331100583076,-0.025236457586288452,0.0,0.0,1.3043849468231201,-0.03,0.02,0.0,0.0
38.49781500,38497815,2,0.19,-0.09,337.47,-0.012116414494812489,-0.007794523611664772,0.020687280222773552,-0.01800720766186714,0.0,0.0,1.3042267560958862,-0.03,0.02,0.0,0.0
38.59781400,38597814,2,0.18,-0.09,337.46,-0.01228319201618433,-0.00830209068953991,0.020841745659708977,0.006970530841499567,0.0,0.0,1.3051939010620117,-0.03,0.02,0.01,0.0
38.69789100,38697891,2,0.18,-0.1,337.46,-0.012577381916344166,-0.008511834777891636,0.021516038104891777,0.01074504479765892,0.0,0.0,1.3058714866638184,-0.03,0.02,0.01,0.0
38.79790500,38797905,2,0.18,-0.1,337.46,-0.01252422109246254,-0.008688650093972683,0.022547338157892227,0.007143297232687473,0.0,0.0,1.3061734437942505,-0.03,0.02,0.01,0.0
38.89786000,38897860,2,0.18,-0.1,337.45,-0.012629147619009018,-0.009326333180069923,0.02307726815342903,-0.011300702579319477,0.0,0.0,1.3045412302017212,-0.03,0.02,0.01,0.0
38.99789700,38997897,2,0.18,-0.11,337.44,-0.012320144101977348,-0.009022966958582401,0.022940481081604958,-0.02898266538977623,0.0,0.0,1.3022679090499878,-0.03,0.02,0.01,0.0
39.09785600,39097856,2,0.18,-0.11,337.43,-0.013091008178889751,-0.009567046537995338,0.02207733504474163,-0.021893253549933434,0.0,0.0,1.3011033535003662,-0.03,0.02,0.01,0.0
39.19781200,39197812,2,0.18,-0.11,337.42,-0.013312509283423424,-0.010079169645905495,0.022378865629434586,-0.008366133086383343,0.0,0.0,1.3004623651504517,-0.03,0.02,0.01,0.0
39.29781800,39297818,2,0.19,-0.12,337.42,-0.013423549011349678,-0.010334143415093422,0.023304712027311325,-0.015135901048779488,0.0,0.0,1.2983934879302979,-0.03,0.02,0.01,0.0
39.39782200,39397822,2,0.19,-0.12,337.42,-0.013945345766842365,-0.010499883443117142,0.02326260693371296,-0.01769900880753994,0.0,0.0,1.2972604036331177,-0.03,0.02,0.01,0.0
39.49784100,39497841,2,0.19,-0.11,337.42,-0.013328876346349716,-0.011217748746275902,0.023531386628746986,-0.003530819434672594,0.0,0.0,1.297029733657837,-0.03,0.02,0.01,0.0
39.59790200,39597902,2,0.18,-0.11,337.42,-0.013969031162559986,-0.010927406139671803,0.024228401482105255,0.0015218192711472511,0.0,0.0,1.2969220876693726,-0.03,0.02,0.01,0.0
39.69790300,39697903,2,0.18,-0.11,337.41,-0.01468228455632925,-0.011163306422531605,0.023607034236192703,-3.49841830029618e-05,0.0,0.0,1.2966697216033936,-0.03,0.02,0.01,0.0
39.79785800,39797858,2,0.18,-0.12,337.41,-0.015411574393510818,-0.011389517225325108,0.024709580466151237,-0.00023006352421361953,0.0,0.0,1.296536922454834,-0.03,0.02,0.01,0.0
39.89792200,39897922,2,0.18,-0.13,337.40000000000003,-0.014581292867660522,-0.012497876770794392,0.023988666012883186,-0.025579392910003662,0.0,0.0,1.2931193113327026,-0.03,0.02,0.01,0.0
39.99784600,39997846,2,0.18,-0.12,337.40000000000003,-0.013721510767936707,-0.012743212282657623,0.02283717319369316,-0.04729913920164108,0.0,0.0,1.2896223068237305,-0.03,0.02,0.01,0.0
40.09781300,40097813,2,0.18,-0.12,337.39,-0.013493899255990982,-0.013673466630280018,0.02278113178908825,-0.031408317387104034,0.0,0.0,1.287479043006897,-0.03,0.02,0.01,0.0
40.19781800,40197818,2,0.17,-0.12,337.40000000000003,-0.014005745761096478,-0.014023455791175365,0.022342946380376816,-0.02674149163067341,0.0,0.0,1.2847931385040283,-0.03,0.02,0.01,0.0
40.29781900,40297819,2,0.17,-0.12,337.40000000000003,-0.014040167443454266,-0.015040691941976547,0.022390466183423996,-0.020398711785674095,0.0,0.0,1.283185601234436,-0.03,0.02,0.01,0.0
40.39785400,40397854,2,0.17,-0.12,337.40000000000003,-0.013584261760115623,-0.01682065986096859,0.022618824616074562,-0.009176244027912617,0.0,0.0,1.282065510749817,-0.03,0.02,0.01,0.0
40.49789600,40497896,2,0.16,-0.12,337.40000000000003,-0.01405052375048399,-0.017421914264559746,0.023447738960385323,-0.0064611234702169895,0.0,0.0,1.2811359167099,-0.03,0.02,0.01,0.0
40.59790100,40597901,2,0.16,-0.12,337.39,-0.014013797976076603,-0.017899706959724426,0.023872852325439453,0.0020351617131382227,0.0,0.0,1.2813063859939575,-0.03,0.02,0.01,0.0
40.69786000,40697860,2,0.16,-0.12,337.39,-0.013832461088895798,-0.018430247902870178,0.025393111631274223,0.012413309887051582,0.0,0.0,1.2821911573410034,-0.03,0.02,0.01,0.0
40.79790100,40797901,2,0.15,-0.12,337.39,-0.013505857437849045,-0.019422680139541626,0.026167266070842743,0.01457168161869049,0.0,0.0,1.2831557989120483,-0.03,0.02,0.01,0.0
40.89784500,40897845,2,0.15,-0.11,337.39,-0.013205756433308125,-0.02032259851694107,0.026372581720352173,0.0086393216624856,0.0,0.0,1.2836077213287354,-0.03,0.02,0.01,0.0
40.99781600,40997816,2,0.15,-0.12,337.40000000000003,-0.013018500991165638,-0.02076377347111702,0.027101408690214157,0.010876991786062717,0.0,0.0,1.2849559783935547,-0.03,0.02,0.01,0.0
41.09781700,41097817,2,0.16,-0.12,337.41,-0.012865109369158745,-0.021758155897259712,0.02875547856092453,0.030602866783738136,0.0,0.0,1.2881187200546265,-0.03,0.02,0.01,0.0
41.19781900,41197819,2,0.17,-0.12,337.41,-0.011962083168327808,-0.02193712256848812,0.030291691422462463,0.04342068359255791,0.0,0.0,1.291796088218689,-0.03,0.02,0.01,0.0
41.29788300,41297883,2,0.17,-0.12,337.42,-0.011708617210388184,-0.022880535572767258,0.030786829069256783,0.05404370650649071,0.0,0.0,1.2970125675201416,-0.03,0.02,0.01,0.0
41.39788700,41397887,2,0.16,-0.12,337.42,-0.011205651797354221,-0.023813406005501747,0.032272133976221085,0.06588246673345566,0.0,0.0,1.3028144836425781,-0.03,0.02,0.01,0.0
41.49790100,41497901,2,0.16,-0.12,337.41,-0.010752834379673004,-0.024265127256512642,0.033797748386859894,0.06554602086544037,0.0,0.0,1.3086309432983398,-0.03,0.02,0.01,0.0
41.59791300,41597913,2,0.16,-0.12,337.41,-0.010342372581362724,-0.02351796254515648,0.034037262201309204,0.04075685143470764,0.0,0.0,1.311549425125122,-0.03,0.02,0.01,0.0
41.69790200,41697902,2,0.16,-0.12,337.40000000000003,-0.01004927046597004,-0.02374695986509323,0.033729009330272675,-0.007385484408587217,0.0,0.0,1.3107393980026245,-0.03,0.02,0.01,0.0
41.79784500,41797845,2,0.16,-0.12,337.37,-0.009871055372059345,-0.023539161309599876,0.03444478660821915,-0.04028860107064247,0.0,0.0,1.307921051979065,-0.03,0.02,0.01,0.0
41.89781700,41897817,2,0.17,-0.12,337.36,-0.009724029339849949,-0.023673823103308678,0.034616079181432724,-0.05280197039246559,0.0,0.0,1.3038711547851562,-0.03,0.02,0.01,0.0
41.99781600,41997816,2,0.17,-0.12,337.35,-0.00865106750279665,-0.0239232387393713,0.03416353836655617,-0.055116742849349976,0.0,0.0,1.29982590675354,-0.03,0.02,0.01,0.0
42.09781300,42097813,2,0.17,-0.13,337.34000000000003,-0.008544765412807465,-0.02362705208361149,0.034112054854631424,-0.05149891972541809,0.0,0.0,1.2954572439193726,-0.04,0.02,0.01,0.0
42.19783400,42197834,2,0.17,-0.13,337.34000000000003,-0.008357405662536621,-0.023251470178365707,0.032753489911556244,-0.06488505005836487,0.0,0.0,1.2893946170806885,-0.04,0.02,0.01,0.0
42.29788700,42297887,2,0.17,-0.13,337.34000000000003,-0.0077937012538313866,-0.022737449035048485,0.031914785504341125,-0.06031804904341698,0.0,0.0,1.2845536470413208,-0.04,0.02,0.01,0.0
42.39790100,42397901,2,0.18,-0.14,337.35,-0.0071410443633794785,-0.022070858627557755,0.03219535946846008,-0.041447896510362625,0.0,0.0,1.2808786630630493,-0.04,0.02,0.01,0.0
42.49791600,42497916,2,0.18,-0.13,337.36,-0.0066911401227116585,-0.021708490327000618,0.03227454051375389,-0.020706672221422195,0.0,0.0,1.2789170742034912,-0.04,0.02,0.01,0.0
42.59790400,42597904,2,0.18,-0.14,337.36,-0.005952002946287394,-0.021500004455447197,0.031391117721796036,-0.029633566737174988,0.0,0.0,1.2747362852096558,-0.04,0.02,0.01,0.0
42.69784400,42697844,2,0.18,-0.14,337.37,-0.0050651938654482365,-0.021434105932712555,0.02982892468571663,-0.030377650633454323,0.0,0.0,1.2724347114562988,-0.04,0.02,0.01,0.0
42.79782000,42797820,2,0.18,-0.13,337.37,-0.004742984659969807,-0.021683815866708755,0.029198314994573593,-0.02447354979813099,0.0,0.0,1.2695136070251465,-0.04,0.02,0.01,0.0
42.89781500,42897815,2,0.19,-0.13,337.37,-0.0036115660332143307,-0.0207597054541111,0.02782166749238968,-0.03106192871928215,0.0,0.0,1.2663484811782837,-0.04,0.02,0.01,0.0
42.99781700,42997817,2,0.19,-0.13,337.36,-0.003169051371514797,-0.020262662321329117,0.0277644544839859,-0.016943087801337242,0.0,0.0,1.2652381658554077,-0.04,0.02,0.01,0.0
43.09783700,43097837,2,0.19,-0.13,337.37,-0.0026158979162573814,-0.01978115364909172,0.027544183656573296,-0.00023565854644402862,0.0,0.0,1.2649180889129639,-0.04,0.02,0.01,0.0
43.19788400,43197884,2,0.19,-0.13,337.37,-0.0022832753602415323,-0.01872437819838524,0.029066702350974083,0.005667687859386206,0.0,0.0,1.2648564577102661,-0.04,0.02,0.01,0.0
43.29790100,43297901,2,0.2,-0.13,337.37,-0.00236784596927464,-0.0188926812261343,0.029749596491456032,0.017344316467642784,0.0,0.0,1.266489863395691,-0.04,0.02,0.01,0.0
43.39786400,43397864,2,0.19,-0.13,337.37,-0.0016765255713835359,-0.017165375873446465,0.029802067205309868,0.009624105878174305,0.0,0.0,1.2663052082061768,-0.04,0.02,0.01,0.0
43.49790900,43497909,2,0.19,-0.13,337.37,-0.0017168816411867738,-0.017217688262462616,0.031171318143606186,0.004015115089714527,0.0,0.0,1.2669432163238525,-0.04,0.02,0.01,0.0
43.59785100,43597851,2,0.2,-0.13,337.37,-0.0017297475133091211,-0.016253454610705376,0.03284699469804764,0.007508077193051577,0.0,0.0,1.267506718635559,-0.04,0.02,0.01,0.0
43.69782100,43697821,2,0.19,-0.12,337.37,-0.0027277490589767694,-0.01546772662550211,0.03225911781191826,-0.016365813091397285,0.0,0.0,1.2652233839035034,-0.04,0.02,0.01,0.0
43.79782900,43797829,2,0.2,-0.12,337.37,-0.002749647945165634,-0.015362084843218327,0.03205074369907379,-0.03644747659564018,0.0,0.0,1.2620561122894287,-0.04,0.02,0.01,0.0
43.89782500,43897825,2,0.19,-0.13,337.37,-0.0029587168246507645,-0.014755533076822758,0.0323263444006443,-0.040988434106111526,0.0,0.0,1.2587528228759766,-0.04,0.02,0.01,0.0
43.99784400,43997844,2,0.19,-0.12,337.38,-0.002563453046604991,-0.0139887360855937,0.03286740556359291,-0.04010135680437088,0.0,0.0,1.2553263902664185,-0.04,0.02,0.01,0.0
44.09789900,44097899,2,0.2,-0.13,337.38,-0.002323287772014737,-0.013648739084601402,0.032967835664749146,-0.029018301516771317,0.0,0.0,1.253167748451233,-0.04,0.02,0.01,0.0
44.19790200,44197902,2,0.21,-0.13,337.38,-0.0022822844330221415,-0.01268791127949953,0.033374857157468796,-0.022650862112641335,0.0,0.0,1.250637412071228,-0.04,0.02,0.01,0.0
44.29791800,44297918,2,0.21,-0.13,337.39,-0.0027255944442003965,-0.01183247845619917,0.03398297354578972,-0.003611247520893812,0.0,0.0,1.2510520219802856,-0.04,0.02,0.01,0.0
44.39790900,44397909,2,0.21,-0.12,337.39,-0.002567092888057232,-0.010477154515683651,0.03581104055047035,0.038530200719833374,0.0,0.0,1.254944086074829,-0.04,0.02,0.01,0.0
44.49784600,44497846,2,0.21,-0.13,337.39,-0.0026071718893945217,-0.0101258410140872,0.03702900558710098,0.04868653416633606,0.0,0.0,1.2579318284988403,-0.04,0.02,0.01,0.0
44.59781400,44597814,2,0.21,-0.13,337.39,-0.001813080394640565,-0.009321190416812897,0.037225984036922455,0.03534643352031708,0.0,0.0,1.2606722116470337,-0.04,0.02,0.01,0.0
44.69781800,44697818,2,0.21,-0.12,337.40000000000003,-0.001961867092177272,-0.009087737649679184,0.037714883685112,0.01595674268901348,0.0,0.0,1.2617195844650269,-0.04,0.02,0.01,0.0
44.79783100,44797831,2,0.21,-0.12,337.39,-0.0018173021962866187,-0.007258561905473471,0.03834124654531479,-0.008915286511182785,0.0,0.0,1.2609719038009644,-0.04,0.02,0.01,0.0
44.89788200,44897882,2,0.21,-0.12,337.40000000000003,-0.0015798491658642888,-0.006515785586088896,0.03793840855360031,-0.032477665692567825,0.0,0.0,1.2583317756652832,-0.04,0.02,0.01,0.0
44.99788500,44997885,2,0.21,-0.12,337.41,-0.0023234039545059204,-0.006675634533166885,0.03730975091457367,-0.04557119682431221,0.0,0.0,1.2549011707305908,-0.04,0.02,0.01,0.0
45.09790200,45097902,2,0.2,-0.12,337.40000000000003,-0.0021034120582044125,-0.0067819938994944096,0.03723485767841339,-0.03852101042866707,0.0,0.0,1.2519967555999756,-0.04,0.02,0.01,0.0
45.19785800,45197858,2,0.2,-0.11,337.40000000000003,-0.002773336134850979,-0.007196060847491026,0.036778829991817474,-0.040523137897253036,0.0,0.0,1.2481497526168823,-0.04,0.02,0.01,0.0
45.29790400,45297904,2,0.2,-0.12,337.40000000000003,-0.0028933833818882704,-0.00715698441490531,0.03572512045502663,-0.044906314462423325,0.0,0.0,1.244306206703186,-0.04,0.02,0.01,0.0
45.39785100,45397851,2,0.19,-0.11,337.41,-0.003098199376836419,-0.007169757504016161,0.034633051604032516,-0.02897077426314354,0.0,0.0,1.242169976234436,-0.04,0.02,0.01,0.0
45.49781700,45497817,2,0.19,-0.11,337.40000000000003,-0.0030400699470192194,-0.00717380503192544,0.035256557166576385,-0.00889250822365284,0.0,0.0,1.2411255836486816,-0.04,0.02,0.01,0.0
45.59782500,45597825,2,0.19,-0.11,337.40000000000003,-0.003129384247586131,-0.008453142829239368,0.03547829017043114,-0.0076566725037992,0.0,0.0,1.2396724224090576,-0.04,0.02,0.01,0.0
45.69783200,45697832,2,0.18,-0.11,337.40000000000003,-0.0041149454191327095,-0.009385096840560436,0.034019194543361664,-0.026837218552827835,0.0,0.0,1.2365436553955078,-0.04,0.02,0.01,0.0
45.79786000,45797860,2,0.18,-0.1,337.40000000000003,-0.003629496553912759,-0.010058365762233734,0.03296436741948128,-0.028511367738246918,0.0,0.0,1.2344763278961182,-0.04,0.02,0.01,0.0
45.89789300,45897893,2,0.18,-0.11,337.40000000000003,-0.0035338273737579584,-0.010596100240945816,0.03231200575828552,-0.011059969663619995,0.0,0.0,1.2336068153381348,-0.04,0.02,0.01,0.0
45.99790000,45997900,2,0.18,-0.1,337.40000000000003,-0.003386284690350294,-0.011196245439350605,0.03205234184861183,-0.005973519291728735,0.0,0.0,1.2325820922851562,-0.04,0.02,0.01,0.0
46.09786400,46097864,2,0.18,-0.1,337.40000000000003,-0.00397115433588624,-0.010786785744130611,0.0323023684322834,-0.001278561889193952,0.0,0.0,1.2323557138442993,-0.04,0.02,0.01,0.0
46.19790600,46197906,2,0.18,-0.1,337.41,-0.004329489078372717,-0.011281430721282959,0.03262557089328766,0.003085622563958168,0.0,0.0,1.232332706451416,-0.04,0.02,0.01,0.0
