timestamp,TimeUS,C,Q1,Q2,Q3,Q4
11.49783500,11497835,2,1.0,0.0,0.0,0.0
11.59785700,11597857,2,1.0,0.0,0.0,0.0
11.69791500,11697915,2,1.0,0.0,0.0,0.0
11.79791300,11797913,2,1.0,0.0,0.0,0.0
11.89794000,11897940,2,1.0,0.0,0.0,0.0
11.99792700,11997927,2,1.0,0.0,0.0,0.0
12.09786400,12097864,2,1.0,0.0,0.0,0.0
12.19783900,12197839,2,1.0,0.0,0.0,0.0
12.29783700,12297837,2,1.0,0.0,0.0,0.0
12.39783400,12397834,2,1.0,0.0,0.0,0.0
12.49788100,12497881,2,0.9999972581863403,0.002227824181318283,-0.0007052993169054389,5.375746331992559e-05
12.59793300,12597933,2,0.9999971985816956,0.0022492031566798687,-0.0006908020586706698,0.00010364903573645279
12.69791100,12697911,2,0.9999972581863403,0.002228493569418788,-0.0006793411448597908,0.00016815128037706017
12.79792900,12797929,2,0.9999972581863403,0.0022447570227086544,-0.0006626115064136684,0.00018878669652622193
12.89791800,12897918,2,0.9999972581863403,0.002246155170723796,-0.0006042277091182768,0.0002423520782031119
12.99786000,12997860,2,0.9999973177909851,0.0022422010079026222,-0.000557434861548245,0.0002667867229320109
13.09783800,13097838,2,0.9999973773956299,0.0022107246331870556,-0.00046255794586613774,0.00030026756576262414
13.19783900,13197839,2,0.9999974370002747,0.002206196077167988,-0.0004755085101351142,0.0002654372656252235
13.29783900,13297839,2,0.9999973773956299,0.0022153332829475403,-0.00047902073129080236,0.0002704914368223399
13.39785200,13397852,2,0.9999974966049194,0.002150442684069276,-0.0004613881465047598,0.0003444958128966391
13.49789800,13497898,2,0.9999974966049194,0.0021585235372185707,-0.00043781858403235674,0.00037366501055657864
13.59791600,13597916,2,0.9999974966049194,0.0021359692327678204,-0.00042386140557937324,0.00045570111251436174
13.69792900,13697929,2,0.9999975562095642,0.0021169984247535467,-0.00046134760486893356,0.0004739314899779856
13.79791300,13797913,2,0.9999975562095642,0.0021179928444325924,-0.0004639312974177301,0.00046720041427761316
13.89785700,13897857,2,0.9999974370002747,0.0021601489279419184,-0.00046759002725593746,0.0005132008227519691
13.99783200,13997832,2,0.979684054851532,0.002007298404350877,-0.0008748307009227574,-0.20053516328334808
14.09782700,14097827,2,0.9796990752220154,0.001965727424249053,-0.0008419000660069287,-0.2004624456167221
14.19782600,14197826,2,0.97978276014328,0.002020403975620866,-0.0008221623720601201,-0.200052410364151
14.29786900,14297869,2,0.9799385666847229,0.0020530817564576864,-0.000834704318549484,-0.19928742945194244
14.39789600,14397896,2,0.9801120758056641,0.0020455429330468178,-0.0008131861686706543,-0.19843263924121857
14.49791100,14497911,2,0.9802658557891846,0.002070601098239422,-0.0008524919976480305,-0.197671040892601
14.59792100,14597921,2,0.9804011583328247,0.002027449430897832,-0.0008253574487753212,-0.1969994157552719
14.69791500,14697915,2,0.980519711971283,0.0020080714020878077,-0.0008457525400444865,-0.19640856981277466
14.79785900,14797859,2,0.9806268811225891,0.0019915562588721514,-0.0008086342131718993,-0.19587311148643494
14.89783000,14897830,2,0.9807074666023254,0.0019839287269860506,-0.0008293120772577822,-0.19546915590763092
14.99782800,14997828,2,0.9807339310646057,0.0020021162927150726,-0.0008366515976376832,-0.19533617794513702
15.09782800,15097828,2,0.9807332158088684,0.002007253933697939,-0.0009053601534105837,-0.19533954560756683
15.19786800,15197868,2,0.98072749376297,0.002018385101109743,-0.0009482033201493323,-0.19536802172660828
15.29790700,15297907,2,0.9807327389717102,0.002044761786237359,-0.001004270976409316,-0.19534096121788025
15.39791400,15397914,2,0.9807551503181458,0.002030571922659874,-0.001042573363520205,-0.19522833824157715
15.49791700,15497917,2,0.9807770848274231,0.002097580349072814,-0.0010477444157004356,-0.1951175034046173
15.59792000,15597920,2,0.9807664155960083,0.0021309321746230125,-0.0010899637127295136,-0.19517041742801666
15.69786200,15697862,2,0.9807673692703247,0.002147163264453411,-0.0011438443325459957,-0.19516518712043762
15.79782400,15797824,2,0.9807518124580383,0.0021358367521315813,-0.001086982898414135,-0.1952437311410904
15.89782900,15897829,2,0.980731189250946,0.0021303296089172363,-0.0010618270607665181,-0.19534751772880554
15.99783200,15997832,2,0.9807189702987671,0.002129864878952503,-0.0010656547965481877,-0.1954088807106018
16.09785000,16097850,2,0.9807233810424805,0.002134731039404869,-0.0011041602119803429,-0.19538652896881104
16.19788900,16197889,2,0.9807237982749939,0.0021680232603102922,-0.0011102582793682814,-0.19538389146327972
16.29791300,16297913,2,0.9807192087173462,0.0021553935948759317,-0.0011111546773463488,-0.19540716707706451
16.39792200,16397922,2,0.9806981682777405,0.002149868756532669,-0.0010788831859827042,-0.19551296532154083
16.49791500,16497915,2,0.9806783199310303,0.002144643571227789,-0.001041680108755827,-0.1956128031015396
16.59786100,16597861,2,0.9806499481201172,0.002188045997172594,-0.0009913720423355699,-0.19575472176074982
16.69782900,16697829,2,0.9806339144706726,0.002193524269387126,-0.0009904628386721015,-0.19583503901958466
16.79782600,16797826,2,0.9806041121482849,0.002167624654248357,-0.000966009043622762,-0.19598440825939178
16.89782800,16897828,2,0.9805671572685242,0.0021721466910094023,-0.0009430889622308314,-0.19616951048374176
16.99785000,16997850,2,0.9805278778076172,0.0021644935477524996,-0.0009035986731760204,-0.1963660717010498
17.09790100,17097901,2,0.9804926514625549,0.0021509823855012655,-0.0009214070159941912,-0.19654177129268646
17.19790800,17197908,2,0.9804583787918091,0.00216812826693058,-0.0009594224975444376,-0.19671232998371124
17.29792600,17297926,2,0.9804311990737915,0.0021296925842761993,-0.000963340571615845,-0.19684818387031555
17.39791200,17397912,2,0.980431079864502,0.002107062377035618,-0.000933682604227215,-0.1968492716550827
17.49785500,17497855,2,0.9804208874702454,0.0020607353653758764,-0.000941410893574357,-0.19690050184726715
17.59783300,17597833,2,0.9804160594940186,0.0020854880567640066,-0.0009848612826317549,-0.1969238966703415
17.69783500,17697835,2,0.9803752899169922,0.002042344305664301,-0.0009992207633331418,-0.1971270591020584
17.79782700,17797827,2,0.980336606502533,0.001994458958506584,-0.0010167986620217562,-0.19731992483139038
17.89786000,17897860,2,0.9803324937820435,0.0020228407811373472,-0.001046328921802342,-0.19733978807926178
17.99788300,17997883,2,0.9803532958030701,0.001985709648579359,-0.0010270599741488695,-0.19723708927631378
18.09791200,18097912,2,0.9803824424743652,0.0019450972322374582,-0.0009949347004294395,-0.19709248840808868
18.19786800,18197868,2,0.9803991317749023,0.00193406967446208,-0.0010467531392350793,-0.19700944423675537
18.29792400,18297924,2,0.9804159998893738,0.0019268152536824346,-0.0010303622111678123,-0.1969255954027176
18.39785700,18397857,2,0.9804162979125977,0.0019307524198666215,-0.0010020268382504582,-0.19692425429821014
18.49782600,18497826,2,0.9804096221923828,0.0019279721891507506,-0.0009930264204740524,-0.19695748388767242
18.59783400,18597834,2,0.9803848266601562,0.0019117746269330382,-0.0009836674435064197,-0.19708126783370972
18.69782900,18697829,2,0.9803631901741028,0.0019004236673936248,-0.0009739410015754402,-0.19718876481056213
18.79786200,18797862,2,0.9803493618965149,0.0018996151629835367,-0.000957388780079782,-0.19725778698921204
18.89790100,18897901,2,0.980322539806366,0.0018613561987876892,-0.00094030232867226,-0.19739142060279846
18.99791700,18997917,2,0.9803006052970886,0.0018154234858229756,-0.0008894770871847868,-0.19750100374221802
19.09793500,19097935,2,0.9802748560905457,0.0018055432010442019,-0.0009395600645802915,-0.19762860238552094
19.19790500,19197905,2,0.9802675843238831,0.0017595760291442275,-0.0008633873076178133,-0.1976654976606369
19.29785800,19297858,2,0.9802413582801819,0.0017241069581359625,-0.0008530655759386718,-0.19779567420482635
19.39783000,19397830,2,0.9802204966545105,0.0016562821110710502,-0.0008927875314839184,-0.1978994458913803
19.49782500,19497825,2,0.9801828861236572,0.001635293592698872,-0.0009170512785203755,-0.198085755109787
19.59782900,19597829,2,0.9801348447799683,0.001613795873709023,-0.0008902443223632872,-0.1983235627412796
19.69785200,19697852,2,0.9801173806190491,0.001570408814586699,-0.00085379125084728,-0.19841063022613525
19.79791300,19797913,2,0.9801164865493774,0.001541307894513011,-0.0008744781953282654,-0.19841495156288147
19.89791400,19897914,2,0.9801387786865234,0.0014992213109508157,-0.0008704524952918291,-0.19830511510372162
19.99792500,19997925,2,0.9801746606826782,0.0015148789389058948,-0.0008553652442060411,-0.19812774658203125
20.09790700,20097907,2,0.9802104830741882,0.0015253137098625302,-0.0008367470582015812,-0.19795037806034088
20.19785500,20197855,2,0.9802206754684448,0.00149404292460531,-0.0008381867664866149,-0.19790023565292358
20.29783300,20297833,2,0.9802370071411133,0.0015440870774909854,-0.0008413680479861796,-0.19781893491744995
20.39783900,20397839,2,0.980247437953949,0.0015351847978308797,-0.0008402335806749761,-0.1977672576904297
20.49783400,20497834,2,0.980219841003418,0.001515273004770279,-0.0007926793769001961,-0.19790434837341309
20.59784900,20597849,2,0.9802039265632629,0.0015685614198446274,-0.000773011997807771,-0.19798274338245392
20.69790100,20697901,2,0.9801928997039795,0.0015713557368144393,-0.0007600527605973184,-0.19803741574287415
20.79791500,20797915,2,0.9801948070526123,0.001582680270075798,-0.0008185028564184904,-0.1980276256799698
20.89792600,20897926,2,0.9802072644233704,0.0015853667864575982,-0.0007676600362174213,-0.19796617329120636
20.99791600,20997916,2,0.980222225189209,0.0016122055239975452,-0.0007624801946803927,-0.19789181649684906
21.09785800,21097858,2,0.9802408814430237,0.0016514327144250274,-0.0008333424921147525,-0.19779875874519348
21.19783000,21197830,2,0.9802876710891724,0.0016897596651688218,-0.0008193330140784383,-0.19756662845611572
21.29782700,21297827,2,0.9803323149681091,0.0017024684930220246,-0.00077983015216887,-0.19734491407871246
21.39782800,21397828,2,0.9803740382194519,0.0017227339558303356,-0.0007656043162569404,-0.19713762402534485
21.49786000,21497860,2,0.9804202914237976,0.0017314638243988156,-0.0007559873047284782,-0.1969074010848999
21.59791300,21597913,2,0.9804410934448242,0.0017435809131711721,-0.0008481847471557558,-0.19680313766002655
21.69791300,21697913,2,0.980467677116394,0.0018125987844541669,-0.0007981025264598429,-0.19667023420333862
21.79792200,21797922,2,0.9804621934890747,0.001757737947627902,-0.000840775144752115,-0.19669808447360992
21.89791500,21897915,2,0.980466365814209,0.0017556273378431797,-0.0008935576770454645,-0.1966768503189087
21.99786000,21997860,2,0.9804657101631165,0.0017749675316736102,-0.0008496034424751997,-0.19668029248714447
22.09782500,22097825,2,0.9804463982582092,0.0017312848940491676,-0.000849711534101516,-0.19677692651748657
22.19783000,22197830,2,0.9804266095161438,0.0017523104324936867,-0.0008506313315592706,-0.19687531888484955
22.29784400,22297844,2,0.9804136157035828,0.0017389630666002631,-0.0008890829049050808,-0.1969398409128189
22.39784800,22397848,2,0.9804077744483948,0.001755241071805358,-0.0008992794319055974,-0.19696885347366333
22.49790100,22497901,2,0.9804016947746277,0.0017706587677821517,-0.0009482797468081117,-0.1969986855983734
22.59791000,22597910,2,0.9803879261016846,0.0017988646868616343,-0.0010003797942772508,-0.19706663489341736
22.69792300,22697923,2,0.980363130569458,0.0017674053087830544,-0.0010709076886996627,-0.19718986749649048
22.79791200,22797912,2,0.9803311228752136,0.0017810912104323506,-0.0011066870065405965,-0.19734877347946167
22.89785600,22897856,2,0.9803037643432617,0.0017994014779105783,-0.0011548838810995221,-0.19748413562774658
22.99783300,22997833,2,0.9802926778793335,0.001847710576839745,-0.0011359285563230515,-0.19753876328468323
23.09782900,23097829,2,0.9802877902984619,0.0018083059694617987,-0.0011754110455513,-0.1975632607936859
23.19782600,23197826,2,0.9803074598312378,0.0018472333904355764,-0.0012077904539182782,-0.19746491312980652
23.29786700,23297867,2,0.9803439974784851,0.0018316908972337842,-0.0012409822084009647,-0.19728349149227142
23.39790900,23397909,2,0.980400025844574,0.0018079153960570693,-0.0013210101751610637,-0.197004497051239
23.49791300,23497913,2,0.9804543852806091,0.0017887635622173548,-0.0012936318526044488,-0.196734219789505
23.59791800,23597918,2,0.9804881811141968,0.001743835979141295,-0.0012923636240884662,-0.1965661495923996
23.69793100,23697931,2,0.9805043339729309,0.0017337725730612874,-0.001267918269149959,-0.19648583233356476
23.79785600,23797856,2,0.9804975390434265,0.0017403863603249192,-0.001244242419488728,-0.19651956856250763
23.89782400,23897824,2,0.9804865717887878,0.0017187608173117042,-0.0013011388946324587,-0.1965741217136383
23.99783200,23997832,2,0.9804712533950806,0.0017027565045282245,-0.0012568464735522866,-0.1966511756181717
24.09783200,24097832,2,0.9804567098617554,0.001656098640523851,-0.0012733779149129987,-0.19672389328479767
24.19785000,24197850,2,0.9804532527923584,0.0016118634957820177,-0.0012582445051521063,-0.19674158096313477
24.29784900,24297849,2,0.9804525375366211,0.0016357660060748458,-0.0012389965122565627,-0.19674496352672577
24.39791200,24397912,2,0.9804514050483704,0.0016532235313206911,-0.0012545319041237235,-0.19675029814243317
24.49792500,24497925,2,0.9804511666297913,0.0016517898766323924,-0.001286169746890664,-0.19675132632255554
24.59790600,24597906,2,0.9804466366767883,0.0016534728929400444,-0.0012832297943532467,-0.1967739760875702
24.69785700,24697857,2,0.9804433584213257,0.0016716467216610909,-0.001286076963879168,-0.19679014384746552
24.79782900,24797829,2,0.9804603457450867,0.0016531272558495402,-0.0013110891450196505,-0.1967053860425949
24.89782600,24897826,2,0.980478823184967,0.0016439096070826054,-0.00126948906108737,-0.19661369919776917
24.99782900,24997829,2,0.9804906249046326,0.001640944043174386,-0.0012678090715780854,-0.19655491411685944
25.09787800,25097878,2,0.9805015325546265,0.0016457982128486037,-0.001265469123609364,-0.19650042057037354
25.19790600,25197906,2,0.9805102944374084,0.001646499615162611,-0.0012452749069780111,-0.19645677506923676
25.29791300,25297913,2,0.9805172085762024,0.0016606699209660292,-0.0012069338699802756,-0.19642247259616852
25.39793000,25397930,2,0.9805207252502441,0.0016376905841752887,-0.0012795972870662808,-0.19640474021434784
25.49791100,25497911,2,0.9805260300636292,0.0016696378588676453,-0.0012820318806916475,-0.19637784361839294
25.59785900,25597859,2,0.9805388450622559,0.001683551468886435,-0.0012360612163320184,-0.19631405174732208
25.69783100,25697831,2,0.9805503487586975,0.0016427121590822935,-0.0012186022941023111,-0.19625701010227203
25.79784600,25797846,2,0.9805545806884766,0.0017005980480462313,-0.0012325880816206336,-0.19623544812202454
25.89784200,25897842,2,0.9805775880813599,0.0017220985610038042,-0.0012791433837264776,-0.19611991941928864
25.99785700,25997857,2,0.9806118011474609,0.0017164198216050863,-0.001317598856985569,-0.19594839215278625
26.09791600,26097916,2,0.9806561470031738,0.0016851086402311921,-0.0013378014555200934,-0.19572660326957703
26.19791200,26197912,2,0.980699360370636,0.0016381969908252358,-0.0013932842994108796,-0.19550998508930206
26.29792400,26297924,2,0.9807265400886536,0.0016538739437237382,-0.0014173071831464767,-0.1953733265399933
26.39791500,26397915,2,0.9807537198066711,0.0016901139169931412,-0.0014057124499231577,-0.1952364593744278
26.49785500,26497855,2,0.9807801246643066,0.0017158596310764551,-0.0013921629870310426,-0.19510364532470703
26.59783400,26597834,2,0.9808087348937988,0.0016962160589173436,-0.0013549785362556577,-0.19496023654937744
26.69783800,26697838,2,0.9808289408683777,0.0016983755631372333,-0.0013334774412214756,-0.1948588639497757
26.79783900,26797839,2,0.9808343648910522,0.0016851291293278337,-0.0013141990639269352,-0.19483157992362976
26.89787900,26897879,2,0.9808341264724731,0.0017035059863701463,-0.001360056921839714,-0.19483251869678497
26.99783400,26997834,2,0.9808204770088196,0.0017369305714964867,-0.0014294370776042342,-0.19490042328834534
27.09791700,27097917,2,0.9808171391487122,0.0016786368796601892,-0.0014627828495576978,-0.19491727650165558
27.19792600,27197926,2,0.980820894241333,0.0017072664340958,-0.0014623610768467188,-0.19489823281764984
27.29791400,27297914,2,0.9808188676834106,0.0016832239925861359,-0.0014486446743831038,-0.19490869343280792
27.39786300,27397863,2,0.9808119535446167,0.0016970888245850801,-0.001434050383977592,-0.1949434131383896
27.49783200,27497832,2,0.9808091521263123,0.0017447307473048568,-0.0014308412792161107,-0.19495731592178345
27.59783800,27597838,2,0.9808040261268616,0.0017550194170325994,-0.001407150411978364,-0.19498313963413239
27.69783200,27697832,2,0.980797290802002,0.0017504761926829815,-0.0014027087017893791,-0.19501705467700958
27.79783200,27797832,2,0.980781614780426,0.0017195326508954167,-0.001415356295183301,-0.195095956325531
27.89790800,27897908,2,0.9807611703872681,0.0017426990671083331,-0.0014503984712064266,-0.19519835710525513
27.99791800,27997918,2,0.9807351231575012,0.0017256978899240494,-0.0013985807308927178,-0.19532957673072815
28.09792200,28097922,2,0.9807109832763672,0.0016959377098828554,-0.0014245505444705486,-0.19545091688632965
28.19790800,28197908,2,0.9806994795799255,0.0017123707802966237,-0.0013940409990027547,-0.195508673787117
28.29785800,28297858,2,0.980689525604248,0.0017112318892031908,-0.0014191573718562722,-0.19555841386318207
28.39783500,28397835,2,0.9806857705116272,0.0016860868781805038,-0.0014776465250179172,-0.19557717442512512
28.49783400,28497834,2,0.9806886315345764,0.0016885361401364207,-0.0015215531457215548,-0.1955622285604477
28.59782800,28597828,2,0.9806819558143616,0.0016736566321924329,-0.0014910527970641851,-0.19559608399868011
28.69785900,28697859,2,0.9806670546531677,0.0016959753120318055,-0.0015068711945787072,-0.19567051529884338
28.79791400,28797914,2,0.980648934841156,0.001709506381303072,-0.0015219578053802252,-0.1957610696554184
28.89790800,28897908,2,0.9806602597236633,0.0016674990765750408,-0.0014982456341385841,-0.19570483267307281
28.99793800,28997938,2,0.9806685447692871,0.0016102611552923918,-0.001518288510851562,-0.19566388428211212
29.09792200,29097922,2,0.9806607365608215,0.0015790597535669804,-0.0015136442380025983,-0.19570313394069672
29.19785900,29197859,2,0.9806422591209412,0.0015783497365191579,-0.0015098494477570057,-0.19579581916332245
29.29783400,29297834,2,0.9806140661239624,0.0015489055076614022,-0.0015471577644348145,-0.19593693315982819
29.39783200,29397832,2,0.9805837869644165,0.0015795077197253704,-0.0015588263049721718,-0.19608791172504425
29.49782500,29497825,2,0.9805454015731812,0.0015721642412245274,-0.0015934982802718878,-0.19627957046031952
29.59786000,29597860,2,0.9805123209953308,0.0015321552054956555,-0.0015820723492652178,-0.19644522666931152
29.69789700,29697897,2,0.9804908633232117,0.0015424935845658183,-0.0015277814818546176,-0.19655267894268036
29.79792200,29797922,2,0.9804880023002625,0.0016017877496778965,-0.0015207049436867237,-0.19656649231910706
29.89793600,29897936,2,0.9804861545562744,0.0015909294597804546,-0.0015167150413617492,-0.19657571613788605
29.99791900,29997919,2,0.9804827570915222,0.0016019400209188461,-0.0015307051362469792,-0.19659262895584106
30.09784500,30097845,2,0.980465292930603,0.0015858585247769952,-0.001521961996331811,-0.1966799944639206
30.19782400,30197824,2,0.9804605841636658,0.0016037676250562072,-0.0015027833869680762,-0.19670332968235016
30.29781700,30297817,2,0.9804480671882629,0.0015914860414341092,-0.0015149802202358842,-0.19676566123962402
30.39781400,30397814,2,0.9804275035858154,0.0016208107117563486,-0.0015720048686489463,-0.19686749577522278
30.49783400,30497834,2,0.9804086089134216,0.0016118485946208239,-0.0015775407664477825,-0.19696146249771118
30.59789600,30597896,2,0.9803845882415771,0.0016826081555336714,-0.0016145461704581976,-0.1970800906419754
30.69790500,30697905,2,0.980362594127655,0.001748233218677342,-0.0016349981306120753,-0.19718897342681885
30.79786000,30797860,2,0.9803401827812195,0.0017659933073446155,-0.0016416128491982818,-0.19730015099048615
30.89789300,30897893,2,0.9803376197814941,0.0017683799378573895,-0.0016447084490209818,-0.19731275737285614
30.99784900,30997849,2,0.9803413152694702,0.00179866305552423,-0.0016480659833177924,-0.1972939819097519
31.09781700,31097817,2,0.9803318977355957,0.0018333439948037267,-0.0016349797369912267,-0.19734059274196625
31.19781300,31197813,2,0.9803443551063538,0.0017669147346168756,-0.0016426083166152239,-0.19727937877178192
31.29781600,31297816,2,0.9803623557090759,0.0017524249851703644,-0.0016563626704737544,-0.19719000160694122
31.39784000,31397840,2,0.9803647994995117,0.001783559680916369,-0.0016846356447786093,-0.19717729091644287
31.49788600,31497886,2,0.9803515076637268,0.0017801986541599035,-0.0016586135607212782,-0.19724348187446594
31.59790800,31597908,2,0.9803485870361328,0.0017840830842033029,-0.0016450515249744058,-0.19725798070430756
31.69791600,31697916,2,0.9803560972213745,0.0017960350960493088,-0.0016685229493305087,-0.1972203403711319
31.79790600,31797906,2,0.9803580045700073,0.001812343718484044,-0.0016274687368422747,-0.19721107184886932
31.89784300,31897843,2,0.9803797602653503,0.0018310702871531248,-0.001578382682055235,-0.19710320234298706
31.99782300,31997823,2,0.9803985953330994,0.0018255534814670682,-0.0015951762907207012,-0.19700941443443298
32.09781400,32097814,2,0.9804264903068542,0.0018206479726359248,-0.0015653654700145125,-0.19687075912952423
32.19781900,32197819,2,0.9804274439811707,0.0017445588018745184,-0.0015020717401057482,-0.1968672126531601
32.29783200,32297832,2,0.9804145693778992,0.0017734559951350093,-0.0014606319600716233,-0.19693152606487274
32.39788600,32397886,2,0.9804139733314514,0.0017544396687299013,-0.0013690023915842175,-0.19693529605865479
32.49790100,32497901,2,0.9804201722145081,0.0017385182436555624,-0.0013498383341357112,-0.19690477848052979
32.59786000,32597860,2,0.9804114699363708,0.0017303845379501581,-0.001337266294285655,-0.19694821536540985
32.69789900,32697899,2,0.9804137349128723,0.0017521013505756855,-0.0013695682864636183,-0.19693635404109955
32.79784700,32797847,2,0.980421781539917,0.0017761654453352094,-0.0013964863028377295,-0.19689585268497467
32.89781700,32897817,2,0.9804414510726929,0.001825071289204061,-0.0014080462278798223,-0.1967974752187729
32.99782500,32997825,2,0.9804402589797974,0.001802769722416997,-0.0013883305946364999,-0.19680382311344147
33.09783200,33097832,2,0.9804458022117615,0.0018334698397666216,-0.0013812071410939097,-0.19677600264549255
33.19783800,33197838,2,0.9804518222808838,0.0018256469629704952,-0.0013522151857614517,-0.19674627482891083
33.29787300,33297873,2,0.9804390668869019,0.0017803267110139132,-0.0013567324494943023,-0.1968102753162384
33.39790900,33397909,2,0.9804311394691467,0.0017848783172667027,-0.0013087262632325292,-0.1968500167131424
33.49785700,33497857,2,0.9804152250289917,0.001813233713619411,-0.0012819026596844196,-0.19692915678024292
33.59791000,33597910,2,0.98042231798172,0.001837751129642129,-0.0012927624629810452,-0.1968935877084732
33.69785200,33697852,2,0.9804356694221497,0.0018512550741434097,-0.001289031351916492,-0.19682683050632477
33.79781800,33797818,2,0.9804536700248718,0.0018370572943240404,-0.0012828459730371833,-0.1967374086380005
33.89782200,33897822,2,0.980470597743988,0.0018651433056220412,-0.0012435400858521461,-0.19665291905403137
33.99782900,33997829,2,0.980491578578949,0.001865914324298501,-0.0012193479342386127,-0.1965484619140625
34.09783300,34097833,2,0.9805102944374084,0.0018513565883040428,-0.00126941769849509,-0.19645488262176514
34.19784200,34197842,2,0.9805291295051575,0.0018580174073576927,-0.0012772794580087066,-0.19636064767837524
34.29790300,34297903,2,0.9805442690849304,0.0018754737684503198,-0.0012774908682331443,-0.19628503918647766
34.39786100,34397861,2,0.9805606007575989,0.001888234168291092,-0.0012978367740288377,-0.19620302319526672
34.49790300,34497903,2,0.9805800914764404,0.0018996611470356584,-0.0013052334543317556,-0.19610552489757538
34.59784800,34597848,2,0.9806068539619446,0.001862397650256753,-0.0012830685591325164,-0.19597211480140686
34.69782000,34697820,2,0.9806432127952576,0.001880390103906393,-0.0013095050817355514,-0.1957898586988449
34.79781500,34797815,2,0.9806751012802124,0.0018695505568757653,-0.0013102651573717594,-0.19563022255897522
34.89781400,34897814,2,0.9807019233703613,0.0018547176150605083,-0.0013391628162935376,-0.19549541175365448
34.99788200,34997882,2,0.9807286858558655,0.0018164257053285837,-0.0013963854871690273,-0.19536109268665314
35.09787400,35097874,2,0.9807357788085938,0.001815259107388556,-0.0014096766244620085,-0.19532543420791626
35.19790000,35197900,2,0.9807476997375488,0.0017918652156367898,-0.0014004100812599063,-0.1952659785747528
35.29786000,35297860,2,0.9807397127151489,0.0017704031197354198,-0.0013935083989053965,-0.19530640542507172
35.39792500,35397925,2,0.9807343482971191,0.0018016253598034382,-0.0013741679722443223,-0.1953331083059311
35.49784500,35497845,2,0.9807317852973938,0.0018530548550188541,-0.0013223421992734075,-0.195345938205719
35.59781700,35597817,2,0.9807242751121521,0.0018741566454991698,-0.0013410353567451239,-0.19538316130638123
35.69782500,35697825,2,0.9807091951370239,0.0018409821204841137,-0.0013152367901057005,-0.19545933604240417
35.79781400,35797814,2,0.9807088971138,0.0018184107029810548,-0.0013041308848187327,-0.19546104967594147
35.89781900,35897819,2,0.9806930422782898,0.0017615114338696003,-0.0013051544083282351,-0.1955411285161972
35.99789700,35997897,2,0.9806845188140869,0.0017170924693346024,-0.0012746350839734077,-0.19558444619178772
36.09790000,36097900,2,0.9806778430938721,0.00164752546697855,-0.0012141193728893995,-0.1956188678741455
36.19785700,36197857,2,0.9806629419326782,0.0016309160273522139,-0.0012312429025769234,-0.19569359719753265
36.29789700,36297897,2,0.980660080909729,0.001671073492616415,-0.001199783873744309,-0.19570788741111755
36.39785400,36397854,2,0.9806744456291199,0.0016453590942546725,-0.0011824240209534764,-0.19563624262809753
36.49781400,36497814,2,0.980675458908081,0.0016425003996118903,-0.0012077703140676022,-0.19563113152980804
36.59781700,36597817,2,0.980678915977478,0.0016596425557509065,-0.0011271819239482284,-0.19561390578746796
36.69781600,36697816,2,0.980686366558075,0.0017035292694345117,-0.0011349783744663,-0.19557610154151917
36.79784500,36797845,2,0.9807116985321045,0.0016782918246462941,-0.0011571330251172185,-0.19544938206672668
36.89788800,36897888,2,0.9807226657867432,0.0016386007191613317,-0.001140271662734449,-0.19539475440979004
36.99793100,36997931,2,0.980733335018158,0.0016653584316372871,-0.001069099293090403,-0.1953413188457489
37.09791500,37097915,2,0.9807555079460144,0.001689535565674305,-0.0010125673143193126,-0.19523006677627563
37.19790900,37197909,2,0.980765163898468,0.0016561526572331786,-0.0010293015511706471,-0.19518177211284637
37.29785100,37297851,2,0.9807603359222412,0.0016096900217235088,-0.0010369251249358058,-0.19520626962184906
37.39782300,37397823,2,0.9807526469230652,0.0016263022553175688,-0.0010181867983192205,-0.19524483382701874
37.49781400,37497814,2,0.9807451963424683,0.0016321567818522453,-0.0010078016202896833,-0.19528216123580933
37.59782000,37597820,2,0.9807437658309937,0.001612482126802206,-0.0010082825319841504,-0.19528961181640625
37.69785900,37697859,2,0.9807491302490234,0.001613222062587738,-0.000997327733784914,-0.19526277482509613
37.79789100,37797891,2,0.9807449579238892,0.0016027576057240367,-0.0010075632017105818,-0.1952837109565735
37.89790300,37897903,2,0.9807456731796265,0.0015580834588035941,-0.0009925671620294452,-0.19528073072433472
37.99786000,37997860,2,0.9807453751564026,0.0015295090852305293,-0.0010254794033244252,-0.1952821910381317
38.09789400,38097894,2,0.9807459712028503,0.0015187502140179276,-0.0010578194633126259,-0.19527916610240936
38.19784400,38197844,2,0.9807525873184204,0.00150571099948138,-0.0011011235183104873,-0.19524580240249634
38.29781900,38297819,2,0.9807495474815369,0.0014855089830234647,-0.0011266907677054405,-0.19526103138923645
38.39781600,38397816,2,0.9807400703430176,0.0014477730728685856,-0.0011796648614108562,-0.19530856609344482
38.49781500,38497815,2,0.9807333946228027,0.0014576686080545187,-0.001172732445411384,-0.19534213840961456
38.59781400,38597814,2,0.9807326197624207,0.001452845404855907,-0.0011755427112802863,-0.19534602761268616
38.69789100,38697891,2,0.9807286858558655,0.0014413483440876007,-0.0012196163879707456,-0.1953655630350113
38.79790500,38797905,2,0.9807212352752686,0.0014219159493222833,-0.00121257733553648,-0.1954030692577362
38.89786000,38897860,2,0.9807056784629822,0.0013695434900000691,-0.001249611610546708,-0.19548122584819794
38.99789700,38997897,2,0.9806947708129883,0.0013778876746073365,-0.00127230619546026,-0.19553585350513458
39.09785600,39097856,2,0.9806789755821228,0.0014201807789504528,-0.001300525851547718,-0.19561445713043213
39.19781200,39197812,2,0.9806603789329529,0.001431651646271348,-0.0012821460841223598,-0.19570763409137726
39.29781800,39297818,2,0.9806609153747559,0.0014216570416465402,-0.0013536750338971615,-0.19570468366146088
39.39782200,39397822,2,0.980659544467926,0.0014204366598278284,-0.0013605195563286543,-0.19571147859096527
39.49784100,39497841,2,0.9806554317474365,0.0014426900306716561,-0.0013013931456953287,-0.1957322508096695
39.59790200,39597902,2,0.9806575775146484,0.0013531906297430396,-0.001304342527873814,-0.19572223722934723
39.69790300,39697903,2,0.9806418418884277,0.0013592387549579144,-0.0013082717778161168,-0.19580082595348358
39.79785800,39797858,2,0.9806355237960815,0.0013487745309248567,-0.0013612002367153764,-0.19583222270011902
39.89792200,39897922,2,0.9806240797042847,0.001338387024588883,-0.0014308200916275382,-0.19588932394981384
39.99784600,39997846,2,0.9806153178215027,0.0013844537315890193,-0.0014157056575641036,-0.19593286514282227
40.09781300,40097813,2,0.9806114435195923,0.0013508038828149438,-0.001408008742146194,-0.19595251977443695
40.19781800,40197818,2,0.9806174635887146,0.0013159996597096324,-0.0013510186690837145,-0.19592298567295074
40.29781900,40297819,2,0.9806219935417175,0.0012974886922165751,-0.001369853736832738,-0.19590026140213013
40.39785400,40397854,2,0.9806238412857056,0.0012514959089457989,-0.0013460608897730708,-0.19589152932167053
40.49789600,40497896,2,0.9806146621704102,0.0012386536691337824,-0.0013226392911747098,-0.19593778252601624
40.59790100,40597901,2,0.9806035757064819,0.0012085005873814225,-0.001360178692266345,-0.19599324464797974
40.69786000,40697860,2,0.9805999398231506,0.0011549388291314244,-0.0013530958676710725,-0.19601167738437653
40.79790100,40797901,2,0.9806030988693237,0.00112988764885813,-0.0013086613034829497,-0.19599643349647522
40.89784500,40897845,2,0.9806134104728699,0.0010882075875997543,-0.001249099848791957,-0.1959453970193863
40.99781600,40997816,2,0.9806286692619324,0.0011441005626693368,-0.001302321907132864,-0.19586820900440216
41.09781700,41097817,2,0.9806312918663025,0.0011905054561793804,-0.0013499758206307888,-0.19585473835468292
41.19781900,41197819,2,0.9806362986564636,0.0012450538342818618,-0.001389414188452065,-0.19582894444465637
41.29788300,41297883,2,0.9806482195854187,0.0012378866085782647,-0.0013799952575936913,-0.1957693099975586
41.39788700,41397887,2,0.9806544780731201,0.0012190379202365875,-0.001354186562821269,-0.19573833048343658
41.49790100,41497901,2,0.9806438684463501,0.0012101123575121164,-0.0013602579711005092,-0.1957913041114807
41.59791300,41597913,2,0.9806382060050964,0.001217227429151535,-0.0013473945436999202,-0.1958199143409729
41.69790200,41697902,2,0.9806151986122131,0.0012362353736534715,-0.0013424429344013333,-0.19593499600887299
41.79784500,41797845,2,0.9805787205696106,0.001228096429258585,-0.001361982780508697,-0.19611747562885284
41.89781700,41897817,2,0.9805547595024109,0.001239851932041347,-0.00140419602394104,-0.19623686373233795
41.99781600,41997816,2,0.9805348515510559,0.0012451409129425883,-0.0013540803920477629,-0.19633659720420837
42.09781300,42097813,2,0.980513334274292,0.0012685357360169291,-0.0014139753766357899,-0.19644330441951752
42.19783400,42197834,2,0.980516791343689,0.0012459196150302887,-0.0014652032405138016,-0.19642594456672668
42.29788700,42297887,2,0.9805234670639038,0.0012850479688495398,-0.001469212002120912,-0.19639235734939575
42.39790100,42397901,2,0.9805338382720947,0.001327555044554174,-0.0015135608846321702,-0.1963399052619934
42.49791600,42497916,2,0.9805514216423035,0.001341372262686491,-0.0014746921369805932,-0.1962522268295288
42.59790400,42597904,2,0.9805583357810974,0.001353075378574431,-0.0015253847232088447,-0.19621706008911133
42.69784400,42697844,2,0.9805699586868286,0.0013738878769800067,-0.001541907200589776,-0.19615893065929413
42.79782000,42797820,2,0.980574905872345,0.001388462958857417,-0.0015038014389574528,-0.19613419473171234
42.89781500,42897815,2,0.9805693030357361,0.0014183020684868097,-0.0015044717583805323,-0.19616210460662842
42.99781700,42997817,2,0.9805588126182556,0.0014269498642534018,-0.0015071595553308725,-0.19621440768241882
43.09783700,43097837,2,0.9805691838264465,0.001446104608476162,-0.0015248353593051434,-0.1961623728275299
43.19788400,43197884,2,0.9805747270584106,0.0014519449323415756,-0.0015190537087619305,-0.19613459706306458
43.29790100,43297901,2,0.9805747866630554,0.0014806626131758094,-0.0015254850732162595,-0.1961340308189392
43.39786400,43397864,2,0.9805740118026733,0.001462794840335846,-0.0014926750445738435,-0.1961384117603302
43.49790900,43497909,2,0.9805776476860046,0.0014696571743115783,-0.001456555793993175,-0.1961202174425125
43.59785100,43597851,2,0.980574905872345,0.0014931779587641358,-0.0014626545598730445,-0.19613386690616608
43.69782100,43697821,2,0.9805735945701599,0.0014808479463681579,-0.0014184071915224195,-0.19614091515541077
43.79782900,43797829,2,0.9805744886398315,0.0015144948847591877,-0.001445023575797677,-0.19613587856292725
43.89782500,43897825,2,0.9805750250816345,0.0014824847457930446,-0.0014777308097109199,-0.19613318145275116
43.99784400,43997844,2,0.9805832505226135,0.001464572735130787,-0.0014451047172769904,-0.1960924118757248
44.09789900,44097899,2,0.980588972568512,0.0015538153238594532,-0.001488853944465518,-0.1960628628730774
44.19790200,44197902,2,0.9805928468704224,0.0015825486043468118,-0.0014816168695688248,-0.19604334235191345
44.29791800,44297918,2,0.9806059002876282,0.001576658571138978,-0.0014884555712342262,-0.1959778517484665
44.39790900,44397909,2,0.9806051850318909,0.0015785718569532037,-0.001469212002120912,-0.19598174095153809
44.49784600,44497846,2,0.9806105494499207,0.0016071883728727698,-0.0014915589708834887,-0.19595450162887573
44.59781400,44597814,2,0.9806075096130371,0.0016044757794588804,-0.001489641610532999,-0.195969820022583
44.69781800,44697818,2,0.9806129336357117,0.0016276860842481256,-0.0014412733726203442,-0.19594277441501617
44.79783100,44797831,2,0.98061203956604,0.001611921121366322,-0.0014502692501991987,-0.19594720005989075
44.89788200,44897882,2,0.9806191921234131,0.0016059196786955,-0.001439188257791102,-0.1959116905927658
44.99788500,44997885,2,0.9806345701217651,0.0015948001528158784,-0.0014317138120532036,-0.19583474099636078
45.09790200,45097902,2,0.9806293845176697,0.0015663225203752518,-0.0013853871496394277,-0.19586117565631866
45.19785800,45197858,2,0.980629563331604,0.001551031251437962,-0.0013567579444497824,-0.19586068391799927
45.29790400,45297904,2,0.9806293845176697,0.0015071723610162735,-0.001378123415634036,-0.19586163759231567
45.39785100,45397851,2,0.9806321263313293,0.001501746359281242,-0.0013205638388171792,-0.19584843516349792
45.49781700,45497817,2,0.9806263446807861,0.0014421602245420218,-0.0013389027444645762,-0.19587770104408264
45.59782500,45597825,2,0.9806289076805115,0.001447248854674399,-0.0013131482992321253,-0.19586512446403503
45.69783200,45697832,2,0.9806256294250488,0.0014123296132311225,-0.0012877166736871004,-0.1958819478750229
45.79786000,45797860,2,0.9806157946586609,0.0013945496175438166,-0.0012553082779049873,-0.195931538939476
45.89789300,45897893,2,0.9806208610534668,0.0013751178048551083,-0.0012539023300632834,-0.19590622186660767
45.99790000,45997900,2,0.9806299805641174,0.0013779459986835718,-0.0012501983437687159,-0.19586065411567688
46.09786400,46097864,2,0.9806297421455383,0.0013743969611823559,-0.0011821273947134614,-0.195862278342247
46.19790600,46197906,2,0.980636477470398,0.0014060039538890123,-0.001182914013043046,-0.1958284080028534
46.29784900,46297849,2,0.9806392788887024,0.0013847325462847948,-0.0011610776418820024,-0.19581468403339386
46.39781900,46397819,2,0.9806430339813232,0.0013817314757034183,-0.0011290117399767041,-0.19579581916332245
46.49782200,46497822,2,0.9806457161903381,0.0013617605436593294,-0.0011500574182718992,-0.19578257203102112
46.59781500,46597815,2,0.9806458353996277,0.001395716331899166,-0.0011001232778653502,-0.1957819014787674
46.69783800,46697838,2,0.9806419610977173,0.001318502938374877,-0.0010560338851064444,-0.19580215215682983
46.79790000,46797900,2,0.9806427955627441,0.0013053311267867684,-0.0011117756366729736,-0.19579777121543884
46.89790000,46897900,2,0.9806455969810486,0.001317834248766303,-0.001127548748627305,-0.19578346610069275
46.99790700,46997907,2,0.9806555509567261,0.0013338535791262984,-0.001116054831072688,-0.19573372602462769
47.09790000,47097900,2,0.9806557297706604,0.0012879872228950262,-0.0011106343008577824,-0.1957332044839859
47.19784900,47197849,2,0.9806625843048096,0.0012720084050670266,-0.0011082158889621496,-0.1956988275051117
47.29781800,47297818,2,0.9806616902351379,0.0012621746864169836,-0.0010897967731580138,-0.19570359587669373
47.39782100,47397821,2,0.9806498885154724,0.001251689507625997,-0.0010995208285748959,-0.19576260447502136
47.49781300,47497813,2,0.9806573987007141,0.0012132172705605626,-0.0011774733429774642,-0.19572485983371735
47.59783600,47597836,2,0.9806533455848694,0.0012010126374661922,-0.0011340407654643059,-0.1957455277442932
47.69788800,47697888,2,0.9806473851203918,0.0011919367825612426,-0.0011183420429006219,-0.19577553868293762
47.79790400,47797904,2,0.9806428551673889,0.0011680235620588064,-0.0011685017962008715,-0.195797860622406
47.89785800,47897858,2,0.9806353449821472,0.0011807734845206141,-0.0011070333421230316,-0.19583594799041748
47.99790900,47997909,2,0.9806324243545532,0.0011999462731182575,-0.0011189091019332409,-0.1958504617214203
48.09785100,48097851,2,0.9806149005889893,0.0012078939471393824,-0.0011698300950229168,-0.1959378570318222
48.19781400,48197814,2,0.9805951118469238,0.0012131179682910442,-0.0011543560540303588,-0.1960366815328598
48.29782500,48297825,2,0.9805728197097778,0.0012826971942558885,-0.0011580601567402482,-0.1961478590965271
48.39782300,48397823,2,0.9805445671081543,0.0013319575227797031,-0.0011907147709280252,-0.1962883174419403
48.49782800,48497828,2,0.9805297255516052,0.0013781939633190632,-0.0012280727969482541,-0.19636201858520508
48.59789400,48597894,2,0.9805281162261963,0.0014455073978751898,-0.001219322206452489,-0.19636966288089752
48.69790000,48697900,2,0.9805199503898621,0.0014619306894019246,-0.0012263383250683546,-0.19641031324863434
48.79791100,48797911,2,0.9805467128753662,0.0014834905741736293,-0.0012989983661100268,-0.19627611339092255
48.89789900,48897899,2,0.9805443286895752,0.0014605165924876928,-0.0013288294430822134,-0.1962878555059433
48.99784900,48997849,2,0.9805443286895752,0.0014914467465132475,-0.0013640637043863535,-0.1962873339653015
49.09781800,49097818,2,0.9805490970611572,0.0015069376677274704,-0.0013497712789103389,-0.19626352190971375
49.19782200,49197822,2,0.9805513620376587,0.0014927922748029232,-0.00136394496075809,-0.19625230133533478
49.29782700,49297827,2,0.9805454611778259,0.0014129827031865716,-0.0013962292578071356,-0.1962820589542389
49.39785500,49397855,2,0.9805426001548767,0.0014282119227573276,-0.0014105786103755236,-0.19629605114459991
49.49787700,49497877,2,0.9805364012718201,0.001440938445739448,-0.0014085537986829877,-0.19632704555988312
49.59789900,49597899,2,0.9805279970169067,0.0014410687144845724,-0.0014025075361132622,-0.19636912643909454
49.69791500,49697915,2,0.9805351495742798,0.0014808272244408727,-0.0014103014254942536,-0.19633299112319946
49.79789600,49797896,2,0.9805251359939575,0.0014618864515796304,-0.0013547163689509034,-0.196383535861969
49.89784900,49897849,2,0.9805376529693604,0.00143553433008492,-0.0013372914399951696,-0.19632117450237274
49.99782000,49997820,2,0.9805428981781006,0.0014117201790213585,-0.0013998469803482294,-0.19629473984241486
50.09782300,50097823,2,0.9805418252944946,0.0013928242260590196,-0.0013814971316605806,-0.19630058109760284
50.19782300,50197823,2,0.9805474877357483,0.001391601050272584,-0.001388680306263268,-0.19627226889133453
50.29785500,50297855,2,0.9805569648742676,0.001394239254295826,-0.0013619886012747884,-0.19622495770454407
50.39788600,50397886,2,0.9805530905723572,0.0013884507352486253,-0.001358578447252512,-0.19624443352222443
50.49790600,50497906,2,0.9805449843406677,0.0013873243005946279,-0.0013352211099117994,-0.19628500938415527
50.59791400,50597914,2,0.9805476665496826,0.0013900991762056947,-0.0013642087578773499,-0.19627143442630768
50.69790700,50697907,2,0.9805411100387573,0.0014100336702540517,-0.0013508808333426714,-0.19630403816699982
50.79785000,50797850,2,0.980545163154602,0.0014048940502107143,-0.001340988208539784,-0.19628404080867767
50.89781600,50897816,2,0.9805362224578857,0.0014104024739935994,-0.0013408653903752565,-0.1963285356760025
50.99782000,50997820,2,0.9805343747138977,0.001386122195981443,-0.0013681181007996202,-0.19633780419826508
51.09782100,51097821,2,0.9805362820625305,0.0014145912136882544,-0.0013910996494814754,-0.19632801413536072
51.19783400,51197834,2,0.9805334210395813,0.0014398674247786403,-0.001390382880344987,-0.19634193181991577
51.29787300,51297873,2,0.9805352687835693,0.0014373310841619968,-0.0013681519776582718,-0.19633309543132782
51.39790300,51397903,2,0.9805384278297424,0.0014326487435027957,-0.001343647832982242,-0.1963174045085907
51.49785700,51497857,2,0.9805413484573364,0.001449323259294033,-0.00135209655854851,-0.19630272686481476
51.59789400,51597894,2,0.980536937713623,0.0014471723698079586,-0.0013839136809110641,-0.1963243931531906
51.69784900,51697849,2,0.9805325865745544,0.0014223995385691524,-0.001398943830281496,-0.19634631276130676
51.79784100,51797841,2,0.9805304408073425,0.0014184191823005676,-0.0013646904844790697,-0.19635723531246185
51.89782400,51897824,2,0.9805253744125366,0.0014080381952226162,-0.0014017292996868491,-0.19638225436210632
51.99782300,51997823,2,0.9805220365524292,0.0014089536853134632,-0.00138371461071074,-0.19639907777309418
52.09783700,52097837,2,0.9805070161819458,0.0014152706135064363,-0.0013396210270002484,-0.19647426903247833
52.19789900,52197899,2,0.9805070757865906,0.0014045053394511342,-0.0013090308057144284,-0.19647431373596191
52.29790400,52297904,2,0.9804985523223877,0.0014295196160674095,-0.0013205921277403831,-0.19651660323143005
52.39785900,52397859,2,0.9804927706718445,0.0014493712224066257,-0.0013009466929361224,-0.19654540717601776
52.49789900,52497899,2,0.9804834127426147,0.0014430960873141885,-0.0012390825431793928,-0.19659247994422913
52.59784800,52597848,2,0.9804811477661133,0.0014335447922348976,-0.0011787749826908112,-0.19660450518131256
52.69781600,52697816,2,0.9804680347442627,0.0013921083882451057,-0.001189040020108223,-0.1966700255870819
52.79781800,52797818,2,0.9804615378379822,0.0014115571975708008,-0.0011695502325892448,-0.1967022567987442
52.89782600,52897826,2,0.9804534912109375,0.0013619210803881288,-0.0011399203212931752,-0.1967429369688034
52.99784800,52997848,2,0.9804468750953674,0.0013557180063799024,-0.0011257483856752515,-0.19677619636058807
53.09787200,53097872,2,0.980457603931427,0.0013722407165914774,-0.0011452349135652184,-0.19672228395938873
53.19790700,53197907,2,0.9804620742797852,0.0013729480560868979,-0.0011117941467091441,-0.19670024514198303
53.29786000,53297860,2,0.9804646372795105,0.0013373097172006965,-0.0011156798573210835,-0.19668768346309662
53.39791200,53397912,2,0.9804694056510925,0.0013300173450261354,-0.0011575395474210382,-0.19666385650634766
53.49784300,53497843,2,0.9804750084877014,0.0013369570951908827,-0.0011806109687313437,-0.19663569331169128
53.59782100,53597821,2,0.980488121509552,0.0013780430890619755,-0.0011608251370489597,-0.19656993448734283
53.69782800,53697828,2,0.9805013537406921,0.0013749110512435436,-0.0012024093884974718,-0.19650380313396454
53.79782500,53797825,2,0.9805117249488831,0.0013613589107990265,-0.0011357058538123965,-0.19645249843597412
53.89785300,53897853,2,0.9805106520652771,0.0013690406922250986,-0.0012104217894375324,-0.1964574158191681
53.99791700,53997917,2,0.9805107116699219,0.0013784667244181037,-0.0011882195249199867,-0.19645729660987854
54.09790200,54097902,2,0.9805117845535278,0.0014343683142215014,-0.0012002576841041446,-0.19645124673843384
54.19785800,54197858,2,0.9805108308792114,0.0014184353640303016,-0.001216685981489718,-0.19645604491233826
54.29789600,54297896,2,0.9805201292037964,0.0014325714437291026,-0.001252393121831119,-0.19640928506851196
54.39784600,54397846,2,0.9805189371109009,0.001449177390895784,-0.0012484171893447638,-0.19641537964344025
54.49781600,54497816,2,0.9805267453193665,0.001441771280951798,-0.00123686739243567,-0.19637635350227356
54.59782800,54597828,2,0.9805371165275574,0.0014772465219721198,-0.0012210886925458908,-0.19632430374622345
54.69782500,54697825,2,0.9805368185043335,0.0014626766787841916,-0.0012623294023796916,-0.19632567465305328
54.79787000,54797870,2,0.9805513024330139,0.0014479808742180467,-0.0012842552969232202,-0.19625334441661835
54.89792200,54897922,2,0.9805507659912109,0.0014045784482732415,-0.0012690173462033272,-0.1962563842535019
54.99790200,54997902,2,0.9805623292922974,0.0014014331391081214,-0.001285224687308073,-0.19619862735271454
55.09786300,55097863,2,0.9805684089660645,0.0013677033130079508,-0.0012831301428377628,-0.19616857171058655
55.19788500,55197885,2,0.9805778861045837,0.0013955445028841496,-0.0013208580203354359,-0.19612064957618713
55.29784700,55297847,2,0.9805852770805359,0.00138957763556391,-0.0012983746128156781,-0.19608405232429504
55.39782000,55397820,2,0.9805834293365479,0.0014247781364247203,-0.001287960447371006,-0.19609308242797852
55.49782200,55497822,2,0.9805884957313538,0.0013973942259326577,-0.0013109808787703514,-0.19606763124465942
55.59782400,55597824,2,0.9805896282196045,0.001414975500665605,-0.0013576399069279432,-0.19606149196624756
55.69788800,55697888,2,0.9805761575698853,0.0013972033048048615,-0.0013762885937467217,-0.19612886011600494
55.79789100,55797891,2,0.9805654287338257,0.0014124421868473291,-0.0013299169950187206,-0.19618284702301025
55.89790800,55897908,2,0.9805610775947571,0.0014299885369837284,-0.0013380724703893065,-0.19620434939861298
55.99786100,55997861,2,0.9805495142936707,0.001453555072657764,-0.0013405176578089595,-0.19626177847385406
56.09791000,56097910,2,0.9805485010147095,0.001434767502360046,-0.0013632590416818857,-0.19626690447330475
56.19784700,56197847,2,0.9805441498756409,0.0014618615387007594,-0.0013914217706769705,-0.1962883025407791
56.29781800,56297818,2,0.9805383682250977,0.0014874401967972517,-0.0014116386882960796,-0.1963168829679489
56.39781700,56397817,2,0.9805390238761902,0.0014639986911788583,-0.0013604972045868635,-0.19631415605545044
56.49781400,56497814,2,0.9805373549461365,0.0014886391581967473,-0.0013213693164288998,-0.19632256031036377
56.59784100,56597841,2,0.9805503487586975,0.0014832594897598028,-0.0013442840427160263,-0.19625745713710785
56.69789800,56697898,2,0.9805601835250854,0.0014794324524700642,-0.0013348172651603818,-0.19620832800865173
56.79790600,56797906,2,0.9805513024330139,0.0014766129897907376,-0.0013498669723048806,-0.19625283777713776
56.89786500,56897865,2,0.9805449843406677,0.0014936202205717564,-0.001389398705214262,-0.1962839812040329
56.99789600,56997896,2,0.9805359840393066,0.001517890254035592,-0.0013762658927589655,-0.19632884860038757
57.09785300,57097853,2,0.9805368185043335,0.0015128646045923233,-0.0014339094050228596,-0.19632437825202942
57.19781800,57197818,2,0.9805396795272827,0.0015202208887785673,-0.0013574239565059543,-0.19631032645702362
57.29781800,57297818,2,0.9805391430854797,0.001492866431362927,-0.0013644323917105794,-0.19631318747997284
57.39782100,57397821,2,0.9805311560630798,0.001500978833064437,-0.0013765146723017097,-0.19635289907455444
57.49785500,57497855,2,0.9805288910865784,0.0014930820325389504,-0.0013395252171903849,-0.19636449217796326
57.59789000,57597890,2,0.9805196523666382,0.001516033778898418,-0.0012747150612995028,-0.19641104340553284
57.69790400,57697904,2,0.9805304408073425,0.0015571069670841098,-0.0012809725012630224,-0.19635671377182007
57.79786100,57797861,2,0.980539083480835,0.0015506421914324164,-0.0013174705673009157,-0.1963132917881012
57.89790300,57897903,2,0.980535089969635,0.0015653533628210425,-0.001354302978143096,-0.19633308053016663
57.99784600,57997846,2,0.9805328845977783,0.0015837737591937184,-0.0013392879627645016,-0.19634398818016052
58.09781400,58097814,2,0.9805330038070679,0.001612961059436202,-0.0013302915031090379,-0.19634327292442322
58.19781800,58197818,2,0.9805449843406677,0.0016667740419507027,-0.0013297912664711475,-0.19628290832042694
58.29782400,58297824,2,0.9805538058280945,0.0016797397984191775,-0.0013321595033630729,-0.1962386965751648
58.39784100,58397841,2,0.9805643558502197,0.0016859514871612191,-0.0013209516182541847,-0.1961859166622162
58.49789500,58497895,2,0.9805582165718079,0.0016527215484529734,-0.0013025309890508652,-0.19621704518795013
58.59790700,58597907,2,0.9805637001991272,0.0016361561138182878,-0.001322652562521398,-0.19618980586528778
58.69791100,58697911,2,0.9805628657341003,0.0016277682734653354,-0.0013302844017744064,-0.1961938440799713
58.79791300,58797913,2,0.9805557131767273,0.0016457212623208761,-0.0012916203122586012,-0.1962297409772873
58.89784500,58897845,2,0.980564534664154,0.0016235201619565487,-0.0013036419404670596,-0.1961858719587326
58.99781700,58997817,2,0.980583906173706,0.0016143146203830838,-0.0012502162717282772,-0.19608943164348602
59.09781600,59097816,2,0.9805880784988403,0.0015871402574703097,-0.0012447084300220013,-0.1960688680410385
59.19783800,59197838,2,0.9805906414985657,0.0015729371225461364,-0.0012541488977149129,-0.19605588912963867
59.29784500,59297845,2,0.9806010723114014,0.0015773889608681202,-0.0012450354406610131,-0.19600385427474976
59.39789700,59397897,2,0.9805992841720581,0.0015525610651820898,-0.00127282808534801,-0.1960127204656601
59.49790000,59497900,2,0.9805996417999268,0.0015830982010811567,-0.0012606974923983216,-0.19601072371006012
59.59786000,59597860,2,0.9805967807769775,0.001531672547571361,-0.0012315671192482114,-0.19602574408054352
59.69790000,59697900,2,0.9805955290794373,0.0015236309263855219,-0.001236324547789991,-0.19603215157985687
59.79784400,59797844,2,0.9806022047996521,0.001446868758648634,-0.0012365859001874924,-0.19599929451942444
59.89781400,59897814,2,0.9806016683578491,0.0013968159910291433,-0.001213936833664775,-0.19600234925746918
59.99781700,59997817,2,0.9806034564971924,0.0014043156988918781,-0.0012066983617842197,-0.19599342346191406
60.09781300,60097813,2,0.9805965423583984,0.0013800096930935979,-0.001112880650907755,-0.19602862000465393
60.19787900,60197879,2,0.9805987477302551,0.0013526733964681625,-0.0010868692770600319,-0.19601811468601227
60.29786900,60297869,2,0.9806138873100281,0.0012895771069452167,-0.00107812718488276,-0.19594287872314453
60.39790200,60397902,2,0.9806240797042847,0.0013147967401891947,-0.001069007907062769,-0.19589178264141083
60.49792300,60497923,2,0.9806233644485474,0.001299727358855307,-0.0010073359590023756,-0.19589564204216003
60.59789400,60597894,2,0.9806360602378845,0.0012835703091695905,-0.0010195154463872313,-0.19583213329315186
60.69784400,60697844,2,0.9806452393531799,0.001266946317628026,-0.001026042620651424,-0.1957862675189972
60.79781700,60797817,2,0.9806584119796753,0.001276219030842185,-0.001066664233803749,-0.19572007656097412
60.89781600,60897816,2,0.9806607365608215,0.001272596069611609,-0.0010457717580720782,-0.1957084685564041
60.99781600,60997816,2,0.9806718230247498,0.0012536424910649657,-0.0010753924725577235,-0.19565299153327942
61.09784600,61097846,2,0.9806689620018005,0.0012509338557720184,-0.0010497733019292355,-0.19566744565963745
61.19786900,61197869,2,0.9806666970252991,0.0012186613166704774,-0.0010174131020903587,-0.19567915797233582
61.29790100,61297901,2,0.9806676506996155,0.0012156744487583637,-0.000977893709205091,-0.19567441940307617
61.39790400,61397904,2,0.9806740283966064,0.0011589439818635583,-0.0010019034380093217,-0.19564273953437805
61.49790900,61497909,2,0.9806762337684631,0.001111489487811923,-0.0009666512487456203,-0.1956321895122528
61.59785600,61597856,2,0.9806878566741943,0.0010859859175980091,-0.000970837427303195,-0.19557417929172516
61.69782100,61697821,2,0.9806880950927734,0.0011635045520961285,-0.0009619355550967157,-0.19557254016399384
61.79781500,61797815,2,0.9806897640228271,0.0011705858632922173,-0.0009068451472558081,-0.1955641508102417
61.89781600,61897816,2,0.9806807041168213,0.001208325382322073,-0.0009355721995234489,-0.1956094205379486
61.99784300,61997843,2,0.9806658625602722,0.0011867651483044028,-0.0009099662420339882,-0.19568397104740143
62.09782800,62097828,2,0.980665385723114,0.0011527485912665725,-0.0009126291261054575,-0.1956864446401596
62.19790500,62197905,2,0.9806695580482483,0.0011544887674972415,-0.0008952091448009014,-0.19566583633422852
62.29786200,62297862,2,0.9806724190711975,0.0011034749913960695,-0.0008708950481377542,-0.19565190374851227
62.39789500,62397895,2,0.9806790351867676,0.0011211975943297148,-0.0009155413135886192,-0.19561834633350372
62.49785900,62497859,2,0.980675220489502,0.0011831452138721943,-0.0008779320633038878,-0.19563736021518707
62.59781500,62597815,2,0.9806692004203796,0.0011542579159140587,-0.0008560547139495611,-0.19566777348518372
62.69781700,62697817,2,0.9806467890739441,0.0011780476197600365,-0.0007819457096047699,-0.19578027725219727
62.79781900,62797819,2,0.9806456565856934,0.0012303452240303159,-0.0007701379363425076,-0.1957855075597763
62.89786600,62897866,2,0.9806430339813232,0.0011976738460361958,-0.0007926033576950431,-0.19579896330833435
62.99789300,62997893,2,0.9806442856788635,0.0012143990024924278,-0.0007675008964724839,-0.19579246640205383
63.09790300,63097903,2,0.9806473255157471,0.0012045613257214427,-0.0007841442129574716,-0.19577738642692566
63.19792900,63197929,2,0.980658233165741,0.0012266633566468954,-0.000782719231210649,-0.19572263956069946
63.29789500,63297895,2,0.9806594848632812,0.0012084110639989376,-0.0008750780252739787,-0.1957160383462906
63.39784900,63397849,2,0.9806612730026245,0.001218645367771387,-0.0008376555051654577,-0.19570708274841309
63.49781800,63497818,2,0.980669379234314,0.0012123601045459509,-0.0008529620245099068,-0.1956666111946106
63.59781400,63597814,2,0.9806767702102661,0.0011470156023278832,-0.0008603112655691803,-0.19562985002994537
63.69782000,63697820,2,0.9806821942329407,0.0011237665312364697,-0.0008409862639382482,-0.19560281932353973
63.79782800,63797828,2,0.9806938767433167,0.0010932981967926025,-0.0008650692761875689,-0.19554421305656433
63.89789800,63897898,2,0.9807053804397583,0.0011025143321603537,-0.000818095460999757,-0.1954868584871292
63.99790000,63997900,2,0.9807045459747314,0.001139343366958201,-0.000803128641564399,-0.1954907476902008
64.09790000,64097900,2,0.9807060956954956,0.0011505126021802425,-0.0008098158286884427,-0.1954830139875412
64.19791700,64197917,2,0.9807153344154358,0.0011209872318431735,-0.0007719923160038888,-0.19543693959712982
64.29784700,64297847,2,0.9807223677635193,0.001100356807000935,-0.000753150787204504,-0.19540180265903473
64.39781700,64397817,2,0.9807219505310059,0.0010923848021775484,-0.0007387521327473223,-0.19540387392044067
64.49781900,64497819,2,0.980718731880188,0.001066912547685206,-0.000766592042054981,-0.195420041680336
64.59781500,64597815,2,0.9807190895080566,0.0010241101263090968,-0.0007352362154051661,-0.1954188346862793
64.69784700,64697847,2,0.9807312488555908,0.0010256411042064428,-0.0007192542543634772,-0.1953577697277069
64.79790400,64797904,2,0.9807349443435669,0.0010664426954463124,-0.0007149504381231964,-0.19533902406692505
64.89789800,64897898,2,0.980739414691925,0.0010745470644906163,-0.0007481882930733263,-0.19531628489494324
64.99785900,64997859,2,0.9807358980178833,0.0010315607069060206,-0.000753418542444706,-0.19533416628837585
65.09790000,65097900,2,0.9807353615760803,0.0010096068726852536,-0.0008005835115909576,-0.19533678889274597
65.19784300,65197843,2,0.9807389974594116,0.0010428674286231399,-0.0007936854963190854,-0.19531852006912231
65.29781600,65297816,2,0.9807302355766296,0.0010438148165121675,-0.0008092342759482563,-0.19536250829696655
65.39782000,65397820,2,0.9807220697402954,0.001052493811585009,-0.0008456996874883771,-0.19540326297283173
65.49781400,65497814,2,0.9807122945785522,0.0010409540263935924,-0.0008516816305927932,-0.19545239210128784
65.59784100,65597841,2,0.9807144403457642,0.0010081874206662178,-0.0008910992182791233,-0.19544154405593872
65.69788600,65697886,2,0.980716347694397,0.0009796407539397478,-0.0008390987641178071,-0.19543223083019257
65.79790200,65797902,2,0.9807131886482239,0.0009927375940605998,-0.0008256715955212712,-0.19544801115989685
65.89790400,65897904,2,0.9807068109512329,0.0010167899308726192,-0.0008074519573710859,-0.19548019766807556
65.99789500,65997895,2,0.9806938171386719,0.0010636273073032498,-0.000782376853749156,-0.19554515182971954
66.09784500,66097845,2,0.9806800484657288,0.0010186245199292898,-0.0008321150089614093,-0.19561423361301422
66.19781400,66197814,2,0.9806692600250244,0.001060930429957807,-0.0008295339066535234,-0.19566820561885834
66.29781700,66297817,2,0.9806556701660156,0.0010408649686723948,-0.0008296926971524954,-0.19573622941970825
66.39781600,66397816,2,0.9806365370750427,0.0010545722907409072,-0.0008447658619843423,-0.1958319991827011
66.49783700,66497837,2,0.9806288480758667,0.001088467426598072,-0.0008542051655240357,-0.19587013125419617
66.59783100,66597831,2,0.9806241393089294,0.001116683124564588,-0.0008771176799200475,-0.19589366018772125
66.69790200,66697902,2,0.9806237816810608,0.0010832607513293624,-0.0008610623772256076,-0.1958954632282257
66.79792300,66797923,2,0.9806241989135742,0.0011326338863000274,-0.0008929541800171137,-0.1958930641412735
66.89792100,66897921,2,0.9806201457977295,0.0011397507041692734,-0.0008572423248551786,-0.19591361284255981
66.99784600,66997846,2,0.9806118011474609,0.0011042753467336297,-0.0008649599039927125,-0.1959555298089981
67.09782400,67097824,2,0.9806110262870789,0.0010606212308630347,-0.0008763362420722842,-0.19595938920974731
67.19782300,67197823,2,0.9805997610092163,0.0010666177840903401,-0.0008483253186568618,-0.1960158497095108
67.29782400,67297824,2,0.9806011319160461,0.0010916395112872124,-0.0008350711432285607,-0.19600895047187805
67.39785900,67397859,2,0.9805960655212402,0.0010923658264800906,-0.0008123100851662457,-0.1960344910621643
67.49788800,67497888,2,0.9805869460105896,0.0011085463920608163,-0.0008025793358683586,-0.19607996940612793
67.59789700,67597897,2,0.9805974364280701,0.0010828858939930797,-0.0008049724856391549,-0.19602760672569275
67.69791900,67697919,2,0.9805973172187805,0.0010606591822579503,-0.0008067326853051782,-0.19602832198143005
67.79789700,67797897,2,0.9806039929389954,0.0010885267984122038,-0.0007908051484264433,-0.19599483907222748
67.89784500,67897845,2,0.9806041717529297,0.0010779714211821556,-0.0007613736670464277,-0.19599421322345734
