timestamp,TimeUS,C,Roll,Pitch,Yaw,VN,VE,VD,dPD,PN,PE,PD,GX,GY,GZ,OH
48.92371300,48923713,2,-0.19,0.59,83.8,0.03598681837320328,-0.009931274689733982,-0.03594924509525299,-3.654099702835083,0.0,0.0,1.7877178192138672,-0.01,0.06,-0.15,0.0
49.02374500,49023745,2,-0.19,0.59,83.81,0.03593015298247337,-0.009875739924609661,-0.029173335060477257,-7.803500175476074,0.0,0.0,1.178026795387268,-0.01,0.06,-0.15,0.0
49.12369100,49123691,2,-0.2,0.58,83.81,0.03548243269324303,-0.008896823041141033,-0.022502928972244263,-6.011308670043945,0.0,0.0,0.7632828950881958,-0.01,0.06,-0.15,0.0
49.22368700,49223687,2,-0.2,0.58,83.8,0.03626373037695885,-0.01115753035992384,-0.017607295885682106,-3.487913131713867,0.0,0.0,0.48006489872932434,-0.01,0.06,-0.15,0.0
49.32369100,49323691,2,-0.2,0.58,83.81,0.036904752254486084,-0.011276926845312119,-0.01519834529608488,-1.7951627969741821,0.0,0.0,0.28591203689575195,-0.01,0.06,-0.15,0.0
49.42371000,49423710,2,-0.21,0.58,83.81,0.03923536092042923,-0.010027443990111351,-0.012727003544569016,-0.8569916486740112,0.0,0.0,0.1572529375553131,-0.01,0.06,-0.14,0.0
49.52376700,49523767,2,-0.21,0.58,83.79,0.04151155799627304,-0.012964971363544464,-0.010445810854434967,-0.37299877405166626,0.0,0.0,0.07288433611392975,-0.01,0.06,-0.14,0.0
49.62372300,49623723,2,-0.21,0.58,83.78,0.04375357925891876,-0.012800420634448528,-0.009355391375720501,-0.14448365569114685,0.0,0.0,0.01810307987034321,-0.01,0.06,-0.14,0.0
49.72377500,49723775,2,-0.21,0.5700000000000001,83.77,0.045272327959537506,-0.01225661113858223,-0.008027561940252781,-0.028776634484529495,0.0,0.0,-0.013759736903011799,-0.01,0.06,-0.14,0.0
49.82372200,49823722,2,-0.21,0.5700000000000001,83.75,0.0480903685092926,-0.015438835136592388,-0.006853919010609388,0.004382609389722347,0.0,0.0,-0.03648415207862854,-0.01,0.06,-0.14,0.0
49.92374400,49923744,2,-0.21,0.58,83.76,0.04895832762122154,-0.015565473586320877,-0.005117810331285,0.028129536658525467,0.0,0.0,-0.04967578500509262,-0.01,0.06,-0.14,0.0
50.02368300,50023683,2,-0.2,0.5700000000000001,83.75,0.050773706287145615,-0.016218863427639008,-0.004013612400740385,0.04491756856441498,0.0,0.0,-0.05600397288799286,-0.01,0.06,-0.14,0.0
50.12369000,50123690,2,-0.2,0.5700000000000001,83.75,0.051492027938365936,-0.018794188275933266,-0.0024926045443862677,0.0642523467540741,0.0,0.0,-0.05708101764321327,-0.01,0.06,-0.14,0.0
50.22369100,50223691,2,-0.2,0.5700000000000001,83.76,0.052638426423072815,-0.017670132219791412,-0.001681450754404068,0.07208744436502457,0.0,0.0,-0.05542096123099327,-0.01,0.06,-0.14,0.0
50.32369900,50323699,2,-0.21,0.5700000000000001,83.76,0.05336301028728485,-0.019370747730135918,-0.00012290431186556816,0.07310173660516739,0.0,0.0,-0.05177237465977669,-0.01,0.06,-0.14,0.0
50.42376400,50423764,2,-0.22,0.58,83.75,0.054523102939128876,-0.02196030505001545,0.0015836259117349982,0.07946217805147171,0.0,0.0,-0.04628395289182663,-0.01,0.06,-0.14,0.0
50.52374000,50523740,2,-0.22,0.58,83.75,0.05656598508358002,-0.021503768861293793,0.0032770363613963127,0.08290167152881622,0.0,0.0,-0.03961073234677315,-0.01,0.06,-0.14,0.0
50.62377700,50623777,2,-0.22,0.58,83.74,0.05815432220697403,-0.022610101848840714,0.004151188302785158,0.08047869056463242,0.0,0.0,-0.03291826322674751,-0.01,0.06,-0.14,0.0
50.72372100,50723721,2,-0.22,0.58,83.74,0.06001872196793556,-0.025308646261692047,0.0062077781185507774,0.07640760391950607,0.0,0.0,-0.026004182174801826,-0.01,0.06,-0.13,0.0
50.82375900,50823759,2,-0.23,0.58,83.73,0.06112143397331238,-0.025243539363145828,0.0074460445903241634,0.07176186144351959,0.0,0.0,-0.019386591389775276,-0.01,0.06,-0.13,0.0
50.92368600,50923686,2,-0.24,0.58,83.72,0.06322726607322693,-0.026803186163306236,0.008400311693549156,0.06482672691345215,0.0,0.0,-0.013063342310488224,-0.01,0.06,-0.13,0.0
51.02368800,51023688,2,-0.24,0.59,83.71000000000001,0.06528550386428833,-0.0290903989225626,0.009313280694186687,0.06461108475923538,0.0,0.0,-0.0064385877922177315,-0.01,0.06,-0.13,0.0
51.12370400,51123704,2,-0.24,0.59,83.7,0.06746082007884979,-0.027811149135231972,0.009403511881828308,0.060233745723962784,0.0,0.0,-0.0006043684552423656,-0.01,0.06,-0.13,0.0
51.22371300,51223713,2,-0.24,0.6,83.7,0.06956308335065842,-0.02947653830051422,0.010005869902670383,0.054365452378988266,0.0,0.0,0.005057456903159618,-0.01,0.06,-0.13,0.0
51.32376400,51323764,2,-0.24,0.6,83.7,0.07056592404842377,-0.03171849250793457,0.010910788550972939,0.05965150147676468,0.0,0.0,0.01130193192511797,-0.01,0.06,-0.13,0.0
51.42372800,51423728,2,-0.25,0.59,83.69,0.07235512882471085,-0.031188899651169777,0.012244422920048237,0.061237845569849014,0.0,0.0,0.017238527536392212,-0.01,0.06,-0.13,0.0
51.52377300,51523773,2,-0.24,0.59,83.69,0.07375405728816986,-0.032822273671627045,0.012477408163249493,0.044762518256902695,0.0,0.0,0.021393071860074997,-0.01,0.06,-0.13,0.0
51.62371400,51623714,2,-0.24,0.59,83.7,0.07588768750429153,-0.0340571366250515,0.012708635069429874,0.029116347432136536,0.0,0.0,0.02481767348945141,-0.01,0.06,-0.13,0.0
51.72374100,51723741,2,-0.24,0.6,83.7,0.07738544046878815,-0.0335540734231472,0.013039843179285526,0.03183724358677864,0.0,0.0,0.028784044086933136,-0.01,0.06,-0.13,0.0
51.82369100,51823691,2,-0.24,0.6,83.73,0.07877489179372787,-0.03481438010931015,0.012509364634752274,0.03498297929763794,0.0,0.0,0.032507043331861496,-0.01,0.06,-0.13,0.0
51.92369100,51923691,2,-0.25,0.6,83.71000000000001,0.0813262015581131,-0.03668580576777458,0.011344034224748611,0.02950231172144413,0.0,0.0,0.03566233068704605,-0.01,0.06,-0.13,0.0
52.02369700,52023697,2,-0.25,0.6,83.71000000000001,0.08277636021375656,-0.038753826171159744,0.012898284941911697,0.022871077060699463,0.0,0.0,0.03791000321507454,-0.01,0.06,-0.13,0.0
52.12373200,52123732,2,-0.24,0.6,83.78,0.08276406675577164,-0.03672637790441513,0.014295761473476887,0.02409294620156288,0.0,0.0,0.04090243577957153,-0.01,0.06,-0.13,0.0
52.22376500,52223765,2,-0.25,0.6,83.73,0.08497416228055954,-0.04173542559146881,0.01587948389351368,0.034413743764162064,0.0,0.0,0.04458688572049141,-0.01,0.06,-0.13,0.0
52.32372500,52323725,2,-0.26,0.6,83.73,0.08377194404602051,-0.040112048387527466,0.017152005806565285,0.028795845806598663,0.0,0.0,0.04691695049405098,-0.01,0.06,-0.13,0.0
52.42378000,52423780,2,-0.26,0.59,83.79,0.08470003306865692,-0.04084348306059837,0.017586475238204002,0.030880607664585114,0.0,0.0,0.05067480728030205,-0.01,0.06,-0.13,0.0
52.52371200,52523712,2,-0.26,0.58,83.73,0.08424152433872223,-0.04421330243349075,0.018841663375496864,0.042657189071178436,0.0,0.0,0.05482834205031395,-0.01,0.06,-0.13,0.0
52.62374100,52623741,2,-0.26,0.6,83.72,0.08538344502449036,-0.043936293572187424,0.020741062238812447,0.039900753647089005,0.0,0.0,0.058286119252443314,-0.01,0.06,-0.13,0.0
52.72369800,52723698,2,-0.26,0.6,83.75,0.08682147413492203,-0.04154783487319946,0.021911166608333588,0.04561711475253105,0.0,0.0,0.06327758729457855,-0.01,0.06,-0.12,0.0
52.82369400,52823694,2,-0.26,0.59,83.7,0.08588655292987823,-0.045835040509700775,0.023153407499194145,0.05388772115111351,0.0,0.0,0.06802768260240555,-0.01,0.06,-0.12,0.0
52.92369400,52923694,2,-0.27,0.59,83.69,0.08599542826414108,-0.04599285125732422,0.02406821772456169,0.04980912059545517,0.0,0.0,0.07266778498888016,-0.01,0.06,-0.12,0.0
53.02372200,53023722,2,-0.27,0.59,83.73,0.08520062267780304,-0.041526246815919876,0.02410496026277542,0.033824652433395386,0.0,0.0,0.07584639638662338,-0.01,0.06,-0.12,0.0
53.12375100,53123751,2,-0.27,0.59,83.69,0.08676749467849731,-0.04700125753879547,0.024611640721559525,0.03145239129662514,0.0,0.0,0.07964804768562317,-0.01,0.06,-0.12,0.0
53.22373300,53223733,2,-0.27,0.6,83.69,0.08581164479255676,-0.04555542394518852,0.026084914803504944,0.05947215110063553,0.0,0.0,0.08606782555580139,-0.01,0.06,-0.12,0.0
53.32376700,53323767,2,-0.27,0.59,83.72,0.08470139652490616,-0.042575810104608536,0.026918774470686913,0.05262693762779236,0.0,0.0,0.09005139768123627,-0.01,0.06,-0.12,0.0
53.42372400,53423724,2,-0.27,0.58,83.68,0.08446700125932693,-0.04715995118021965,0.027480272576212883,0.028942011296749115,0.0,0.0,0.09311453998088837,-0.01,0.06,-0.12,0.0
53.52375200,53523752,2,-0.27,0.59,83.69,0.08349286764860153,-0.04568978771567345,0.02895238809287548,0.0470699742436409,0.0,0.0,0.09861813485622406,-0.01,0.06,-0.12,0.0
53.62369700,53623697,2,-0.27,0.58,83.72,0.08287590742111206,-0.041930098086595535,0.02946522645652294,0.061292391270399094,0.0,0.0,0.10438395291566849,-0.01,0.06,-0.12,0.0
53.72370700,53723707,2,-0.27,0.58,83.7,0.08296075463294983,-0.046331737190485,0.030761590227484703,0.04939056932926178,0.0,0.0,0.10870859771966934,-0.01,0.06,-0.12,0.0
53.82371200,53823712,2,-0.27,0.59,83.71000000000001,0.08250032365322113,-0.04416994750499725,0.031233875080943108,0.03449457883834839,0.0,0.0,0.11217213422060013,-0.01,0.06,-0.12,0.0
53.92371200,53923712,2,-0.26,0.58,83.73,0.08161810040473938,-0.039737213402986526,0.03151257336139679,0.03852207586169243,0.0,0.0,0.11664080619812012,-0.01,0.06,-0.12,0.0
54.02374200,54023742,2,-0.27,0.58,83.72,0.08082804083824158,-0.04463548958301544,0.03261337801814079,0.046377960592508316,0.0,0.0,0.12118586897850037,-0.01,0.06,-0.12,0.0
54.12373400,54123734,2,-0.27,0.59,83.73,0.07992047816514969,-0.04206423461437225,0.033606112003326416,0.05188349261879921,0.0,0.0,0.12649491429328918,-0.01,0.06,-0.12,0.0
54.22377400,54223774,2,-0.28,0.58,83.74,0.07851570099592209,-0.04006078839302063,0.03561883419752121,0.06567950546741486,0.0,0.0,0.13288678228855133,-0.01,0.06,-0.12,0.0
54.32372100,54323721,2,-0.28,0.58,83.74,0.0769205242395401,-0.04432325437664986,0.03615602105855942,0.07010907679796219,0.0,0.0,0.13959504663944244,-0.01,0.06,-0.12,0.0
54.42375600,54423756,2,-0.29,0.6,83.76,0.07731878757476807,-0.04184495285153389,0.03731732442975044,0.07301086187362671,0.0,0.0,0.14658260345458984,-0.01,0.06,-0.12,0.0
54.52383200,54523832,2,-0.28,0.58,83.77,0.07598396390676498,-0.0390423908829689,0.038875825703144073,0.06055795028805733,0.0,0.0,0.15166373550891876,-0.01,0.06,-0.12,0.0
54.62369000,54623690,2,-0.29,0.59,83.79,0.07575733959674835,-0.04276309534907341,0.03917872905731201,0.051437344402074814,0.0,0.0,0.15745852887630463,-0.01,0.06,-0.12,0.0
54.72369100,54723691,2,-0.29,0.6,83.81,0.07344633340835571,-0.039326731115579605,0.040816530585289,0.052532859146595,0.0,0.0,0.16263312101364136,-0.01,0.06,-0.12,0.0
54.82370800,54823708,2,-0.29,0.59,83.83,0.07211974263191223,-0.03790862485766411,0.04101157188415527,0.043840035796165466,0.0,0.0,0.16712363064289093,-0.01,0.06,-0.12,0.0
54.92375600,54923756,2,-0.29,0.6,83.85000000000001,0.07285444438457489,-0.04266303777694702,0.04134689271450043,0.04952225461602211,0.0,0.0,0.17266283929347992,-0.01,0.06,-0.12,0.0
55.02373200,55023732,2,-0.3,0.61,83.85000000000001,0.07124874740839005,-0.03814028948545456,0.04266926273703575,0.05226827785372734,0.0,0.0,0.1775377094745636,-0.01,0.06,-0.12,0.0
55.12377800,55123778,2,-0.3,0.61,83.86,0.07104567438364029,-0.03776446729898453,0.04246508702635765,0.030962493270635605,0.0,0.0,0.1801239550113678,-0.01,0.06,-0.12,0.0
55.22371100,55223711,2,-0.3,0.61,83.85000000000001,0.07136724144220352,-0.04026547074317932,0.040843281894922256,0.002557867905125022,0.0,0.0,0.1807491034269333,-0.01,0.06,-0.12,0.0
55.32374200,55323742,2,-0.31,0.62,83.85000000000001,0.07096388190984726,-0.03796902298927307,0.040088899433612823,-0.004605875816196203,0.0,0.0,0.18154852092266083,-0.01,0.06,-0.12,0.0
55.42369900,55423699,2,-0.32,0.61,83.85000000000001,0.07019472867250443,-0.03696897253394127,0.040800791233778,0.007351988926529884,0.0,0.0,0.18313124775886536,-0.01,0.06,-0.12,0.0
55.52368800,55523688,2,-0.32,0.61,83.85000000000001,0.07173603028059006,-0.039837513118982315,0.040593601763248444,0.023566996678709984,0.0,0.0,0.18593908846378326,-0.01,0.06,-0.12,0.0
55.62369400,55623694,2,-0.32,0.62,83.84,0.07408946007490158,-0.036875270307064056,0.03953805938363075,0.031499672681093216,0.0,0.0,0.18886709213256836,-0.01,0.06,-0.12,0.0
55.72369100,55723691,2,-0.33,0.61,83.84,0.07425902783870697,-0.03764147311449051,0.038523606956005096,0.01316810306161642,0.0,0.0,0.18943679332733154,-0.01,0.06,-0.12,0.0
55.82376200,55823762,2,-0.33,0.62,83.84,0.07583148777484894,-0.03940466418862343,0.038234058767557144,-0.012646540068089962,0.0,0.0,0.1883334517478943,-0.01,0.06,-0.12,0.0
55.92372500,55923725,2,-0.34,0.63,83.83,0.07571868598461151,-0.03851073235273361,0.0386851504445076,-0.014649136923253536,0.0,0.0,0.1879153996706009,-0.01,0.06,-0.12,0.0
56.02377000,56023770,2,-0.34,0.63,83.85000000000001,0.07558496296405792,-0.03941814601421356,0.038630396127700806,-0.007442725356668234,0.0,0.0,0.18763147294521332,-0.01,0.06,-0.12,0.0
56.12372400,56123724,2,-0.35000000000000003,0.63,83.85000000000001,0.07727950811386108,-0.04083874821662903,0.03787196800112724,-0.01423676684498787,0.0,0.0,0.18614459037780762,-0.01,0.06,-0.11,0.0
56.22373900,56223739,2,-0.35000000000000003,0.64,83.83,0.07738334685564041,-0.04067368432879448,0.038262560963630676,-0.01244258601218462,0.0,0.0,0.18555298447608948,-0.01,0.06,-0.11,0.0
56.32369100,56323691,2,-0.34,0.64,83.83,0.07930222153663635,-0.039788033813238144,0.03899025171995163,-0.01192075852304697,0.0,0.0,0.18418247997760773,-0.01,0.06,-0.11,0.0
56.42369300,56423693,2,-0.35000000000000003,0.64,83.82000000000001,0.07965505868196487,-0.042039062827825546,0.03805162385106087,-0.03539179265499115,0.0,0.0,0.18032944202423096,-0.01,0.06,-0.11,0.0
56.52368400,56523684,2,-0.34,0.65,83.8,0.08156569302082062,-0.04176417738199234,0.035949625074863434,-0.07037012279033661,0.0,0.0,0.17365524172782898,-0.01,0.06,-0.11,0.0
56.62371400,56623714,2,-0.35000000000000003,0.65,83.8,0.083620086312294,-0.04171648249030113,0.033402152359485626,-0.09031840413808823,0.0,0.0,0.16608978807926178,-0.01,0.06,-0.11,0.0
56.72376200,56723762,2,-0.35000000000000003,0.65,83.79,0.0852021798491478,-0.04296480119228363,0.032324012368917465,-0.08926433324813843,0.0,0.0,0.15857556462287903,-0.01,0.06,-0.11,0.0
56.82372800,56823728,2,-0.35000000000000003,0.66,83.78,0.08862362802028656,-0.04250558093190193,0.03286973387002945,-0.06204681843519211,0.0,0.0,0.1537049114704132,-0.01,0.06,-0.11,0.0
56.92376500,56923765,2,-0.35000000000000003,0.66,83.79,0.08981461077928543,-0.04311612620949745,0.030893517658114433,-0.040579766035079956,0.0,0.0,0.1495276689529419,-0.01,0.06,-0.11,0.0
57.02371800,57023718,2,-0.35000000000000003,0.66,83.79,0.08190613240003586,-0.040465421974658966,0.02805440127849579,-0.1013377457857132,0.0,0.0,0.1370536834001541,-0.01,0.06,-0.11,0.0
57.12374000,57123740,2,-0.35000000000000003,0.66,83.78,0.07409706711769104,-0.03635135293006897,0.025956425815820694,-0.18819239735603333,0.0,0.0,0.11908717453479767,-0.01,0.06,-0.11,0.0
57.22368000,57223680,2,-0.36,0.67,83.78,0.06840316206216812,-0.03492062911391258,0.022627178579568863,-0.26016679406166077,0.0,0.0,0.09489358961582184,-0.01,0.06,-0.11,0.0
57.32368000,57323680,2,-0.36,0.67,83.78,0.06716229766607285,-0.035971932113170624,0.01927579753100872,-0.2585355341434479,0.0,0.0,0.07398166507482529,-0.01,0.06,-0.11,0.0
57.42368400,57423684,2,-0.36,0.66,83.79,0.06644097715616226,-0.036498211324214935,0.018806038424372673,-0.14865480363368988,0.0,0.0,0.06308282911777496,-0.01,0.06,-0.11,0.0
57.52371500,57523715,2,-0.37,0.66,83.8,0.06701091676950455,-0.03646720573306084,0.017023801803588867,-0.07604304701089859,0.0,0.0,0.05377691611647606,-0.01,0.06,-0.11,0.0
57.62374100,57623741,2,-0.36,0.67,83.79,0.06862027943134308,-0.038554269820451736,0.016852693632245064,-0.053397297859191895,0.0,0.0,0.04669751226902008,-0.01,0.06,-0.11,0.0
57.72374100,57723741,2,-0.37,0.67,83.79,0.07044120132923126,-0.03993917629122734,0.01582617312669754,-0.0394928939640522,0.0,0.0,0.04099848493933678,-0.01,0.06,-0.11,0.0
57.82376900,57823769,2,-0.37,0.67,83.8,0.07413722574710846,-0.04053264856338501,0.01669730618596077,0.025512350723147392,0.0,0.0,0.044020507484674454,-0.01,0.06,-0.11,0.0
57.92370800,57923708,2,-0.37,0.67,83.79,0.07672648131847382,-0.042978014796972275,0.017867358401417732,0.07660195231437683,0.0,0.0,0.04856949299573898,-0.01,0.06,-0.11,0.0
58.02373800,58023738,2,-0.37,0.67,83.8,0.07954438775777817,-0.04441481828689575,0.01891193725168705,0.047701604664325714,0.0,0.0,0.04971561208367348,-0.01,0.06,-0.11,0.0
58.12369200,58123692,2,-0.38,0.67,83.81,0.08139196038246155,-0.04523243382573128,0.01872950792312622,-0.009552055969834328,0.0,0.0,0.0471610389649868,-0.01,0.06,-0.11,0.0
58.22368000,58223680,2,-0.38,0.67,83.8,0.08251238614320755,-0.04755708947777748,0.018454143777489662,-0.040183816105127335,0.0,0.0,0.04405277594923973,-0.01,0.06,-0.1,0.0
58.32368000,58323680,2,-0.38,0.68,83.81,0.08592864125967026,-0.048757728189229965,0.0194630678743124,-0.024642856791615486,0.0,0.0,0.04325639829039574,-0.01,0.06,-0.1,0.0
58.42370600,58423706,2,-0.38,0.67,83.81,0.08740436285734177,-0.04847947135567665,0.018484897911548615,-0.0203437227755785,0.0,0.0,0.04092876985669136,-0.01,0.06,-0.1,0.0
58.52374400,58523744,2,-0.38,0.67,83.79,0.08982840925455093,-0.051298853009939194,0.01853426918387413,-0.02800360694527626,0.0,0.0,0.0384146012365818,-0.01,0.06,-0.1,0.0
58.62372100,58623721,2,-0.38,0.67,83.79,0.09139911085367203,-0.05227004364132881,0.01972469501197338,0.0038057444617152214,0.0,0.0,0.040034081786870956,-0.01,0.06,-0.1,0.0
58.72377000,58723770,2,-0.38,0.67,83.79,0.09096059948205948,-0.05295789986848831,0.019340693950653076,0.03066180646419525,0.0,0.0,0.0423143170773983,-0.01,0.06,-0.1,0.0
58.82371300,58823713,2,-0.38,0.67,83.78,0.09167327731847763,-0.055888041853904724,0.020408300682902336,0.026569150388240814,0.0,0.0,0.043852049857378006,-0.01,0.06,-0.1,0.0
58.92373800,58923738,2,-0.37,0.67,83.78,0.09139945358037949,-0.05475146323442459,0.020480100065469742,0.0080695366486907,0.0,0.0,0.04402781277894974,-0.01,0.06,-0.1,0.0
59.02368900,59023689,2,-0.37,0.66,83.77,0.09184230864048004,-0.054656777530908585,0.019993381574749947,-0.00933848787099123,0.0,0.0,0.04329511523246765,-0.01,0.06,-0.1,0.0
59.12368400,59123684,2,-0.36,0.66,83.76,0.08998711407184601,-0.055272411555051804,0.018967702984809875,-0.03581497073173523,0.0,0.0,0.03983568027615547,-0.01,0.06,-0.1,0.0
59.22368000,59223680,2,-0.36,0.66,83.76,0.08852650225162506,-0.05379614233970642,0.018322749063372612,-0.05699100345373154,0.0,0.0,0.035231467336416245,-0.01,0.06,-0.1,0.0
59.32369800,59323698,2,-0.35000000000000003,0.66,83.77,0.08643940091133118,-0.052879296243190765,0.01833544299006462,-0.0424659289419651,0.0,0.0,0.032361287623643875,-0.02,0.06,-0.1,0.0
59.42374700,59423747,2,-0.34,0.66,83.76,0.08332247287034988,-0.05336919054389,0.01905960962176323,-0.011368472129106522,0.0,0.0,0.03166481852531433,-0.02,0.06,-0.1,0.0
59.52373100,59523731,2,-0.34,0.65,83.76,0.08111734688282013,-0.052436213940382004,0.020381761714816093,-0.0012681498192250729,0.0,0.0,0.03075704723596573,-0.02,0.06,-0.1,0.0
59.62376000,59623760,2,-0.33,0.64,83.76,0.07680952548980713,-0.05193439871072769,0.020826376974582672,0.002935991156846285,0.0,0.0,0.030821673572063446,-0.02,0.06,-0.1,0.0
59.72371300,59723713,2,-0.33,0.64,83.76,0.07346920669078827,-0.05249693617224693,0.022159669548273087,0.020212098956108093,0.0,0.0,0.032576121389865875,-0.02,0.06,-0.1,0.0
59.82374400,59823744,2,-0.32,0.64,83.76,0.07016115635633469,-0.0507495142519474,0.023124035447835922,0.02233748883008957,0.0,0.0,0.033889587968587875,-0.02,0.06,-0.1,0.0
59.92368500,59923685,2,-0.31,0.64,83.76,0.06618686020374298,-0.04913419485092163,0.023041756823658943,0.008318544365465641,0.0,0.0,0.03429953753948212,-0.02,0.06,-0.1,0.0
60.02368500,60023685,2,-0.3,0.63,83.76,0.06305990368127823,-0.04834378883242607,0.022811993956565857,0.01659524068236351,0.0,0.0,0.03655487671494484,-0.02,0.06,-0.1,0.0
60.12368600,60123686,2,-0.29,0.63,83.76,0.05950027331709862,-0.04585584998130798,0.02262837439775467,0.010932711884379387,0.0,0.0,0.036633528769016266,-0.02,0.06,-0.1,0.0
60.22368000,60223680,2,-0.28,0.62,83.76,0.05624261498451233,-0.044430095702409744,0.022761721163988113,-0.017945099622011185,0.0,0.0,0.03495704010128975,-0.02,0.06,-0.1,0.0
60.32374500,60323745,2,-0.27,0.62,83.76,0.053097471594810486,-0.044220488518476486,0.02327946200966835,-0.018251800909638405,0.0,0.0,0.03409351408481598,-0.02,0.06,-0.1,0.0
60.42372500,60423725,2,-0.26,0.62,83.75,0.04968773573637009,-0.04151046276092529,0.0232152808457613,-0.02406180649995804,0.0,0.0,0.0316297709941864,-0.02,0.06,-0.09,0.0
60.52376400,60523764,2,-0.26,0.61,83.75,0.04716683179140091,-0.04024698957800865,0.023196451365947723,-0.04995189607143402,0.0,0.0,0.026808707043528557,-0.02,0.06,-0.09,0.0
60.62370900,60623709,2,-0.26,0.62,83.74,0.04425133392214775,-0.039040446281433105,0.024317527189850807,-0.05006001889705658,0.0,0.0,0.023255053907632828,-0.02,0.06,-0.09,0.0
60.72374200,60723742,2,-0.25,0.61,83.74,0.041803449392318726,-0.03690788149833679,0.024487964808940887,-0.028182245790958405,0.0,0.0,0.021062221378087997,-0.02,0.06,-0.09,0.0
60.82368700,60823687,2,-0.26,0.6,83.73,0.0396479032933712,-0.03620711341500282,0.02375904470682144,-0.03375931829214096,0.0,0.0,0.017125599086284637,-0.02,0.06,-0.09,0.0
60.92368000,60923680,2,-0.25,0.6,83.72,0.03784012049436569,-0.034996792674064636,0.022504430264234543,-0.07321995496749878,0.0,0.0,0.009416983462870121,-0.02,0.06,-0.09,0.0
61.02368300,61023683,2,-0.25,0.6,83.72,0.037411127239465714,-0.033411797136068344,0.021131720393896103,-0.0951092317700386,0.0,0.0,0.001505168154835701,-0.02,0.06,-0.09,0.0
61.12369500,61123695,2,-0.25,0.6,83.72,0.03571459278464317,-0.032738301903009415,0.01939302682876587,-0.08170294761657715,0.0,0.0,-0.0052705686539411545,-0.02,0.06,-0.09,0.0
61.22373400,61223734,2,-0.24,0.59,83.71000000000001,0.03451313078403473,-0.030956821516156197,0.017382556572556496,-0.0838143453001976,0.0,0.0,-0.013601605780422688,-0.02,0.06,-0.09,0.0
61.32372400,61323724,2,-0.24,0.59,83.7,0.032929979264736176,-0.029179135337471962,0.016621040180325508,-0.08356383442878723,0.0,0.0,-0.021081432700157166,-0.02,0.06,-0.09,0.0
61.42376800,61423768,2,-0.23,0.58,83.7,0.03196614980697632,-0.028864925727248192,0.016974518075585365,-0.05136888101696968,0.0,0.0,-0.025518374517560005,-0.02,0.06,-0.09,0.0
61.52371200,61523712,2,-0.22,0.58,83.7,0.030899999663233757,-0.027916686609387398,0.015513897873461246,-0.04964107275009155,0.0,0.0,-0.03179507702589035,-0.02,0.06,-0.09,0.0
61.62373500,61623735,2,-0.23,0.58,83.7,0.03045211173593998,-0.026051027700304985,0.014566147699952126,-0.06749224662780762,0.0,0.0,-0.03845808282494545,-0.02,0.06,-0.09,0.0
61.72369000,61723690,2,-0.23,0.5700000000000001,83.7,0.029381221160292625,-0.02515403926372528,0.014328083023428917,-0.04922693595290184,0.0,0.0,-0.04269077628850937,-0.02,0.07,-0.09,0.0
61.82368400,61823684,2,-0.23,0.58,83.7,0.028139369562268257,-0.025066856294870377,0.014801462180912495,-0.014450530521571636,0.0,0.0,-0.04406068101525307,-0.02,0.07,-0.09,0.0
61.92368000,61923680,2,-0.23,0.5700000000000001,83.71000000000001,0.027131233364343643,-0.023571515455842018,0.015181109309196472,-0.0025390316732227802,0.0,0.0,-0.045698996633291245,-0.02,0.07,-0.09,0.0
62.02371100,62023711,2,-0.23,0.56,83.71000000000001,0.027759011834859848,-0.0229363813996315,0.014307556673884392,-0.02552112005650997,0.0,0.0,-0.04932863265275955,-0.02,0.07,-0.09,0.0
62.12375100,62123751,2,-0.23,0.56,83.71000000000001,0.027818823233246803,-0.021523235365748405,0.014176818542182446,-0.04647495970129967,0.0,0.0,-0.0538882352411747,-0.02,0.07,-0.09,0.0
62.22373100,62223731,2,-0.23,0.56,83.71000000000001,0.027507418766617775,-0.02013656124472618,0.013124085031449795,-0.06674950569868088,0.0,0.0,-0.06041785329580307,-0.02,0.07,-0.09,0.0
62.32376800,62323768,2,-0.23,0.5700000000000001,83.71000000000001,0.027413707226514816,-0.018955234438180923,0.012238244526088238,-0.07036682963371277,0.0,0.0,-0.06611170619726181,-0.02,0.07,-0.09,0.0
62.42371600,62423716,2,-0.23,0.5700000000000001,83.71000000000001,0.027710722759366035,-0.01829552836716175,0.011395610868930817,-0.05245445296168327,0.0,0.0,-0.0707443505525589,-0.02,0.07,-0.09,0.0
62.52373900,62523739,2,-0.23,0.56,83.7,0.028795070946216583,-0.01780918426811695,0.011416513472795486,-0.03817225247621536,0.0,0.0,-0.07438583672046661,-0.02,0.07,-0.09,0.0
62.62368400,62623684,2,-0.24,0.56,83.69,0.028403619304299355,-0.016644256189465523,0.011526048183441162,-0.02736399881541729,0.0,0.0,-0.07744824141263962,-0.02,0.07,-0.09,0.0
62.72368300,62723683,2,-0.24,0.56,83.69,0.028150413185358047,-0.016200564801692963,0.010957203805446625,-0.031797923147678375,0.0,0.0,-0.08120442181825638,-0.02,0.07,-0.09,0.0
62.82369100,62823691,2,-0.24,0.56,83.68,0.027623319998383522,-0.01525157317519188,0.011429240927100182,-0.0564141720533371,0.0,0.0,-0.08748652786016464,-0.02,0.07,-0.09,0.0
62.92370800,62923708,2,-0.24,0.56,83.68,0.02838643081486225,-0.014467337168753147,0.010604869574308395,-0.07371529191732407,0.0,0.0,-0.0939144566655159,-0.02,0.07,-0.09,0.0
63.02374500,63023745,2,-0.24,0.56,83.68,0.029310042038559914,-0.012984230183064938,0.009505991823971272,-0.06412553787231445,0.0,0.0,-0.09941041469573975,-0.02,0.07,-0.09,0.0
63.12372400,63123724,2,-0.24,0.56,83.69,0.029641970992088318,-0.012872735038399696,0.00842429418116808,-0.05302424356341362,0.0,0.0,-0.10434208065271378,-0.03,0.07,-0.09,0.0
63.22377000,63223770,2,-0.24,0.56,83.69,0.029787134379148483,-0.013180707581341267,0.0077638099901378155,-0.04464789107441902,0.0,0.0,-0.10880603641271591,-0.03,0.07,-0.09,0.0
63.32371200,63323712,2,-0.25,0.56,83.69,0.029416033998131752,-0.013222572393715382,0.008204769343137741,-0.02650756575167179,0.0,0.0,-0.11127180606126785,-0.03,0.07,-0.09,0.0
63.42374500,63423745,2,-0.25,0.55,83.69,0.02963836118578911,-0.01368975080549717,0.0073935240507125854,-0.020023804157972336,0.0,0.0,-0.1142023429274559,-0.03,0.07,-0.08,0.0
63.52368800,63523688,2,-0.25,0.55,83.69,0.030743369832634926,-0.014146114699542522,0.006485953461378813,-0.02395423874258995,0.0,0.0,-0.11670921742916107,-0.03,0.07,-0.08,0.0
63.62369200,63623692,2,-0.25,0.56,83.68,0.03138752281665802,-0.013528112322092056,0.005552847869694233,-0.021407010033726692,0.0,0.0,-0.11909263581037521,-0.03,0.07,-0.08,0.0
63.72369100,63723691,2,-0.25,0.56,83.68,0.03267050161957741,-0.012801471166312695,0.004307551309466362,-0.03755636885762215,0.0,0.0,-0.12331028282642365,-0.03,0.07,-0.08,0.0
63.82372900,63823729,2,-0.25,0.55,83.68,0.03326939418911934,-0.012747831642627716,0.003249596571549773,-0.05147511884570122,0.0,0.0,-0.1279560625553131,-0.03,0.07,-0.08,0.0
63.92375100,63923751,2,-0.25,0.55,83.67,0.03380391746759415,-0.012822840362787247,0.0029766473453491926,-0.03209488466382027,0.0,0.0,-0.13011179864406586,-0.03,0.07,-0.08,0.0
64.02373000,64023730,2,-0.25,0.55,83.67,0.03363225609064102,-0.01203741692006588,0.002070403890684247,-0.016394104808568954,0.0,0.0,-0.13225768506526947,-0.03,0.07,-0.08,0.0
64.12377000,64123770,2,-0.25,0.56,83.67,0.03484316170215607,-0.011689720675349236,0.002182738622650504,0.00681967381387949,0.0,0.0,-0.13097991049289703,-0.03,0.07,-0.08,0.0
64.22370900,64223709,2,-0.24,0.56,83.67,0.03647494316101074,-0.011658345349133015,0.0028926702216267586,0.028704620897769928,0.0,0.0,-0.12963895499706268,-0.03,0.07,-0.08,0.0
64.32373600,64323736,2,-0.24,0.56,83.67,0.036217838525772095,-0.012584442272782326,0.0039040602277964354,0.01644478552043438,0.0,0.0,-0.1289251148700714,-0.03,0.07,-0.08,0.0
64.42369200,64423692,2,-0.25,0.56,83.66,0.03620459884405136,-0.01260072086006403,0.003827818902209401,0.0006975740543566644,0.0,0.0,-0.1295163780450821,-0.03,0.07,-0.08,0.0
64.52368900,64523689,2,-0.25,0.56,83.66,0.036303553730249405,-0.013095117174088955,0.0044359187595546246,-0.01617702655494213,0.0,0.0,-0.1309710592031479,-0.03,0.07,-0.08,0.0
64.62369100,64623691,2,-0.25,0.56,83.66,0.03702656552195549,-0.013880385085940361,0.0061694602482020855,-0.0035331901162862778,0.0,0.0,-0.13037171959877014,-0.03,0.07,-0.08,0.0
64.72369200,64723692,2,-0.25,0.56,83.66,0.03709252551198006,-0.01380960550159216,0.0069592976942658424,-0.005495178978890181,0.0,0.0,-0.13176459074020386,-0.03,0.07,-0.08,0.0
64.82375600,64823756,2,-0.25,0.56,83.65,0.037280626595020294,-0.013914478942751884,0.006349834613502026,-0.043183229863643646,0.0,0.0,-0.13619032502174377,-0.03,0.07,-0.08,0.0
64.92372600,64923726,2,-0.25,0.55,83.65,0.037812791764736176,-0.013586677610874176,0.005419488530606031,-0.05971653386950493,0.0,0.0,-0.140882670879364,-0.03,0.07,-0.08,0.0
65.02378300,65023783,2,-0.25,0.54,83.64,0.03836444765329361,-0.012688711285591125,0.004909480921924114,-0.05701282247900963,0.0,0.0,-0.14566247165203094,-0.03,0.07,-0.08,0.0
65.12371500,65123715,2,-0.26,0.54,83.64,0.03902920335531235,-0.012082932516932487,0.004278417676687241,-0.05152663588523865,0.0,0.0,-0.15007133781909943,-0.03,0.07,-0.08,0.0
65.22374200,65223742,2,-0.26,0.54,83.65,0.04018267244100571,-0.010988719761371613,0.003050596918910742,-0.030890941619873047,0.0,0.0,-0.15238742530345917,-0.03,0.07,-0.08,0.0
65.32369600,65323696,2,-0.26,0.54,83.64,0.04077494144439697,-0.010435114614665508,0.0037474273703992367,-0.008055652491748333,0.0,0.0,-0.15361341834068298,-0.03,0.07,-0.08,0.0
65.42369400,65423694,2,-0.25,0.55,83.64,0.04108087345957756,-0.010642667300999165,0.0038835816085338593,-0.01114074420183897,0.0,0.0,-0.1556919813156128,-0.03,0.07,-0.08,0.0
65.52369000,65523690,2,-0.26,0.55,83.64,0.04101358726620674,-0.01034459751099348,0.0035233325324952602,-0.030575478449463844,0.0,0.0,-0.1592392474412918,-0.03,0.07,-0.08,0.0
65.62372400,65623724,2,-0.26,0.55,83.63,0.042217087000608444,-0.01057919766753912,0.003095649415627122,-0.031974200159311295,0.0,0.0,-0.1617121547460556,-0.03,0.07,-0.08,0.0
65.72374200,65723742,2,-0.26,0.55,83.63,0.04223758727312088,-0.010895373299717903,0.0033242101781070232,-0.017896609380841255,0.0,0.0,-0.16336695849895477,-0.03,0.07,-0.08,0.0
65.82372500,65823725,2,-0.26,0.56,83.63,0.04121879115700722,-0.011006595566868782,0.0037730284966528416,-0.014221850782632828,0.0,0.0,-0.16503357887268066,-0.03,0.07,-0.08,0.0
65.92376200,65923762,2,-0.27,0.56,83.62,0.04120969772338867,-0.011241202242672443,0.0028704404830932617,-0.012550034560263157,0.0,0.0,-0.1663130670785904,-0.03,0.07,-0.08,0.0
66.02371100,66023711,2,-0.26,0.5700000000000001,83.62,0.04087001830339432,-0.01227759663015604,0.0018141258042305708,-0.02605055272579193,0.0,0.0,-0.1695908010005951,-0.03,0.07,-0.08,0.0
66.12374300,66123743,2,-0.26,0.56,83.61,0.04189511388540268,-0.012564283795654774,0.0003300937241874635,-0.061829619109630585,0.0,0.0,-0.17583869397640228,-0.03,0.07,-0.08,0.0
66.22368400,66223684,2,-0.26,0.56,83.62,0.04204940050840378,-0.012963981367647648,-0.0012447574408724904,-0.07742802053689957,0.0,0.0,-0.18219804763793945,-0.03,0.07,-0.08,0.0
66.32368100,66323681,2,-0.26,0.5700000000000001,83.62,0.0431002639234066,-0.012589667923748493,-0.0026298093143850565,-0.05240904167294502,0.0,0.0,-0.185889333486557,-0.03,0.07,-0.08,0.0
66.42368700,66423687,2,-0.27,0.5700000000000001,83.62,0.044943470507860184,-0.01173454336822033,-0.004761775955557823,-0.0454476922750473,0.0,0.0,-0.1912916600704193,-0.03,0.07,-0.07,0.0
66.52371100,66523711,2,-0.26,0.56,83.62,0.04543325677514076,-0.011393046006560326,-0.006567048840224743,-0.0657530277967453,0.0,0.0,-0.19769035279750824,-0.03,0.07,-0.07,0.0
66.62375200,66623752,2,-0.26,0.5700000000000001,83.61,0.04611922800540924,-0.011531773023307323,-0.0073594702407717705,-0.0697220042347908,0.0,0.0,-0.20422877371311188,-0.03,0.07,-0.07,0.0
66.72373700,66723737,2,-0.26,0.5700000000000001,83.60000000000001,0.04719328507781029,-0.011918785981833935,-0.008936862461268902,-0.05736188217997551,0.0,0.0,-0.2091296911239624,-0.03,0.07,-0.07,0.0
66.82376500,66823765,2,-0.26,0.5700000000000001,83.59,0.04733046144247055,-0.013053065165877342,-0.010354730300605297,-0.042048197239637375,0.0,0.0,-0.2133295089006424,-0.03,0.07,-0.07,0.0
66.92370800,66923708,2,-0.26,0.5700000000000001,83.58,0.04796621948480606,-0.01303961593657732,-0.010682855732738972,-0.019268715754151344,0.0,0.0,-0.21508462727069855,-0.03,0.07,-0.07,0.0
67.02373700,67023737,2,-0.27,0.5700000000000001,83.57000000000001,0.048544641584157944,-0.013799872249364853,-0.010608280077576637,-0.01693280041217804,0.0,0.0,-0.2181517779827118,-0.03,0.07,-0.07,0.0
67.12368800,67123688,2,-0.27,0.5700000000000001,83.56,0.048637595027685165,-0.014647160656750202,-0.010012107901275158,-0.03371283411979675,0.0,0.0,-0.22212299704551697,-0.03,0.07,-0.07,0.0
67.22368000,67223680,2,-0.27,0.56,83.55,0.04840748757123947,-0.014984927140176296,-0.010014441795647144,-0.030768029391765594,0.0,0.0,-0.2247568964958191,-0.03,0.07,-0.07,0.0
67.32368200,67323682,2,-0.26,0.58,83.55,0.049632467329502106,-0.015923384577035904,-0.0091733168810606,-0.0333978608250618,0.0,0.0,-0.2286718785762787,-0.03,0.07,-0.07,0.0
67.42371100,67423711,2,-0.27,0.58,83.55,0.049779243767261505,-0.016484716907143593,-0.008853081613779068,-0.027946192771196365,0.0,0.0,-0.23081539571285248,-0.03,0.07,-0.07,0.0
67.52375900,67523759,2,-0.26,0.58,83.54,0.05001884698867798,-0.01731208898127079,-0.00918279867619276,-0.01182985957711935,0.0,0.0,-0.2320324182510376,-0.03,0.07,-0.07,0.0
67.62372000,67623720,2,-0.26,0.58,83.54,0.049700777977705,-0.017756517976522446,-0.008898705244064331,-0.018912186846137047,0.0,0.0,-0.23473834991455078,-0.03,0.07,-0.07,0.0
67.72376400,67723764,2,-0.26,0.59,83.54,0.05035410448908806,-0.018778957426548004,-0.007082229945808649,0.007267926353961229,0.0,0.0,-0.23289459943771362,-0.03,0.07,-0.07,0.0
67.82371700,67823717,2,-0.26,0.59,83.54,0.05092453584074974,-0.019201967865228653,-0.0062534864991903305,0.028214259073138237,0.0,0.0,-0.23134271800518036,-0.03,0.07,-0.07,0.0
67.92373500,67923735,2,-0.26,0.58,83.53,0.05138343572616577,-0.020543115213513374,-0.005763367749750614,0.011900079436600208,0.0,0.0,-0.2312718778848648,-0.03,0.07,-0.07,0.0
68.02368700,68023687,2,-0.26,0.58,83.53,0.05112147331237793,-0.021283108741044998,-0.006223840173333883,-0.0214321780949831,0.0,0.0,-0.23412451148033142,-0.03,0.07,-0.07,0.0
68.12368500,68123685,2,-0.26,0.58,83.53,0.05075700581073761,-0.02131984569132328,-0.006748965475708246,-0.04764606058597565,0.0,0.0,-0.23819932341575623,-0.03,0.07,-0.07,0.0
68.22367900,68223679,2,-0.27,0.59,83.53,0.05101779103279114,-0.023292185738682747,-0.006865753326565027,-0.05190059542655945,0.0,0.0,-0.24232500791549683,-0.03,0.07,-0.07,0.0
68.32369600,68323696,2,-0.26,0.59,83.52,0.05030909553170204,-0.02436387538909912,-0.007689806632697582,-0.05282187834382057,0.0,0.0,-0.24696755409240723,-0.03,0.07,-0.07,0.0
68.42375300,68423753,2,-0.27,0.6,83.52,0.05062128230929375,-0.024345634505152702,-0.007623420562595129,-0.03501448035240173,0.0,0.0,-0.24942146241664886,-0.03,0.07,-0.07,0.0
68.52372800,68523728,2,-0.26,0.6,83.5,0.05114874616265297,-0.024577932432293892,-0.007298440206795931,-0.0034373877570033073,0.0,0.0,-0.2495691031217575,-0.03,0.07,-0.07,0.0
68.62378000,68623780,2,-0.27,0.59,83.49,0.0511283315718174,-0.025680381804704666,-0.006626777816563845,-0.0014189468929544091,0.0,0.0,-0.2510761618614197,-0.03,0.07,-0.07,0.0
68.72371500,68723715,2,-0.27,0.6,83.49,0.049969181418418884,-0.02624836377799511,-0.007057626266032457,-0.0348295159637928,0.0,0.0,-0.2555917501449585,-0.03,0.07,-0.07,0.0
68.82374300,68823743,2,-0.26,0.59,83.48,0.04992389306426048,-0.026760606095194817,-0.00773776276037097,-0.07119806855916977,0.0,0.0,-0.26249581575393677,-0.03,0.07,-0.07,0.0
68.92368600,68923686,2,-0.26,0.59,83.48,0.049447283148765564,-0.02728172391653061,-0.009342708624899387,-0.07721850275993347,0.0,0.0,-0.26860514283180237,-0.03,0.07,-0.07,0.0
69.02367900,69023679,2,-0.27,0.59,83.49,0.049348875880241394,-0.027702858671545982,-0.01001790165901184,-0.07488600164651871,0.0,0.0,-0.2756282389163971,-0.03,0.07,-0.07,0.0
69.12368700,69123687,2,-0.28,0.59,83.49,0.049559056758880615,-0.027804171666502953,-0.010453647002577782,-0.07850567251443863,0.0,0.0,-0.2829477787017822,-0.03,0.07,-0.07,0.0
69.22371700,69223717,2,-0.28,0.59,83.49,0.04977056384086609,-0.02815396711230278,-0.010973449796438217,-0.06982902437448502,0.0,0.0,-0.2891932725906372,-0.03,0.07,-0.07,0.0
69.32374400,69323744,2,-0.27,0.6,83.49,0.04919606074690819,-0.029649842530488968,-0.011345460079610348,-0.0490284226834774,0.0,0.0,-0.29367199540138245,-0.03,0.07,-0.06,0.0
69.42372500,69423725,2,-0.27,0.6,83.49,0.04811060428619385,-0.03075922466814518,-0.011461971327662468,-0.04097875952720642,0.0,0.0,-0.2984160780906677,-0.03,0.07,-0.06,0.0
69.52377800,69523778,2,-0.27,0.6,83.49,0.04827312007546425,-0.03171859309077263,-0.010857736691832542,-0.030626101419329643,0.0,0.0,-0.3014375567436218,-0.03,0.07,-0.06,0.0
69.62370800,69623708,2,-0.27,0.61,83.48,0.048436664044857025,-0.03192123770713806,-0.010784202255308628,0.0029128033202141523,0.0,0.0,-0.30095186829566956,-0.03,0.07,-0.06,0.0
69.72374300,69723743,2,-0.27,0.62,83.48,0.04799652472138405,-0.03202764317393303,-0.01039835624396801,0.02636028453707695,0.0,0.0,-0.2995351552963257,-0.03,0.07,-0.06,0.0
69.82368700,69823687,2,-0.26,0.62,83.47,0.04775625839829445,-0.032590601593256,-0.010347915813326836,0.01811283268034458,0.0,0.0,-0.2992323338985443,-0.03,0.07,-0.06,0.0
69.92367900,69923679,2,-0.26,0.62,83.46000000000001,0.04724740982055664,-0.033439405262470245,-0.009045342914760113,-0.015833942219614983,0.0,0.0,-0.3022579848766327,-0.03,0.07,-0.06,0.0
70.02368000,70023680,2,-0.26,0.62,83.46000000000001,0.04642462357878685,-0.033999234437942505,-0.007249323185533285,-0.011466488242149353,0.0,0.0,-0.30169621109962463,-0.03,0.07,-0.06,0.0
70.12371800,70123718,2,-0.26,0.62,83.45,0.04578637331724167,-0.034443169832229614,-0.00533314049243927,0.022222746163606644,0.0,0.0,-0.29942333698272705,-0.03,0.07,-0.06,0.0
70.22373100,70223731,2,-0.26,0.63,83.45,0.04529454931616783,-0.03493058681488037,-0.0051478431560099125,0.009637989103794098,0.0,0.0,-0.299981027841568,-0.03,0.07,-0.06,0.0
70.32372100,70323721,2,-0.26,0.62,83.45,0.0449921078979969,-0.035640016198158264,-0.004137975629419088,-0.012784822843968868,0.0,0.0,-0.3011557161808014,-0.03,0.07,-0.06,0.0
70.42377000,70423770,2,-0.27,0.62,83.45,0.04383225366473198,-0.036041196435689926,-0.003415609011426568,-0.03444742411375046,0.0,0.0,-0.30448755621910095,-0.04,0.07,-0.06,0.0
70.52370800,70523708,2,-0.27,0.61,83.44,0.043141935020685196,-0.03706773743033409,-0.002423584461212158,-0.04971221089363098,0.0,0.0,-0.30852213501930237,-0.04,0.07,-0.06,0.0
70.62373500,70623735,2,-0.26,0.62,83.45,0.042291007936000824,-0.03691285848617554,-0.0021267244592309,-0.029745278880000114,0.0,0.0,-0.31023216247558594,-0.04,0.07,-0.06,0.0
70.72368700,70723687,2,-0.27,0.62,83.45,0.039331480860710144,-0.03516092523932457,-0.0018608567770570517,-0.004403256345540285,0.0,0.0,-0.3106536567211151,-0.04,0.07,-0.06,0.0
70.82368400,70823684,2,-0.26,0.59,83.49,0.04308559000492096,-0.03845500573515892,-0.0012232342269271612,-0.007818544283509254,0.0,0.0,-0.3122189939022064,-0.04,0.07,-0.06,0.0
70.92368000,70923680,2,-0.26,0.61,83.42,0.04277677834033966,-0.04525509104132652,-0.0002577242848929018,0.0018755358178168535,0.0,0.0,-0.31174492835998535,-0.04,0.07,-0.06,0.0
71.02371200,71023712,2,-0.26,0.62,83.4,0.04025011137127876,-0.03764846920967102,0.002793584717437625,0.031907305121421814,0.0,0.0,-0.30896881222724915,-0.04,0.07,-0.06,0.0
71.12375200,71123752,2,-0.25,0.6,83.45,0.04175431281328201,-0.03851582482457161,0.005209998693317175,0.02778608910739422,0.0,0.0,-0.307569295167923,-0.04,0.07,-0.06,0.0
71.22372900,71223729,2,-0.27,0.61,83.4,0.039713237434625626,-0.04716837778687477,0.005049140192568302,-0.00999362301081419,0.0,0.0,-0.30923977494239807,-0.04,0.07,-0.06,0.0
71.32376300,71323763,2,-0.26,0.62,83.36,0.03965391591191292,-0.037714894860982895,0.0071459063328802586,-0.0012078338768333197,0.0,0.0,-0.30787715315818787,-0.04,0.07,-0.06,0.0
71.42371700,71423717,2,-0.26,0.61,83.41,0.040546663105487823,-0.0397699810564518,0.007662694901227951,0.03246769681572914,0.0,0.0,-0.3046952784061432,-0.04,0.07,-0.06,0.0
71.52374000,71523740,2,-0.26,0.61,83.36,0.039191968739032745,-0.04497212916612625,0.009159843437373638,0.02672768570482731,0.0,0.0,-0.30312469601631165,-0.04,0.07,-0.06,0.0
71.62368700,71623687,2,-0.27,0.62,83.31,0.0399002805352211,-0.03949571028351784,0.009617547504603863,-0.016227371990680695,0.0,0.0,-0.3056023120880127,-0.04,0.07,-0.06,0.0
71.72368300,71723683,2,-0.27,0.61,83.36,0.038956038653850555,-0.042101673781871796,0.009181972593069077,-0.06729227304458618,0.0,0.0,-0.311605840921402,-0.04,0.07,-0.06,0.0
71.82368800,71823688,2,-0.27,0.62,83.33,0.04070422798395157,-0.045010361820459366,0.007330779917538166,-0.08578486740589142,0.0,0.0,-0.3183050751686096,-0.04,0.07,-0.06,0.0
